Time	 MagX	 MagY	 MagZ	 AccelX	 AccelY	 AccelZ	 Yaw	 Pitch	 Roll	 Temperature	 Pressure	 Altitude
16284	 -0.303	 -0.123	  0.279	  0.126	 -0.021	 -9.840	 -0.003	  0.001	  0.001	 34.200	 98.924	 -99999.000
16334	 -0.302	 -0.121	  0.277	  0.134	 -0.021	 -9.802	 -0.004	  0.003	  0.001	 34.200	 98.951	 -99999.000
16384	 -0.303	 -0.117	  0.279	  0.126	 -0.013	 -9.804	 -0.003	  0.003	  0.002	 34.200	 98.936	 -99999.000
16434	 -0.305	 -0.122	  0.276	  0.145	 -0.010	 -9.819	 -0.005	  0.000	  0.001	 34.200	 98.924	 -99999.000
16484	 -0.306	 -0.107	  0.282	  0.126	 -0.014	 -9.837	 -0.003	  0.002	 -0.000	 34.200	 98.936	 -99999.000
16534	 -0.304	 -0.121	  0.276	  0.144	 -0.026	 -9.846	 -0.003	  0.003	 -0.001	 34.200	 98.936	 -99999.000
16584	 -0.304	 -0.122	  0.278	  0.137	 -0.020	 -9.826	 -0.005	  0.003	  0.000	 34.200	 98.936	 -99999.000
16634	 -0.303	 -0.123	  0.279	  0.141	 -0.007	 -9.816	 -0.004	  0.001	  0.001	 34.200	 98.936	 -99999.000
16684	 -0.302	 -0.120	  0.281	  0.154	  0.015	 -9.819	 -0.004	  0.001	  0.001	 34.200	 98.940	 -99999.000
16734	 -0.302	 -0.123	  0.278	  0.119	 -0.007	 -9.786	 -0.004	  0.004	  0.002	 34.200	 98.928	 -99999.000
16784	 -0.303	 -0.124	  0.280	  0.147	 -0.017	 -9.824	 -0.003	  0.003	  0.001	 34.200	 98.940	 -99999.000
16834	 -0.304	 -0.107	  0.281	  0.108	 -0.033	 -9.834	 -0.004	  0.002	  0.000	 34.200	 98.936	 -99999.000
16884	 -0.303	 -0.122	  0.281	  0.137	 -0.017	 -9.796	 -0.004	  0.003	  0.001	 34.200	 98.940	 -99999.000
16934	 -0.302	 -0.121	  0.279	  0.146	 -0.013	 -9.830	 -0.004	  0.002	  0.001	 34.200	 98.936	 -99999.000
16984	 -0.305	 -0.115	  0.281	  0.126	 -0.026	 -9.809	 -0.004	  0.002	 -0.000	 34.200	 98.924	 -99999.000
17034	 -0.302	 -0.124	  0.281	  0.122	 -0.018	 -9.835	 -0.004	  0.001	  0.001	 34.200	 98.924	 -99999.000
17084	 -0.303	 -0.120	  0.274	  0.134	  0.013	 -9.825	 -0.003	  0.002	  0.001	 34.200	 98.940	 -99999.000
17134	 -0.301	 -0.122	  0.281	  0.128	 -0.046	 -9.829	 -0.004	  0.002	  0.000	 34.200	 98.928	 -99999.000
17184	 -0.302	 -0.122	  0.277	  0.129	 -0.024	 -9.831	 -0.004	  0.002	 -0.000	 34.200	 98.940	 -99999.000
17234	 -0.306	 -0.109	  0.281	  0.113	  0.014	 -9.818	 -0.004	  0.002	  0.001	 34.200	 98.928	 -99999.000
17284	 -0.302	 -0.121	  0.281	  0.134	  0.004	 -9.780	 -0.004	  0.002	  0.000	 34.200	 98.936	 -99999.000
17334	 -0.307	 -0.126	  0.282	  0.121	 -0.004	 -9.817	 -0.004	  0.001	 -0.001	 34.200	 98.928	 -99999.000
17384	 -0.302	 -0.119	  0.279	  0.142	 -0.012	 -9.805	 -0.004	  0.001	  0.001	 34.200	 98.928	 -99999.000
17434	 -0.304	 -0.118	  0.276	  0.139	  0.003	 -9.813	 -0.004	  0.002	 -0.000	 34.200	 98.940	 -99999.000
17484	 -0.302	 -0.123	  0.279	  0.132	 -0.015	 -9.862	 -0.005	  0.002	  0.001	 34.200	 98.936	 -99999.000
17534	 -0.303	 -0.122	  0.282	  0.126	  0.008	 -9.840	 -0.004	  0.002	  0.000	 34.200	 98.940	 -99999.000
17584	 -0.301	 -0.117	  0.279	  0.124	  0.009	 -9.856	 -0.004	  0.003	  0.000	 34.200	 98.936	 -99999.000
17634	 -0.302	 -0.112	  0.278	  0.134	  0.006	 -9.822	 -0.003	  0.003	  0.001	 34.200	 98.928	 -99999.000
17684	 -0.301	 -0.121	  0.282	  0.112	  0.001	 -9.779	 -0.004	  0.003	  0.001	 34.200	 98.924	 -99999.000
17734	 -0.304	 -0.122	  0.282	  0.134	  0.009	 -9.799	 -0.004	  0.001	  0.001	 34.200	 98.924	 -99999.000
17784	 -0.302	 -0.121	  0.270	  0.112	 -0.036	 -9.823	 -0.004	  0.002	  0.000	 34.200	 98.924	 -99999.000
17834	 -0.304	 -0.125	  0.278	  0.098	 -0.015	 -9.815	 -0.003	  0.001	  0.001	 34.200	 98.924	 -99999.000
17884	 -0.301	 -0.123	  0.277	  0.127	 -0.014	 -9.869	 -0.004	  0.002	  0.000	 34.200	 98.936	 -99999.000
17934	 -0.303	 -0.126	  0.281	  0.135	 -0.002	 -9.834	 -0.003	  0.002	  0.001	 34.200	 98.924	 -99999.000
17984	 -0.302	 -0.124	  0.278	  0.144	 -0.002	 -9.794	 -0.003	  0.001	  0.001	 34.200	 98.936	 -99999.000
18034	 -0.303	 -0.119	  0.279	  0.123	 -0.017	 -9.819	 -0.003	  0.003	  0.001	 34.200	 98.940	 -99999.000
18084	 -0.303	 -0.120	  0.271	  0.113	 -0.016	 -9.845	 -0.004	  0.003	  0.001	 34.200	 98.928	 -99999.000
18134	 -0.303	 -0.123	  0.279	  0.140	 -0.011	 -9.811	 -0.004	  0.001	  0.001	 34.200	 98.936	 -99999.000
18184	 -0.304	 -0.121	  0.279	  0.119	 -0.009	 -9.860	 -0.004	  0.002	  0.002	 34.200	 98.936	 -99999.000
18234	 -0.302	 -0.126	  0.281	  0.144	 -0.001	 -9.861	 -0.003	  0.001	  0.000	 34.200	 98.928	 -99999.000
18284	 -0.301	 -0.123	  0.278	  0.120	 -0.002	 -9.854	 -0.004	  0.002	  0.002	 34.200	 98.940	 -99999.000
18334	 -0.305	 -0.117	  0.280	  0.149	  0.002	 -9.821	 -0.003	  0.001	  0.001	 34.200	 98.924	 -99999.000
18384	 -0.303	 -0.126	  0.279	  0.125	 -0.004	 -9.770	 -0.003	  0.001	  0.001	 34.200	 98.924	 -99999.000
18434	 -0.304	 -0.122	  0.280	  0.138	 -0.009	 -9.830	 -0.004	  0.000	  0.001	 34.200	 98.924	 -99999.000
18484	 -0.302	 -0.123	  0.282	  0.139	 -0.016	 -9.809	 -0.003	  0.002	  0.000	 34.200	 98.928	 -99999.000
18534	 -0.304	 -0.122	  0.276	  0.135	 -0.011	 -9.845	 -0.004	  0.001	  0.001	 34.200	 98.924	 -99999.000
18584	 -0.302	 -0.126	  0.281	  0.101	 -0.024	 -9.824	 -0.003	  0.002	  0.000	 34.200	 98.936	 -99999.000
18634	 -0.304	 -0.122	  0.274	  0.154	 -0.002	 -9.821	 -0.004	  0.002	  0.001	 34.200	 98.936	 -99999.000
18684	 -0.304	 -0.124	  0.275	  0.130	 -0.010	 -9.833	 -0.003	  0.002	  0.000	 34.200	 98.924	 -99999.000
18734	 -0.302	 -0.126	  0.277	  0.143	 -0.029	 -9.813	 -0.003	  0.003	 -0.001	 34.200	 98.936	 -99999.000
18784	 -0.302	 -0.124	  0.277	  0.127	  0.011	 -9.817	 -0.003	  0.002	 -0.001	 34.200	 98.940	 -99999.000
18834	 -0.301	 -0.127	  0.279	  0.153	 -0.010	 -9.793	 -0.003	  0.002	 -0.000	 34.200	 98.924	 -99999.000
18884	 -0.302	 -0.124	  0.279	  0.108	 -0.002	 -9.833	 -0.003	  0.003	  0.001	 34.200	 98.940	 -99999.000
18934	 -0.303	 -0.123	  0.280	  0.140	  0.000	 -9.844	 -0.004	  0.002	  0.001	 34.200	 98.936	 -99999.000
18984	 -0.301	 -0.124	  0.281	  0.132	 -0.005	 -9.801	 -0.005	  0.003	  0.001	 34.200	 98.940	 -99999.000
19034	 -0.302	 -0.122	  0.277	  0.105	 -0.014	 -9.826	 -0.004	  0.003	  0.001	 34.200	 98.936	 -99999.000
19084	 -0.302	 -0.122	  0.278	  0.142	 -0.010	 -9.800	 -0.003	  0.002	  0.000	 34.200	 98.924	 -99999.000
19134	 -0.302	 -0.120	  0.279	  0.063	 -0.292	 -9.796	 -0.001	  0.001	  0.000	 34.200	 98.928	 -99999.000
19184	 -0.303	 -0.122	  0.283	  0.210	  0.010	 -9.745	 -0.002	  0.001	  0.002	 34.200	 98.936	 -99999.000
19234	 -0.304	 -0.125	  0.281	  0.115	 -0.054	 -9.851	 -0.003	  0.001	  0.004	 34.200	 98.936	 -99999.000
19284	 -0.300	 -0.120	  0.279	  0.141	  0.050	 -9.817	 -0.003	  0.002	 -0.000	 34.200	 98.940	 -99999.000
19334	 -0.302	 -0.121	  0.275	  0.152	 -0.014	 -9.836	 -0.004	  0.002	  0.000	 34.200	 98.936	 -99999.000
19384	 -0.302	 -0.123	  0.280	  0.107	 -0.061	 -9.806	 -0.004	  0.001	  0.001	 34.200	 98.936	 -99999.000
19433	 -0.303	 -0.117	  0.282	  0.154	 -0.040	 -9.840	 -0.004	  0.002	  0.002	 34.200	 98.940	 -99999.000
19483	 -0.303	 -0.111	  0.283	  0.098	  0.005	 -9.857	 -0.003	  0.002	  0.001	 34.200	 98.924	 -99999.000
19533	 -0.304	 -0.124	  0.279	  0.137	  0.017	 -9.815	 -0.004	  0.001	  0.001	 34.200	 98.924	 -99999.000
19584	 -0.304	 -0.123	  0.279	  0.166	  0.079	 -9.860	 -0.006	  0.002	 -0.001	 34.200	 98.936	 -99999.000
19634	 -0.302	 -0.121	  0.272	  0.156	 -0.045	 -9.897	 -0.005	  0.002	 -0.000	 34.200	 98.928	 -99999.000
19684	 -0.304	 -0.109	  0.282	  0.097	 -0.015	 -9.852	 -0.004	  0.001	 -0.000	 34.200	 98.933	 -99999.000
19734	 -0.304	 -0.128	  0.280	  0.114	 -0.093	 -9.794	 -0.003	  0.002	  0.001	 34.200	 98.928	 -99999.000
19784	 -0.304	 -0.116	  0.280	  0.114	  0.032	 -9.796	 -0.003	  0.003	  0.002	 34.200	 98.924	 -99999.000
19833	 -0.306	 -0.121	  0.280	  0.153	 -0.034	 -9.825	 -0.004	  0.002	  0.002	 34.200	 98.936	 -99999.000
19883	 -0.303	 -0.121	  0.279	  0.157	  0.044	 -9.830	 -0.003	  0.003	  0.000	 34.200	 98.928	 -99999.000
19933	 -0.303	 -0.121	  0.281	  0.134	  0.016	 -9.820	 -0.003	  0.001	 -0.000	 34.200	 98.936	 -99999.000
19983	 -0.301	 -0.118	  0.281	  0.125	  0.010	 -9.811	 -0.004	  0.002	  0.000	 34.200	 98.928	 -99999.000
20034	 -0.302	 -0.119	  0.281	  0.117	  0.002	 -9.788	 -0.003	  0.002	  0.001	 34.200	 98.924	 -99999.000
20084	 -0.303	 -0.119	  0.280	  0.137	  0.001	 -9.802	 -0.003	  0.002	  0.001	 34.200	 98.924	 -99999.000
20134	 -0.303	 -0.118	  0.279	  0.119	  0.013	 -9.813	 -0.003	  0.002	  0.000	 34.200	 98.936	 -99999.000
20184	 -0.304	 -0.122	  0.278	  0.146	 -0.016	 -9.822	 -0.004	  0.003	  0.001	 34.200	 98.928	 -99999.000
20233	 -0.302	 -0.124	  0.279	  0.132	 -0.019	 -9.853	 -0.003	  0.003	  0.000	 34.200	 98.940	 -99999.000
20285	 -0.304	 -0.122	  0.281	  0.116	 -0.035	 -9.827	 -0.003	  0.002	  0.000	 34.200	 98.940	 -99999.000
20334	 -0.304	 -0.120	  0.286	  0.133	  0.003	 -9.820	 -0.004	  0.004	  0.000	 34.200	 98.924	 -99999.000
20383	 -0.304	 -0.117	  0.281	  0.143	 -0.024	 -9.786	 -0.004	  0.003	  0.000	 34.200	 98.928	 -99999.000
20433	 -0.305	 -0.125	  0.275	  0.128	 -0.009	 -9.810	 -0.003	  0.002	  0.000	 34.200	 98.936	 -99999.000
20483	 -0.303	 -0.113	  0.279	  0.112	 -0.013	 -9.795	 -0.003	  0.000	 -0.000	 34.200	 98.936	 -99999.000
20534	 -0.304	 -0.112	  0.280	  0.108	  0.011	 -9.797	 -0.004	  0.003	  0.000	 34.200	 98.940	 -99999.000
20585	 -0.301	 -0.126	  0.284	  0.123	  0.006	 -9.839	 -0.004	  0.002	  0.001	 34.200	 98.940	 -99999.000
20635	 -0.305	 -0.123	  0.278	  0.130	 -0.027	 -9.864	 -0.004	  0.003	  0.000	 34.200	 98.936	 -99999.000
20685	 -0.301	 -0.125	  0.277	  0.123	 -0.026	 -9.790	 -0.004	  0.002	  0.001	 34.200	 98.936	 -99999.000
20735	 -0.305	 -0.122	  0.280	  0.130	  0.013	 -9.854	 -0.003	  0.003	  0.000	 34.200	 98.940	 -99999.000
20785	 -0.301	 -0.119	  0.279	  0.105	  0.001	 -9.822	 -0.003	  0.002	  0.001	 34.200	 98.940	 -99999.000
20835	 -0.304	 -0.125	  0.282	  0.113	 -0.018	 -9.829	 -0.003	  0.003	 -0.001	 34.200	 98.928	 -99999.000
20885	 -0.302	 -0.105	  0.281	  0.116	 -0.016	 -9.803	 -0.004	  0.003	  0.001	 34.200	 98.940	 -99999.000
20935	 -0.305	 -0.122	  0.279	  0.130	 -0.019	 -9.867	 -0.004	  0.003	  0.001	 34.200	 98.940	 -99999.000
20985	 -0.301	 -0.123	  0.281	  0.130	 -0.018	 -9.804	 -0.003	  0.002	  0.000	 34.200	 98.928	 -99999.000
21035	 -0.302	 -0.125	  0.274	  0.141	 -0.024	 -9.808	 -0.004	  0.002	  0.001	 34.200	 98.936	 -99999.000
21085	 -0.302	 -0.120	  0.272	  0.130	 -0.012	 -9.834	 -0.003	  0.002	  0.001	 34.200	 98.940	 -99999.000
21135	 -0.303	 -0.123	  0.279	  0.124	  0.033	 -9.820	 -0.003	  0.002	  0.001	 34.200	 98.940	 -99999.000
21185	 -0.303	 -0.108	  0.281	  0.105	 -0.019	 -9.818	 -0.003	  0.001	  0.001	 34.200	 98.940	 -99999.000
21235	 -0.305	 -0.121	  0.278	  0.131	 -0.023	 -9.796	 -0.004	  0.003	  0.000	 34.200	 98.928	 -99999.000
21285	 -0.304	 -0.123	  0.274	  0.128	 -0.039	 -9.816	 -0.004	  0.002	  0.000	 34.200	 98.936	 -99999.000
21335	 -0.304	 -0.120	  0.280	  0.098	  0.005	 -9.838	 -0.005	  0.002	  0.001	 34.200	 98.936	 -99999.000
21385	 -0.303	 -0.121	  0.281	  0.138	 -0.009	 -9.849	 -0.004	  0.002	  0.001	 34.200	 98.928	 -99999.000
21435	 -0.304	 -0.122	  0.278	  0.100	  0.010	 -9.802	 -0.002	  0.003	 -0.000	 34.200	 98.940	 -99999.000
21485	 -0.304	 -0.120	  0.279	  0.130	 -0.005	 -9.812	 -0.004	  0.003	  0.001	 34.200	 98.940	 -99999.000
21535	 -0.304	 -0.121	  0.282	  0.135	  0.007	 -9.830	 -0.004	  0.002	  0.000	 34.200	 98.928	 -99999.000
21585	 -0.301	 -0.125	  0.280	  0.143	  0.019	 -9.845	 -0.003	  0.001	  0.001	 34.200	 98.940	 -99999.000
21635	 -0.304	 -0.122	  0.275	  0.117	 -0.037	 -9.815	 -0.003	  0.003	  0.001	 34.200	 98.940	 -99999.000
21685	 -0.303	 -0.120	  0.277	  0.126	  0.006	 -9.835	 -0.004	  0.003	  0.001	 34.200	 98.940	 -99999.000
21735	 -0.304	 -0.122	  0.279	  0.099	 -0.028	 -9.844	 -0.002	  0.002	  0.001	 34.200	 98.940	 -99999.000
21785	 -0.302	 -0.125	  0.274	  0.120	 -0.006	 -9.872	 -0.005	  0.002	  0.001	 34.200	 98.940	 -99999.000
21835	 -0.304	 -0.125	  0.273	  0.143	  0.006	 -9.796	 -0.003	  0.003	  0.000	 34.200	 98.940	 -99999.000
21885	 -0.302	 -0.123	  0.282	  0.153	 -0.015	 -9.858	 -0.004	  0.002	 -0.000	 34.200	 98.928	 -99999.000
21935	 -0.303	 -0.125	  0.281	  0.130	  0.001	 -9.811	 -0.004	  0.003	 -0.000	 34.200	 98.940	 -99999.000
21985	 -0.305	 -0.124	  0.282	  0.146	 -0.033	 -9.800	 -0.003	  0.002	  0.002	 34.200	 98.940	 -99999.000
22035	 -0.302	 -0.124	  0.280	  0.139	 -0.027	 -9.872	 -0.004	  0.003	  0.001	 34.200	 98.940	 -99999.000
22085	 -0.304	 -0.117	  0.280	  0.141	 -0.022	 -9.809	 -0.004	  0.002	  0.001	 34.200	 98.928	 -99999.000
22135	 -0.302	 -0.125	  0.283	  0.122	 -0.021	 -9.776	 -0.003	  0.003	  0.001	 34.200	 98.928	 -99999.000
22185	 -0.305	 -0.124	  0.271	  0.135	 -0.005	 -9.830	 -0.003	  0.001	  0.000	 34.200	 98.928	 -99999.000
22235	 -0.304	 -0.126	  0.281	  0.122	 -0.000	 -9.826	 -0.004	  0.003	  0.000	 34.200	 98.928	 -99999.000
55647	 -0.303	 -0.117	  0.281	  0.134	 -0.008	 -9.825	 -0.004	  0.002	  0.000	 34.300	 98.944	 -0.887
55697	 -0.302	 -0.125	  0.281	  0.143	 -0.023	 -9.811	 -0.003	  0.004	  0.001	 34.300	 98.933	  0.111
55747	 -0.302	 -0.123	  0.277	  0.140	 -0.002	 -9.840	 -0.004	  0.002	  0.001	 34.300	 98.933	  0.111
55797	 -0.302	 -0.119	  0.280	  0.121	 -0.016	 -9.830	 -0.003	  0.002	 -0.000	 34.300	 98.948	 -1.250
55847	 -0.302	 -0.123	  0.278	  0.126	 -0.004	 -9.813	 -0.004	  0.003	  0.000	 34.300	 98.955	 -1.886
55897	 -0.303	 -0.117	  0.280	  0.119	  0.018	 -9.796	 -0.004	  0.002	  0.001	 34.300	 98.933	  0.111
55947	 -0.304	 -0.127	  0.278	  0.114	 -0.013	 -9.783	 -0.004	  0.003	 -0.000	 34.300	 98.944	 -0.887
55997	 -0.303	 -0.122	  0.280	  0.110	  0.006	 -9.806	 -0.003	  0.003	  0.000	 34.200	 98.928	  0.564
56047	 -0.303	 -0.120	  0.281	  0.143	 -0.014	 -9.804	 -0.004	  0.002	 -0.000	 34.300	 98.948	 -1.250
56097	 -0.301	 -0.120	  0.284	  0.154	 -0.005	 -9.835	 -0.004	  0.003	  0.001	 34.300	 98.944	 -0.887
56147	 -0.301	 -0.121	  0.280	  0.142	 -0.020	 -9.831	 -0.004	  0.003	  0.001	 34.300	 98.933	  0.111
56197	 -0.303	 -0.120	  0.280	  0.132	 -0.025	 -9.826	 -0.003	  0.001	  0.000	 34.300	 98.933	  0.111
56247	 -0.303	 -0.121	  0.281	  0.134	 -0.005	 -9.831	 -0.003	  0.001	  0.000	 34.300	 98.944	 -0.887
56297	 -0.302	 -0.119	  0.279	  0.121	 -0.026	 -9.830	 -0.004	  0.001	  0.001	 34.200	 98.944	 -0.887
56347	 -0.304	 -0.126	  0.279	  0.160	  0.000	 -9.828	 -0.004	  0.001	  0.000	 34.300	 98.944	 -0.887
56397	 -0.306	 -0.120	  0.278	  0.115	  0.002	 -9.830	 -0.002	  0.003	  0.000	 34.300	 98.948	 -1.250
56447	 -0.303	 -0.126	  0.282	  0.124	 -0.002	 -9.861	 -0.003	  0.001	  0.002	 34.300	 98.944	 -0.887
56497	 -0.301	 -0.122	  0.281	  0.122	 -0.021	 -9.816	 -0.004	  0.003	 -0.000	 34.300	 98.933	  0.111
56547	 -0.302	 -0.121	  0.282	  0.123	 -0.005	 -9.807	 -0.003	  0.002	  0.001	 34.300	 98.921	  1.200
56597	 -0.303	 -0.125	  0.281	  0.108	  0.004	 -9.799	 -0.004	  0.002	  0.000	 34.300	 98.933	  0.111
56647	 -0.304	 -0.119	  0.278	  0.138	 -0.014	 -9.855	 -0.004	  0.002	 -0.000	 34.300	 98.948	 -1.250
56697	 -0.304	 -0.121	  0.277	  0.124	 -0.024	 -9.834	 -0.005	  0.002	  0.001	 34.300	 98.933	  0.111
56747	 -0.300	 -0.120	  0.279	  0.155	 -0.005	 -9.876	 -0.004	  0.003	 -0.001	 34.300	 98.944	 -0.887
56797	 -0.304	 -0.124	  0.285	  0.129	 -0.024	 -9.810	 -0.004	  0.001	  0.001	 34.300	 98.933	  0.111
56847	 -0.303	 -0.124	  0.279	  0.124	  0.005	 -9.839	 -0.003	  0.002	  0.000	 34.300	 98.944	 -0.887
56897	 -0.302	 -0.119	  0.278	  0.124	 -0.010	 -9.790	 -0.003	  0.003	  0.001	 34.300	 98.933	  0.111
56947	 -0.302	 -0.125	  0.279	  0.141	  0.017	 -9.817	 -0.003	  0.001	 -0.000	 34.300	 98.933	  0.111
56997	 -0.303	 -0.122	  0.279	  0.139	 -0.004	 -9.833	 -0.003	  0.002	  0.002	 34.300	 98.948	 -1.250
57047	 -0.307	 -0.121	  0.279	  0.128	  0.013	 -9.820	 -0.005	  0.003	  0.000	 34.300	 98.933	  0.111
57097	 -0.301	 -0.126	  0.281	  0.131	 -0.006	 -9.787	 -0.002	  0.003	 -0.000	 34.300	 98.933	  0.111
57147	 -0.302	 -0.118	  0.281	  0.122	 -0.017	 -9.796	 -0.003	  0.003	  0.001	 34.300	 98.933	  0.111
57197	 -0.301	 -0.121	  0.281	  0.133	 -0.028	 -9.837	 -0.004	  0.003	 -0.000	 34.300	 98.937	 -0.252
57247	 -0.302	 -0.122	  0.280	  0.151	 -0.022	 -9.833	 -0.005	  0.002	  0.002	 34.300	 98.933	  0.111
57297	 -0.303	 -0.120	  0.285	  0.141	  0.002	 -9.791	 -0.003	  0.001	  0.001	 34.300	 98.921	  1.200
57347	 -0.303	 -0.117	  0.280	  0.118	  0.004	 -9.802	 -0.003	  0.003	  0.000	 34.300	 98.933	  0.111
57397	 -0.302	 -0.120	  0.282	  0.142	 -0.000	 -9.842	 -0.004	  0.002	  0.001	 34.300	 98.933	  0.111
57448	 -0.301	 -0.122	  0.278	  0.130	 -0.023	 -9.819	 -0.004	  0.003	  0.002	 34.300	 98.921	  1.200
57497	 -0.305	 -0.123	  0.280	  0.137	 -0.010	 -9.843	 -0.003	  0.001	  0.001	 34.300	 98.937	 -0.252
57547	 -0.303	 -0.124	  0.281	  0.127	  0.007	 -9.805	 -0.003	  0.001	  0.001	 34.300	 98.948	 -1.250
57597	 -0.302	 -0.124	  0.282	  0.137	  0.003	 -9.806	 -0.003	  0.004	  0.002	 34.300	 98.933	  0.111
57647	 -0.302	 -0.118	  0.277	  0.146	 -0.016	 -9.803	 -0.003	  0.002	  0.001	 34.300	 98.937	 -0.252
57698	 -0.300	 -0.120	  0.279	  0.133	  0.008	 -9.801	 -0.004	  0.002	  0.001	 34.300	 98.937	 -0.252
57748	 -0.304	 -0.119	  0.279	  0.145	 -0.004	 -9.813	 -0.003	  0.003	  0.001	 34.300	 98.944	 -0.887
57797	 -0.304	 -0.123	  0.282	  0.105	 -0.003	 -9.852	 -0.004	  0.001	 -0.000	 34.300	 98.921	  1.200
57847	 -0.302	 -0.125	  0.281	  0.156	 -0.027	 -9.828	 -0.003	  0.002	  0.000	 34.300	 98.933	  0.111
57897	 -0.301	 -0.127	  0.279	  0.111	 -0.009	 -9.802	 -0.003	  0.003	  0.000	 34.300	 98.933	  0.111
57947	 -0.302	 -0.120	  0.271	  0.110	 -0.008	 -9.837	 -0.004	  0.002	  0.000	 34.300	 98.937	 -0.252
57997	 -0.304	 -0.109	  0.282	  0.138	  0.006	 -9.854	 -0.004	  0.003	 -0.000	 34.300	 98.937	 -0.252
58047	 -0.303	 -0.123	  0.282	  0.135	  0.003	 -9.801	 -0.004	  0.001	  0.001	 34.300	 98.944	 -0.887
58097	 -0.302	 -0.123	  0.278	  0.147	 -0.014	 -9.807	 -0.004	  0.002	 -0.000	 34.300	 98.944	 -0.887
58147	 -0.303	 -0.124	  0.279	  0.139	  0.016	 -9.797	 -0.004	  0.001	  0.001	 34.300	 98.937	 -0.252
58198	 -0.305	 -0.111	  0.282	  0.128	  0.018	 -9.808	 -0.004	  0.001	  0.000	 34.300	 98.944	 -0.887
58248	 -0.302	 -0.121	  0.280	  0.161	 -0.003	 -9.787	 -0.004	  0.001	  0.000	 34.200	 98.944	 -0.887
58298	 -0.303	 -0.125	  0.281	  0.113	  0.007	 -9.822	 -0.003	  0.002	  0.002	 34.300	 98.937	 -0.252
58348	 -0.301	 -0.120	  0.280	  0.127	 -0.018	 -9.828	 -0.003	  0.002	  0.000	 34.300	 98.933	  0.111
58398	 -0.303	 -0.122	  0.281	  0.109	  0.030	 -9.839	 -0.003	  0.002	  0.000	 34.300	 98.933	  0.111
58448	 -0.304	 -0.123	  0.275	  0.135	  0.001	 -9.831	 -0.003	  0.003	  0.002	 34.200	 98.933	  0.111
58498	 -0.304	 -0.121	  0.281	  0.125	 -0.013	 -9.841	 -0.003	  0.003	  0.001	 34.300	 98.933	  0.111
58548	 -0.303	 -0.123	  0.280	  0.145	 -0.013	 -9.835	 -0.004	  0.002	  0.002	 34.300	 98.948	 -1.250
58598	 -0.302	 -0.124	  0.271	  0.096	 -0.004	 -9.798	 -0.004	  0.002	  0.000	 34.300	 98.933	  0.111
58648	 -0.303	 -0.122	  0.280	  0.128	 -0.001	 -9.797	 -0.005	  0.003	  0.000	 34.300	 98.944	 -0.887
58698	 -0.301	 -0.122	  0.286	  0.110	 -0.017	 -9.817	 -0.003	  0.002	  0.001	 34.300	 98.933	  0.111
58748	 -0.303	 -0.117	  0.279	  0.122	  0.009	 -9.804	 -0.004	  0.002	  0.001	 34.300	 98.944	 -0.887
58798	 -0.304	 -0.122	  0.282	  0.141	  0.007	 -9.803	 -0.003	  0.002	 -0.000	 34.300	 98.937	 -0.252
58848	 -0.303	 -0.121	  0.281	  0.150	 -0.018	 -9.831	 -0.003	  0.002	  0.001	 34.300	 98.937	 -0.252
58898	 -0.305	 -0.122	  0.280	  0.135	 -0.018	 -9.814	 -0.004	  0.002	  0.001	 34.300	 98.937	 -0.252
58948	 -0.300	 -0.121	  0.280	  0.125	 -0.008	 -9.804	 -0.003	  0.002	  0.000	 34.300	 98.937	 -0.252
58999	 -0.301	 -0.122	  0.279	  0.141	  0.013	 -9.802	 -0.003	  0.003	  0.001	 34.300	 98.921	  1.200
59048	 -0.302	 -0.125	  0.281	  0.132	 -0.026	 -9.797	 -0.004	  0.004	  0.001	 34.300	 98.937	 -0.252
59099	 -0.303	 -0.124	  0.280	  0.137	  0.008	 -9.811	 -0.004	  0.003	  0.001	 34.300	 98.933	  0.111
59148	 -0.303	 -0.124	  0.277	  0.141	 -0.001	 -9.781	 -0.003	  0.003	  0.002	 34.300	 98.948	 -1.250
59198	 -0.302	 -0.123	  0.279	  0.150	 -0.005	 -9.832	 -0.003	  0.001	  0.000	 34.300	 98.933	  0.111
59249	 -0.302	 -0.113	  0.280	  0.137	 -0.014	 -9.838	 -0.003	  0.002	 -0.001	 34.300	 98.944	 -0.887
59298	 -0.304	 -0.126	  0.278	  0.107	  0.019	 -9.799	 -0.004	  0.002	  0.000	 34.300	 98.933	  0.111
59349	 -0.302	 -0.120	  0.274	  0.126	 -0.012	 -9.817	 -0.004	  0.002	  0.001	 34.300	 98.933	  0.111
59399	 -0.303	 -0.122	  0.280	  0.127	  0.001	 -9.846	 -0.003	  0.003	  0.001	 34.300	 98.937	 -0.252
59449	 -0.302	 -0.122	  0.278	  0.143	 -0.049	 -9.837	 -0.004	  0.001	  0.001	 34.300	 98.937	 -0.252
59499	 -0.301	 -0.125	  0.282	  0.127	 -0.019	 -9.839	 -0.002	  0.002	  0.001	 34.300	 98.937	 -0.252
59549	 -0.302	 -0.120	  0.278	  0.120	 -0.011	 -9.825	 -0.004	  0.002	  0.001	 34.300	 98.948	 -1.250
59599	 -0.303	 -0.121	  0.277	  0.128	 -0.020	 -9.856	 -0.004	  0.002	  0.001	 34.300	 98.937	 -0.252
59649	 -0.303	 -0.123	  0.282	  0.120	 -0.042	 -9.818	 -0.005	  0.003	  0.000	 34.300	 98.937	 -0.252
59699	 -0.304	 -0.123	  0.281	  0.151	 -0.012	 -9.813	 -0.004	  0.000	  0.001	 34.300	 98.933	  0.111
59749	 -0.303	 -0.123	  0.283	  0.133	 -0.063	 -9.798	 -0.005	  0.002	  0.001	 34.300	 98.933	  0.111
59799	 -0.301	 -0.119	  0.277	  0.138	  0.034	 -9.846	 -0.002	  0.002	 -0.000	 34.300	 98.948	 -1.250
59849	 -0.304	 -0.118	  0.280	  0.142	 -0.018	 -9.794	 -0.003	  0.002	  0.000	 34.300	 98.937	 -0.252
59899	 -0.305	 -0.125	  0.282	  0.152	 -0.013	 -9.836	 -0.004	  0.002	  0.001	 34.300	 98.937	 -0.252
59949	 -0.303	 -0.122	  0.279	  0.108	 -0.005	 -9.803	 -0.003	  0.001	  0.000	 34.300	 98.933	  0.111
59999	 -0.303	 -0.123	  0.280	  0.162	  0.022	 -9.736	 -0.004	  0.003	  0.001	 34.300	 98.937	 -0.252
60049	 -0.303	 -0.122	  0.281	  0.084	  0.015	 -9.791	 -0.003	  0.003	  0.001	 34.300	 98.933	  0.111
60099	 -0.305	 -0.120	  0.279	  0.160	 -0.010	 -9.815	 -0.004	  0.002	 -0.000	 34.300	 98.937	 -0.252
60149	 -0.304	 -0.123	  0.281	  0.137	 -0.010	 -9.841	 -0.004	  0.003	  0.001	 34.300	 98.937	 -0.252
60199	 -0.304	 -0.122	  0.277	  0.145	 -0.002	 -9.851	 -0.003	  0.002	  0.001	 34.300	 98.937	 -0.252
60249	 -0.305	 -0.123	  0.283	  0.138	  0.013	 -9.852	 -0.003	  0.002	 -0.000	 34.300	 98.948	 -1.250
60299	 -0.301	 -0.120	  0.274	  0.128	 -0.026	 -9.792	 -0.003	  0.002	 -0.000	 34.300	 98.944	 -0.887
60349	 -0.303	 -0.120	  0.273	  0.127	 -0.031	 -9.803	 -0.003	  0.003	  0.000	 34.300	 98.948	 -1.250
60399	 -0.302	 -0.125	  0.276	  0.101	  0.010	 -9.825	 -0.004	  0.003	  0.000	 34.300	 98.948	 -1.250
60449	 -0.303	 -0.123	  0.275	  0.161	  0.003	 -9.829	 -0.003	  0.001	 -0.000	 34.300	 98.944	 -0.887
60499	 -0.301	 -0.127	  0.276	  0.101	  0.014	 -9.872	 -0.003	  0.003	  0.001	 34.300	 98.944	 -0.887
60550	 -0.303	 -0.121	  0.282	  0.139	 -0.014	 -9.831	 -0.004	  0.001	  0.001	 34.300	 98.933	  0.111
60600	 -0.303	 -0.121	  0.277	  0.107	  0.004	 -9.820	 -0.003	  0.002	  0.000	 34.300	 98.933	  0.111
60650	 -0.303	 -0.122	  0.281	  0.129	 -0.020	 -9.837	 -0.004	  0.001	  0.000	 34.300	 98.937	 -0.252
60700	 -0.303	 -0.122	  0.275	  0.142	 -0.003	 -9.831	 -0.004	  0.002	  0.000	 34.300	 98.948	 -1.250
60750	 -0.305	 -0.120	  0.279	  0.162	  0.003	 -9.864	 -0.003	  0.002	 -0.001	 34.300	 98.933	  0.111
60800	 -0.305	 -0.120	  0.281	  0.120	  0.007	 -9.835	 -0.003	  0.002	  0.000	 34.300	 98.937	 -0.252
60850	 -0.303	 -0.122	  0.283	  0.144	  0.023	 -9.792	 -0.004	  0.002	  0.001	 34.300	 98.937	 -0.252
60900	 -0.304	 -0.111	  0.281	  0.142	  0.024	 -9.798	 -0.003	  0.002	  0.002	 34.300	 98.948	 -1.250
60950	 -0.303	 -0.116	  0.277	  0.159	 -0.029	 -9.831	 -0.003	  0.003	  0.001	 34.300	 98.944	 -0.887
61000	 -0.303	 -0.122	  0.278	  0.129	  0.012	 -9.831	 -0.004	  0.001	  0.001	 34.300	 98.925	  0.836
61050	 -0.305	 -0.115	  0.280	  0.156	 -0.008	 -9.789	 -0.004	  0.004	  0.000	 34.300	 98.925	  0.836
61100	 -0.305	 -0.122	  0.274	  0.131	 -0.007	 -9.815	 -0.003	  0.003	 -0.001	 34.300	 98.933	  0.111
61150	 -0.302	 -0.123	  0.279	  0.174	 -0.037	 -9.826	 -0.004	  0.002	  0.001	 34.300	 98.937	 -0.252
61200	 -0.303	 -0.123	  0.279	  0.125	  0.009	 -9.829	 -0.004	  0.002	  0.001	 34.300	 98.948	 -1.250
61250	 -0.301	 -0.121	  0.281	  0.141	 -0.008	 -9.819	 -0.003	  0.002	  0.001	 34.300	 98.937	 -0.252
61300	 -0.304	 -0.120	  0.280	  0.136	 -0.001	 -9.820	 -0.003	  0.001	  0.001	 34.300	 98.937	 -0.252
61350	 -0.304	 -0.114	  0.279	  0.146	 -0.022	 -9.807	 -0.004	  0.001	 -0.001	 34.300	 98.944	 -0.887
61400	 -0.304	 -0.124	  0.281	  0.136	 -0.010	 -9.847	 -0.004	  0.002	 -0.000	 34.300	 98.944	 -0.887
61450	 -0.304	 -0.120	  0.278	  0.115	 -0.027	 -9.810	 -0.004	  0.002	  0.002	 34.300	 98.933	  0.111
61500	 -0.305	 -0.123	  0.281	  0.140	 -0.012	 -9.836	 -0.005	  0.001	 -0.000	 34.300	 98.944	 -0.887
61550	 -0.303	 -0.122	  0.277	  0.143	  0.002	 -9.822	 -0.004	  0.002	 -0.000	 34.300	 98.937	 -0.252
61600	 -0.302	 -0.125	  0.282	  0.129	 -0.010	 -9.807	 -0.004	  0.002	  0.000	 34.300	 98.937	 -0.252
63576	 -0.303	 -0.126	  0.279	  0.124	 -0.056	 -9.963	 -0.006	  0.002	  0.000	 34.300	 98.925	  1.200
63626	 -0.302	 -0.118	  0.281	  0.163	 -0.050	 -9.845	 -0.005	  0.002	  0.001	 34.300	 98.937	  0.111
63675	 -0.304	 -0.122	  0.280	  0.122	 -0.015	 -9.830	 -0.003	  0.003	  0.001	 34.300	 98.925	  1.200
63725	 -0.303	 -0.125	  0.283	  0.118	 -0.024	 -9.804	 -0.003	  0.001	  0.001	 34.300	 98.948	 -0.888
63775	 -0.301	 -0.117	  0.272	  0.132	  0.017	 -9.830	 -0.004	  0.003	  0.000	 34.300	 98.937	  0.111
63825	 -0.304	 -0.126	  0.281	  0.160	 -0.033	 -9.817	 -0.003	  0.002	  0.000	 34.300	 98.933	  0.474
63875	 -0.304	 -0.121	  0.281	  0.109	 -0.021	 -9.813	 -0.003	  0.002	 -0.001	 34.300	 98.937	  0.111
63925	 -0.304	 -0.121	  0.281	  0.118	 -0.023	 -9.838	 -0.004	  0.003	  0.002	 34.300	 98.948	 -0.888
63975	 -0.303	 -0.126	  0.280	  0.136	 -0.012	 -9.807	 -0.003	  0.002	  0.000	 34.300	 98.937	  0.111
64025	 -0.301	 -0.121	  0.278	  0.128	  0.010	 -9.797	 -0.004	  0.003	 -0.000	 34.300	 98.937	  0.111
64075	 -0.303	 -0.122	  0.277	  0.118	 -0.005	 -9.789	 -0.005	  0.001	  0.000	 34.300	 98.937	  0.111
64125	 -0.304	 -0.125	  0.272	  0.125	  0.005	 -9.834	 -0.004	  0.001	  0.001	 34.300	 98.937	  0.111
64175	 -0.305	 -0.113	  0.282	  0.153	 -0.020	 -9.842	 -0.004	  0.001	  0.002	 34.300	 98.937	  0.111
64226	 -0.305	 -0.125	  0.279	  0.117	 -0.017	 -9.859	 -0.003	  0.002	  0.001	 34.300	 98.933	  0.474
64275	 -0.306	 -0.121	  0.279	  0.125	 -0.021	 -9.799	 -0.004	  0.001	 -0.001	 34.300	 98.944	 -0.525
64326	 -0.302	 -0.122	  0.282	  0.095	 -0.094	 -9.944	 -0.004	  0.001	 -0.000	 34.300	 98.937	  0.111
64376	 -0.301	 -0.120	  0.279	  0.122	  0.005	 -9.824	 -0.001	  0.003	  0.002	 34.300	 98.948	 -0.888
64426	 -0.303	 -0.121	  0.278	  0.168	 -0.016	 -9.841	 -0.003	  0.003	  0.000	 34.300	 98.937	  0.111
64476	 -0.301	 -0.122	  0.279	  0.131	  0.033	 -9.849	 -0.005	  0.004	  0.001	 34.300	 98.937	  0.111
64526	 -0.302	 -0.117	  0.278	  0.136	 -0.022	 -9.789	 -0.003	  0.001	  0.001	 34.300	 98.937	  0.111
64576	 -0.300	 -0.120	  0.278	  0.104	  0.007	 -9.824	 -0.002	  0.002	  0.000	 34.300	 98.937	  0.111
64626	 -0.303	 -0.124	  0.281	  0.105	 -0.019	 -9.783	 -0.004	  0.001	  0.001	 34.300	 98.937	  0.111
64676	 -0.301	 -0.122	  0.281	  0.125	  0.007	 -9.875	 -0.005	  0.002	  0.001	 34.300	 98.937	  0.111
64726	 -0.304	 -0.125	  0.285	  0.131	 -0.041	 -9.814	 -0.004	  0.001	  0.001	 34.300	 98.937	  0.111
64776	 -0.304	 -0.120	  0.278	  0.150	  0.011	 -9.805	 -0.003	  0.001	  0.000	 34.300	 98.937	  0.111
64826	 -0.302	 -0.121	  0.279	  0.104	  0.004	 -9.790	 -0.004	  0.001	  0.002	 34.300	 98.925	  1.200
64876	 -0.304	 -0.120	  0.280	  0.129	 -0.015	 -9.806	 -0.004	  0.002	  0.001	 34.300	 98.937	  0.111
64926	 -0.303	 -0.124	  0.279	  0.130	 -0.018	 -9.809	 -0.003	  0.002	  0.001	 34.300	 98.937	  0.111
64976	 -0.304	 -0.121	  0.281	  0.145	 -0.014	 -9.841	 -0.002	  0.002	  0.000	 34.300	 98.948	 -0.888
65026	 -0.301	 -0.121	  0.277	  0.138	 -0.012	 -9.812	 -0.004	  0.001	  0.001	 34.300	 98.933	  0.474
65076	 -0.304	 -0.126	  0.282	  0.122	 -0.009	 -9.817	 -0.003	  0.002	  0.001	 34.300	 98.937	  0.111
65126	 -0.304	 -0.122	  0.281	  0.134	 -0.004	 -9.827	 -0.004	  0.002	  0.001	 34.300	 98.937	  0.111
65176	 -0.304	 -0.121	  0.281	  0.117	  0.004	 -9.823	 -0.005	  0.001	 -0.001	 34.300	 98.925	  1.200
65226	 -0.303	 -0.121	  0.282	  0.102	 -0.016	 -9.833	 -0.004	  0.002	  0.001	 34.300	 98.937	  0.111
65276	 -0.301	 -0.123	  0.275	  0.125	  0.010	 -9.856	 -0.005	  0.002	 -0.000	 34.300	 98.937	  0.111
65326	 -0.302	 -0.122	  0.278	  0.134	 -0.001	 -9.830	 -0.004	  0.002	  0.001	 34.300	 98.948	 -0.888
65375	 -0.302	 -0.122	  0.280	  0.124	 -0.004	 -9.795	 -0.004	  0.002	  0.002	 34.300	 98.937	  0.111
65426	 -0.303	 -0.124	  0.273	  0.112	 -0.002	 -9.772	 -0.003	  0.002	  0.000	 34.300	 98.937	  0.111
65475	 -0.304	 -0.114	  0.281	  0.121	  0.000	 -9.813	 -0.004	  0.001	  0.000	 34.300	 98.937	  0.111
65526	 -0.301	 -0.122	  0.279	  0.136	  0.000	 -9.841	 -0.003	  0.002	  0.001	 34.300	 98.937	  0.111
65576	 -0.301	 -0.122	  0.282	  0.113	 -0.019	 -9.839	 -0.004	  0.001	  0.001	 34.300	 98.948	 -0.888
65626	 -0.301	 -0.122	  0.282	  0.134	 -0.005	 -9.810	 -0.003	  0.002	 -0.000	 34.300	 98.933	  0.474
65676	 -0.302	 -0.124	  0.281	  0.150	  0.015	 -9.841	 -0.003	  0.002	  0.000	 34.300	 98.937	  0.111
65726	 -0.304	 -0.122	  0.278	  0.133	 -0.005	 -9.838	 -0.003	  0.002	  0.000	 34.300	 98.937	  0.111
65777	 -0.307	 -0.122	  0.276	  0.115	 -0.001	 -9.835	 -0.004	  0.003	  0.001	 34.300	 98.937	  0.111
65827	 -0.304	 -0.123	  0.280	  0.138	 -0.029	 -9.810	 -0.004	  0.002	  0.001	 34.300	 98.937	  0.111
65877	 -0.303	 -0.122	  0.277	  0.126	 -0.012	 -9.826	 -0.002	  0.003	 -0.000	 34.300	 98.925	  1.200
65927	 -0.303	 -0.118	  0.281	  0.134	 -0.007	 -9.826	 -0.004	  0.004	 -0.000	 34.300	 98.944	 -0.525
65977	 -0.302	 -0.125	  0.279	  0.131	 -0.001	 -9.818	 -0.003	  0.002	  0.000	 34.300	 98.937	  0.111
66027	 -0.303	 -0.126	  0.279	  0.135	  0.015	 -9.832	 -0.003	  0.001	  0.001	 34.300	 98.937	  0.111
66077	 -0.302	 -0.124	  0.276	  0.138	 -0.006	 -9.802	 -0.003	  0.002	  0.001	 34.300	 98.937	  0.111
66127	 -0.300	 -0.123	  0.278	  0.114	 -0.021	 -9.832	 -0.003	  0.002	 -0.000	 34.300	 98.937	  0.111
66177	 -0.306	 -0.124	  0.280	  0.143	 -0.028	 -9.826	 -0.003	  0.002	  0.000	 34.300	 98.948	 -0.888
66227	 -0.304	 -0.121	  0.281	  0.139	 -0.012	 -9.824	 -0.003	  0.002	 -0.000	 34.300	 98.937	  0.111
66277	 -0.301	 -0.126	  0.282	  0.138	  0.003	 -9.832	 -0.004	  0.001	  0.000	 34.300	 98.937	  0.111
66327	 -0.306	 -0.122	  0.283	  0.129	  0.003	 -9.840	 -0.004	  0.002	  0.001	 34.300	 98.925	  1.200
66377	 -0.303	 -0.121	  0.278	  0.128	 -0.021	 -9.843	 -0.003	  0.001	  0.001	 34.300	 98.948	 -0.888
66427	 -0.304	 -0.125	  0.275	  0.114	 -0.028	 -9.809	 -0.003	  0.003	  0.001	 34.300	 98.937	  0.111
66477	 -0.304	 -0.125	  0.277	  0.119	 -0.008	 -9.820	 -0.004	  0.002	  0.001	 34.300	 98.937	  0.111
66527	 -0.305	 -0.123	  0.278	  0.124	 -0.009	 -9.812	 -0.004	  0.003	 -0.000	 34.300	 98.925	  1.200
66577	 -0.303	 -0.122	  0.280	  0.139	 -0.005	 -9.844	 -0.004	  0.003	  0.000	 34.300	 98.937	  0.111
66627	 -0.303	 -0.121	  0.280	  0.108	 -0.032	 -9.849	 -0.004	  0.002	  0.001	 34.300	 98.937	  0.111
66677	 -0.303	 -0.119	  0.277	  0.124	 -0.021	 -9.803	 -0.002	  0.001	  0.000	 34.300	 98.948	 -0.888
66727	 -0.304	 -0.123	  0.270	  0.114	 -0.022	 -9.829	 -0.004	  0.002	  0.001	 34.300	 98.933	  0.474
66777	 -0.304	 -0.125	  0.282	  0.115	 -0.020	 -9.844	 -0.003	  0.002	  0.001	 34.300	 98.948	 -0.888
66827	 -0.303	 -0.123	  0.282	  0.126	 -0.036	 -9.797	 -0.004	  0.002	  0.000	 34.300	 98.933	  0.474
66877	 -0.304	 -0.121	  0.279	  0.148	 -0.004	 -9.808	 -0.003	  0.002	  0.001	 34.300	 98.937	  0.111
66927	 -0.303	 -0.125	  0.278	  0.121	 -0.011	 -9.813	 -0.004	  0.001	  0.001	 34.300	 98.944	 -0.525
66977	 -0.304	 -0.124	  0.279	  0.141	 -0.035	 -9.819	 -0.004	  0.002	  0.001	 34.300	 98.944	 -0.525
67027	 -0.303	 -0.126	  0.281	  0.136	 -0.006	 -9.799	 -0.003	  0.002	  0.002	 34.300	 98.933	  0.474
67077	 -0.304	 -0.124	  0.278	  0.134	 -0.009	 -9.834	 -0.002	  0.002	  0.001	 34.300	 98.925	  1.200
67127	 -0.303	 -0.123	  0.282	  0.138	 -0.026	 -9.797	 -0.003	  0.002	  0.000	 34.300	 98.925	  1.200
67177	 -0.301	 -0.121	  0.280	  0.139	 -0.009	 -9.827	 -0.003	  0.003	  0.001	 34.300	 98.937	  0.111
67227	 -0.300	 -0.125	  0.276	  0.099	 -0.012	 -9.826	 -0.004	  0.002	  0.001	 34.300	 98.937	  0.111
67277	 -0.304	 -0.126	  0.281	  0.138	  0.004	 -9.843	 -0.003	  0.003	  0.002	 34.300	 98.937	  0.111
67327	 -0.302	 -0.124	  0.277	  0.122	 -0.004	 -9.806	 -0.004	  0.001	  0.001	 34.300	 98.937	  0.111
67377	 -0.303	 -0.120	  0.273	  0.133	 -0.015	 -9.826	 -0.004	  0.003	  0.000	 34.300	 98.937	  0.111
67427	 -0.303	 -0.122	  0.279	  0.131	  0.005	 -9.795	 -0.004	  0.003	  0.001	 34.300	 98.937	  0.111
67477	 -0.303	 -0.123	  0.281	  0.147	 -0.018	 -9.814	 -0.003	  0.001	  0.000	 34.300	 98.933	  0.474
67527	 -0.301	 -0.124	  0.273	  0.132	 -0.003	 -9.826	 -0.003	  0.001	 -0.000	 34.300	 98.937	  0.111
67577	 -0.302	 -0.124	  0.281	  0.114	 -0.004	 -9.805	 -0.003	  0.003	  0.001	 34.300	 98.948	 -0.888
67627	 -0.303	 -0.120	  0.269	  0.151	 -0.024	 -9.849	 -0.004	  0.001	  0.001	 34.300	 98.937	  0.111
67677	 -0.302	 -0.125	  0.277	  0.120	 -0.020	 -9.837	 -0.002	  0.002	  0.001	 34.300	 98.937	  0.111
67727	 -0.305	 -0.125	  0.282	  0.128	  0.010	 -9.850	 -0.004	  0.003	  0.000	 34.300	 98.937	  0.111
67777	 -0.305	 -0.120	  0.279	  0.133	  0.002	 -9.814	 -0.003	  0.002	  0.001	 34.300	 98.948	 -0.888
67827	 -0.301	 -0.125	  0.276	  0.131	  0.010	 -9.839	 -0.002	  0.002	 -0.001	 34.300	 98.925	  1.200
67877	 -0.302	 -0.124	  0.279	  0.105	 -0.008	 -9.799	 -0.003	  0.002	 -0.001	 34.300	 98.937	  0.111
67927	 -0.302	 -0.125	  0.281	  0.117	 -0.008	 -9.816	 -0.003	  0.001	  0.000	 34.300	 98.948	 -0.888
67977	 -0.304	 -0.124	  0.278	  0.120	 -0.014	 -9.810	 -0.003	  0.002	  0.000	 34.300	 98.948	 -0.888
68027	 -0.301	 -0.122	  0.284	  0.127	 -0.012	 -9.822	 -0.004	 -0.000	  0.000	 34.300	 98.941	 -0.253
68077	 -0.303	 -0.120	  0.280	  0.124	 -0.011	 -9.777	 -0.003	  0.002	  0.001	 34.300	 98.937	  0.111
68127	 -0.304	 -0.122	  0.277	  0.146	  0.009	 -9.824	 -0.003	  0.002	 -0.000	 34.300	 98.937	  0.111
68177	 -0.304	 -0.120	  0.282	  0.131	 -0.013	 -9.829	 -0.002	  0.002	  0.000	 34.300	 98.933	  0.474
68227	 -0.302	 -0.109	  0.279	  0.138	 -0.017	 -9.798	 -0.004	  0.002	  0.001	 34.300	 98.937	  0.111
68277	 -0.303	 -0.123	  0.282	  0.129	 -0.028	 -9.830	 -0.003	  0.001	  0.001	 34.300	 98.937	  0.111
68327	 -0.302	 -0.122	  0.279	  0.132	 -0.027	 -9.812	 -0.004	  0.002	  0.000	 34.300	 98.925	  1.200
68377	 -0.304	 -0.123	  0.279	  0.143	 -0.020	 -9.834	 -0.004	  0.002	 -0.000	 34.300	 98.937	  0.111
68427	 -0.304	 -0.126	  0.282	  0.118	 -0.020	 -9.847	 -0.003	  0.002	 -0.001	 34.300	 98.937	  0.111
68477	 -0.303	 -0.125	  0.272	  0.137	  0.018	 -9.802	 -0.004	  0.002	  0.001	 34.300	 98.937	  0.111
68527	 -0.303	 -0.124	  0.281	  0.132	  0.018	 -9.831	 -0.003	  0.003	  0.001	 34.300	 98.925	  1.200
68577	 -0.304	 -0.123	  0.272	  0.121	 -0.009	 -9.849	 -0.004	  0.001	  0.001	 34.300	 98.937	  0.111
68627	 -0.302	 -0.121	  0.278	  0.144	 -0.028	 -9.797	 -0.004	  0.001	  0.001	 34.300	 98.937	  0.111
68677	 -0.303	 -0.123	  0.278	  0.112	  0.007	 -9.829	 -0.003	  0.003	  0.001	 34.300	 98.937	  0.111
68727	 -0.302	 -0.121	  0.279	  0.122	 -0.009	 -9.810	 -0.003	  0.001	  0.001	 34.300	 98.937	  0.111
68777	 -0.302	 -0.125	  0.279	  0.136	 -0.039	 -9.829	 -0.005	  0.002	  0.000	 34.300	 98.937	  0.111
68827	 -0.304	 -0.112	  0.281	  0.116	  0.003	 -9.804	 -0.004	  0.003	  0.001	 34.300	 98.937	  0.111
68878	 -0.304	 -0.124	  0.278	  0.125	 -0.009	 -9.842	 -0.004	  0.003	  0.001	 34.300	 98.937	  0.111
68928	 -0.301	 -0.123	  0.279	  0.094	 -0.046	 -9.784	 -0.003	  0.002	  0.001	 34.300	 98.925	  1.200
68978	 -0.305	 -0.119	  0.279	  0.149	 -0.021	 -9.861	 -0.004	  0.001	  0.001	 34.300	 98.937	  0.111
69028	 -0.303	 -0.125	  0.281	  0.126	 -0.031	 -9.806	 -0.002	  0.003	  0.000	 34.300	 98.937	  0.111
69078	 -0.301	 -0.123	  0.280	  0.124	 -0.004	 -9.800	 -0.004	  0.003	  0.002	 34.300	 98.937	  0.111
69128	 -0.304	 -0.123	  0.280	  0.124	  0.008	 -9.797	 -0.004	  0.002	  0.001	 34.300	 98.952	 -1.252
69177	 -0.301	 -0.122	  0.285	  0.135	 -0.002	 -9.793	 -0.003	  0.001	  0.001	 34.300	 98.937	  0.111
69228	 -0.304	 -0.124	  0.277	  0.110	  0.003	 -9.835	 -0.003	  0.004	  0.001	 34.300	 98.948	 -0.888
69278	 -0.302	 -0.120	  0.281	  0.140	 -0.011	 -9.806	 -0.004	  0.003	  0.001	 34.300	 98.937	  0.111
69328	 -0.304	 -0.123	  0.280	  0.118	 -0.018	 -9.846	 -0.004	  0.002	  0.001	 34.300	 98.948	 -0.888
69378	 -0.303	 -0.121	  0.280	  0.116	 -0.016	 -9.893	 -0.004	  0.002	  0.002	 34.300	 98.937	  0.111
69428	 -0.305	 -0.118	  0.280	  0.127	 -0.020	 -9.793	 -0.003	  0.002	  0.001	 34.300	 98.937	  0.111
69478	 -0.303	 -0.119	  0.281	  0.126	  0.007	 -9.842	 -0.004	  0.004	 -0.000	 34.300	 98.937	  0.111
69528	 -0.304	 -0.124	  0.279	  0.128	 -0.008	 -9.816	 -0.004	  0.001	  0.001	 34.300	 98.937	  0.111
69578	 -0.302	 -0.123	  0.278	  0.142	  0.008	 -9.798	 -0.004	  0.002	 -0.000	 34.300	 98.937	  0.111
69628	 -0.304	 -0.124	  0.277	  0.136	 -0.026	 -9.831	 -0.003	  0.002	  0.001	 34.300	 98.925	  1.200
69678	 -0.303	 -0.124	  0.278	  0.135	 -0.012	 -9.837	 -0.004	  0.003	 -0.000	 34.300	 98.937	  0.111
69728	 -0.304	 -0.123	  0.279	  0.113	 -0.013	 -9.823	 -0.003	  0.002	  0.001	 34.300	 98.925	  1.200
69778	 -0.304	 -0.125	  0.278	  0.140	 -0.008	 -9.816	 -0.004	  0.002	  0.002	 34.300	 98.952	 -1.252
69828	 -0.301	 -0.126	  0.278	  0.137	  0.012	 -9.834	 -0.003	  0.001	  0.000	 34.300	 98.937	  0.111
69878	 -0.305	 -0.124	  0.280	  0.126	 -0.021	 -9.821	 -0.002	  0.001	 -0.000	 34.300	 98.948	 -0.888
69928	 -0.302	 -0.123	  0.282	  0.123	 -0.012	 -9.843	 -0.004	  0.001	  0.000	 34.300	 98.937	  0.111
69978	 -0.302	 -0.120	  0.282	  0.128	  0.002	 -9.837	 -0.004	  0.002	  0.000	 34.300	 98.937	  0.111
70028	 -0.301	 -0.119	  0.281	  0.135	 -0.018	 -9.831	 -0.003	  0.003	  0.001	 34.300	 98.948	 -0.888
70078	 -0.304	 -0.123	  0.278	  0.132	 -0.034	 -9.823	 -0.002	  0.001	 -0.000	 34.300	 98.937	  0.111
70128	 -0.304	 -0.127	  0.281	  0.135	  0.011	 -9.839	 -0.003	  0.003	  0.000	 34.300	 98.937	  0.111
70178	 -0.301	 -0.124	  0.273	  0.114	 -0.009	 -9.812	 -0.004	  0.003	  0.001	 34.300	 98.937	  0.111
70228	 -0.303	 -0.125	  0.277	  0.130	 -0.015	 -9.828	 -0.005	  0.003	  0.001	 34.300	 98.952	 -1.252
70278	 -0.304	 -0.124	  0.282	  0.132	 -0.033	 -9.810	 -0.003	  0.001	  0.001	 34.300	 98.937	  0.111
70328	 -0.304	 -0.116	  0.282	  0.154	  0.009	 -9.799	 -0.004	  0.003	 -0.000	 34.300	 98.937	  0.111
70378	 -0.302	 -0.125	  0.278	  0.111	 -0.015	 -9.825	 -0.003	  0.002	  0.001	 34.300	 98.937	  0.111
70428	 -0.303	 -0.125	  0.278	  0.135	 -0.008	 -9.813	 -0.004	  0.002	 -0.000	 34.300	 98.937	  0.111
70478	 -0.303	 -0.124	  0.278	  0.116	 -0.010	 -9.835	 -0.003	  0.003	  0.000	 34.300	 98.937	  0.111
70528	 -0.304	 -0.122	  0.279	  0.147	 -0.001	 -9.810	 -0.003	  0.002	  0.000	 34.300	 98.937	  0.111
70579	 -0.303	 -0.120	  0.280	  0.149	 -0.011	 -9.816	 -0.003	  0.001	  0.001	 34.300	 98.937	  0.111
70628	 -0.303	 -0.115	  0.279	  0.128	 -0.022	 -9.796	 -0.003	  0.003	  0.002	 34.300	 98.937	  0.111
70678	 -0.304	 -0.122	  0.281	  0.124	  0.015	 -9.824	 -0.003	  0.001	  0.001	 34.300	 98.937	  0.111
70728	 -0.304	 -0.124	  0.282	  0.137	  0.002	 -9.828	 -0.005	  0.002	 -0.000	 34.300	 98.930	  0.746
70778	 -0.300	 -0.124	  0.280	  0.132	 -0.012	 -9.840	 -0.003	  0.002	  0.002	 34.300	 98.925	  1.200
70829	 -0.306	 -0.111	  0.280	  0.119	 -0.007	 -9.813	 -0.003	  0.002	  0.000	 34.300	 98.937	  0.111
70878	 -0.301	 -0.124	  0.278	  0.139	 -0.014	 -9.796	 -0.004	  0.002	  0.001	 34.300	 98.937	  0.111
70928	 -0.304	 -0.122	  0.274	  0.125	 -0.018	 -9.821	 -0.004	  0.003	  0.001	 34.300	 98.937	  0.111
70978	 -0.303	 -0.112	  0.275	  0.136	 -0.023	 -9.854	 -0.003	  0.002	  0.002	 34.300	 98.948	 -0.888
71028	 -0.301	 -0.122	  0.279	  0.113	 -0.012	 -9.790	 -0.003	  0.002	  0.001	 34.300	 98.925	  1.200
71079	 -0.305	 -0.121	  0.274	  0.117	 -0.009	 -9.830	 -0.004	  0.002	 -0.000	 34.300	 98.925	  1.200
71128	 -0.304	 -0.116	  0.278	  0.121	 -0.009	 -9.842	 -0.003	  0.002	  0.001	 34.300	 98.937	  0.111
71178	 -0.303	 -0.121	  0.278	  0.131	  0.014	 -9.848	 -0.004	  0.001	  0.001	 34.300	 98.948	 -0.888
71228	 -0.305	 -0.124	  0.279	  0.117	  0.005	 -9.831	 -0.003	  0.002	  0.001	 34.300	 98.937	  0.111
71279	 -0.303	 -0.124	  0.278	  0.120	 -0.025	 -9.784	 -0.004	  0.003	  0.001	 34.300	 98.937	  0.111
71329	 -0.304	 -0.126	  0.280	  0.118	  0.005	 -9.822	 -0.004	  0.002	  0.000	 34.300	 98.930	  0.746
71379	 -0.303	 -0.124	  0.277	  0.125	  0.005	 -9.825	 -0.004	  0.001	  0.001	 34.300	 98.937	  0.111
71430	 -0.305	 -0.108	  0.276	  0.119	 -0.018	 -9.805	 -0.004	  0.004	  0.002	 34.300	 98.937	  0.111
71480	 -0.303	 -0.123	  0.277	  0.131	  0.001	 -9.825	 -0.003	  0.001	  0.001	 34.300	 98.937	  0.111
71530	 -0.303	 -0.122	  0.280	  0.123	 -0.035	 -9.832	 -0.004	  0.002	  0.002	 34.300	 98.925	  1.200
71580	 -0.303	 -0.124	  0.281	  0.150	  0.008	 -9.815	 -0.004	  0.001	  0.000	 34.300	 98.937	  0.111
71630	 -0.304	 -0.126	  0.281	  0.141	 -0.008	 -9.837	 -0.004	  0.003	  0.001	 34.300	 98.937	  0.111
71680	 -0.305	 -0.124	  0.278	  0.129	 -0.019	 -9.809	 -0.004	  0.002	  0.001	 34.300	 98.937	  0.111
71730	 -0.304	 -0.126	  0.279	  0.131	 -0.019	 -9.853	 -0.002	  0.002	 -0.000	 34.300	 98.937	  0.111
71780	 -0.305	 -0.126	  0.277	  0.096	 -0.011	 -9.829	 -0.005	  0.002	  0.000	 34.300	 98.937	  0.111
71830	 -0.304	 -0.120	  0.282	  0.103	 -0.015	 -9.846	 -0.004	  0.000	  0.001	 34.300	 98.937	  0.111
71880	 -0.303	 -0.123	  0.279	  0.099	 -0.008	 -9.810	 -0.004	  0.002	  0.001	 34.300	 98.941	 -0.253
71930	 -0.303	 -0.122	  0.274	  0.123	  0.008	 -9.822	 -0.004	  0.001	 -0.000	 34.300	 98.937	  0.111
71980	 -0.307	 -0.125	  0.283	  0.123	 -0.010	 -9.800	 -0.004	  0.001	  0.000	 34.300	 98.937	  0.111
72030	 -0.303	 -0.121	  0.275	  0.153	  0.006	 -9.816	 -0.003	  0.002	 -0.000	 34.300	 98.937	  0.111
72080	 -0.305	 -0.122	  0.280	  0.101	 -0.010	 -9.842	 -0.004	  0.003	 -0.000	 34.300	 98.937	  0.111
72130	 -0.306	 -0.122	  0.280	  0.124	  0.001	 -9.839	 -0.004	  0.001	  0.001	 34.300	 98.925	  1.200
72180	 -0.305	 -0.123	  0.280	  0.151	 -0.019	 -9.830	 -0.005	  0.002	  0.002	 34.300	 98.937	  0.111
72230	 -0.303	 -0.124	  0.280	  0.136	  0.020	 -9.836	 -0.004	  0.001	 -0.000	 34.300	 98.933	  0.474
72280	 -0.301	 -0.123	  0.280	  0.120	 -0.008	 -9.820	 -0.004	  0.002	  0.001	 34.300	 98.937	  0.111
72330	 -0.303	 -0.120	  0.282	  0.139	 -0.020	 -9.806	 -0.004	  0.002	  0.000	 34.300	 98.937	  0.111
72380	 -0.301	 -0.124	  0.281	  0.133	 -0.019	 -9.786	 -0.003	  0.002	  0.001	 34.300	 98.937	  0.111
72430	 -0.303	 -0.125	  0.283	  0.114	  0.002	 -9.876	 -0.003	  0.001	  0.000	 34.300	 98.937	  0.111
72480	 -0.303	 -0.126	  0.273	  0.114	 -0.029	 -9.830	 -0.004	  0.002	  0.000	 34.300	 98.941	 -0.253
72530	 -0.304	 -0.121	  0.281	  0.144	  0.001	 -9.822	 -0.003	  0.002	 -0.000	 34.300	 98.930	  0.746
72580	 -0.302	 -0.124	  0.279	  0.103	 -0.010	 -9.825	 -0.003	  0.002	  0.000	 34.300	 98.937	  0.111
72630	 -0.304	 -0.119	  0.278	  0.122	 -0.006	 -9.831	 -0.004	  0.001	  0.001	 34.300	 98.925	  1.200
72680	 -0.302	 -0.123	  0.280	  0.145	 -0.048	 -9.849	 -0.004	  0.002	  0.000	 34.300	 98.941	 -0.253
72730	 -0.305	 -0.124	  0.281	  0.127	 -0.003	 -9.815	 -0.002	  0.002	 -0.000	 34.300	 98.937	  0.111
72780	 -0.304	 -0.122	  0.277	  0.106	 -0.018	 -9.817	 -0.003	  0.003	 -0.000	 34.300	 98.937	  0.111
72830	 -0.304	 -0.124	  0.281	  0.118	 -0.012	 -9.818	 -0.004	  0.002	  0.000	 34.300	 98.937	  0.111
72880	 -0.303	 -0.121	  0.278	  0.137	 -0.001	 -9.832	 -0.003	  0.003	  0.000	 34.300	 98.925	  1.200
72930	 -0.304	 -0.122	  0.281	  0.146	  0.001	 -9.812	 -0.004	  0.003	 -0.001	 34.300	 98.948	 -0.888
72980	 -0.303	 -0.125	  0.280	  0.120	 -0.012	 -9.840	 -0.004	  0.002	  0.001	 34.300	 98.948	 -0.888
73030	 -0.305	 -0.127	  0.278	  0.113	 -0.014	 -9.790	 -0.004	  0.001	  0.001	 34.300	 98.948	 -0.888
73080	 -0.304	 -0.119	  0.281	  0.130	  0.013	 -9.787	 -0.003	  0.001	  0.001	 34.300	 98.925	  1.200
73130	 -0.303	 -0.122	  0.275	  0.135	 -0.006	 -9.829	 -0.005	  0.001	  0.002	 34.300	 98.937	  0.111
73180	 -0.304	 -0.125	  0.281	  0.103	 -0.018	 -9.817	 -0.004	  0.003	  0.001	 34.300	 98.937	  0.111
73230	 -0.303	 -0.121	  0.279	  0.150	 -0.027	 -9.816	 -0.004	  0.001	  0.001	 34.300	 98.941	 -0.253
73280	 -0.301	 -0.122	  0.281	  0.131	  0.019	 -9.836	 -0.003	  0.002	  0.001	 34.300	 98.941	 -0.253
73330	 -0.303	 -0.123	  0.280	  0.109	 -0.020	 -9.816	 -0.005	  0.003	  0.000	 34.300	 98.937	  0.111
73380	 -0.302	 -0.120	  0.281	  0.146	  0.020	 -9.809	 -0.003	  0.002	  0.000	 34.300	 98.925	  1.200
73430	 -0.302	 -0.121	  0.273	  0.122	 -0.006	 -9.811	 -0.004	  0.004	  0.001	 34.300	 98.937	  0.111
73480	 -0.302	 -0.123	  0.277	  0.136	  0.026	 -9.852	 -0.004	  0.003	 -0.000	 34.300	 98.941	 -0.253
73530	 -0.300	 -0.124	  0.281	  0.156	 -0.024	 -9.795	 -0.003	  0.002	  0.001	 34.300	 98.937	  0.111
73580	 -0.302	 -0.123	  0.280	  0.115	 -0.040	 -9.826	 -0.004	  0.002	  0.000	 34.300	 98.925	  1.200
73630	 -0.300	 -0.124	  0.280	  0.140	  0.039	 -9.869	 -0.008	  0.003	 -0.000	 34.300	 98.937	  0.111
73680	 -0.305	 -0.109	  0.282	  0.135	 -0.070	 -9.849	 -0.003	  0.002	 -0.002	 34.300	 98.937	  0.111
73730	 -0.302	 -0.122	  0.279	  0.312	 -0.250	 -9.807	  0.000	  0.000	 -0.020	 34.300	 98.941	 -0.253
73780	 -0.301	 -0.125	  0.281	  0.181	 -0.094	 -9.791	 -0.002	  0.004	 -0.217	 34.300	 98.948	 -0.888
73830	 -0.300	 -0.126	  0.281	  0.689	  0.320	 -9.539	  0.012	 -0.007	  0.002	 34.300	 98.937	  0.111
73880	 -0.302	 -0.122	  0.279	 -1.068	  0.526	 -10.299	 -0.039	  0.029	  0.124	 34.300	 98.941	 -0.253
73930	 -0.299	 -0.129	  0.275	  0.097	 -0.711	 -11.396	 -0.686	 -0.034	 -0.077	 34.300	 98.948	 -0.888
73980	 -0.301	 -0.141	  0.278	 -1.793	  2.858	 -10.752	 -0.669	  0.301	 -0.125	 34.300	 98.937	  0.111
74030	 -0.306	 -0.146	  0.275	  1.098	  3.021	 -5.801	  0.318	  0.498	  0.107	 34.300	 98.941	 -0.253
74080	 -0.308	 -0.141	  0.273	  1.302	 -3.434	 -11.838	  0.496	  0.267	 -0.282	 34.300	 98.937	  0.111
74130	 -0.310	 -0.136	  0.271	  0.534	  2.012	 -10.760	 -0.406	  0.148	 -0.344	 34.300	 98.937	  0.111
74180	 -0.308	 -0.142	  0.274	  0.963	  2.319	 -7.977	  0.787	 -0.033	 -0.006	 34.300	 98.941	 -0.253
74230	 -0.308	 -0.132	  0.280	 -0.097	 -1.397	 -10.774	  0.604	  0.026	  0.320	 34.300	 98.948	 -0.888
74280	 -0.316	 -0.123	  0.278	  0.531	 -0.478	 -8.837	 -0.008	  0.525	  0.659	 34.300	 98.930	  0.746
74330	 -0.319	 -0.119	  0.275	  3.053	 -0.909	 -7.644	  0.264	  0.357	 -0.130	 34.300	 98.941	 -0.253
74380	 -0.323	 -0.105	  0.273	  0.773	 -0.999	 -10.132	  0.302	  0.097	 -0.626	 34.300	 98.937	  0.111
74430	 -0.324	 -0.123	  0.268	  0.970	 -0.819	 -11.251	 -0.230	 -0.034	 -0.489	 34.300	 98.937	  0.111
74480	 -0.319	 -0.131	  0.274	  2.269	  0.422	 -8.821	  0.100	 -0.119	 -0.699	 34.300	 98.937	  0.111
74530	 -0.315	 -0.138	  0.281	  0.644	  0.205	 -9.735	  0.744	 -0.339	 -0.626	 34.300	 98.925	  1.200
74580	 -0.311	 -0.130	  0.291	 -0.046	 -0.051	 -10.619	  0.231	 -0.410	  0.419	 34.300	 98.930	  0.746
74630	 -0.306	 -0.120	  0.287	  0.602	 -0.908	 -10.071	  0.052	 -0.293	  0.949	 34.300	 98.941	 -0.253
74680	 -0.304	 -0.105	  0.294	  1.102	 -1.756	 -10.534	  0.329	 -0.324	  0.096	 34.300	 98.948	 -0.888
74730	 -0.301	 -0.098	  0.294	 -0.047	 -0.917	 -10.720	  0.200	  0.240	  0.118	 34.300	 98.925	  1.200
74780	 -0.305	 -0.106	  0.295	  0.134	 -0.235	 -8.973	  0.321	  0.244	  0.360	 34.300	 98.937	  0.111
74830	 -0.305	 -0.095	  0.293	  1.429	 -2.636	 -8.055	 -0.010	  0.071	  0.898	 34.300	 98.937	  0.111
74880	 -0.303	 -0.087	  0.297	  0.648	 -2.262	 -9.228	 -0.075	 -0.114	  0.244	 34.300	 98.948	 -0.888
74931	 -0.304	 -0.087	  0.294	  0.124	 -1.307	 -10.673	 -0.255	  0.269	  0.166	 34.300	 98.937	  0.111
74981	 -0.309	 -0.093	  0.294	  1.542	 -0.723	 -9.605	 -0.053	  0.243	 -0.431	 34.300	 98.941	 -0.253
75031	 -0.310	 -0.097	  0.296	  1.040	 -0.691	 -10.001	  0.155	 -0.082	 -1.049	 34.300	 98.914	  2.199
75081	 -0.310	 -0.109	  0.299	  0.466	 -2.049	 -9.900	  0.237	 -0.097	 -0.738	 34.300	 98.930	  0.746
75131	 -0.311	 -0.108	  0.298	 -0.305	 -1.557	 -10.257	  0.028	  0.221	 -0.058	 34.300	 98.948	 -0.888
75181	 -0.316	 -0.108	  0.294	  1.597	 -1.424	 -10.326	  0.005	  0.470	  0.145	 34.300	 98.937	  0.111
75231	 -0.321	 -0.111	  0.290	  2.876	 -1.152	 -9.416	 -0.030	  0.101	 -0.053	 34.300	 98.941	 -0.253
75281	 -0.324	 -0.112	  0.285	  0.997	 -3.032	 -10.343	 -0.098	  0.072	 -0.207	 34.300	 98.925	  1.200
75331	 -0.320	 -0.121	  0.289	  1.634	 -1.656	 -10.069	 -0.504	 -0.323	 -0.505	 34.300	 98.925	  1.200
75381	 -0.310	 -0.130	  0.285	  0.431	  0.049	 -8.859	 -0.328	 -0.624	  0.391	 34.300	 98.925	  1.200
75431	 -0.303	 -0.125	  0.302	  1.222	 -0.176	 -8.552	  0.071	 -0.428	  0.697	 34.300	 98.941	 -0.253
75481	 -0.299	 -0.114	  0.301	  1.299	 -1.768	 -8.835	  0.255	 -0.275	  0.023	 34.300	 98.930	  0.746
75531	 -0.294	 -0.117	  0.302	 -0.210	 -1.392	 -9.438	  0.045	 -0.242	 -0.699	 34.300	 98.952	 -1.252
75581	 -0.286	 -0.121	  0.305	 -0.693	 -0.391	 -9.661	 -0.346	 -0.155	 -0.048	 34.300	 98.941	 -0.253
75631	 -0.287	 -0.121	  0.310	 -0.158	 -0.341	 -9.561	 -0.084	 -0.077	  0.103	 34.300	 98.925	  1.200
75681	 -0.283	 -0.121	  0.305	  0.233	 -0.442	 -9.851	  0.194	  0.060	 -0.130	 34.300	 98.937	  0.111
75731	 -0.287	 -0.123	  0.304	  0.236	 -1.607	 -10.561	  0.126	  0.082	 -0.368	 34.300	 98.937	  0.111
75781	 -0.287	 -0.130	  0.302	  1.182	 -1.400	 -10.049	 -0.236	  0.134	 -0.925	 34.300	 98.937	  0.111
75831	 -0.284	 -0.148	  0.301	 -0.029	 -1.493	 -9.992	 -0.435	 -0.227	 -1.002	 34.300	 98.941	 -0.253
75881	 -0.277	 -0.161	  0.301	  0.855	 -1.528	 -7.027	 -0.686	 -0.537	 -0.565	 34.300	 98.925	  1.200
75931	 -0.268	 -0.171	  0.305	 -1.028	 -0.887	 -7.481	 -0.647	 -0.757	  0.387	 34.300	 98.930	  0.746
75981	 -0.263	 -0.165	  0.313	 -0.208	  0.630	 -9.313	 -0.354	 -0.509	  0.786	 34.300	 98.937	  0.111
76031	 -0.259	 -0.173	  0.315	 -0.146	  0.872	 -10.099	 -0.173	 -0.244	  0.395	 34.300	 98.937	  0.111
76081	 -0.255	 -0.173	  0.317	 -0.888	  0.854	 -9.814	  0.240	  0.042	 -0.430	 34.300	 98.941	 -0.253
76131	 -0.258	 -0.168	  0.316	 -1.829	  0.829	 -10.042	  0.500	  0.458	 -0.505	 34.300	 98.930	  0.746
76181	 -0.264	 -0.166	  0.309	 -0.852	 -0.783	 -9.793	  0.479	  0.588	 -0.500	 34.300	 98.925	  1.200
76231	 -0.273	 -0.171	  0.299	 -0.158	  0.093	 -10.096	  0.343	  0.646	 -0.718	 34.300	 98.941	 -0.253
76281	 -0.278	 -0.170	  0.302	 -0.609	 -1.206	 -9.911	  0.044	  0.456	 -0.555	 34.300	 98.937	  0.111
76331	 -0.284	 -0.172	  0.293	  1.145	 -0.198	 -9.476	  0.011	  0.296	 -0.102	 34.300	 98.937	  0.111
76382	 -0.287	 -0.172	  0.296	  0.891	 -0.209	 -11.860	  0.345	  0.462	  0.021	 34.300	 98.937	  0.111
76431	 -0.288	 -0.184	  0.288	  1.551	 -1.288	 -10.698	 -0.439	  0.519	 -0.409	 34.300	 98.941	 -0.253
76481	 -0.293	 -0.194	  0.285	  0.900	 -1.044	 -11.377	 -0.638	  0.499	 -0.315	 34.300	 98.930	  0.746
76532	 -0.299	 -0.200	  0.276	  3.171	  0.891	 -7.252	 -0.792	  0.208	 -0.486	 34.300	 98.930	  0.746
76581	 -0.290	 -0.222	  0.276	  1.352	  1.209	 -7.382	 -0.224	 -0.449	 -0.700	 34.300	 98.925	  1.200
76631	 -0.279	 -0.226	  0.282	 -0.888	 -1.321	 -8.702	  0.104	 -0.546	 -0.293	 34.300	 98.937	  0.111
76681	 -0.278	 -0.228	  0.280	 -1.368	  1.761	 -9.270	 -0.348	  0.175	  0.279	 34.300	 98.948	 -0.888
76731	 -0.293	 -0.227	  0.271	  2.611	  1.634	 -14.126	 -0.306	  1.158	  0.209	 34.300	 98.937	  0.111
76781	 -0.305	 -0.225	  0.261	  3.360	  4.409	 -15.831	  0.312	  0.922	 -0.244	 34.300	 98.952	 -1.252
76831	 -0.309	 -0.227	  0.253	  3.851	  1.830	 -11.483	  0.952	  0.414	  0.098	 34.300	 98.941	 -0.253
76882	 -0.304	 -0.209	  0.260	  2.577	 -1.803	  1.596	  0.784	 -0.810	  0.307	 34.300	 98.937	  0.111
76931	 -0.282	 -0.192	  0.283	  2.902	 -11.243	 12.288	  0.509	 -2.294	  0.177	 34.300	 98.937	  0.111
76982	 -0.273	 -0.215	  0.288	 -13.195	 10.096	 -36.966	 -2.653	  1.577	 -0.444	 34.300	 98.941	 -0.253
77032	 -0.301	 -0.223	  0.257	 11.562	  6.622	 -3.297	  0.747	  0.473	  0.749	 34.300	 98.941	 -0.253
77082	 -0.296	 -0.209	  0.268	  1.680	 -10.751	 -6.300	  0.319	 -0.282	 -0.188	 34.300	 98.941	 -0.253
77132	 -0.300	 -0.211	  0.270	  0.726	  1.860	 -10.197	 -0.404	 -0.017	  0.015	 34.300	 98.941	 -0.253
77182	 -0.293	 -0.212	  0.277	  1.541	  0.952	 -12.493	  0.116	 -0.487	  0.051	 34.300	 98.937	  0.111
77232	 -0.291	 -0.211	  0.278	  1.123	 -0.400	 -10.390	  0.164	 -0.286	 -0.214	 34.300	 98.930	  0.746
77282	 -0.286	 -0.208	  0.285	  0.591	  0.464	 -10.043	  0.171	 -0.201	  0.127	 34.300	 98.937	  0.111
77332	 -0.284	 -0.209	  0.285	  1.363	 -0.372	 -10.271	 -0.140	  0.001	 -0.129	 34.300	 98.941	 -0.253
77382	 -0.286	 -0.214	  0.285	  0.905	  0.884	 -9.344	 -0.024	  0.137	 -0.161	 34.300	 98.925	  1.200
77432	 -0.286	 -0.212	  0.281	  1.444	 -0.326	 -9.551	  0.072	  0.151	 -0.092	 34.300	 98.930	  0.746
77482	 -0.283	 -0.214	  0.278	  0.785	  0.037	 -9.782	  0.039	  0.069	 -0.105	 34.300	 98.941	 -0.253
77532	 -0.286	 -0.216	  0.281	  1.084	 -0.360	 -9.550	 -0.095	  0.200	 -0.069	 34.300	 98.937	  0.111
77582	 -0.288	 -0.221	  0.277	  0.912	  0.661	 -9.861	 -0.129	  0.159	 -0.156	 34.300	 98.930	  0.746
77632	 -0.291	 -0.218	  0.276	  0.848	  0.336	 -9.310	 -0.001	  0.393	 -0.001	 34.300	 98.925	  1.200
77682	 -0.296	 -0.213	  0.272	  1.390	  0.041	 -9.696	 -0.015	  0.425	 -0.045	 34.300	 98.948	 -0.888
77732	 -0.302	 -0.215	  0.265	  1.414	  0.311	 -9.308	 -0.069	  0.361	  0.041	 34.300	 98.937	  0.111
77782	 -0.306	 -0.222	  0.262	  2.364	  0.275	 -10.020	 -0.031	  0.048	 -0.122	 34.300	 98.937	  0.111
77832	 -0.306	 -0.222	  0.259	  1.597	  0.184	 -10.139	 -0.092	  0.000	 -0.084	 34.300	 98.941	 -0.253
77882	 -0.305	 -0.225	  0.264	  1.888	  0.832	 -9.598	 -0.093	  0.002	 -0.031	 34.300	 98.941	 -0.253
77932	 -0.303	 -0.227	  0.265	  1.956	  0.482	 -9.601	  0.027	  0.023	 -0.091	 34.300	 98.941	 -0.253
77982	 -0.305	 -0.223	  0.256	  2.408	  0.323	 -9.657	  0.026	  0.121	 -0.071	 34.300	 98.930	  0.746
78031	 -0.306	 -0.227	  0.256	  1.944	  0.316	 -9.671	  0.052	  0.015	 -0.138	 34.300	 98.925	  1.200
78081	 -0.305	 -0.228	  0.262	  1.954	  0.583	 -9.684	  0.090	  0.055	  0.019	 34.300	 98.937	  0.111
78131	 -0.303	 -0.214	  0.267	  2.244	  0.479	 -9.455	  0.077	 -0.072	  0.026	 34.300	 98.925	  1.200
78181	 -0.304	 -0.217	  0.267	  1.694	  0.203	 -9.597	  0.110	 -0.013	 -0.016	 34.300	 98.941	 -0.253
78231	 -0.304	 -0.221	  0.267	  1.935	  0.432	 -9.471	  0.105	  0.067	  0.025	 34.300	 98.941	 -0.253
78281	 -0.307	 -0.224	  0.264	  2.078	 -0.040	 -9.633	  0.051	  0.069	 -0.076	 34.300	 98.930	  0.746
78331	 -0.307	 -0.222	  0.264	  1.933	  0.309	 -9.451	 -0.030	  0.082	 -0.127	 34.300	 98.925	  1.200
78381	 -0.306	 -0.226	  0.259	  2.403	  0.447	 -9.404	  0.018	  0.008	 -0.018	 34.300	 98.941	 -0.253
78431	 -0.305	 -0.225	  0.267	  2.284	  0.053	 -9.809	 -0.004	 -0.084	 -0.043	 34.300	 98.937	  0.111
78481	 -0.303	 -0.222	  0.265	  1.916	  0.101	 -9.631	 -0.043	 -0.094	  0.034	 34.300	 98.930	  0.746
78531	 -0.303	 -0.226	  0.266	  2.250	  0.080	 -9.691	 -0.059	 -0.089	  0.025	 34.300	 98.937	  0.111
78581	 -0.303	 -0.227	  0.269	  1.673	  0.564	 -9.600	  0.048	 -0.067	  0.072	 34.300	 98.941	 -0.253
78631	 -0.303	 -0.223	  0.267	  2.128	  0.053	 -9.772	  0.069	 -0.039	  0.086	 34.300	 98.930	  0.746
78681	 -0.301	 -0.223	  0.269	  2.143	  0.444	 -9.427	  0.135	 -0.190	  0.028	 34.300	 98.937	  0.111
78731	 -0.298	 -0.217	  0.276	  2.046	  0.006	 -9.732	  0.137	 -0.472	 -0.030	 34.300	 98.941	 -0.253
78781	 -0.290	 -0.218	  0.278	  1.415	  0.519	 -9.591	  0.211	 -0.667	 -0.061	 34.300	 98.948	 -0.888
78831	 -0.279	 -0.206	  0.290	  0.690	 -0.044	 -9.920	  0.288	 -0.787	 -0.059	 34.300	 98.941	 -0.253
78881	 -0.268	 -0.215	  0.298	  0.195	 -0.602	 -10.094	  0.166	 -0.668	 -0.148	 34.300	 98.941	 -0.253
78931	 -0.257	 -0.215	  0.304	 -0.028	  0.144	 -9.715	  0.035	 -0.496	 -0.153	 34.300	 98.930	  0.746
78981	 -0.248	 -0.212	  0.309	 -0.071	 -1.394	 -10.161	  0.060	 -0.502	 -0.306	 34.300	 98.930	  0.746
79031	 -0.242	 -0.217	  0.306	 -0.723	 -0.320	 -9.540	 -0.009	 -0.227	 -0.270	 34.300	 98.952	 -1.252
79081	 -0.238	 -0.221	  0.312	 -0.693	 -0.974	 -9.982	 -0.176	 -0.027	 -0.212	 34.300	 98.941	 -0.253
79130	 -0.238	 -0.222	  0.312	 -0.174	  0.119	 -9.463	 -0.143	  0.022	  0.015	 34.300	 98.925	  1.200
79180	 -0.238	 -0.222	  0.311	  0.146	  0.050	 -9.401	 -0.118	  0.028	 -0.200	 34.300	 98.937	  0.111
79230	 -0.237	 -0.225	  0.310	 -0.364	  0.075	 -9.422	 -0.059	 -0.042	 -0.213	 34.300	 98.937	  0.111
79280	 -0.235	 -0.216	  0.311	  0.155	 -0.348	 -9.845	 -0.030	 -0.126	 -0.058	 34.300	 98.941	 -0.253
79330	 -0.233	 -0.231	  0.313	 -0.416	  0.352	 -9.926	 -0.216	 -0.212	 -0.145	 34.300	 98.941	 -0.253
79380	 -0.230	 -0.235	  0.306	 -0.199	  0.057	 -10.039	 -0.176	 -0.250	  0.100	 34.300	 98.941	 -0.253
79430	 -0.228	 -0.235	  0.312	 -0.684	  0.358	 -9.980	 -0.120	 -0.215	  0.087	 34.300	 98.941	 -0.253
79480	 -0.225	 -0.235	  0.314	  0.007	 -0.277	 -10.309	 -0.102	 -0.086	  0.077	 34.300	 98.941	 -0.253
79530	 -0.224	 -0.241	  0.314	 -0.857	  0.610	 -9.895	 -0.056	  0.024	 -0.055	 34.300	 98.941	 -0.253
79580	 -0.226	 -0.243	  0.316	 -0.192	  0.185	 -9.941	  0.033	  0.083	  0.175	 34.300	 98.952	 -1.252
79630	 -0.226	 -0.238	  0.316	 -0.421	  0.362	 -9.650	 -0.008	  0.020	 -0.060	 34.300	 98.925	  1.200
79680	 -0.226	 -0.239	  0.317	 -0.808	 -0.023	 -9.740	 -0.076	  0.068	  0.081	 34.300	 98.948	 -0.888
79730	 -0.228	 -0.237	  0.311	  0.049	  0.277	 -9.417	 -0.088	  0.097	 -0.029	 34.300	 98.952	 -1.252
79780	 -0.231	 -0.240	  0.309	 -0.657	  0.595	 -9.384	 -0.074	  0.093	  0.068	 34.300	 98.930	  0.746
79830	 -0.232	 -0.240	  0.310	  0.456	 -0.009	 -9.750	 -0.127	  0.034	  0.036	 34.300	 98.941	 -0.253
79880	 -0.234	 -0.241	  0.310	 -0.258	  0.672	 -9.635	 -0.061	  0.008	  0.241	 34.300	 98.941	 -0.253
79930	 -0.237	 -0.242	  0.311	  0.008	  0.080	 -10.055	 -0.217	 -0.012	  0.247	 34.300	 98.937	  0.111
79980	 -0.241	 -0.240	  0.303	 -0.351	  1.216	 -9.749	 -0.116	  0.014	  0.347	 34.300	 98.930	  0.746
80029	 -0.240	 -0.239	  0.310	 -0.302	  0.523	 -9.712	  0.070	 -0.221	  0.276	 34.300	 98.941	 -0.253
80079	 -0.243	 -0.233	  0.311	 -1.095	  0.267	 -9.680	  0.079	 -0.018	  0.389	 34.300	 98.925	  1.200
80129	 -0.248	 -0.226	  0.305	 -0.522	  0.639	 -9.605	  0.043	  0.219	  0.540	 34.300	 98.937	  0.111
80179	 -0.254	 -0.228	  0.302	  0.704	 -0.040	 -9.814	  0.001	 -0.109	  0.243	 34.300	 98.937	  0.111
80229	 -0.252	 -0.216	  0.305	 -1.105	  0.989	 -9.994	 -0.101	 -0.140	  0.162	 34.300	 98.925	  1.200
80279	 -0.255	 -0.223	  0.305	 -0.737	  0.696	 -9.932	  0.004	  0.039	  0.354	 34.300	 98.925	  1.200
80329	 -0.259	 -0.218	  0.303	 -0.633	  0.986	 -9.613	 -0.082	  0.191	  0.307	 34.300	 98.937	  0.111
80379	 -0.262	 -0.215	  0.301	  0.168	  0.376	 -9.987	 -0.025	  0.124	  0.080	 34.300	 98.937	  0.111
80429	 -0.263	 -0.222	  0.300	 -1.333	  1.440	 -10.321	 -0.098	  0.123	 -0.140	 34.300	 98.930	  0.746
80479	 -0.265	 -0.220	  0.299	 -0.713	  0.506	 -9.652	  0.116	 -0.005	  0.059	 34.300	 98.952	 -1.252
80529	 -0.268	 -0.217	  0.293	 -0.696	  0.641	 -9.654	 -0.052	  0.166	  0.010	 34.300	 98.930	  0.746
80579	 -0.272	 -0.217	  0.296	 -0.161	  0.592	 -9.681	 -0.033	  0.303	  0.018	 34.300	 98.941	 -0.253
80629	 -0.273	 -0.221	  0.294	  0.059	  0.779	 -9.764	 -0.033	  0.356	 -0.092	 34.300	 98.925	  1.200
