Time	 MagX	 MagY	 MagZ	 AccelX	 AccelY	 AccelZ	 Yaw	 Pitch	 Roll	 Temperature	 Pressure	 Altitude
16279	 -0.425	 -0.270	 -0.228	  0.080	 -0.072	 -9.809	 -0.003	  0.002	  0.000	 34.900	 98.972	 -99999.000
16329	 -0.426	 -0.270	 -0.227	  0.116	 -0.081	 -9.832	 -0.004	  0.003	  0.000	 34.900	 98.972	 -99999.000
16379	 -0.423	 -0.271	 -0.224	  0.075	 -0.063	 -9.827	 -0.003	  0.001	  0.002	 34.900	 98.983	 -99999.000
16429	 -0.423	 -0.271	 -0.226	  0.076	 -0.086	 -9.796	 -0.004	  0.002	  0.001	 34.900	 98.983	 -99999.000
16479	 -0.421	 -0.269	 -0.230	  0.055	 -0.090	 -9.813	 -0.004	  0.003	  0.001	 34.900	 98.972	 -99999.000
16529	 -0.421	 -0.272	 -0.234	  0.077	 -0.089	 -9.811	 -0.004	  0.002	  0.001	 34.900	 98.968	 -99999.000
16579	 -0.424	 -0.269	 -0.225	  0.096	 -0.062	 -9.854	 -0.003	  0.001	  0.000	 34.900	 98.979	 -99999.000
16629	 -0.422	 -0.270	 -0.226	  0.068	 -0.065	 -9.833	 -0.004	  0.002	 -0.000	 34.900	 98.972	 -99999.000
16679	 -0.424	 -0.269	 -0.225	  0.076	 -0.093	 -9.813	 -0.003	  0.003	  0.002	 34.900	 98.972	 -99999.000
16729	 -0.425	 -0.271	 -0.226	  0.048	 -0.081	 -9.775	 -0.003	  0.001	  0.001	 34.900	 98.983	 -99999.000
16779	 -0.425	 -0.273	 -0.228	  0.100	 -0.078	 -9.858	 -0.004	  0.001	  0.001	 34.900	 98.972	 -99999.000
16829	 -0.422	 -0.274	 -0.229	  0.063	 -0.080	 -9.835	 -0.004	  0.002	  0.001	 34.900	 98.983	 -99999.000
16879	 -0.421	 -0.273	 -0.234	  0.109	 -0.083	 -9.796	 -0.005	  0.002	  0.001	 34.900	 98.972	 -99999.000
16929	 -0.421	 -0.271	 -0.227	  0.054	 -0.087	 -9.829	 -0.004	  0.003	  0.000	 34.900	 98.972	 -99999.000
16979	 -0.422	 -0.270	 -0.227	  0.058	 -0.070	 -9.806	 -0.004	  0.002	  0.001	 34.900	 98.972	 -99999.000
17029	 -0.424	 -0.272	 -0.229	  0.068	 -0.079	 -9.858	 -0.003	  0.001	  0.001	 34.900	 98.960	 -99999.000
17079	 -0.425	 -0.266	 -0.227	  0.117	 -0.047	 -9.813	 -0.003	  0.002	  0.001	 34.900	 98.968	 -99999.000
17129	 -0.423	 -0.274	 -0.229	  0.064	 -0.098	 -9.841	 -0.004	  0.002	  0.001	 34.900	 98.972	 -99999.000
17179	 -0.423	 -0.257	 -0.229	  0.072	 -0.069	 -9.818	 -0.003	  0.003	  0.001	 34.900	 98.983	 -99999.000
17229	 -0.424	 -0.272	 -0.228	  0.122	 -0.058	 -9.814	 -0.004	  0.001	  0.001	 34.900	 98.983	 -99999.000
17279	 -0.425	 -0.272	 -0.228	  0.051	 -0.078	 -9.838	 -0.004	  0.001	  0.001	 34.900	 98.972	 -99999.000
17329	 -0.425	 -0.273	 -0.227	  0.137	 -0.034	 -9.833	 -0.002	  0.002	  0.002	 34.900	 98.983	 -99999.000
17379	 -0.424	 -0.270	 -0.226	  0.032	 -0.078	 -9.820	 -0.004	  0.001	  0.001	 34.900	 98.972	 -99999.000
17429	 -0.424	 -0.273	 -0.228	  0.089	 -0.070	 -9.774	 -0.003	  0.002	  0.001	 34.900	 98.972	 -99999.000
17479	 -0.425	 -0.270	 -0.227	  0.085	 -0.102	 -9.801	 -0.004	  0.002	  0.001	 34.900	 98.972	 -99999.000
17529	 -0.424	 -0.270	 -0.223	  0.059	 -0.052	 -9.849	 -0.004	  0.001	  0.002	 34.900	 98.983	 -99999.000
17579	 -0.425	 -0.272	 -0.227	  0.108	 -0.082	 -9.901	 -0.004	  0.001	  0.000	 34.900	 98.972	 -99999.000
17629	 -0.424	 -0.269	 -0.227	  0.060	 -0.066	 -9.789	 -0.003	  0.002	  0.001	 34.900	 98.983	 -99999.000
17679	 -0.423	 -0.266	 -0.229	  0.122	 -0.103	 -9.808	 -0.003	  0.002	  0.002	 34.900	 98.972	 -99999.000
17729	 -0.424	 -0.272	 -0.227	  0.063	 -0.069	 -9.836	 -0.004	  0.002	  0.002	 34.900	 98.960	 -99999.000
17779	 -0.426	 -0.257	 -0.227	  0.065	 -0.052	 -9.815	 -0.005	  0.002	  0.001	 34.900	 98.972	 -99999.000
17829	 -0.425	 -0.261	 -0.226	  0.075	 -0.093	 -9.770	 -0.003	  0.002	  0.001	 34.900	 98.972	 -99999.000
17879	 -0.424	 -0.271	 -0.227	  0.087	 -0.058	 -9.838	 -0.003	  0.002	  0.001	 34.900	 98.972	 -99999.000
17929	 -0.425	 -0.267	 -0.226	  0.086	 -0.078	 -9.782	 -0.003	  0.001	  0.001	 34.900	 98.960	 -99999.000
17979	 -0.425	 -0.271	 -0.227	  0.121	 -0.102	 -9.815	 -0.002	  0.002	  0.001	 34.900	 98.983	 -99999.000
18029	 -0.423	 -0.271	 -0.228	  0.098	 -0.081	 -9.855	 -0.003	  0.003	  0.001	 34.900	 98.983	 -99999.000
18079	 -0.424	 -0.271	 -0.229	  0.092	 -0.087	 -9.828	 -0.003	  0.002	  0.001	 34.900	 98.972	 -99999.000
18129	 -0.423	 -0.273	 -0.229	  0.057	 -0.061	 -9.832	 -0.004	  0.001	  0.000	 34.900	 98.972	 -99999.000
18179	 -0.425	 -0.263	 -0.226	  0.091	 -0.108	 -9.834	 -0.004	  0.001	  0.002	 34.900	 98.983	 -99999.000
18229	 -0.425	 -0.272	 -0.226	  0.061	 -0.078	 -9.810	 -0.003	  0.001	  0.001	 34.900	 98.972	 -99999.000
18279	 -0.423	 -0.271	 -0.228	  0.075	 -0.070	 -9.797	 -0.003	  0.001	  0.001	 34.900	 98.983	 -99999.000
18329	 -0.423	 -0.273	 -0.223	  0.081	 -0.057	 -9.776	 -0.003	  0.004	  0.001	 34.900	 98.968	 -99999.000
18379	 -0.422	 -0.272	 -0.231	  0.055	 -0.101	 -9.849	 -0.002	  0.002	  0.001	 34.900	 98.983	 -99999.000
18429	 -0.422	 -0.271	 -0.235	  0.062	 -0.066	 -9.805	 -0.005	  0.002	  0.001	 34.900	 98.972	 -99999.000
18479	 -0.424	 -0.255	 -0.222	  0.087	 -0.107	 -9.829	 -0.003	  0.000	 -0.000	 34.900	 98.983	 -99999.000
18529	 -0.424	 -0.274	 -0.226	  0.092	 -0.091	 -9.863	 -0.003	  0.002	  0.001	 34.900	 98.983	 -99999.000
18579	 -0.422	 -0.273	 -0.228	  0.058	 -0.024	 -9.805	 -0.004	  0.003	  0.001	 34.900	 98.968	 -99999.000
18629	 -0.421	 -0.273	 -0.227	  0.124	 -0.113	 -9.800	 -0.004	  0.001	  0.002	 34.900	 98.983	 -99999.000
18679	 -0.423	 -0.269	 -0.228	  0.078	 -0.073	 -9.803	 -0.003	  0.002	  0.001	 34.900	 98.972	 -99999.000
18729	 -0.423	 -0.274	 -0.227	 -0.003	 -0.088	 -9.807	 -0.003	  0.002	  0.001	 34.900	 98.979	 -99999.000
18779	 -0.426	 -0.270	 -0.226	  0.206	 -0.089	 -9.777	 -0.003	  0.002	  0.001	 34.900	 98.972	 -99999.000
18829	 -0.425	 -0.272	 -0.234	  0.019	 -0.074	 -9.822	 -0.003	  0.002	  0.002	 34.900	 98.983	 -99999.000
18879	 -0.423	 -0.273	 -0.227	  0.072	 -0.064	 -9.843	 -0.003	  0.002	  0.002	 34.900	 98.972	 -99999.000
18929	 -0.424	 -0.270	 -0.228	  0.060	 -0.065	 -9.816	 -0.003	  0.001	  0.000	 34.900	 98.983	 -99999.000
18979	 -0.426	 -0.272	 -0.223	  0.062	 -0.084	 -9.829	 -0.004	  0.000	  0.000	 34.900	 98.983	 -99999.000
19029	 -0.425	 -0.271	 -0.227	  0.085	 -0.091	 -9.811	 -0.002	  0.003	  0.000	 34.900	 98.983	 -99999.000
19079	 -0.424	 -0.274	 -0.226	  0.062	 -0.062	 -9.873	 -0.005	  0.002	  0.001	 34.900	 98.983	 -99999.000
19129	 -0.423	 -0.268	 -0.227	  0.092	 -0.072	 -9.815	 -0.004	  0.002	  0.000	 34.900	 98.972	 -99999.000
19179	 -0.423	 -0.273	 -0.227	  0.065	 -0.060	 -9.847	 -0.003	  0.002	  0.001	 34.900	 98.983	 -99999.000
19229	 -0.424	 -0.273	 -0.227	  9.965	 -0.651	 -6.734	 -0.408	 -0.187	  0.668	 34.900	 98.972	 -99999.000
19279	 -0.420	 -0.288	 -0.244	 -0.825	  2.081	 -8.417	  0.288	  0.099	 -0.118	 34.900	 98.983	 -99999.000
19329	 -0.420	 -0.280	 -0.239	  0.456	 -0.138	 -9.721	 -0.007	  0.005	  0.185	 34.900	 98.983	 -99999.000
19379	 -0.422	 -0.282	 -0.239	  0.085	 -0.055	 -9.789	 -0.004	  0.002	  0.002	 34.900	 98.983	 -99999.000
19429	 -0.420	 -0.280	 -0.241	  0.038	 -0.101	 -9.823	 -0.003	  0.001	 -0.000	 34.900	 98.972	 -99999.000
19479	 -0.423	 -0.285	 -0.240	  0.102	 -0.096	 -9.836	 -0.003	  0.001	  0.001	 34.900	 98.983	 -99999.000
19529	 -0.420	 -0.286	 -0.240	  0.027	 -0.107	 -9.825	 -0.004	  0.002	  0.001	 34.900	 98.972	 -99999.000
19579	 -0.420	 -0.285	 -0.238	  0.108	 -0.093	 -9.867	 -0.004	  0.002	  0.001	 34.900	 98.968	 -99999.000
19629	 -0.420	 -0.287	 -0.240	  0.058	 -0.090	 -9.803	 -0.003	  0.003	  0.001	 34.900	 98.972	 -99999.000
19680	 -0.422	 -0.283	 -0.238	  0.096	 -0.088	 -9.797	 -0.004	  0.002	  0.001	 34.900	 98.972	 -99999.000
19729	 -0.423	 -0.282	 -0.244	  0.067	 -0.083	 -9.798	 -0.002	  0.002	  0.000	 34.900	 98.983	 -99999.000
19779	 -0.421	 -0.285	 -0.241	  0.072	 -0.086	 -9.827	 -0.004	  0.002	  0.001	 34.900	 98.983	 -99999.000
19829	 -0.422	 -0.282	 -0.239	  0.070	 -0.095	 -9.840	 -0.004	  0.002	  0.001	 34.900	 98.979	 -99999.000
19879	 -0.421	 -0.285	 -0.240	  0.056	 -0.075	 -9.842	 -0.004	  0.002	  0.001	 34.900	 98.972	 -99999.000
19929	 -0.424	 -0.281	 -0.238	  0.060	 -0.102	 -9.809	 -0.004	  0.003	  0.002	 34.900	 98.983	 -99999.000
19979	 -0.422	 -0.285	 -0.241	  0.068	 -0.095	 -9.819	 -0.003	  0.003	  0.001	 34.900	 98.983	 -99999.000
20030	 -0.420	 -0.267	 -0.237	  0.080	 -0.110	 -9.836	 -0.004	  0.003	  0.002	 34.900	 98.972	 -99999.000
20079	 -0.423	 -0.283	 -0.239	  0.075	 -0.071	 -9.836	 -0.004	  0.002	  0.002	 34.900	 98.972	 -99999.000
20129	 -0.422	 -0.274	 -0.239	  0.082	 -0.103	 -9.850	 -0.003	  0.001	  0.002	 34.900	 98.960	 -99999.000
20178	 -0.420	 -0.282	 -0.238	  0.083	 -0.092	 -9.851	 -0.003	  0.001	  0.001	 34.900	 98.995	 -99999.000
20228	 -0.422	 -0.277	 -0.236	  0.072	 -0.097	 -9.810	 -0.003	  0.001	  0.001	 34.900	 98.972	 -99999.000
20278	 -0.422	 -0.283	 -0.239	  0.072	 -0.069	 -9.834	 -0.003	  0.001	  0.001	 34.900	 98.983	 -99999.000
20328	 -0.421	 -0.271	 -0.237	  0.098	 -0.106	 -9.844	 -0.004	  0.002	  0.000	 34.900	 98.972	 -99999.000
20379	 -0.420	 -0.282	 -0.238	  0.081	 -0.099	 -9.798	 -0.004	  0.001	  0.001	 34.900	 98.983	 -99999.000
20429	 -0.421	 -0.285	 -0.239	  0.087	 -0.109	 -9.848	 -0.003	  0.002	  0.001	 34.900	 98.983	 -99999.000
20479	 -0.418	 -0.287	 -0.238	  0.086	 -0.084	 -9.814	 -0.003	  0.002	  0.001	 34.900	 98.983	 -99999.000
20529	 -0.418	 -0.282	 -0.240	  0.054	 -0.091	 -9.827	 -0.004	  0.001	  0.001	 34.900	 98.983	 -99999.000
20579	 -0.422	 -0.285	 -0.235	  0.058	 -0.086	 -9.880	 -0.004	  0.002	  0.001	 34.900	 98.976	 -99999.000
20629	 -0.420	 -0.282	 -0.240	  0.070	 -0.077	 -9.838	 -0.004	  0.003	  0.002	 34.900	 98.972	 -99999.000
20679	 -0.420	 -0.268	 -0.238	  0.087	 -0.068	 -9.822	 -0.003	  0.002	  0.001	 34.900	 98.972	 -99999.000
20729	 -0.423	 -0.282	 -0.239	  0.080	 -0.093	 -9.830	 -0.004	  0.002	  0.002	 34.900	 98.972	 -99999.000
20779	 -0.422	 -0.279	 -0.240	  0.062	 -0.101	 -9.802	 -0.004	  0.001	  0.001	 34.900	 98.983	 -99999.000
20830	 -0.424	 -0.280	 -0.243	  0.039	 -0.077	 -9.853	 -0.002	  0.004	  0.000	 34.900	 98.972	 -99999.000
20879	 -0.424	 -0.285	 -0.246	  0.085	 -0.087	 -9.819	 -0.003	  0.002	  0.000	 34.900	 98.972	 -99999.000
20929	 -0.424	 -0.285	 -0.238	  0.087	 -0.082	 -9.820	 -0.004	  0.003	  0.001	 34.900	 98.972	 -99999.000
20979	 -0.422	 -0.286	 -0.239	  0.085	 -0.104	 -9.803	 -0.003	  0.003	  0.002	 34.900	 98.972	 -99999.000
21029	 -0.425	 -0.285	 -0.241	  0.094	 -0.075	 -9.843	 -0.004	  0.002	  0.001	 34.900	 98.972	 -99999.000
21080	 -0.425	 -0.285	 -0.240	  0.061	 -0.110	 -9.821	 -0.004	  0.002	  0.000	 34.900	 98.983	 -99999.000
21129	 -0.425	 -0.285	 -0.242	  0.100	 -0.064	 -9.860	 -0.004	  0.002	  0.001	 34.900	 98.979	 -99999.000
21179	 -0.424	 -0.288	 -0.238	  0.093	 -0.115	 -9.851	 -0.004	  0.002	  0.001	 34.900	 98.983	 -99999.000
21229	 -0.424	 -0.277	 -0.239	  0.111	 -0.065	 -9.830	 -0.004	  0.002	 -0.000	 34.900	 98.995	 -99999.000
21279	 -0.424	 -0.285	 -0.242	  0.104	 -0.153	 -9.830	 -0.003	  0.001	  0.000	 34.900	 98.983	 -99999.000
21329	 -0.423	 -0.283	 -0.240	  0.073	 -0.039	 -9.792	 -0.003	  0.001	  0.002	 34.900	 98.972	 -99999.000
21379	 -0.422	 -0.281	 -0.240	  0.088	 -0.126	 -9.806	 -0.004	  0.002	 -0.000	 34.900	 98.972	 -99999.000
21429	 -0.419	 -0.283	 -0.244	  0.072	 -0.060	 -9.836	 -0.004	  0.002	  0.001	 34.900	 98.983	 -99999.000
21479	 -0.421	 -0.272	 -0.238	  0.106	 -0.125	 -9.849	 -0.004	  0.003	  0.001	 34.900	 98.983	 -99999.000
21529	 -0.420	 -0.283	 -0.240	  0.081	 -0.050	 -9.819	 -0.003	  0.001	  0.001	 34.900	 98.983	 -99999.000
21579	 -0.418	 -0.285	 -0.241	  0.052	 -0.124	 -9.814	 -0.003	  0.002	  0.001	 34.900	 98.979	 -99999.000
21629	 -0.422	 -0.276	 -0.239	  0.073	 -0.091	 -9.832	 -0.004	  0.002	  0.001	 34.900	 98.983	 -99999.000
21679	 -0.420	 -0.282	 -0.238	  0.080	 -0.079	 -9.852	 -0.004	  0.001	  0.001	 34.900	 98.972	 -99999.000
21729	 -0.422	 -0.281	 -0.237	  0.068	 -0.075	 -9.860	 -0.003	  0.002	  0.002	 34.900	 98.987	 -99999.000
21779	 -0.422	 -0.279	 -0.240	  0.064	 -0.096	 -9.847	 -0.003	  0.001	 -0.000	 34.900	 98.983	 -99999.000
21829	 -0.421	 -0.282	 -0.238	  0.079	 -0.070	 -9.782	 -0.002	  0.003	  0.001	 34.900	 98.972	 -99999.000
21879	 -0.420	 -0.283	 -0.239	  0.085	 -0.091	 -9.831	 -0.003	  0.002	  0.000	 34.900	 98.979	 -99999.000
21929	 -0.419	 -0.283	 -0.241	  0.048	 -0.090	 -9.826	 -0.003	  0.002	  0.002	 34.900	 98.995	 -99999.000
21979	 -0.421	 -0.281	 -0.237	  0.095	 -0.073	 -9.835	 -0.002	  0.001	  0.002	 34.900	 98.972	 -99999.000
22029	 -0.421	 -0.279	 -0.240	  0.045	 -0.083	 -9.819	 -0.003	  0.000	  0.000	 34.900	 98.983	 -99999.000
22079	 -0.420	 -0.288	 -0.247	  0.095	 -0.091	 -9.825	 -0.004	  0.002	  0.001	 34.900	 98.972	 -99999.000
22129	 -0.422	 -0.274	 -0.239	  0.072	 -0.096	 -9.814	 -0.005	  0.003	  0.001	 34.900	 98.972	 -99999.000
22179	 -0.421	 -0.288	 -0.239	  0.100	 -0.077	 -9.817	 -0.004	  0.002	  0.000	 34.900	 98.983	 -99999.000
22229	 -0.422	 -0.285	 -0.238	  0.074	 -0.112	 -9.856	 -0.005	  0.002	  0.001	 34.900	 98.979	 -99999.000
29954	 -0.421	 -0.282	 -0.237	  0.087	 -0.096	 -9.818	 -0.003	  0.003	 -0.000	 34.900	 98.968	  0.926
30004	 -0.420	 -0.285	 -0.239	  0.062	 -0.082	 -9.847	 -0.002	  0.004	  0.001	 34.900	 98.972	  0.562
30054	 -0.418	 -0.284	 -0.239	  0.074	 -0.087	 -9.797	 -0.003	  0.002	  0.001	 34.900	 98.979	 -0.075
30104	 -0.416	 -0.284	 -0.235	  0.092	 -0.080	 -9.829	 -0.003	  0.000	  0.001	 34.900	 98.972	  0.562
30154	 -0.420	 -0.287	 -0.236	  0.063	 -0.096	 -9.827	 -0.004	  0.002	  0.001	 34.900	 98.972	  0.562
30204	 -0.418	 -0.269	 -0.239	  0.083	 -0.087	 -9.826	 -0.004	  0.001	  0.000	 34.900	 98.983	 -0.439
30254	 -0.419	 -0.283	 -0.241	  0.083	 -0.088	 -9.839	 -0.004	  0.003	  0.001	 34.900	 98.983	 -0.439
30304	 -0.418	 -0.285	 -0.238	  0.076	 -0.088	 -9.830	 -0.003	  0.002	  0.001	 34.900	 98.983	 -0.439
30354	 -0.418	 -0.286	 -0.240	  0.085	 -0.058	 -9.813	 -0.003	  0.002	 -0.000	 34.900	 98.972	  0.562
30404	 -0.419	 -0.285	 -0.244	  0.084	 -0.103	 -9.843	 -0.003	  0.002	  0.001	 34.900	 98.995	 -1.532
30455	 -0.416	 -0.284	 -0.239	  0.072	 -0.094	 -9.828	 -0.003	  0.002	  0.002	 34.900	 98.983	 -0.439
30504	 -0.416	 -0.284	 -0.237	  0.089	 -0.103	 -9.816	 -0.004	  0.003	  0.001	 34.900	 98.983	 -0.439
30554	 -0.416	 -0.280	 -0.237	  0.053	 -0.081	 -9.816	 -0.003	  0.003	  0.001	 34.900	 98.972	  0.562
30604	 -0.415	 -0.285	 -0.235	  0.050	 -0.083	 -9.799	 -0.004	  0.002	  0.002	 34.900	 98.979	 -0.075
30654	 -0.416	 -0.280	 -0.238	  0.074	 -0.075	 -9.838	 -0.004	  0.001	  0.000	 34.900	 98.983	 -0.439
30705	 -0.414	 -0.284	 -0.235	  0.077	 -0.096	 -9.850	 -0.003	  0.003	  0.002	 34.900	 98.983	 -0.439
30755	 -0.417	 -0.285	 -0.237	  0.071	 -0.094	 -9.810	 -0.004	  0.002	  0.001	 34.900	 98.983	 -0.439
30805	 -0.418	 -0.286	 -0.239	  0.059	 -0.079	 -9.818	 -0.003	  0.002	  0.001	 34.900	 98.972	  0.562
30855	 -0.416	 -0.276	 -0.240	  0.072	 -0.085	 -9.781	 -0.004	  0.002	  0.000	 34.900	 98.972	  0.562
30905	 -0.416	 -0.285	 -0.240	  0.079	 -0.091	 -9.853	 -0.004	  0.002	  0.001	 34.900	 98.983	 -0.439
30955	 -0.418	 -0.285	 -0.238	  0.069	 -0.090	 -9.869	 -0.004	  0.002	  0.000	 34.900	 98.983	 -0.439
31005	 -0.417	 -0.282	 -0.234	  0.097	 -0.080	 -9.851	 -0.004	  0.002	  0.002	 34.900	 98.968	  0.926
31055	 -0.418	 -0.279	 -0.236	  0.057	 -0.094	 -9.824	 -0.003	  0.002	  0.002	 34.900	 98.972	  0.562
31105	 -0.418	 -0.283	 -0.242	  0.080	 -0.082	 -9.827	 -0.003	  0.003	  0.000	 34.900	 98.972	  0.562
31155	 -0.416	 -0.280	 -0.235	  0.078	 -0.084	 -9.819	 -0.004	  0.003	  0.001	 34.900	 98.983	 -0.439
31205	 -0.415	 -0.285	 -0.238	  0.052	 -0.073	 -9.783	 -0.003	  0.003	 -0.001	 34.900	 98.979	 -0.075
31255	 -0.417	 -0.290	 -0.239	  0.064	 -0.107	 -9.826	 -0.004	  0.002	  0.002	 34.900	 98.968	  0.926
31305	 -0.416	 -0.284	 -0.239	  0.088	 -0.105	 -9.804	 -0.002	  0.002	  0.001	 34.900	 98.979	 -0.075
31355	 -0.416	 -0.284	 -0.238	  0.056	 -0.077	 -9.828	 -0.003	  0.001	  0.001	 34.900	 98.983	 -0.439
31405	 -0.417	 -0.280	 -0.233	  0.063	 -0.088	 -9.838	 -0.004	  0.001	  0.001	 34.900	 98.983	 -0.439
31455	 -0.414	 -0.289	 -0.239	  0.048	 -0.082	 -9.806	 -0.003	  0.001	  0.001	 34.900	 98.983	 -0.439
31505	 -0.412	 -0.286	 -0.234	  0.100	 -0.123	 -9.781	 -0.004	  0.001	  0.001	 34.900	 98.972	  0.562
31555	 -0.414	 -0.292	 -0.236	  0.049	 -0.096	 -9.835	 -0.003	  0.003	  0.001	 34.900	 98.983	 -0.439
31605	 -0.412	 -0.298	 -0.243	  0.070	 -0.078	 -9.801	 -0.004	  0.002	  0.001	 34.900	 98.983	 -0.439
31655	 -0.417	 -0.304	 -0.245	  0.077	 -0.095	 -9.831	 -0.004	  0.003	  0.000	 34.900	 98.983	 -0.439
31705	 -0.419	 -0.299	 -0.241	  0.051	 -0.090	 -9.822	 -0.003	  0.002	  0.000	 34.900	 98.972	  0.562
31755	 -0.424	 -0.302	 -0.245	  0.086	 -0.079	 -9.813	 -0.004	  0.002	  0.001	 34.900	 98.979	 -0.075
31805	 -0.430	 -0.294	 -0.248	  0.050	 -0.079	 -9.835	 -0.003	  0.003	  0.001	 34.900	 98.972	  0.562
31855	 -0.429	 -0.291	 -0.246	  0.079	 -0.079	 -9.781	 -0.002	  0.001	  0.001	 34.900	 98.983	 -0.439
31905	 -0.432	 -0.288	 -0.244	  0.068	 -0.079	 -9.802	 -0.003	  0.002	  0.002	 34.900	 98.972	  0.562
31955	 -0.434	 -0.279	 -0.244	  0.070	 -0.103	 -9.798	 -0.004	  0.002	  0.002	 34.900	 98.983	 -0.439
32005	 -0.429	 -0.277	 -0.251	  0.126	 -0.192	 -10.125	 -0.000	  0.010	  0.001	 34.900	 98.972	  0.562
32055	 -0.430	 -0.277	 -0.245	 -0.550	 -0.152	 -9.804	 -0.010	  0.008	  0.413	 34.900	 98.983	 -0.439
32105	 -0.432	 -0.261	 -0.241	  0.449	 -0.160	 -9.605	 -0.006	  0.003	  0.673	 34.900	 98.983	 -0.439
32155	 -0.435	 -0.250	 -0.239	  0.538	  0.356	 -10.197	 -0.032	 -0.018	  0.148	 34.900	 98.983	 -0.439
32205	 -0.433	 -0.249	 -0.239	  0.641	 -0.360	 -9.416	 -0.022	 -0.008	  0.239	 34.900	 98.983	 -0.439
32255	 -0.436	 -0.247	 -0.239	  0.261	 -0.120	 -10.060	 -0.039	 -0.021	  0.024	 34.900	 98.983	 -0.439
32305	 -0.435	 -0.249	 -0.254	 -0.361	 -0.276	 -9.592	 -0.010	  0.003	  0.100	 34.900	 98.983	 -0.439
32355	 -0.432	 -0.252	 -0.249	  0.011	 -0.038	 -9.945	 -0.001	  0.006	  0.001	 34.900	 98.972	  0.562
32405	 -0.434	 -0.248	 -0.247	  0.066	 -0.074	 -9.835	 -0.003	 -0.001	  0.001	 34.900	 98.983	 -0.439
32455	 -0.430	 -0.248	 -0.251	  0.046	 -0.098	 -9.849	 -0.005	  0.002	  0.001	 34.900	 98.979	 -0.075
32505	 -0.431	 -0.248	 -0.253	  0.060	 -0.084	 -9.849	 -0.002	  0.002	  0.017	 34.900	 98.972	  0.562
32555	 -0.431	 -0.240	 -0.249	  0.179	 -0.049	 -9.780	  0.011	  0.012	  0.033	 34.900	 98.983	 -0.439
32605	 -0.429	 -0.245	 -0.250	 -0.233	  1.033	 -9.681	 -0.021	  0.248	  0.229	 34.900	 98.983	 -0.439
32655	 -0.425	 -0.237	 -0.250	  0.382	 -0.822	 -11.952	  0.266	  0.793	  0.087	 34.900	 98.983	 -0.439
32705	 -0.401	 -0.243	 -0.249	  2.150	 -0.294	 -10.567	  0.048	  1.264	  0.154	 34.900	 98.990	 -1.077
32755	 -0.370	 -0.253	 -0.246	  2.128	  0.697	 -9.281	 -0.642	  0.547	 -0.513	 34.900	 98.983	 -0.439
32805	 -0.351	 -0.253	 -0.243	  0.729	  0.680	 -9.573	 -0.632	  0.550	 -0.199	 34.900	 98.979	 -0.075
32855	 -0.335	 -0.251	 -0.247	  2.676	  0.207	 -10.192	  0.067	  0.333	  0.081	 34.900	 98.972	  0.562
32905	 -0.313	 -0.239	 -0.240	  1.609	 -0.327	 -9.939	 -0.696	  0.303	 -0.464	 34.900	 98.972	  0.562
32955	 -0.289	 -0.267	 -0.228	  2.673	  1.128	 -10.461	  0.198	  0.829	 -0.205	 34.900	 98.972	  0.562
33005	 -0.262	 -0.287	 -0.235	  2.134	  1.697	 -11.278	 -0.123	  0.603	 -0.910	 34.900	 98.983	 -0.439
33055	 -0.230	 -0.293	 -0.226	  2.359	 -0.257	 -6.883	 -0.549	  0.674	 -0.645	 34.900	 98.983	 -0.439
33105	 -0.210	 -0.314	 -0.238	 -0.388	  3.486	 -7.529	  0.473	  0.005	 -0.247	 34.900	 98.983	 -0.439
33155	 -0.234	 -0.298	 -0.241	  2.535	  0.489	 -8.797	  0.505	 -0.452	  0.589	 34.900	 98.983	 -0.439
33205	 -0.252	 -0.301	 -0.244	  2.594	  1.066	 -9.113	 -0.009	 -0.373	  0.362	 34.900	 98.972	  0.562
33255	 -0.271	 -0.303	 -0.254	  3.142	  0.665	 -9.559	  0.186	 -0.465	  0.390	 34.900	 98.972	  0.562
33305	 -0.284	 -0.303	 -0.258	  2.601	  0.318	 -8.832	 -0.098	 -0.290	  0.117	 34.900	 98.979	 -0.075
33355	 -0.301	 -0.313	 -0.279	  1.820	 -0.685	 -8.497	  0.903	  0.253	  0.699	 34.900	 98.972	  0.562
33405	 -0.308	 -0.321	 -0.310	  3.661	  0.345	 -12.543	  0.002	 -0.321	  0.214	 34.900	 98.972	  0.562
33455	 -0.310	 -0.333	 -0.328	  2.214	 -0.307	 -9.859	  0.509	  0.533	  0.074	 34.900	 98.979	 -0.075
33505	 -0.308	 -0.354	 -0.355	  3.625	  0.246	 -10.862	  0.482	  0.510	 -0.248	 34.900	 98.968	  0.926
33555	 -0.300	 -0.367	 -0.368	  1.492	 -0.319	 -8.594	 -0.040	 -0.316	 -0.770	 34.900	 98.983	 -0.439
33605	 -0.294	 -0.373	 -0.373	  1.671	 -0.313	 -8.951	  0.045	 -0.166	 -0.172	 34.900	 98.983	 -0.439
33655	 -0.292	 -0.379	 -0.381	  4.259	 -0.640	 -9.926	 -0.006	  0.039	 -0.399	 34.900	 98.983	 -0.439
33705	 -0.265	 -0.390	 -0.392	  2.597	 -0.354	 -9.809	 -0.470	  0.356	 -0.732	 34.900	 98.972	  0.562
33755	 -0.240	 -0.400	 -0.393	 -0.964	  2.147	 -8.061	  0.047	  0.099	  0.162	 34.900	 98.979	 -0.075
33805	 -0.258	 -0.380	 -0.388	  2.717	  0.005	 -9.150	  0.275	  0.355	  1.136	 34.900	 98.979	 -0.075
33855	 -0.267	 -0.371	 -0.386	  2.791	 -1.469	 -6.444	 -0.400	 -0.174	 -0.139	 34.900	 98.979	 -0.075
33905	 -0.279	 -0.376	 -0.390	  1.990	 -0.924	 -8.113	 -0.062	 -0.998	  0.171	 34.900	 98.995	 -1.532
33955	 -0.306	 -0.372	 -0.388	  1.192	 -0.246	 -9.395	 -0.202	 -1.456	  0.122	 34.900	 98.979	 -0.075
34004	 -0.336	 -0.378	 -0.389	  2.958	  0.835	 -10.981	 -0.089	 -0.613	 -0.128	 34.900	 98.983	 -0.439
34054	 -0.336	 -0.381	 -0.387	  0.228	  0.010	 -8.093	 -0.002	 -0.507	 -0.315	 34.900	 98.995	 -1.532
34104	 -0.364	 -0.370	 -0.388	 -0.536	  0.843	 -10.153	 -0.113	 -1.084	  0.601	 34.900	 98.979	 -0.075
34154	 -0.398	 -0.331	 -0.367	  1.407	 -1.961	 -9.200	 -0.032	 -0.499	  0.457	 34.900	 98.983	 -0.439
34204	 -0.411	 -0.319	 -0.347	  0.855	  0.100	 -11.504	 -0.028	 -0.254	  0.050	 34.900	 98.995	 -1.532
34254	 -0.416	 -0.309	 -0.336	  0.800	 -0.506	 -9.780	 -0.009	 -0.125	 -0.100	 34.900	 98.972	  0.562
34304	 -0.416	 -0.303	 -0.323	  1.364	 -0.520	 -9.527	 -0.031	 -0.206	 -0.175	 34.900	 98.972	  0.562
34354	 -0.417	 -0.313	 -0.331	 -0.223	  0.636	 -9.521	 -0.018	 -0.046	 -0.495	 34.900	 98.979	 -0.075
34404	 -0.412	 -0.324	 -0.326	 -0.294	  0.536	 -10.267	 -0.220	 -0.081	 -0.261	 34.900	 98.972	  0.562
34454	 -0.413	 -0.324	 -0.324	  0.417	 -0.146	 -10.185	  0.026	 -0.041	 -0.164	 34.900	 98.968	  0.926
34504	 -0.416	 -0.321	 -0.327	  0.178	  0.003	 -9.858	  0.009	 -0.010	 -0.006	 34.900	 98.979	 -0.075
34554	 -0.419	 -0.321	 -0.322	 -0.891	  0.206	 -9.848	  0.010	  0.001	  0.099	 34.900	 98.972	  0.562
34604	 -0.419	 -0.317	 -0.328	  0.759	 -0.239	 -9.913	  0.033	 -0.018	 -0.022	 34.900	 98.983	 -0.439
34654	 -0.421	 -0.308	 -0.319	 -0.097	  0.131	 -9.347	  0.116	  0.017	  0.087	 34.900	 98.979	 -0.075
34704	 -0.426	 -0.312	 -0.317	  0.054	 -0.070	 -9.747	  0.011	 -0.003	  0.001	 34.900	 98.972	  0.562
34754	 -0.424	 -0.308	 -0.316	  0.429	  0.391	 -9.475	  0.004	 -0.050	 -0.091	 34.900	 98.972	  0.562
34804	 -0.423	 -0.311	 -0.312	 -1.170	 -0.922	 -9.421	  0.021	  0.005	 -0.107	 34.900	 98.983	 -0.439
34854	 -0.426	 -0.309	 -0.315	  0.838	  0.080	 -9.844	  0.009	 -0.013	 -0.297	 34.900	 98.979	 -0.075
34904	 -0.427	 -0.302	 -0.311	 -0.509	  0.116	 -9.743	  0.299	 -0.099	  0.559	 34.900	 98.972	  0.562
34954	 -0.425	 -0.287	 -0.315	  0.027	 -1.908	  1.280	 -0.130	 -0.124	  0.018	 34.900	 98.972	  0.562
35004	 -0.425	 -0.300	 -0.314	 -1.171	 -0.238	 -10.087	  0.079	  0.025	  0.673	 34.900	 98.983	 -0.439
35054	 -0.424	 -0.298	 -0.311	  0.835	  0.324	 -8.030	  0.047	 -0.047	 -0.256	 34.900	 98.983	 -0.439
35104	 -0.426	 -0.306	 -0.318	 -0.090	  0.068	 -10.343	  0.034	  0.038	  0.070	 34.900	 98.983	 -0.439
35154	 -0.427	 -0.302	 -0.312	  0.536	 -0.570	 -9.638	  0.003	  0.033	  0.145	 34.900	 98.983	 -0.439
35204	 -0.428	 -0.302	 -0.314	  0.205	 -0.121	 -9.846	 -0.002	  0.005	 -0.034	 34.900	 98.972	  0.562
35254	 -0.427	 -0.301	 -0.314	  0.081	 -0.025	 -9.791	 -0.007	  0.007	 -0.012	 34.900	 98.983	 -0.439
35304	 -0.427	 -0.306	 -0.318	 -0.050	 -0.248	 -9.696	 -0.046	 -0.012	 -0.004	 34.900	 98.979	 -0.075
35354	 -0.424	 -0.303	 -0.315	 -0.225	 -0.225	 -10.228	 -0.023	  0.020	  0.216	 34.900	 98.983	 -0.439
35404	 -0.425	 -0.306	 -0.315	 -0.095	  0.056	 -10.119	  0.016	 -0.010	 -0.001	 34.900	 98.979	 -0.075
35454	 -0.425	 -0.300	 -0.314	  0.871	 -1.955	 -6.082	  0.651	  0.388	  0.119	 34.900	 98.983	 -0.439
35504	 -0.424	 -0.293	 -0.312	  0.085	  0.170	 -9.705	 -0.002	 -0.008	 -0.106	 34.900	 98.968	  0.926
35554	 -0.424	 -0.306	 -0.317	 -0.439	  0.229	 -9.741	 -0.004	  0.004	 -0.024	 34.900	 98.995	 -1.532
35604	 -0.422	 -0.303	 -0.310	 -0.133	  0.078	 -9.478	 -0.022	  0.012	 -0.145	 34.900	 98.972	  0.562
35654	 -0.424	 -0.305	 -0.311	  0.052	 -0.224	 -9.510	 -0.005	 -0.002	  0.021	 34.900	 98.972	  0.562
35704	 -0.427	 -0.304	 -0.316	 -0.020	 -0.999	 -10.747	 -0.553	 -0.108	  0.077	 34.900	 98.979	 -0.075
35755	 -0.423	 -0.305	 -0.316	 -1.473	  0.305	 -8.062	  0.210	  0.062	  0.429	 34.900	 98.979	 -0.075
35805	 -0.429	 -0.309	 -0.322	 -0.445	  0.194	 -9.732	  0.057	  0.028	 -0.253	 34.900	 98.979	 -0.075
35854	 -0.428	 -0.312	 -0.322	  0.591	 -0.049	 -8.540	 -0.033	  0.022	 -0.043	 34.900	 98.968	  0.926
35904	 -0.428	 -0.315	 -0.330	  0.890	 -0.225	 -9.705	 -0.074	  0.055	 -0.078	 34.900	 98.972	  0.562
35954	 -0.420	 -0.329	 -0.337	  2.166	 -0.098	 -10.450	 -0.141	  0.173	 -0.199	 34.900	 98.979	 -0.075
36004	 -0.401	 -0.360	 -0.366	  3.514	 -0.252	 -10.410	 -0.073	  0.607	 -0.832	 34.900	 98.972	  0.562
36054	 -0.336	 -0.426	 -0.415	  1.126	  0.090	 -10.506	 -0.230	  0.888	 -1.626	 34.900	 98.972	  0.562
36105	 -0.261	 -0.482	 -0.456	 -0.043	  0.401	 -10.141	 -0.284	  0.756	 -1.241	 34.900	 98.979	 -0.075
36154	 -0.192	 -0.521	 -0.481	 -1.013	 -0.755	 -7.537	  1.077	  0.516	 -0.632	 34.900	 98.983	 -0.439
36205	 -0.170	 -0.603	 -0.496	  2.538	 -0.658	 -18.567	  0.231	 -0.299	 -0.382	 34.900	 98.979	 -0.075
36254	 -0.131	 -0.576	 -0.502	  4.263	 -1.717	 -8.790	 -0.951	  0.724	 -0.752	 34.900	 98.983	 -0.439
36305	 -0.078	 -0.590	 -0.477	 -0.269	  1.387	 -7.687	  1.070	  0.524	 -0.441	 34.900	 98.968	  0.926
36355	 -0.052	 -0.589	 -0.467	  1.560	  0.155	 -9.613	 -0.323	  0.338	 -0.964	 34.900	 98.979	 -0.075
36405	 -0.034	 -0.594	 -0.461	  2.867	  0.854	 -8.323	  0.476	 -0.291	 -0.585	 34.900	 98.995	 -1.532
36455	 -0.040	 -0.601	 -0.472	  1.752	  0.024	 -11.308	  0.082	 -1.245	 -0.438	 34.900	 98.979	 -0.075
36505	 -0.075	 -0.581	 -0.460	  0.431	 -0.225	 -10.168	  0.341	 -1.550	  0.209	 34.900	 98.979	 -0.075
36555	 -0.126	 -0.553	 -0.438	  0.635	 -0.560	 -11.074	 -0.019	 -1.354	  0.536	 34.900	 98.979	 -0.075
36605	 -0.143	 -0.518	 -0.406	 -0.105	 -0.544	 -9.931	  0.011	 -0.323	  0.082	 34.900	 98.960	  1.655
36655	 -0.132	 -0.488	 -0.371	 -0.158	 -0.192	 -10.780	 -0.275	 -0.044	  0.264	 34.900	 98.983	 -0.439
36705	 -0.116	 -0.456	 -0.353	  0.727	 -0.021	 -8.594	 -0.427	  0.623	 -0.454	 34.900	 98.979	 -0.075
36755	 -0.079	 -0.438	 -0.337	 -0.067	  0.438	 -8.850	 -0.025	  1.096	 -0.171	 34.900	 98.979	 -0.075
36805	 -0.051	 -0.423	 -0.327	 -0.375	  0.379	 -8.276	 -0.420	  1.472	 -0.315	 34.900	 98.983	 -0.439
36855	 -0.040	 -0.431	 -0.325	  1.792	 -0.090	 -8.883	  0.787	  0.154	  0.943	 34.900	 98.990	 -1.077
36905	 -0.040	 -0.434	 -0.313	  1.474	  1.653	 -11.277	 -0.433	 -0.189	 -0.964	 34.900	 98.972	  0.562
36955	 -0.022	 -0.425	 -0.322	 -0.322	  1.160	 -9.151	  0.548	  0.044	 -0.381	 34.900	 98.979	 -0.075
37005	 -0.032	 -0.428	 -0.321	  2.404	 -0.454	 -9.857	 -0.115	  0.049	  0.150	 34.900	 98.968	  0.926
37055	 -0.037	 -0.435	 -0.331	  2.177	 -0.043	 -8.492	  0.725	  0.104	  0.388	 34.900	 98.979	 -0.075
37105	 -0.051	 -0.453	 -0.348	  1.916	 -0.466	 -10.709	  0.724	  0.345	  0.319	 34.900	 98.983	 -0.439
37155	 -0.068	 -0.470	 -0.382	  0.665	 -0.017	 -8.487	 -0.292	 -0.464	  0.693	 34.900	 98.972	  0.562
37205	 -0.096	 -0.462	 -0.404	  2.794	 -1.328	 -12.649	 -0.056	 -0.017	  0.571	 34.900	 98.979	 -0.075
37255	 -0.115	 -0.452	 -0.421	  1.277	  0.673	 -10.170	  0.494	 -0.361	  0.760	 34.900	 98.972	  0.562
37305	 -0.133	 -0.442	 -0.436	 -0.122	 -2.484	 -8.676	 -0.192	 -0.164	  0.269	 34.900	 98.979	 -0.075
37355	 -0.151	 -0.438	 -0.440	  0.898	 -1.409	 -9.337	 -0.115	 -0.494	  0.577	 34.900	 98.979	 -0.075
37405	 -0.157	 -0.434	 -0.451	  1.663	 -2.760	 -8.325	  0.294	 -0.021	 -0.185	 34.900	 98.990	 -1.077
37455	 -0.152	 -0.462	 -0.453	 -0.103	 -2.023	 -10.700	  0.341	 -0.417	  0.178	 34.900	 98.979	 -0.075
37505	 -0.165	 -0.458	 -0.439	 -0.159	 -1.731	 -10.191	 -0.477	 -1.153	  0.897	 34.900	 98.979	 -0.075
37555	 -0.202	 -0.460	 -0.429	 -0.023	 -0.922	 -9.449	 -0.429	 -1.343	  1.611	 34.900	 98.983	 -0.439
37605	 -0.241	 -0.451	 -0.407	 -5.527	 -0.471	 -12.777	 -0.671	 -0.748	  1.939	 34.900	 98.983	 -0.439
37655	 -0.247	 -0.437	 -0.385	  0.470	  0.299	 -8.318	  0.105	 -0.194	  0.593	 34.900	 98.968	  0.926
37705	 -0.258	 -0.441	 -0.352	 -3.663	 -0.326	 -10.671	 -0.048	 -1.338	  0.772	 34.900	 98.979	 -0.075
37755	 -0.278	 -0.423	 -0.311	 -0.910	  0.291	 -10.379	  0.041	 -1.345	  1.447	 34.900	 98.972	  0.562
37805	 -0.294	 -0.416	 -0.281	 -3.109	  0.562	 -10.611	  0.362	 -1.887	  1.103	 34.900	 98.972	  0.562
37855	 -0.307	 -0.381	 -0.236	 -5.284	  0.162	 -10.003	 -0.113	 -2.357	  1.267	 34.900	 98.979	 -0.075
37905	 -0.304	 -0.348	 -0.215	 -4.529	  0.542	 -8.609	 -0.141	 -1.721	  0.509	 34.900	 98.979	 -0.075
37955	 -0.279	 -0.324	 -0.204	 -5.452	  1.492	 -9.329	 -0.134	 -1.252	  0.377	 34.900	 98.979	 -0.075
38005	 -0.250	 -0.302	 -0.229	 -5.724	  0.790	 -6.405	 -0.429	 -1.415	  0.133	 34.900	 98.968	  0.926
38055	 -0.222	 -0.281	 -0.254	 -6.598	  0.882	 -7.333	 -0.178	 -0.571	  0.302	 34.900	 98.983	 -0.439
38105	 -0.181	 -0.269	 -0.290	 -6.022	  0.531	 -6.333	 -0.286	  0.029	  0.125	 34.900	 98.983	 -0.439
38155	 -0.139	 -0.250	 -0.317	 -6.155	  1.025	 -7.496	 -0.387	 -0.050	  0.125	 34.900	 98.979	 -0.075
38205	 -0.105	 -0.228	 -0.337	 -6.500	  0.700	 -7.215	 -0.391	 -0.117	 -0.029	 34.900	 98.972	  0.562
38255	 -0.072	 -0.214	 -0.337	 -5.126	  1.669	 -6.386	  0.440	  0.630	 -0.362	 34.900	 98.972	  0.562
38305	 -0.042	 -0.216	 -0.319	 -6.966	  1.061	 -7.319	  0.574	  1.052	 -0.252	 34.900	 98.983	 -0.439
38355	 -0.018	 -0.219	 -0.288	 -6.632	  1.199	 -8.196	  0.145	  0.518	 -0.239	 34.900	 98.979	 -0.075
38405	  0.000	 -0.217	 -0.261	 -6.016	  0.668	 -8.615	  0.132	  0.296	 -0.368	 34.900	 98.968	  0.926
38455	  0.033	 -0.222	 -0.241	 -5.533	 -0.037	 -8.163	 -0.098	  0.202	 -0.392	 34.900	 98.968	  0.926
38505	  0.056	 -0.207	 -0.209	 -4.475	  0.327	 -7.383	 -0.157	 -0.016	 -0.494	 34.900	 98.983	 -0.439
38555	  0.070	 -0.201	 -0.185	 -6.100	 -0.195	 -8.421	 -0.361	  0.122	  0.119	 34.900	 98.990	 -1.077
38605	  0.088	 -0.194	 -0.155	 -5.152	  0.918	 -9.071	 -0.489	  0.347	  0.412	 34.900	 98.979	 -0.075
38655	  0.109	 -0.166	 -0.133	 -5.030	  1.082	 -8.538	 -0.417	  0.610	  0.158	 34.900	 98.972	  0.562
38705	  0.128	 -0.169	 -0.105	 -4.914	  1.154	 -8.077	 -0.458	  0.597	  0.004	 34.900	 98.972	  0.562
38755	  0.144	 -0.161	 -0.082	 -4.660	  1.348	 -8.051	 -0.346	  0.661	 -0.007	 34.900	 98.983	 -0.439
38805	  0.147	 -0.158	 -0.042	 -4.662	  1.881	 -8.493	 -0.631	  0.760	  0.333	 34.900	 98.972	  0.562
38855	  0.151	 -0.162	 -0.022	 -3.925	  1.996	 -8.382	 -0.525	  0.668	 -0.034	 34.900	 98.983	 -0.439
38905	  0.151	 -0.165	  0.014	 -3.952	  2.027	 -8.737	 -0.254	  0.661	  0.169	 34.900	 98.979	 -0.075
38955	  0.150	 -0.167	  0.037	 -4.057	  2.144	 -8.768	 -0.032	  0.273	  0.088	 34.900	 98.983	 -0.439
39005	  0.150	 -0.169	  0.061	 -3.703	  1.642	 -9.473	  0.112	  0.265	 -0.147	 34.900	 98.979	 -0.075
39055	  0.144	 -0.175	  0.088	 -3.387	  1.848	 -9.675	 -0.334	 -0.014	 -0.122	 34.900	 98.968	  0.926
39105	  0.139	 -0.174	  0.103	 -3.883	  1.594	 -8.834	 -0.082	 -0.114	 -0.015	 34.900	 98.979	 -0.075
39155	  0.120	 -0.172	  0.129	 -3.684	  1.778	 -8.878	  0.182	 -0.280	 -0.460	 34.900	 98.990	 -1.077
39205	  0.107	 -0.179	  0.144	 -4.694	  0.688	 -8.589	  0.108	  0.096	 -0.323	 34.900	 98.979	 -0.075
39255	  0.070	 -0.199	  0.158	 -3.889	  1.152	 -8.481	 -0.196	  0.090	 -0.323	 34.900	 98.968	  0.926
39305	  0.041	 -0.219	  0.169	 -4.309	  0.897	 -8.354	 -0.312	  0.496	 -0.141	 34.900	 98.983	 -0.439
39355	  0.009	 -0.247	  0.170	 -2.898	  2.221	 -8.469	  0.092	  0.562	 -0.352	 34.900	 98.983	 -0.439
39405	 -0.010	 -0.253	  0.173	 -3.955	  1.835	 -8.861	 -0.117	  0.282	 -0.634	 34.900	 98.972	  0.562
39455	 -0.028	 -0.254	  0.171	 -2.349	  2.354	 -8.659	 -0.126	  0.172	  0.003	 34.900	 98.979	 -0.075
39505	 -0.030	 -0.277	  0.179	 -3.140	  2.647	 -8.632	 -0.370	 -0.146	 -0.391	 34.900	 98.968	  0.926
39555	 -0.038	 -0.284	  0.174	 -2.597	  3.030	 -8.800	 -0.093	  0.211	  0.160	 34.900	 98.979	 -0.075
39605	 -0.042	 -0.294	  0.173	 -2.409	  2.391	 -8.878	 -0.038	  0.122	 -0.222	 34.900	 98.968	  0.926
39655	 -0.045	 -0.302	  0.175	 -3.302	  1.570	 -9.706	  0.006	  0.080	 -0.039	 34.900	 98.979	 -0.075
39705	 -0.049	 -0.305	  0.173	 -2.920	  1.532	 -9.256	 -0.107	  0.182	 -0.231	 34.900	 98.983	 -0.439
39755	 -0.048	 -0.303	  0.180	 -2.908	  1.585	 -9.887	  0.129	  0.415	 -0.692	 34.900	 98.983	 -0.439
39805	 -0.053	 -0.307	  0.181	 -3.616	  2.017	 -10.068	  0.165	  0.694	 -0.440	 34.900	 98.972	  0.562
39855	 -0.054	 -0.308	  0.187	 -2.919	  2.647	 -9.237	  0.306	  0.262	 -0.824	 34.900	 98.983	 -0.439
39905	 -0.051	 -0.303	  0.189	 -3.209	  1.937	 -8.786	  0.276	  0.163	 -0.562	 34.900	 98.983	 -0.439
39955	 -0.049	 -0.311	  0.196	 -2.309	  2.256	 -8.299	 -0.067	 -0.087	  0.001	 34.900	 98.972	  0.562
40005	 -0.047	 -0.308	  0.196	 -1.885	  1.797	 -8.802	  0.083	  0.033	 -0.093	 34.900	 98.972	  0.562
40055	 -0.044	 -0.306	  0.197	 -2.600	  1.369	 -9.699	  0.062	  0.092	 -0.247	 34.900	 98.972	  0.562
40105	 -0.043	 -0.307	  0.203	 -2.207	  0.526	 -9.478	  0.029	 -0.106	 -0.420	 34.900	 98.968	  0.926
40155	 -0.038	 -0.308	  0.199	 -2.728	 -0.298	 -9.949	  0.009	 -0.086	 -0.195	 34.900	 98.983	 -0.439
40205	 -0.040	 -0.309	  0.205	 -1.753	  0.608	 -9.842	  0.072	  0.197	 -0.227	 34.900	 98.979	 -0.075
40255	 -0.041	 -0.306	  0.206	 -3.158	  1.055	 -10.465	  0.305	  0.287	 -0.105	 34.900	 98.983	 -0.439
40305	 -0.039	 -0.302	  0.206	 -2.758	  2.284	 -10.051	  0.375	 -0.129	 -0.091	 34.900	 98.983	 -0.439
40355	 -0.034	 -0.300	  0.217	 -2.690	  1.944	 -9.617	  0.648	 -0.249	 -0.403	 34.900	 98.972	  0.562
40405	 -0.027	 -0.289	  0.221	 -2.356	  1.376	 -9.137	  0.561	 -0.143	 -0.322	 34.900	 98.983	 -0.439
40455	 -0.021	 -0.282	  0.223	 -1.719	  0.128	 -8.214	  0.538	 -0.230	 -0.755	 34.900	 98.968	  0.926
40505	 -0.011	 -0.263	  0.228	 -2.958	 -1.329	 -8.362	  0.122	 -0.163	 -0.476	 34.900	 98.968	  0.926
40555	 -0.007	 -0.277	  0.229	 -2.579	 -1.182	 -8.251	 -0.324	  0.069	  0.121	 34.900	 98.972	  0.562
40605	 -0.013	 -0.285	  0.228	 -3.176	 -0.783	 -8.049	 -0.468	  0.536	  0.344	 34.900	 98.972	  0.562
40655	 -0.026	 -0.282	  0.225	 -3.125	  0.226	 -8.483	 -0.459	  1.281	  0.438	 34.900	 98.983	 -0.439
40705	 -0.046	 -0.303	  0.223	 -2.927	  0.418	 -8.324	 -0.398	  1.164	  0.347	 34.900	 98.990	 -1.077
40755	 -0.067	 -0.310	  0.220	 -1.682	  0.683	 -7.285	 -0.542	  0.731	  0.444	 34.900	 98.968	  0.926
40805	 -0.074	 -0.322	  0.216	 -3.568	  0.700	 -8.310	 -0.774	 -0.457	  0.225	 34.900	 98.979	 -0.075
40855	 -0.075	 -0.339	  0.208	 -2.005	  1.815	 -9.583	 -0.662	  0.107	  0.106	 34.900	 98.979	 -0.075
40905	 -0.080	 -0.347	  0.211	 -0.516	  2.117	 -10.503	  0.068	  0.990	 -0.996	 34.900	 98.983	 -0.439
40955	 -0.086	 -0.350	  0.208	 -0.494	  1.730	 -11.808	  0.233	  0.986	 -1.414	 34.900	 98.968	  0.926
41004	 -0.080	 -0.351	  0.212	  0.730	  2.029	 -10.492	  0.312	  0.232	 -1.659	 34.900	 98.979	 -0.075
41055	 -0.060	 -0.352	  0.219	  1.108	  1.692	 -10.015	  0.138	 -0.580	 -1.402	 34.900	 98.979	 -0.075
41105	 -0.044	 -0.338	  0.218	  0.056	  1.721	 -9.735	 -0.131	 -0.634	 -0.870	 34.900	 98.979	 -0.075
41155	 -0.023	 -0.349	  0.217	 -0.028	  1.950	 -9.789	 -0.112	 -0.507	 -1.003	 34.900	 98.979	 -0.075
41204	 -0.010	 -0.348	  0.216	 -0.930	  1.026	 -9.343	  0.184	  0.117	 -0.888	 34.900	 98.956	  2.019
41255	 -0.005	 -0.346	  0.218	 -0.243	  0.174	 -9.456	  0.427	  0.676	 -1.084	 34.900	 98.972	  0.562
41304	 -0.009	 -0.337	  0.226	 -1.475	 -1.006	 -9.807	  0.059	  0.811	 -0.357	 34.900	 98.960	  1.655
41354	 -0.018	 -0.335	  0.224	 -0.198	  0.280	 -10.292	  0.033	  0.965	 -0.431	 34.900	 98.979	 -0.075
41404	 -0.024	 -0.342	  0.232	 -0.238	  0.332	 -9.849	  0.197	  0.692	 -0.316	 34.900	 98.972	  0.562
41454	 -0.031	 -0.344	  0.235	  1.059	  0.542	 -9.101	 -0.155	  0.419	 -0.269	 34.900	 98.979	 -0.075
41504	 -0.035	 -0.340	  0.237	  0.703	  0.129	 -9.404	  0.048	  0.523	  0.110	 34.900	 98.983	 -0.439
41555	 -0.045	 -0.349	  0.233	  2.047	  0.805	 -9.821	 -0.148	  0.131	  0.297	 34.900	 98.983	 -0.439
41604	 -0.042	 -0.350	  0.235	 -0.101	 -0.511	 -10.807	 -0.002	 -0.374	  0.512	 34.900	 98.983	 -0.439
41655	 -0.055	 -0.354	  0.236	  0.845	  0.093	 -9.566	 -0.252	  0.583	  1.022	 34.900	 98.972	  0.562
41704	 -0.077	 -0.352	  0.235	  1.251	 -0.120	 -8.992	  0.439	  0.934	  0.463	 34.900	 98.979	 -0.075
41754	 -0.094	 -0.351	  0.242	  0.983	  0.366	 -8.902	  0.122	  0.792	  0.129	 34.900	 98.979	 -0.075
41804	 -0.106	 -0.348	  0.243	  3.027	  0.308	 -9.664	  0.543	  0.361	  0.461	 34.900	 98.968	  0.926
41854	 -0.113	 -0.340	  0.249	  1.143	 -0.098	 -10.114	  0.160	  0.379	 -0.210	 34.900	 98.983	 -0.439
41905	 -0.122	 -0.346	  0.254	  3.863	 -0.898	 -11.301	 -0.476	  0.138	  0.262	 34.900	 98.968	  0.926
41954	 -0.130	 -0.351	  0.241	  3.891	  0.603	 -10.696	 -1.004	  0.422	  0.167	 34.900	 98.979	 -0.075
42005	 -0.133	 -0.364	  0.238	  3.571	  1.810	 -11.497	 -0.246	 -0.261	  0.074	 34.900	 98.983	 -0.439
42055	 -0.126	 -0.362	  0.231	  2.001	  1.092	 -8.602	 -0.498	 -0.504	  0.084	 34.900	 98.983	 -0.439
42105	 -0.125	 -0.365	  0.234	  1.734	  1.004	 -9.378	  0.270	 -0.286	  0.189	 34.900	 98.983	 -0.439
42155	 -0.121	 -0.368	  0.235	  2.112	  0.171	 -9.601	 -0.340	 -0.502	  0.272	 34.900	 98.983	 -0.439
42205	 -0.121	 -0.371	  0.230	  1.621	  1.198	 -8.946	 -0.269	  0.098	  0.114	 34.900	 98.979	 -0.075
42255	 -0.128	 -0.371	  0.222	  1.596	  0.173	 -9.084	 -0.058	  0.265	  0.192	 34.900	 98.968	  0.926
42305	 -0.133	 -0.371	  0.224	  0.950	  0.729	 -10.197	  0.275	  0.227	  0.225	 34.900	 98.979	 -0.075
42355	 -0.139	 -0.369	  0.231	  2.652	  0.509	 -10.187	  0.031	  0.307	  0.258	 34.900	 98.979	 -0.075
42405	 -0.145	 -0.360	  0.231	  2.136	  0.954	 -9.776	  0.243	  0.419	  0.216	 34.900	 98.968	  0.926
42455	 -0.153	 -0.360	  0.231	  2.729	  0.535	 -8.901	  0.249	  0.442	  0.130	 34.900	 98.972	  0.562
42505	 -0.160	 -0.356	  0.234	  2.939	  0.166	 -10.067	  0.220	  0.550	 -0.119	 34.900	 98.968	  0.926
42555	 -0.164	 -0.355	  0.229	  2.588	  0.506	 -8.851	  0.054	  0.090	  0.041	 34.900	 98.968	  0.926
42605	 -0.166	 -0.351	  0.230	  3.634	  0.388	 -9.061	  0.113	  0.182	  0.088	 34.900	 98.972	  0.562
42655	 -0.165	 -0.353	  0.227	  2.920	  0.276	 -8.915	 -0.258	 -0.046	 -0.074	 34.900	 98.983	 -0.439
42705	 -0.162	 -0.358	  0.228	  3.002	  0.528	 -8.979	 -0.145	 -0.124	 -0.071	 34.900	 98.972	  0.562
42755	 -0.164	 -0.359	  0.228	  2.493	  0.585	 -9.546	 -0.162	 -0.095	 -0.069	 34.900	 98.979	 -0.075
42805	 -0.161	 -0.344	  0.226	  2.564	  0.429	 -9.451	  0.143	 -0.064	  0.024	 34.900	 98.979	 -0.075
42855	 -0.162	 -0.354	  0.227	  2.756	  0.175	 -9.636	 -0.023	 -0.213	  0.040	 34.900	 98.979	 -0.075
42905	 -0.155	 -0.352	  0.229	  3.234	  0.292	 -9.300	  0.226	 -0.290	 -0.028	 34.900	 98.979	 -0.075
42955	 -0.154	 -0.353	  0.229	  2.464	  0.081	 -9.879	 -0.024	 -0.358	 -0.027	 34.900	 98.979	 -0.075
43005	 -0.148	 -0.351	  0.232	  2.131	  0.528	 -9.896	  0.207	  0.022	 -0.022	 34.900	 98.979	 -0.075
43055	 -0.153	 -0.340	  0.231	  2.234	  0.363	 -9.177	 -0.037	 -0.110	  0.117	 34.900	 98.972	  0.562
43105	 -0.154	 -0.347	  0.230	  2.251	  0.317	 -9.683	  0.154	 -0.066	  0.198	 34.900	 98.979	 -0.075
43155	 -0.154	 -0.338	  0.225	  2.569	  0.175	 -9.286	 -0.054	  0.012	  0.043	 34.900	 98.972	  0.562
43205	 -0.156	 -0.343	  0.231	  2.243	  0.096	 -9.812	  0.021	  0.081	 -0.080	 34.900	 98.979	 -0.075
43255	 -0.153	 -0.345	  0.228	  2.320	  0.260	 -9.154	 -0.195	  0.055	 -0.137	 34.900	 98.990	 -1.077
43305	 -0.155	 -0.346	  0.229	  2.085	 -0.014	 -9.457	 -0.000	 -0.089	 -0.011	 34.900	 98.983	 -0.439
43355	 -0.151	 -0.346	  0.222	  2.627	 -0.643	 -11.679	 -0.253	 -0.172	 -0.126	 34.900	 98.979	 -0.075
43405	 -0.149	 -0.345	  0.224	  4.180	 -0.080	 -16.814	  0.479	 -0.096	  0.130	 34.900	 98.968	  0.926
43455	 -0.138	 -0.331	  0.240	  3.453	  0.287	 -14.306	  1.119	 -0.201	 -0.329	 34.900	 98.983	 -0.439
43505	 -0.125	 -0.314	  0.247	  0.872	  1.124	 -9.781	  0.735	 -0.510	 -0.315	 34.900	 98.979	 -0.075
43555	 -0.111	 -0.282	  0.266	 -2.406	 -2.144	 15.017	  2.701	 -0.348	  0.820	 34.900	 98.968	  0.926
43605	 -0.118	 -0.299	  0.262	 -1.064	  0.323	  8.601	 -3.734	 -0.076	 -0.355	 34.900	 98.968	  0.926
43655	 -0.135	 -0.351	  0.223	 12.473	 20.292	 -61.335	 -2.728	  0.828	 -0.210	 34.900	 98.995	 -1.532
43705	 -0.119	 -0.315	  0.253	 -3.079	 -3.243	  8.123	  4.215	 -1.898	  0.834	 34.900	 98.983	 -0.439
43755	 -0.126	 -0.330	  0.237	  3.142	  0.649	 -27.076	 -6.307	  2.915	 -1.844	 34.900	 98.983	 -0.439
43805	 -0.148	 -0.350	  0.222	  8.603	  2.621	 -23.942	  5.203	 -0.971	  0.733	 34.900	 98.968	  0.926
43855	 -0.117	 -0.296	  0.255	 -1.249	 -4.948	 13.863	 -1.564	 -0.788	 -0.293	 34.900	 98.972	  0.562
43905	 -0.137	 -0.356	  0.214	  6.134	  7.776	 -32.343	  0.546	  1.867	 -0.564	 34.900	 98.983	 -0.439
43955	 -0.119	 -0.318	  0.248	 -0.424	  0.231	 18.117	  0.920	 -2.506	  1.057	 34.900	 98.968	  0.926
44005	 -0.127	 -0.353	  0.221	  0.703	  1.542	 -29.174	 -2.489	  3.548	 -1.216	 34.900	 98.979	 -0.075
44055	 -0.139	 -0.349	  0.227	  4.099	  0.118	 -8.131	  1.546	 -0.871	  0.927	 34.900	 98.979	 -0.075
44105	 -0.114	 -0.327	  0.243	  1.752	 -0.584	 -6.925	  0.752	 -1.924	  0.652	 34.900	 98.979	 -0.075
44155	 -0.103	 -0.324	  0.242	  1.736	 -0.479	 -8.521	 -0.282	  0.675	 -0.806	 34.900	 98.983	 -0.439
44205	 -0.112	 -0.333	  0.236	 -0.990	  1.726	 -8.035	 -0.261	  0.970	 -0.863	 34.900	 98.972	  0.562
44255	 -0.099	 -0.338	  0.231	  2.415	  3.292	 -13.181	 -0.229	 -0.745	 -0.427	 34.900	 98.983	 -0.439
44305	 -0.094	 -0.350	  0.226	  1.007	  1.413	 -12.192	 -1.093	  0.357	 -0.638	 34.900	 98.968	  0.926
44355	 -0.092	 -0.321	  0.242	 -1.207	 -8.934	 16.512	  4.631	  0.219	  2.121	 34.900	 98.972	  0.562
44405	 -0.123	 -0.278	  0.258	 -1.934	 -6.792	 21.339	 -2.901	  0.465	 -2.000	 34.900	 98.956	  2.019
44455	 -0.139	 -0.376	  0.200	 10.890	 23.461	 -82.592	 -1.290	  0.794	  0.380	 34.900	 98.979	 -0.075
44505	 -0.107	 -0.318	  0.240	 -3.368	  3.556	  3.121	  3.519	 -4.750	  1.375	 34.900	 98.968	  0.926
44555	 -0.076	 -0.295	  0.256	  4.543	 -3.993	 20.698	 -4.982	  2.448	 -1.767	 34.900	 98.968	  0.926
44605	 -0.131	 -0.375	  0.199	 20.272	  8.455	 -43.603	  0.711	 -0.919	  1.052	 34.900	 98.979	 -0.075
44655	 -0.071	 -0.317	  0.242	 -2.246	 -9.657	 32.565	  2.234	 -3.038	  0.109	 34.900	 98.968	  0.926
44705	 -0.117	 -0.356	  0.216	  3.624	  8.724	 -32.790	 -3.329	  7.313	 -2.790	 34.900	 98.979	 -0.075
44755	 -0.086	 -0.325	  0.243	  0.502	 -0.267	 10.592	  3.630	 -7.403	  3.156	 34.900	 98.972	  0.562
44805	 -0.079	 -0.339	  0.229	  3.179	 -9.266	 -24.431	 -5.965	  8.515	 -3.495	 34.900	 98.972	  0.562
44855	 -0.114	 -0.348	  0.225	  6.683	  7.069	 -7.728	  4.427	 -5.266	  2.933	 34.900	 98.972	  0.562
44905	 -0.053	 -0.309	  0.253	  1.722	 -1.096	  9.488	 -1.628	 -0.906	 -1.223	 34.900	 98.968	  0.926
44955	 -0.106	 -0.361	  0.215	  5.152	 14.223	 -34.627	  0.782	  2.386	 -0.747	 34.900	 98.979	 -0.075
45005	 -0.073	 -0.321	  0.242	 -4.036	  0.547	 20.337	  0.651	 -4.297	  2.750	 34.900	 98.983	 -0.439
45055	 -0.087	 -0.352	  0.221	  4.217	 -6.228	 -21.262	 -1.839	  5.985	 -3.106	 34.900	 98.968	  0.926
45105	 -0.095	 -0.346	  0.228	  2.178	  0.804	 -9.031	  1.634	 -1.624	  1.076	 34.900	 98.979	 -0.075
45155	 -0.078	 -0.328	  0.241	  3.077	 -0.537	 -5.720	  0.759	 -1.158	  0.760	 34.900	 98.983	 -0.439
45205	 -0.077	 -0.325	  0.243	  4.035	  1.393	 -9.863	 -0.214	  1.231	 -1.107	 34.900	 98.979	 -0.075
45255	 -0.083	 -0.313	  0.238	  0.212	  1.544	 -9.030	  1.543	  0.686	 -0.438	 34.900	 98.968	  0.926
45305	 -0.085	 -0.312	  0.240	  1.384	  0.099	 -11.322	 -0.244	 -0.060	  0.016	 34.900	 98.983	 -0.439
45355	 -0.087	 -0.309	  0.230	  2.840	 -0.780	 -9.469	  0.276	  0.321	 -0.402	 34.900	 98.979	 -0.075
45405	 -0.083	 -0.307	  0.225	  0.492	 -2.125	 -10.186	 -0.056	 -0.261	 -0.604	 34.900	 98.979	 -0.075
45455	 -0.070	 -0.308	  0.223	  1.769	 -1.379	 -10.021	 -0.102	 -0.734	 -0.576	 34.900	 98.983	 -0.439
45505	 -0.060	 -0.319	  0.216	  1.174	 -0.535	 -9.761	 -1.194	  0.317	 -0.384	 34.900	 98.975	  0.289
45555	 -0.067	 -0.315	  0.210	  1.692	  0.253	 -10.151	 -0.165	  1.196	 -0.765	 34.900	 98.990	 -1.077
45605	 -0.062	 -0.318	  0.202	  1.263	  0.637	 -7.209	 -0.136	  0.150	 -0.768	 34.900	 98.968	  0.926
45655	 -0.056	 -0.310	  0.207	  2.864	  0.011	 -9.146	 -0.219	 -0.356	 -0.301	 34.900	 98.979	 -0.075
45705	 -0.043	 -0.311	  0.202	  1.281	 -0.192	 -7.265	  0.166	 -0.585	 -0.638	 34.900	 98.972	  0.562
45755	 -0.027	 -0.315	  0.198	  1.347	  0.697	 -9.301	 -0.465	 -1.276	 -0.621	 34.900	 98.979	 -0.075
45805	 -0.003	 -0.321	  0.190	 -1.979	  3.092	 -7.021	  0.274	 -0.637	 -0.738	 34.900	 98.979	 -0.075
45855	 -0.002	 -0.315	  0.188	  1.694	 -0.909	 -7.831	 -0.973	 -0.027	 -0.248	 34.900	 98.979	 -0.075
45905	 -0.004	 -0.321	  0.188	  3.161	 -0.057	 -9.751	 -0.302	  0.040	  0.174	 34.900	 98.979	 -0.075
45955	 -0.007	 -0.320	  0.189	  2.124	 -0.236	 -11.118	  1.018	 -0.252	  0.448	 34.900	 98.979	 -0.075
46005	 -0.013	 -0.312	  0.193	  2.062	  0.515	 -12.087	  0.677	  0.429	  1.037	 34.900	 98.979	 -0.075
46055	 -0.027	 -0.304	  0.203	  2.059	  0.884	 -11.999	  1.356	  0.635	  1.505	 34.900	 98.968	  0.926
46105	 -0.040	 -0.283	  0.214	  2.151	  0.922	 -11.648	  0.561	 -0.176	  1.834	 34.900	 98.979	 -0.075
46155	 -0.040	 -0.271	  0.222	  0.834	  0.630	 -11.134	  0.392	 -0.302	  2.809	 34.900	 98.990	 -1.077
46205	 -0.048	 -0.266	  0.224	  0.290	  1.202	 -9.742	  0.408	 -0.474	  3.437	 34.900	 98.979	 -0.075
46255	 -0.046	 -0.242	  0.235	 -0.300	  0.836	 -9.552	  1.245	 -0.305	  2.824	 34.900	 98.979	 -0.075
46305	 -0.047	 -0.230	  0.238	 -1.386	  0.049	 -10.037	  1.009	  0.074	  3.354	 34.900	 98.979	 -0.075
46355	 -0.056	 -0.226	  0.248	 -0.876	  0.090	 -8.757	  0.727	  0.169	  3.949	 34.900	 98.968	  0.926
46405	 -0.069	 -0.217	  0.264	 -0.989	 -0.153	 -10.013	  0.733	  0.308	  4.148	 34.900	 98.979	 -0.075
46454	 -0.095	 -0.204	  0.268	 -1.153	 -0.548	 -9.610	  1.124	  0.655	  4.069	 34.900	 98.968	  0.926
46504	 -0.120	 -0.180	  0.274	 -1.383	 -1.539	 -9.839	  0.817	  0.940	  3.953	 34.900	 98.968	  0.926
46554	 -0.150	 -0.151	  0.267	 -1.134	 -1.313	 -9.646	  0.133	  1.625	  4.355	 34.900	 98.979	 -0.075
46604	 -0.167	 -0.126	  0.258	 -0.886	 -1.376	 -8.259	 -0.143	  1.266	  3.958	 34.900	 98.972	  0.562
46654	 -0.173	 -0.105	  0.249	 -1.165	 -1.590	 -9.001	 -0.482	  1.394	  4.528	 34.900	 98.979	 -0.075
46704	 -0.172	 -0.085	  0.241	 -0.253	 -0.815	 -8.882	 -0.121	  1.370	  4.128	 34.900	 98.972	  0.562
46754	 -0.171	 -0.066	  0.242	 -1.240	 -1.922	 -10.498	 -0.195	  1.377	  4.148	 34.900	 98.983	 -0.439
46804	 -0.164	 -0.062	  0.246	  0.069	 -0.623	 -9.740	  0.040	  1.010	  3.845	 34.900	 98.983	 -0.439
46854	 -0.158	 -0.046	  0.244	 -2.640	 -0.338	 -11.570	  0.370	  0.877	  3.537	 34.900	 98.968	  0.926
46904	 -0.152	 -0.042	  0.251	 -0.836	  0.151	 -11.428	  0.511	  0.697	  2.695	 34.900	 98.979	 -0.075
46954	 -0.155	 -0.035	  0.241	 -2.333	  0.594	 -10.916	  0.278	  0.929	  2.737	 34.900	 98.979	 -0.075
47004	 -0.154	 -0.016	  0.257	 -1.699	  0.562	 -9.287	  0.108	  0.651	  2.100	 34.900	 98.979	 -0.075
47054	 -0.157	 -0.023	  0.261	 -1.760	  1.486	 -8.966	 -0.053	  0.087	  1.530	 34.900	 98.983	 -0.439
47104	 -0.157	 -0.018	  0.266	 -2.090	  1.753	 -8.441	  0.316	  0.396	  0.907	 34.900	 98.972	  0.562
47154	 -0.158	 -0.013	  0.270	 -1.589	  1.067	 -8.166	 -0.113	  0.099	  0.325	 34.900	 98.979	 -0.075
47204	 -0.163	 -0.018	  0.269	 -0.973	  0.178	 -8.314	  0.022	  0.107	  0.199	 34.900	 98.983	 -0.439
47254	 -0.167	 -0.018	  0.275	 -0.921	 -0.700	 -9.330	  0.089	  0.204	  0.174	 34.900	 98.983	 -0.439
47304	 -0.173	 -0.008	  0.278	  0.081	 -1.347	 -9.963	  0.021	  0.369	  0.305	 34.900	 98.979	 -0.075
47354	 -0.176	 -0.008	  0.279	 -0.184	 -0.476	 -10.357	 -0.128	 -0.326	  0.422	 34.900	 98.968	  0.926
47404	 -0.167	 -0.023	  0.284	  0.267	  0.101	 -9.813	 -0.183	 -0.088	  0.310	 34.900	 98.968	  0.926
47454	 -0.168	 -0.009	  0.287	 -0.460	 -1.168	 -11.254	 -0.507	 -0.210	  0.550	 34.900	 98.979	 -0.075
47505	 -0.166	 -0.028	  0.293	  0.367	 -0.732	 -9.836	 -0.209	  0.419	  0.447	 34.900	 98.983	 -0.439
47554	 -0.174	 -0.028	  0.294	  0.271	 -0.335	 -9.407	 -0.369	  0.281	  0.444	 34.900	 98.968	  0.926
47605	 -0.176	 -0.041	  0.302	  0.637	 -1.041	 -9.746	 -0.560	 -0.046	  0.101	 34.900	 98.979	 -0.075
47654	 -0.176	 -0.049	  0.309	  0.054	 -1.054	 -9.794	 -0.694	 -0.088	  0.315	 34.900	 98.972	  0.562
47704	 -0.182	 -0.054	  0.314	  0.270	 -0.504	 -8.770	 -0.050	  0.150	  0.004	 34.900	 98.972	  0.562
47755	 -0.180	 -0.059	  0.315	  0.001	 -1.080	 -10.247	 -0.602	 -0.319	  0.581	 34.900	 98.983	 -0.439
47804	 -0.173	 -0.069	  0.323	  0.344	 -0.680	 -8.516	 -0.231	 -0.362	  0.144	 34.900	 98.968	  0.926
47855	 -0.176	 -0.066	  0.327	 -0.396	 -1.263	 -9.928	 -0.084	 -0.146	  0.223	 34.900	 98.983	 -0.439
47905	 -0.170	 -0.064	  0.334	  0.427	 -0.473	 -9.080	 -0.327	 -0.324	  0.063	 34.900	 98.968	  0.926
47955	 -0.179	 -0.068	  0.346	 -1.116	 -0.849	 -9.130	 -0.250	  0.329	  0.708	 34.900	 98.968	  0.926
48005	 -0.187	 -0.069	  0.354	  1.548	 -0.903	 -9.666	 -0.261	  0.222	 -0.001	 34.900	 98.968	  0.926
48055	 -0.198	 -0.074	  0.360	 -1.211	 -1.828	 -9.978	  0.025	  0.245	 -0.748	 34.900	 98.968	  0.926
48105	 -0.217	 -0.072	  0.360	 -0.025	 -1.528	 -11.641	 -0.176	  0.285	 -0.836	 34.900	 98.983	 -0.439
48155	 -0.235	 -0.078	  0.366	 -0.160	 -1.026	 -11.312	 -0.181	  0.425	 -0.875	 34.900	 98.979	 -0.075
48205	 -0.252	 -0.069	  0.369	  0.849	  0.319	 -10.577	  0.671	  0.266	 -0.847	 34.900	 98.968	  0.926
48255	 -0.265	 -0.059	  0.367	 -0.880	  1.101	 -10.549	  0.069	  0.069	 -0.548	 34.900	 98.979	 -0.075
48305	 -0.272	 -0.032	  0.375	  0.612	  0.503	 -5.811	  1.088	 -0.156	 -0.424	 34.900	 98.979	 -0.075
48355	 -0.279	 -0.019	  0.369	 -1.739	  1.330	 -11.308	 -0.068	  0.646	 -0.225	 34.900	 98.983	 -0.439
48405	 -0.305	  0.001	  0.354	  0.533	  1.954	 -11.330	  0.513	  1.611	  0.597	 34.900	 98.972	  0.562
48455	 -0.324	  0.005	  0.338	  0.359	  1.652	 -8.634	 -0.619	  0.119	  0.127	 34.900	 98.968	  0.926
48505	 -0.320	  0.013	  0.348	  1.105	  1.375	 -10.601	 -0.400	 -0.145	 -0.085	 34.900	 98.972	  0.562
48555	 -0.319	 -0.001	  0.355	  0.634	  1.327	 -9.210	 -0.501	 -0.462	 -0.346	 34.900	 98.983	 -0.439
48605	 -0.311	 -0.002	  0.359	  0.709	  1.043	 -10.338	 -0.220	 -0.440	 -0.576	 34.900	 98.995	 -1.532
48655	 -0.304	 -0.014	  0.368	  0.385	  0.386	 -9.833	 -0.706	 -0.201	 -0.228	 34.900	 98.979	 -0.075
48705	 -0.305	 -0.017	  0.368	  0.738	  0.475	 -8.373	  0.494	  0.133	 -0.590	 34.900	 98.968	  0.926
48755	 -0.308	 -0.008	  0.363	 -0.827	 -1.024	 -10.672	 -0.119	 -0.153	 -0.530	 34.900	 98.979	 -0.075
48805	 -0.307	 -0.016	  0.366	 -0.079	 -1.041	 -9.623	  0.226	 -0.177	 -0.635	 34.900	 98.983	 -0.439
48855	 -0.300	 -0.008	  0.368	 -0.789	 -1.468	 -11.725	  0.399	 -0.121	 -0.486	 34.900	 98.968	  0.926
48905	 -0.301	  0.009	  0.359	  0.366	  0.076	 -11.928	  0.317	  0.522	  0.047	 34.900	 98.979	 -0.075
48955	 -0.300	  0.010	  0.356	  1.167	  1.078	 -10.371	 -0.352	 -0.102	  0.107	 34.900	 98.983	 -0.439
49005	 -0.283	  0.013	  0.359	  1.944	  1.062	 -10.051	  0.075	 -0.661	 -0.422	 34.900	 98.983	 -0.439
49055	 -0.266	  0.023	  0.359	  0.948	  1.546	 -10.560	  0.695	 -0.319	 -0.195	 34.900	 98.972	  0.562
49105	 -0.255	  0.026	  0.357	  0.856	  1.225	 -9.622	 -0.218	 -0.352	  0.024	 34.900	 98.979	 -0.075
49155	 -0.247	  0.020	  0.360	  0.390	  0.520	 -9.368	 -0.477	  0.361	  0.430	 34.900	 98.979	 -0.075
49205	 -0.242	  0.010	  0.356	  0.609	  0.361	 -7.883	 -0.470	  0.315	  0.375	 34.900	 98.979	 -0.075
49255	 -0.233	  0.021	  0.353	 -0.572	  0.861	 -7.057	  0.350	 -0.003	  0.801	 34.900	 98.979	 -0.075
49305	 -0.226	  0.022	  0.345	  2.060	  0.055	 -10.102	 -0.644	  0.422	  0.843	 34.900	 98.979	 -0.075
49355	 -0.224	  0.007	  0.349	  1.353	  0.018	 -6.272	 -0.638	 -0.335	  0.052	 34.900	 98.972	  0.562
49405	 -0.200	  0.000	  0.353	  0.665	 -0.673	 -11.333	 -0.334	 -0.786	 -0.109	 34.900	 98.979	 -0.075
49455	 -0.190	 -0.001	  0.354	 -1.012	  0.560	 -9.983	  0.930	  0.140	 -0.093	 34.900	 98.972	  0.562
49505	 -0.192	  0.011	  0.335	  0.843	  0.644	 -13.212	  0.647	  0.447	 -0.089	 34.900	 98.979	 -0.075
49555	 -0.200	  0.014	  0.335	 -0.242	  1.075	 -12.038	  0.104	  0.820	  0.287	 34.900	 98.979	 -0.075
49605	 -0.209	  0.026	  0.320	  1.741	  0.668	 -9.339	  0.809	  0.787	  0.070	 34.900	 98.968	  0.926
49655	 -0.213	  0.025	  0.319	  1.746	  1.359	 -12.017	 -0.251	  0.300	  0.297	 34.900	 98.995	 -1.532
49705	 -0.213	  0.013	  0.315	  2.410	  0.597	 -8.016	 -0.884	 -0.092	  0.297	 34.900	 98.968	  0.926
49755	 -0.200	  0.004	  0.324	  1.732	  0.873	 -6.747	 -0.014	 -0.714	  0.173	 34.900	 98.979	 -0.075
49805	 -0.184	  0.002	  0.331	  0.613	  0.092	 -7.989	  0.026	 -0.630	 -0.130	 34.900	 98.983	 -0.439
49855	 -0.174	  0.001	  0.321	 -0.458	 -0.279	 -8.358	  0.183	 -0.235	  0.361	 34.900	 98.979	 -0.075
49905	 -0.168	  0.000	  0.322	  0.469	 -0.388	 -9.469	 -0.374	  0.454	  0.661	 34.900	 98.979	 -0.075
49955	 -0.170	 -0.007	  0.326	  0.645	  0.269	 -9.278	 -0.406	  0.378	  1.018	 34.900	 98.983	 -0.439
50005	 -0.172	 -0.007	  0.327	  1.316	  1.365	 -10.720	 -0.034	  0.786	  1.323	 34.900	 98.979	 -0.075
50055	 -0.174	 -0.001	  0.326	  2.951	  1.635	 -11.229	  0.073	  0.243	  0.939	 34.900	 98.968	  0.926
50105	 -0.170	 -0.008	  0.326	  2.389	  1.513	 -12.456	 -0.846	 -0.005	  0.594	 34.900	 98.979	 -0.075
50155	 -0.160	 -0.013	  0.333	  1.562	  2.183	 -9.493	 -0.093	 -0.428	  0.755	 34.900	 98.979	 -0.075
50205	 -0.145	 -0.017	  0.331	  1.600	  2.432	 -11.337	 -0.382	 -0.362	  0.996	 34.900	 98.972	  0.562
50255	 -0.138	 -0.026	  0.336	  1.291	  1.393	 -7.964	 -0.602	  0.036	  0.623	 34.900	 98.972	  0.562
50305	 -0.129	 -0.035	  0.334	  0.989	  1.109	 -7.609	  0.129	 -0.383	  0.545	 34.900	 98.979	 -0.075
50355	 -0.128	 -0.035	  0.338	 -0.300	  0.641	 -7.911	 -0.113	  0.111	  0.106	 34.900	 98.979	 -0.075
50405	 -0.124	 -0.031	  0.339	  0.769	  0.611	 -10.046	  0.047	 -0.119	  0.121	 34.900	 98.979	 -0.075
50455	 -0.127	 -0.037	  0.337	  0.460	  0.772	 -10.289	 -0.443	  0.147	 -0.229	 34.900	 98.983	 -0.439
50505	 -0.133	 -0.049	  0.335	  0.484	  1.408	 -10.399	 -0.060	  0.269	 -0.407	 34.900	 98.979	 -0.075
50555	 -0.138	 -0.046	  0.333	  1.163	  1.549	 -10.066	  0.956	 -0.029	 -0.415	 34.900	 98.979	 -0.075
50605	 -0.141	 -0.034	  0.329	  0.544	  1.958	 -12.711	  0.243	 -0.249	 -0.646	 34.900	 98.968	  0.926
50655	 -0.147	 -0.045	  0.332	  1.229	  1.920	 -9.370	 -0.292	  0.499	 -0.709	 34.900	 98.979	 -0.075
50705	 -0.156	 -0.037	  0.332	  1.274	  2.701	 -11.202	  0.301	  0.232	 -0.864	 34.900	 98.968	  0.926
50755	 -0.171	 -0.053	  0.330	  1.607	  1.998	 -9.644	 -0.422	  0.709	 -0.814	 34.900	 98.972	  0.562
50805	 -0.182	 -0.068	  0.332	  1.700	  1.905	 -8.743	 -0.826	 -0.348	 -0.971	 34.900	 98.979	 -0.075
50855	 -0.170	 -0.094	  0.335	  1.238	  1.981	 -7.588	 -0.577	 -0.786	 -0.999	 34.900	 98.972	  0.562
50905	 -0.158	 -0.104	  0.332	  0.469	  1.702	 -7.228	  0.394	 -0.638	 -0.813	 34.900	 98.979	 -0.075
50955	 -0.154	 -0.100	  0.343	  0.685	  1.184	 -8.907	  0.573	 -0.258	 -0.615	 34.900	 98.968	  0.926
51005	 -0.154	 -0.096	  0.343	  0.327	  1.414	 -9.822	  0.309	  0.324	 -0.276	 34.900	 98.968	  0.926
51055	 -0.166	 -0.091	  0.342	  0.862	  1.963	 -9.776	  0.208	  0.326	  0.405	 34.900	 98.979	 -0.075
51105	 -0.170	 -0.074	  0.346	  2.290	  2.293	 -9.684	  0.410	  0.081	  0.241	 34.900	 98.968	  0.926
51155	 -0.166	 -0.078	  0.342	  2.136	  2.526	 -12.630	  0.290	 -0.372	  0.050	 34.900	 98.979	 -0.075
51205	 -0.163	 -0.074	  0.335	  0.384	  2.499	 -8.905	  0.659	 -0.185	  0.240	 34.900	 98.979	 -0.075
51255	 -0.161	 -0.067	  0.348	  1.155	  1.435	 -11.615	  0.137	  0.234	  0.373	 34.900	 98.979	 -0.075
51305	 -0.167	 -0.058	  0.343	  1.353	  0.709	 -7.000	  0.626	  0.044	  0.385	 34.900	 98.979	 -0.075
51355	 -0.164	 -0.049	  0.348	  0.308	 -0.883	 -9.323	  0.019	 -0.194	  0.269	 34.900	 98.979	 -0.075
51405	 -0.163	 -0.054	  0.345	 -0.006	 -0.571	 -7.849	 -0.062	  0.018	  0.276	 34.900	 98.979	 -0.075
51455	 -0.167	 -0.057	  0.350	  0.393	 -2.131	 -7.823	 -0.804	  0.660	  0.380	 34.900	 98.979	 -0.075
51505	 -0.190	 -0.070	  0.348	  0.451	 -0.503	 -10.241	 -0.829	  1.302	  0.642	 34.900	 98.968	  0.926
51555	 -0.205	 -0.073	  0.346	  1.913	  0.025	 -7.887	  0.876	  0.104	  0.544	 34.900	 98.979	 -0.075
51605	 -0.196	 -0.055	  0.346	  1.753	  1.151	 -14.711	  0.142	 -0.703	  0.086	 34.900	 98.979	 -0.075
51655	 -0.189	 -0.061	  0.343	  1.385	  2.234	 -11.617	 -0.290	 -0.696	 -0.152	 34.900	 98.983	 -0.439
51705	 -0.179	 -0.067	  0.355	  0.728	  1.065	 -11.636	 -0.542	 -0.262	 -0.254	 34.900	 98.968	  0.926
51755	 -0.177	 -0.058	  0.357	  1.457	  1.372	 -10.244	  0.792	 -0.403	 -0.034	 34.900	 98.968	  0.926
51805	 -0.172	 -0.057	  0.363	 -0.316	  1.279	 -11.151	 -0.477	 -0.201	  0.174	 34.900	 98.979	 -0.075
51855	 -0.171	 -0.062	  0.362	  0.881	  1.094	 -8.423	 -0.340	 -0.343	  0.570	 34.900	 98.968	  0.926
51905	 -0.164	 -0.065	  0.365	  0.437	 -0.050	 -8.919	  0.028	  0.206	  0.843	 34.900	 98.983	 -0.439
51955	 -0.172	 -0.057	  0.355	  1.070	  0.339	 -7.794	 -0.330	  0.361	  0.768	 34.900	 98.972	  0.562
52005	 -0.169	 -0.054	  0.365	  1.081	  0.137	 -8.600	 -0.051	 -0.318	  1.062	 34.900	 98.968	  0.926
52055	 -0.154	 -0.048	  0.364	  2.054	  0.569	 -9.663	  0.238	 -0.593	  1.071	 34.900	 98.960	  1.655
52105	 -0.136	 -0.043	  0.368	  1.764	  1.948	 -11.230	 -0.311	 -0.703	  1.015	 34.900	 98.990	 -1.077
52155	 -0.116	 -0.049	  0.375	  1.925	  2.302	 -10.275	 -0.740	 -0.390	  1.012	 34.900	 98.979	 -0.075
52205	 -0.109	 -0.055	  0.371	  2.128	  2.802	 -9.856	 -0.143	  0.038	  0.896	 34.900	 98.979	 -0.075
52255	 -0.105	 -0.055	  0.378	  1.208	  2.588	 -9.877	  0.193	  0.042	  0.872	 34.900	 98.968	  0.926
52305	 -0.098	 -0.045	  0.375	  1.176	  2.344	 -9.089	  0.402	 -0.348	  0.628	 34.900	 98.968	  0.926
52355	 -0.096	 -0.043	  0.374	  0.547	  1.497	 -9.374	 -0.172	  0.279	  0.237	 34.900	 98.983	 -0.439
52405	 -0.100	 -0.040	  0.373	  0.529	  0.826	 -8.233	  0.581	  0.283	  0.166	 34.900	 98.972	  0.562
52455	 -0.098	 -0.036	  0.371	 -0.487	  0.741	 -8.952	 -0.059	 -0.344	  0.173	 34.900	 98.968	  0.926
52505	 -0.094	 -0.038	  0.369	 -0.583	  0.710	 -9.808	 -0.650	 -0.097	 -0.435	 34.900	 98.968	  0.926
52555	 -0.096	 -0.049	  0.370	 -1.249	  1.668	 -7.994	 -0.055	 -0.063	 -0.536	 34.900	 98.972	  0.562
52605	 -0.096	 -0.048	  0.369	 -1.077	  1.847	 -10.993	  0.050	  0.001	 -1.006	 34.900	 98.979	 -0.075
52655	 -0.102	 -0.050	  0.368	 -2.096	  3.061	 -9.274	  0.591	  0.046	 -1.073	 34.900	 98.972	  0.562
52705	 -0.110	 -0.032	  0.364	  0.164	  2.149	 -12.454	  0.699	  0.524	 -1.429	 34.900	 98.979	 -0.075
52755	 -0.145	 -0.032	  0.359	 -1.847	  3.618	 -11.715	 -0.330	  1.709	 -1.372	 34.900	 98.968	  0.926
52805	 -0.177	 -0.056	  0.362	  1.324	  2.823	 -8.014	 -0.990	  0.469	 -0.602	 34.900	 98.983	 -0.439
52855	 -0.176	 -0.071	  0.360	  1.070	  3.455	 -8.535	 -0.039	 -0.419	 -0.599	 34.900	 98.979	 -0.075
52905	 -0.167	 -0.072	  0.363	  2.561	  1.543	 -10.349	  0.313	 -0.497	 -1.366	 34.900	 98.972	  0.562
52955	 -0.168	 -0.059	  0.362	  0.531	  2.288	 -8.954	  0.266	 -0.189	 -0.631	 34.900	 98.979	 -0.075
