Time	 MagX	 MagY	 MagZ	 AccelX	 AccelY	 AccelZ	 Yaw	 Pitch	 Roll	 Temperature	 Pressure	 Altitude
18357	 -0.346	  0.321	  0.464	  2.680	 -0.037	 -12.071	 -0.497	 -0.104	 -0.611	 33.000	 100.818	 -99999.000
18407	 -0.340	  0.285	  0.483	  0.150	 -0.556	 -9.497	 -0.131	 -2.050	 -0.840	 33.000	 100.829	 -99999.000
18457	 -0.292	  0.254	  0.510	 -2.361	 -1.714	 -9.759	 -0.719	 -1.641	 -0.026	 33.000	 100.818	 -99999.000
18507	 -0.274	  0.241	  0.517	 -2.350	 -0.560	 -7.967	 -0.171	  0.463	  0.854	 33.000	 100.818	 -99999.000
18557	 -0.291	  0.256	  0.505	 -0.105	  0.029	 -8.797	  0.407	  1.516	  0.458	 33.000	 100.818	 -99999.000
18607	 -0.328	  0.283	  0.476	  0.190	 -0.694	 -9.923	  0.532	  1.601	  0.332	 33.000	 100.818	 -99999.000
18657	 -0.352	  0.303	  0.455	  1.455	 -0.596	 -10.305	  0.295	  0.700	  0.237	 33.000	 100.806	 -99999.000
18707	 -0.357	  0.310	  0.454	  1.294	 -1.051	 -10.037	  0.009	 -0.392	  0.078	 33.000	 100.818	 -99999.000
18757	 -0.341	  0.322	  0.451	  0.803	 -0.867	 -9.493	 -0.075	 -0.045	  0.137	 33.000	 100.818	 -99999.000
18807	 -0.345	  0.308	  0.458	  0.650	 -0.678	 -9.708	 -0.207	  0.260	  0.143	 33.000	 100.818	 -99999.000
18857	 -0.347	  0.312	  0.456	  0.921	 -0.394	 -10.012	 -0.154	 -0.105	 -0.123	 33.000	 100.818	 -99999.000
18907	 -0.345	  0.297	  0.459	  1.204	 -0.410	 -10.918	 -0.122	 -0.370	 -0.173	 33.000	 100.818	 -99999.000
18957	 -0.333	  0.281	  0.461	  0.158	 -0.384	 -10.627	 -0.232	 -0.894	 -0.149	 33.000	 100.806	 -99999.000
19007	 -0.317	  0.263	  0.475	  0.055	  0.033	 -8.960	 -0.365	 -0.821	 -0.146	 33.000	 100.818	 -99999.000
19057	 -0.308	  0.247	  0.481	 -0.250	 -0.038	 -8.745	 -0.168	 -0.024	 -0.258	 33.000	 100.818	 -99999.000
19107	 -0.323	  0.238	  0.474	  0.239	 -0.429	 -9.047	  0.116	  0.582	 -0.244	 33.000	 100.802	 -99999.000
19157	 -0.344	  0.232	  0.472	  1.001	 -0.475	 -9.553	 -0.044	  0.539	 -0.259	 33.000	 100.818	 -99999.000
19207	 -0.356	  0.223	  0.463	  0.782	 -0.656	 -10.150	  0.093	  0.213	 -0.207	 33.000	 100.818	 -99999.000
19257	 -0.360	  0.212	  0.471	  0.299	 -0.763	 -9.779	 -0.145	 -0.205	 -0.203	 33.000	 100.818	 -99999.000
19307	 -0.353	  0.215	  0.471	 -0.361	 -0.779	 -9.940	 -0.109	 -0.410	  0.099	 33.000	 100.822	 -99999.000
19357	 -0.341	  0.210	  0.470	 -0.169	 -0.346	 -8.871	 -0.293	 -0.169	  0.237	 33.000	 100.806	 -99999.000
19407	 -0.342	  0.221	  0.477	  0.080	 -0.196	 -9.459	  0.098	  0.477	 -0.038	 33.000	 100.818	 -99999.000
19457	 -0.359	  0.218	  0.471	  0.424	 -0.222	 -9.947	  0.190	  0.615	 -0.042	 33.000	 100.829	 -99999.000
19507	 -0.369	  0.224	  0.460	  0.538	 -0.287	 -10.317	 -0.039	  0.372	  0.085	 33.000	 100.818	 -99999.000
19557	 -0.369	  0.233	  0.460	  0.566	 -0.053	 -10.095	 -0.162	 -0.010	  0.285	 33.000	 100.818	 -99999.000
19607	 -0.359	  0.228	  0.463	  0.189	 -0.447	 -11.710	 -0.450	 -0.412	  0.394	 33.000	 100.818	 -99999.000
19657	 -0.343	  0.229	  0.466	  0.647	 -0.217	 -10.287	 -0.097	 -0.572	  0.064	 33.000	 100.818	 -99999.000
19707	 -0.315	  0.226	  0.473	  1.659	  0.488	 -5.314	  0.011	 -1.368	  0.068	 33.000	 100.818	 -99999.000
19757	 -0.300	  0.240	  0.474	 -0.370	  0.867	 -6.590	  0.295	  1.303	  0.472	 33.000	 100.806	 -99999.000
19807	 -0.354	  0.281	  0.458	  1.425	 -0.002	 -13.435	  0.618	  2.248	 -0.516	 33.000	 100.802	 -99999.000
19858	 -0.399	  0.272	  0.435	  0.551	 -1.290	 -14.276	 -0.104	  0.151	  0.072	 33.000	 100.818	 -99999.000
19908	 -0.366	  0.259	  0.449	  1.382	 -0.418	 -8.376	 -0.641	 -1.856	  0.406	 33.000	 100.818	 -99999.000
19958	 -0.330	  0.248	  0.457	  0.246	  0.234	 -5.606	 -0.035	 -0.078	  0.191	 33.000	 100.809	 -99999.000
20008	 -0.351	  0.266	  0.453	  0.793	  0.301	 -9.310	  0.493	  1.246	 -0.164	 33.000	 100.818	 -99999.000
20058	 -0.377	  0.271	  0.442	  1.516	 -0.439	 -11.476	  0.175	  0.615	 -0.147	 33.000	 100.818	 -99999.000
20108	 -0.382	  0.276	  0.442	  1.258	 -0.729	 -10.613	 -0.151	 -0.239	  0.102	 33.000	 100.818	 -99999.000
20158	 -0.371	  0.267	  0.450	  1.250	 -0.335	 -9.395	 -0.158	 -0.351	  0.106	 33.000	 100.818	 -99999.000
20208	 -0.360	  0.271	  0.451	  0.920	 -0.251	 -9.415	  0.035	 -0.155	  0.030	 33.000	 100.829	 -99999.000
20257	 -0.364	  0.275	  0.454	  1.010	 -0.199	 -10.059	  0.032	  0.190	 -0.026	 33.000	 100.818	 -99999.000
20308	 -0.363	  0.275	  0.455	  1.075	 -0.210	 -9.674	 -0.023	 -0.231	 -0.066	 33.000	 100.818	 -99999.000
20358	 -0.359	  0.268	  0.461	  0.783	 -0.492	 -9.447	 -0.033	 -0.198	 -0.013	 33.000	 100.818	 -99999.000
20408	 -0.361	  0.272	  0.457	  0.953	 -0.354	 -9.893	  0.092	  0.165	  0.001	 33.000	 100.818	 -99999.000
20458	 -0.361	  0.273	  0.456	  1.723	 -0.464	 -9.552	 -0.123	  0.122	 -0.191	 33.000	 100.829	 -99999.000
20508	 -0.371	  0.270	  0.454	  1.593	 -0.063	 -9.035	  0.162	  0.576	 -0.177	 33.000	 100.818	 -99999.000
20558	 -0.380	  0.278	  0.437	  1.180	 -0.557	 -10.692	  0.099	  0.031	  0.031	 33.000	 100.818	 -99999.000
20608	 -0.370	  0.272	  0.456	  0.800	 -0.690	 -10.072	 -0.125	 -0.741	  0.036	 33.000	 100.802	 -99999.000
20658	 -0.357	  0.268	  0.466	  0.431	 -0.494	 -9.480	 -0.046	 -0.202	 -0.013	 33.000	 100.829	 -99999.000
20708	 -0.357	  0.274	  0.465	  0.926	 -0.122	 -9.446	  0.009	  0.094	  0.017	 33.000	 100.814	 -99999.000
20758	 -0.358	  0.271	  0.460	  0.941	 -0.355	 -9.527	 -0.005	  0.048	 -0.013	 33.000	 100.829	 -99999.000
20809	 -0.361	  0.271	  0.458	  0.915	 -0.435	 -9.564	  0.072	  0.133	 -0.007	 33.000	 100.814	 -99999.000
20858	 -0.368	  0.269	  0.458	  1.038	 -0.438	 -9.790	  0.117	  0.281	 -0.048	 33.000	 100.829	 -99999.000
20908	 -0.372	  0.282	  0.450	  1.167	 -0.407	 -9.915	  0.055	  0.175	 -0.023	 33.000	 100.829	 -99999.000
20957	 -0.376	  0.273	  0.456	  1.101	 -0.330	 -9.819	 -0.036	 -0.056	 -0.070	 33.000	 100.818	 -99999.000
21007	 -0.375	  0.271	  0.454	  1.043	 -0.251	 -9.582	 -0.036	 -0.050	 -0.067	 33.000	 100.818	 -99999.000
21057	 -0.382	  0.275	  0.459	  1.264	 -0.211	 -10.151	  0.179	  0.040	 -0.328	 33.000	 100.818	 -99999.000
21107	 -0.385	  0.265	  0.451	  1.004	 -0.622	 -9.981	  0.178	 -0.068	 -0.355	 33.000	 100.818	 -99999.000
21157	 -0.393	  0.257	  0.444	  1.016	 -1.070	 -9.936	  0.235	  0.266	 -0.265	 33.000	 100.818	 -99999.000
21207	 -0.407	  0.260	  0.426	  1.415	 -0.975	 -10.130	  0.480	  0.363	 -0.400	 33.000	 100.818	 -99999.000
21257	 -0.421	  0.257	  0.410	  1.584	 -1.304	 -9.892	  0.350	  0.227	 -0.408	 33.000	 100.818	 -99999.000
21307	 -0.429	  0.256	  0.402	  1.694	 -1.463	 -10.072	  0.305	  0.160	 -0.125	 33.000	 100.818	 -99999.000
21357	 -0.427	  0.258	  0.389	  1.733	 -1.499	 -10.076	  0.218	 -0.256	 -0.067	 33.000	 100.814	 -99999.000
21407	 -0.418	  0.254	  0.387	  1.452	 -1.373	 -9.624	 -0.007	 -0.364	 -0.042	 33.000	 100.818	 -99999.000
21457	 -0.412	  0.248	  0.378	  1.285	 -1.420	 -9.477	  0.099	 -0.154	 -0.067	 33.000	 100.825	 -99999.000
21507	 -0.408	  0.243	  0.370	  1.429	 -1.441	 -9.221	  0.126	  0.078	 -0.156	 33.000	 100.818	 -99999.000
21557	 -0.406	  0.239	  0.362	  1.074	 -1.356	 -9.417	  0.012	 -0.030	 -0.113	 33.000	 100.818	 -99999.000
21607	 -0.404	  0.230	  0.344	  0.979	 -0.997	 -9.064	 -0.037	 -0.034	 -0.150	 33.000	 100.818	 -99999.000
21657	 -0.407	  0.225	  0.341	  0.987	 -0.976	 -9.406	  0.063	  0.019	 -0.361	 33.000	 100.814	 -99999.000
21707	 -0.406	  0.216	  0.345	  1.105	 -1.174	 -9.493	 -0.040	 -0.149	 -0.438	 33.000	 100.806	 -99999.000
21757	 -0.406	  0.203	  0.344	  0.950	 -1.362	 -9.620	 -0.216	 -0.158	 -0.266	 33.000	 100.818	 -99999.000
21807	 -0.398	  0.193	  0.353	  1.114	 -1.107	 -9.681	 -0.240	 -0.377	 -0.145	 33.000	 100.818	 -99999.000
21857	 -0.390	  0.185	  0.359	  0.981	 -0.912	 -9.680	 -0.208	 -0.356	 -0.134	 33.000	 100.814	 -99999.000
21907	 -0.384	  0.179	  0.358	  0.951	 -0.892	 -9.678	 -0.031	 -0.088	 -0.151	 33.000	 100.829	 -99999.000
21957	 -0.382	  0.178	  0.363	  1.044	 -0.775	 -9.831	  0.089	 -0.085	 -0.150	 33.000	 100.814	 -99999.000
22007	 -0.380	  0.177	  0.361	  0.983	 -0.765	 -9.529	  0.099	 -0.168	 -0.003	 33.000	 100.818	 -99999.000
22057	 -0.373	  0.178	  0.363	  1.048	 -0.642	 -9.188	 -0.005	 -0.144	 -0.050	 33.000	 100.806	 -99999.000
22107	 -0.371	  0.171	  0.369	  0.719	 -0.884	 -9.515	 -0.100	  0.037	 -0.063	 33.000	 100.806	 -99999.000
22157	 -0.373	  0.170	  0.364	  0.806	 -0.845	 -9.776	  0.051	  0.164	 -0.162	 33.000	 100.818	 -99999.000
22207	 -0.376	  0.168	  0.359	  1.002	 -1.182	 -10.022	  0.089	  0.021	 -0.087	 33.000	 100.806	 -99999.000
22257	 -0.375	  0.161	  0.361	  0.980	 -0.971	 -9.753	 -0.068	 -0.126	  0.061	 33.000	 100.818	 -99999.000
22307	 -0.372	  0.160	  0.361	  0.885	 -0.953	 -9.318	 -0.117	 -0.240	  0.085	 33.000	 100.818	 -99999.000
22357	 -0.363	  0.160	  0.370	  0.635	 -0.709	 -9.200	 -0.209	 -0.153	  0.101	 33.000	 100.818	 -99999.000
22407	 -0.360	  0.157	  0.370	  0.486	 -0.862	 -9.069	 -0.095	  0.039	  0.048	 33.000	 100.806	 -99999.000
22457	 -0.364	  0.154	  0.366	  0.511	 -0.707	 -9.759	 -0.166	  0.258	 -0.001	 33.000	 100.829	 -99999.000
22507	 -0.373	  0.146	  0.364	  0.661	 -0.766	 -10.122	 -0.123	  0.354	 -0.054	 33.000	 100.818	 -99999.000
22557	 -0.380	  0.145	  0.361	  0.605	 -0.795	 -10.057	 -0.017	  0.009	 -0.065	 33.000	 100.818	 -99999.000
22607	 -0.375	  0.141	  0.357	  0.639	 -0.664	 -8.805	 -0.002	 -0.196	 -0.003	 33.000	 100.825	 -99999.000
22657	 -0.374	  0.142	  0.364	  0.412	 -0.773	 -8.095	  0.070	 -0.149	 -0.053	 33.000	 100.829	 -99999.000
22707	 -0.377	  0.153	  0.370	  0.646	 -0.897	 -8.783	  0.301	 -0.049	  0.008	 33.000	 100.818	 -99999.000
22757	 -0.380	  0.151	  0.368	  0.546	 -1.170	 -8.985	  0.124	 -0.029	  0.096	 33.000	 100.806	 -99999.000
22807	 -0.377	  0.156	  0.383	  0.328	 -0.845	 -9.378	  0.061	 -0.171	  0.204	 33.000	 100.814	 -99999.000
22857	 -0.384	  0.171	  0.376	  0.551	 -0.432	 -11.335	  0.513	  0.168	 -0.247	 33.000	 100.818	 -99999.000
22907	 -0.391	  0.171	  0.384	  0.183	 -1.588	 -10.738	  0.227	 -0.024	 -0.344	 33.000	 100.818	 -99999.000
22957	 -0.394	  0.167	  0.376	  0.645	 -1.226	 -10.645	 -0.186	 -0.060	 -0.041	 33.000	 100.818	 -99999.000
23007	 -0.394	  0.165	  0.393	  0.640	 -1.584	 -9.423	 -0.158	 -0.039	  0.146	 33.000	 100.818	 -99999.000
23057	 -0.393	  0.161	  0.397	  0.724	 -1.832	 -9.354	 -0.088	  0.018	  0.129	 33.000	 100.818	 -99999.000
23107	 -0.391	  0.169	  0.401	  0.996	 -0.876	 -10.906	 -0.235	 -0.225	  0.031	 33.000	 100.825	 -99999.000
23157	 -0.384	  0.164	  0.398	  0.610	 -1.111	 -9.782	 -0.002	  0.015	  0.169	 33.000	 100.818	 -99999.000
23207	 -0.381	  0.166	  0.402	  0.474	 -1.031	 -9.744	  0.022	 -0.008	  0.059	 33.000	 100.814	 -99999.000
23257	 -0.383	  0.172	  0.403	  0.346	 -1.053	 -9.636	 -0.038	 -0.001	  0.070	 33.000	 100.806	 -99999.000
23307	 -0.382	  0.165	  0.391	  0.491	 -0.923	 -9.486	 -0.083	  0.020	  0.031	 33.000	 100.818	 -99999.000
23357	 -0.386	  0.164	  0.400	  0.441	 -1.063	 -9.404	 -0.140	  0.118	 -0.048	 33.000	 100.818	 -99999.000
23407	 -0.389	  0.162	  0.400	  0.906	 -1.146	 -9.436	 -0.029	  0.220	 -0.052	 33.000	 100.818	 -99999.000
23457	 -0.397	  0.164	  0.400	  0.864	 -0.978	 -9.958	  0.091	  0.253	 -0.059	 33.000	 100.814	 -99999.000
23507	 -0.401	  0.166	  0.391	  0.921	 -1.093	 -10.150	  0.051	  0.095	  0.020	 33.000	 100.825	 -99999.000
23557	 -0.401	  0.176	  0.397	  0.863	 -1.001	 -9.997	  0.032	 -0.195	  0.088	 33.000	 100.818	 -99999.000
23607	 -0.395	  0.179	  0.402	  0.520	 -0.969	 -9.805	 -0.068	 -0.211	  0.120	 33.000	 100.818	 -99999.000
23657	 -0.386	  0.170	  0.396	  0.407	 -0.794	 -9.558	 -0.152	 -0.193	  0.073	 33.000	 100.829	 -99999.000
23707	 -0.385	  0.166	  0.408	  0.422	 -0.858	 -9.433	 -0.170	  0.013	  0.084	 33.000	 100.818	 -99999.000
23757	 -0.384	  0.161	  0.405	  0.128	 -0.844	 -8.986	 -0.115	  0.151	  0.111	 33.000	 100.814	 -99999.000
23807	 -0.390	  0.168	  0.406	  0.599	 -0.895	 -10.440	  0.421	  0.051	 -0.176	 33.000	 100.818	 -99999.000
23857	 -0.387	  0.172	  0.405	  0.236	 -1.528	 -9.856	 -0.068	 -0.137	  0.047	 33.000	 100.818	 -99999.000
23907	 -0.386	  0.173	  0.409	  0.529	 -0.986	 -9.668	 -0.117	 -0.035	  0.174	 33.000	 100.825	 -99999.000
23957	 -0.382	  0.172	  0.398	  0.326	 -1.005	 -9.693	 -0.038	  0.056	 -0.022	 33.000	 100.818	 -99999.000
24007	 -0.383	  0.173	  0.405	  0.148	 -0.835	 -9.746	 -0.280	 -0.021	  0.143	 33.000	 100.814	 -99999.000
24057	 -0.382	  0.176	  0.413	  0.543	 -0.649	 -9.241	 -0.074	 -0.161	  0.146	 33.000	 100.818	 -99999.000
24107	 -0.377	  0.172	  0.411	  0.094	 -1.101	 -9.223	 -0.219	  0.228	  0.072	 33.000	 100.818	 -99999.000
24157	 -0.385	  0.175	  0.408	  0.831	 -0.764	 -9.686	 -0.302	  0.274	  0.404	 33.000	 100.818	 -99999.000
24207	 -0.383	  0.179	  0.423	  0.755	 -0.752	 -10.078	 -0.271	 -0.143	  0.357	 33.000	 100.814	 -99999.000
24257	 -0.380	  0.182	  0.431	  0.699	 -0.511	 -10.121	 -0.081	  0.089	  0.249	 33.000	 100.818	 -99999.000
24307	 -0.380	  0.189	  0.425	  0.592	 -0.144	 -10.180	 -0.005	  0.134	  0.087	 33.000	 100.814	 -99999.000
37482	 -0.004	  0.474	  0.547	 -2.220	 -2.195	 -9.323	 -0.004	  0.004	  0.001	 33.000	 100.825	 -0.700
37532	 -0.003	  0.475	  0.547	 -2.244	 -2.202	 -9.310	 -0.005	  0.002	  0.001	 33.000	 100.814	  0.284
37581	 -0.003	  0.474	  0.551	 -2.219	 -2.183	 -9.287	 -0.003	  0.003	 -0.000	 33.000	 100.825	 -0.700
37631	 -0.002	  0.474	  0.545	 -2.237	 -2.165	 -9.209	 -0.002	  0.003	  0.001	 33.000	 100.809	  0.732
37682	 -0.003	  0.469	  0.543	 -2.251	 -2.214	 -9.355	 -0.006	 -0.001	 -0.000	 33.000	 100.825	 -0.700
37732	 -0.003	  0.470	  0.551	 -2.246	 -2.211	 -9.330	 -0.012	 -0.001	  0.001	 33.000	 100.825	 -0.700
37782	 -0.004	  0.476	  0.544	 -2.225	 -2.185	 -9.262	 -0.011	 -0.001	  0.001	 33.000	 100.818	 -0.074
37832	 -0.004	  0.472	  0.548	 -2.236	 -2.192	 -9.311	 -0.017	 -0.004	  0.002	 33.000	 100.814	  0.284
37882	 -0.004	  0.474	  0.552	 -2.224	 -2.193	 -9.294	 -0.042	 -0.013	  0.004	 33.000	 100.825	 -0.700
37932	  0.000	  0.472	  0.545	 -2.253	 -2.165	 -9.269	  0.046	  0.023	 -0.007	 33.000	 100.814	  0.284
37983	 -0.001	  0.472	  0.552	 -2.243	 -2.162	 -9.320	  0.002	  0.003	 -0.008	 33.000	 100.814	  0.284
38033	 -0.007	  0.470	  0.549	 -2.225	 -2.245	 -9.265	 -0.013	 -0.005	 -0.025	 33.000	 100.825	 -0.700
38083	 -0.002	  0.472	  0.547	 -2.283	 -2.151	 -9.276	 -0.036	 -0.014	 -0.030	 33.000	 100.814	  0.284
38133	 -0.009	  0.475	  0.544	 -2.277	 -2.137	 -9.313	  0.320	  0.104	 -0.226	 33.000	 100.814	  0.284
38183	 -0.012	  0.480	  0.541	 -2.000	 -2.190	 -9.358	 -0.067	 -0.059	 -0.029	 33.000	 100.814	  0.284
38233	 -0.013	  0.480	  0.541	 -2.436	 -2.504	 -9.107	 -0.095	 -0.020	  0.075	 33.000	 100.825	 -0.700
38283	 -0.016	  0.478	  0.541	 -2.418	 -2.128	 -9.243	 -0.032	 -0.012	 -0.010	 33.000	 100.825	 -0.700
38333	 -0.015	  0.476	  0.536	 -2.121	 -2.337	 -9.322	  0.011	  0.016	  0.035	 33.000	 100.814	  0.284
38383	 -0.025	  0.482	  0.537	 -2.229	 -2.360	 -9.265	  0.168	  0.159	 -0.133	 33.000	 100.825	 -0.700
38433	 -0.037	  0.492	  0.523	 -1.828	 -2.498	 -9.440	  0.290	  0.267	 -0.217	 33.000	 100.814	  0.284
38483	 -0.052	  0.503	  0.522	 -1.871	 -2.706	 -9.189	  0.252	  0.231	 -0.216	 33.000	 100.814	  0.284
38533	 -0.062	  0.511	  0.511	 -2.016	 -2.875	 -9.308	  0.147	  0.125	 -0.284	 33.000	 100.814	  0.284
38583	 -0.077	  0.518	  0.500	 -2.214	 -2.637	 -8.971	  0.235	  0.188	 -0.251	 33.000	 100.825	 -0.700
38633	 -0.090	  0.521	  0.495	 -1.332	 -2.981	 -9.240	  0.022	  0.328	 -0.049	 33.000	 100.814	  0.284
38683	 -0.102	  0.530	  0.487	 -1.073	 -2.810	 -8.789	  0.197	  0.139	 -0.047	 33.000	 100.814	  0.284
38733	 -0.098	  0.534	  0.475	 -1.209	 -3.295	 -14.979	  0.040	 -0.185	  0.046	 33.000	 100.825	 -0.700
38783	 -0.095	  0.531	  0.479	 -1.335	 -3.122	 -9.166	 -0.092	 -0.078	  0.026	 33.000	 100.814	  0.284
38833	 -0.086	  0.527	  0.481	 -1.232	 -3.239	 -9.090	 -0.236	 -0.201	  0.135	 33.000	 100.825	 -0.700
38883	 -0.077	  0.526	  0.488	 -1.504	 -3.039	 -9.242	 -0.170	 -0.165	  0.036	 33.000	 100.825	 -0.700
38933	 -0.075	  0.516	  0.494	 -1.478	 -2.853	 -9.271	 -0.078	 -0.071	  0.056	 33.000	 100.829	 -1.058
38983	 -0.071	  0.521	  0.496	 -1.811	 -2.790	 -9.235	  0.015	 -0.228	  0.045	 33.000	 100.821	 -0.342
39033	 -0.065	  0.517	  0.496	 -1.812	 -2.865	 -9.193	  0.015	 -0.103	  0.008	 33.000	 100.829	 -1.058
39083	 -0.064	  0.515	  0.499	 -1.737	 -2.704	 -9.266	  0.041	 -0.077	 -0.051	 33.000	 100.825	 -0.700
39132	 -0.065	  0.519	  0.491	 -1.998	 -3.014	 -9.238	  0.059	 -0.140	 -0.067	 33.000	 100.825	 -0.700
39183	 -0.069	  0.510	  0.498	 -1.758	 -3.443	 -11.268	 -0.507	  0.082	 -0.310	 33.000	 100.814	  0.284
39233	 -0.104	  0.473	  0.517	 -2.015	 -3.211	 -9.245	 -0.918	  0.427	 -0.190	 33.000	 100.814	  0.284
39282	 -0.129	  0.456	  0.521	 -1.943	 -1.416	 -8.048	 -0.475	  0.267	  0.025	 33.000	 100.814	  0.284
39332	 -0.130	  0.442	  0.507	 -1.718	 -1.828	 -9.108	  0.132	 -0.077	  0.161	 33.000	 100.825	 -0.700
39382	 -0.130	  0.450	  0.510	 -1.665	 -2.832	 -9.296	 -0.176	  0.106	  0.206	 33.000	 100.809	  0.732
39432	 -0.136	  0.442	  0.498	 -1.824	 -2.956	 -14.035	  0.011	 -0.140	 -0.669	 33.000	 100.809	  0.732
39482	 -0.171	  0.437	  0.470	 -3.224	 -5.790	 -15.393	  0.429	  0.686	 -0.641	 33.000	 100.836	 -1.683
39532	 -0.247	  0.409	  0.430	 -2.931	  5.630	  2.644	 -1.257	  3.946	 -1.075	 33.000	 100.814	  0.284
39582	 -0.337	  0.363	  0.431	  4.645	 -1.223	 -0.971	 -2.302	 -0.576	  0.440	 33.000	 100.814	  0.284
39632	 -0.231	  0.383	  0.477	 -1.790	 -6.470	 -25.004	  1.958	 -2.252	 -0.071	 33.000	 100.814	  0.284
39682	 -0.273	  0.366	  0.448	 -0.828	  5.220	  5.237	 -0.845	  1.806	 -0.146	 33.000	 100.825	 -0.700
39732	 -0.233	  0.382	  0.454	  0.818	 -7.579	 -23.928	  0.661	 -1.783	  0.337	 33.000	 100.814	  0.284
39783	 -0.248	  0.351	  0.454	 -0.012	  6.605	 10.121	 -0.776	  1.271	 -0.510	 33.000	 100.818	 -0.074
39832	 -0.246	  0.345	  0.482	 -1.203	 -8.600	 -26.235	 -0.092	 -1.235	  0.129	 33.000	 100.825	 -0.700
39882	 -0.256	  0.344	  0.463	 -0.681	  6.661	  6.907	 -0.340	  1.271	 -0.029	 33.000	 100.825	 -0.700
39932	 -0.274	  0.361	  0.456	  1.242	 -5.633	 -21.969	 -0.144	  0.224	 -0.262	 33.000	 100.814	  0.284
39982	 -0.269	  0.345	  0.458	  0.317	 -1.231	 -7.029	  0.540	 -0.082	 -0.016	 33.000	 100.821	 -0.342
40032	 -0.271	  0.374	  0.438	 -1.341	  5.200	  0.689	 -0.165	 -0.307	  0.306	 33.000	 100.818	 -0.074
40082	 -0.221	  0.360	  0.479	 -4.543	 -7.918	 -28.862	 -0.346	 -0.602	  0.275	 33.000	 100.825	 -0.700
40132	 -0.269	  0.368	  0.438	  1.066	  5.179	  8.139	  2.088	  2.160	 -0.629	 33.000	 100.814	  0.284
40182	 -0.278	  0.377	  0.440	  3.016	 -6.017	 -21.291	 -2.201	 -2.199	  0.597	 33.000	 100.814	  0.284
40232	 -0.240	  0.355	  0.460	 -1.718	  1.076	 -4.749	 -0.047	  0.780	 -0.198	 33.000	 100.825	 -0.700
40282	 -0.240	  0.367	  0.462	  0.709	  0.829	 -12.592	 -0.579	 -1.448	  0.048	 33.000	 100.814	  0.284
40332	 -0.238	  0.331	  0.477	 -4.446	 -1.216	 -11.539	 -0.719	  1.407	 -0.729	 33.000	 100.814	  0.284
40382	 -0.264	  0.354	  0.452	  0.481	  5.216	  0.624	  1.551	 -0.755	  0.118	 33.000	 100.825	 -0.700
40432	 -0.227	  0.345	  0.487	 -4.935	 -10.020	 -31.416	 -0.899	  0.476	 -0.154	 33.000	 100.825	 -0.700
40482	 -0.254	  0.337	  0.459	  3.790	  6.236	 17.541	  2.384	 -0.173	  0.221	 33.000	 100.814	  0.284
40532	 -0.247	  0.363	  0.470	 -3.596	 -12.835	 -33.582	 -1.223	  0.041	  0.036	 33.000	 100.814	  0.284
40582	 -0.253	  0.369	  0.455	  3.179	  1.720	  6.769	  1.331	  0.410	  0.341	 33.000	 100.825	 -0.700
40632	 -0.238	  0.379	  0.450	  1.350	  0.961	 -6.699	 -1.960	 -1.205	 -0.424	 33.000	 100.814	  0.284
40682	 -0.282	  0.327	  0.481	 -5.300	 -7.726	 -30.628	 -0.137	  2.250	 -1.142	 33.000	 100.814	  0.284
40732	 -0.353	  0.328	  0.419	  1.128	  4.674	  4.188	  1.236	  1.972	 -0.237	 33.000	 100.818	 -0.074
40782	 -0.322	  0.338	  0.437	  1.716	  3.061	 -5.123	 -1.684	 -3.010	  1.406	 33.000	 100.825	 -0.700
40832	 -0.229	  0.319	  0.495	 -5.089	 -7.151	 -30.428	  0.196	 -0.024	  0.174	 33.000	 100.814	  0.284
40882	 -0.302	  0.339	  0.427	 -0.298	  6.437	 13.595	  2.584	  2.533	 -1.080	 33.000	 100.818	 -0.074
40932	 -0.329	  0.329	  0.432	  3.038	 -9.088	 -29.706	 -2.681	 -1.098	  0.249	 33.000	 100.829	 -1.058
40982	 -0.292	  0.328	  0.441	  4.002	  0.466	  2.045	 -0.597	 -1.012	  1.512	 33.000	 100.825	 -0.700
41032	 -0.219	  0.331	  0.473	 -3.289	  4.988	 -10.135	 -1.002	 -0.578	  0.374	 33.000	 100.821	 -0.342
41082	 -0.267	  0.325	  0.458	  2.040	 -3.115	 -15.069	  1.390	  1.837	  0.272	 33.000	 100.821	 -0.342
41132	 -0.299	  0.362	  0.403	  2.640	  2.937	  3.932	  0.609	  0.606	 -0.357	 33.000	 100.818	 -0.074
41182	 -0.277	  0.351	  0.451	  0.792	 -0.428	 -16.613	 -2.106	 -2.759	  0.706	 33.000	 100.814	  0.284
41232	 -0.243	  0.324	  0.472	 -0.403	 -1.570	 -13.631	  0.686	  1.361	 -0.250	 33.000	 100.814	  0.284
41282	 -0.302	  0.343	  0.423	 -0.941	  1.465	  2.007	  1.018	  1.781	 -0.490	 33.000	 100.825	 -0.700
41332	 -0.293	  0.338	  0.460	  4.949	 -3.909	 -20.141	 -2.450	 -2.447	  0.583	 33.000	 100.825	 -0.700
41382	 -0.253	  0.306	  0.477	 -3.773	  2.707	 -8.622	  1.193	  0.347	  0.144	 33.000	 100.825	 -0.700
41432	 -0.253	  0.350	  0.435	  1.630	  3.625	  4.932	  0.894	  0.420	 -0.335	 33.000	 100.814	  0.284
41482	 -0.257	  0.321	  0.478	  0.856	 -3.510	 -27.470	 -2.037	 -1.239	  0.146	 33.000	 100.825	 -0.700
41532	 -0.251	  0.301	  0.469	 -1.151	  3.558	 -3.771	  0.885	  1.153	 -0.115	 33.000	 100.825	 -0.700
41582	 -0.289	  0.345	  0.425	 -0.792	  5.200	  8.408	  0.855	  1.252	 -0.882	 33.000	 100.825	 -0.700
41632	 -0.280	  0.322	  0.485	  2.293	 -6.917	 -34.708	 -1.693	 -2.648	  0.823	 33.000	 100.825	 -0.700
41682	 -0.243	  0.320	  0.470	  0.862	  1.766	 -4.763	  0.985	  0.353	  0.460	 33.000	 100.814	  0.284
41732	 -0.255	  0.364	  0.423	  0.961	  8.632	 13.339	  0.487	  0.957	 -0.748	 33.000	 100.814	  0.284
41782	 -0.272	  0.329	  0.483	 -0.853	 -12.538	 -42.308	 -0.714	 -0.855	 -0.040	 33.000	 100.814	  0.284
41832	 -0.272	  0.350	  0.439	  2.393	  1.125	  7.374	  1.630	  0.986	  0.355	 33.000	 100.825	 -0.700
41882	 -0.285	  0.382	  0.396	  1.167	  7.916	  2.725	 -2.004	 -0.129	 -0.604	 33.000	 100.825	 -0.700
41932	 -0.259	  0.326	  0.472	 -3.575	 -9.800	 -42.018	  0.928	 -0.842	 -0.247	 33.000	 100.836	 -1.683
41982	 -0.249	  0.327	  0.435	  3.813	  4.852	 15.187	  1.908	 -1.019	 -0.783	 33.000	 100.814	  0.284
42032	 -0.268	  0.322	  0.439	 -3.814	  6.233	 -3.744	 -2.031	  0.925	 -1.301	 33.000	 100.825	 -0.700
42082	 -0.293	  0.303	  0.461	 -0.711	 -7.825	 -31.297	  1.209	  0.563	  0.702	 33.000	 100.825	 -0.700
42132	 -0.289	  0.339	  0.412	  2.594	  2.772	 10.054	  2.009	  0.549	  0.549	 33.000	 100.825	 -0.700
42182	 -0.287	  0.354	  0.418	  1.166	 -0.313	 -6.906	 -2.199	 -0.917	  0.421	 33.000	 100.814	  0.284
42232	 -0.246	  0.330	  0.470	 -1.108	 -3.552	 -23.569	 -0.123	 -0.224	  0.401	 33.000	 100.825	 -0.700
42282	 -0.264	  0.343	  0.447	  0.420	  0.868	 -4.803	  1.248	  0.835	 -0.286	 33.000	 100.825	 -0.700
42332	 -0.284	  0.337	  0.438	 -0.136	 -0.095	 -7.365	 -0.584	  0.467	 -0.271	 33.000	 100.825	 -0.700
42382	 -0.291	  0.341	  0.443	  0.189	 -0.692	 -8.860	 -0.177	 -0.255	  0.108	 33.000	 100.814	  0.284
42432	 -0.276	  0.336	  0.460	  1.094	 -1.285	 -11.463	 -0.126	 -0.753	  0.220	 33.000	 100.825	 -0.700
42482	 -0.258	  0.328	  0.476	 -0.391	 -0.698	 -11.421	 -0.430	 -0.183	  0.001	 33.000	 100.825	 -0.700
42532	 -0.250	  0.324	  0.473	 -0.410	 -0.850	 -9.887	 -0.337	 -0.185	  0.032	 33.000	 100.809	  0.732
42582	 -0.251	  0.313	  0.482	  0.230	  0.083	 -8.719	 -0.106	 -0.226	  0.082	 33.000	 100.825	 -0.700
42632	 -0.237	  0.322	  0.494	 -0.721	  0.100	 -9.517	  0.298	 -0.467	  0.139	 33.000	 100.825	 -0.700
42682	 -0.222	  0.331	  0.496	 -1.078	 -0.921	 -9.766	  0.163	 -0.342	  0.170	 33.000	 100.825	 -0.700
42732	 -0.215	  0.341	  0.489	 -0.633	 -0.662	 -8.549	  0.452	 -0.231	  0.050	 33.000	 100.825	 -0.700
42783	 -0.200	  0.369	  0.493	 -0.523	  0.033	 -9.056	  0.328	 -0.476	  0.299	 33.000	 100.809	  0.732
42832	 -0.185	  0.387	  0.499	 -1.176	 -0.925	 -10.637	  0.043	  0.149	  0.392	 33.000	 100.814	  0.284
42882	 -0.178	  0.392	  0.497	 -1.157	 -1.980	 -10.881	 -0.059	 -0.097	  0.341	 33.000	 100.825	 -0.700
42932	 -0.167	  0.390	  0.505	 -1.512	 -0.673	 -11.595	 -0.001	 -0.158	  0.236	 33.000	 100.814	  0.284
42982	 -0.162	  0.391	  0.504	 -1.122	 -1.297	 -10.275	 -0.017	  0.157	  0.148	 33.000	 100.809	  0.732
43032	 -0.170	  0.382	  0.504	 -0.995	 -0.851	 -9.499	 -0.254	  0.140	  0.063	 33.000	 100.814	  0.284
43082	 -0.172	  0.375	  0.499	 -1.135	 -0.661	 -8.747	 -0.244	  0.106	  0.048	 33.000	 100.814	  0.284
43132	 -0.182	  0.371	  0.504	 -1.234	 -0.048	 -7.558	  0.100	  0.460	 -0.232	 33.000	 100.814	  0.284
43182	 -0.202	  0.388	  0.486	 -1.684	 -0.384	 -10.306	  0.663	  0.730	  0.052	 33.000	 100.825	 -0.700
43233	 -0.197	  0.410	  0.475	  0.254	 -1.066	 -10.889	  0.120	 -0.241	  0.528	 33.000	 100.821	 -0.342
43282	 -0.189	  0.404	  0.484	 -0.577	 -0.532	 -9.015	 -0.355	  0.214	  0.099	 33.000	 100.821	 -0.342
43332	 -0.195	  0.411	  0.475	  0.278	 -0.762	 -9.310	  0.319	  0.425	 -0.002	 33.000	 100.814	  0.284
43382	 -0.205	  0.416	  0.467	 -0.491	 -0.793	 -10.508	  0.131	  0.233	  0.057	 33.000	 100.825	 -0.700
43432	 -0.203	  0.424	  0.467	 -0.174	 -1.124	 -9.920	  0.024	 -0.189	  0.010	 33.000	 100.825	 -0.700
43482	 -0.196	  0.422	  0.472	 -0.267	 -0.823	 -9.823	 -0.058	 -0.287	  0.096	 33.000	 100.814	  0.284
43533	 -0.188	  0.422	  0.468	 -0.151	 -1.103	 -9.404	  0.091	 -0.028	  0.089	 33.000	 100.825	 -0.700
43583	 -0.189	  0.429	  0.467	 -0.216	 -0.911	 -9.574	  0.015	  0.137	  0.132	 33.000	 100.821	 -0.342
43633	 -0.193	  0.433	  0.460	  0.383	 -1.181	 -9.484	  0.254	  0.250	 -0.030	 33.000	 100.814	  0.284
43683	 -0.200	  0.451	  0.451	 -0.473	 -1.198	 -10.253	  0.021	  0.376	  0.092	 33.000	 100.814	  0.284
43733	 -0.207	  0.442	  0.453	  0.349	 -1.097	 -8.885	  0.151	  0.487	 -0.082	 33.000	 100.809	  0.732
43783	 -0.220	  0.464	  0.445	  0.629	 -0.903	 -9.951	  0.126	  0.393	 -0.012	 33.000	 100.825	 -0.700
43833	 -0.230	  0.456	  0.437	  0.860	 -1.283	 -9.979	  0.241	  0.311	 -0.225	 33.000	 100.825	 -0.700
43883	 -0.238	  0.458	  0.434	  1.009	 -1.695	 -10.043	  0.060	 -0.117	 -0.035	 33.000	 100.814	  0.284
43933	 -0.243	  0.454	  0.428	  0.430	 -0.945	 -8.491	  0.018	  0.485	 -0.109	 33.000	 100.825	 -0.700
43983	 -0.256	  0.460	  0.430	  1.143	 -1.215	 -9.710	  0.179	  0.396	 -0.232	 33.000	 100.809	  0.732
44033	 -0.269	  0.462	  0.425	  0.733	 -2.533	 -14.474	 -0.269	 -0.057	 -0.177	 33.000	 100.814	  0.284
44083	 -0.286	  0.450	  0.433	 -0.103	 -1.527	 -9.020	  0.261	  0.754	 -0.380	 33.000	 100.809	  0.732
44133	 -0.306	  0.466	  0.408	  1.115	 -1.575	 -10.877	  0.184	  0.664	  0.019	 33.000	 100.825	 -0.700
44183	 -0.316	  0.466	  0.401	  2.162	 -1.767	 -9.209	  0.206	  0.242	 -0.015	 33.000	 100.814	  0.284
44233	 -0.320	  0.473	  0.390	  0.499	 -1.288	 -9.388	  0.124	  0.245	  0.105	 33.000	 100.814	  0.284
44283	 -0.319	  0.488	  0.390	  1.627	 -1.407	 -10.191	 -0.363	 -0.213	  0.117	 33.000	 100.814	  0.284
44333	 -0.321	  0.492	  0.385	  2.403	 -2.892	 -11.338	  0.313	 -0.133	  0.151	 33.000	 100.821	 -0.342
44383	 -0.306	  0.487	  0.395	  2.485	 -1.925	 -10.029	 -0.408	 -0.663	  0.132	 33.000	 100.821	 -0.342
44433	 -0.308	  0.475	  0.404	  0.749	 -1.580	 -8.419	 -0.047	  0.425	  0.050	 33.000	 100.814	  0.284
44482	 -0.322	  0.484	  0.390	  2.249	 -0.654	 -9.648	  0.075	  0.745	 -0.149	 33.000	 100.825	 -0.700
44532	 -0.337	  0.474	  0.394	  2.743	 -1.633	 -9.354	 -0.549	  0.209	 -0.214	 33.000	 100.814	  0.284
44582	 -0.343	  0.463	  0.391	  2.139	 -1.606	 -7.822	 -0.058	  0.129	  0.011	 33.000	 100.825	 -0.700
44632	 -0.346	  0.468	  0.394	  3.019	 -1.779	 -8.507	  0.164	  0.037	  0.131	 33.000	 100.825	 -0.700
44682	 -0.340	  0.466	  0.390	  2.703	 -1.318	 -10.182	  0.150	 -0.287	 -0.016	 33.000	 100.825	 -0.700
44732	 -0.333	  0.461	  0.392	  0.783	 -0.878	 -9.367	  0.036	 -0.108	  0.045	 33.000	 100.825	 -0.700
44782	 -0.326	  0.465	  0.385	  6.933	 -1.946	 -6.934	 -0.082	 -0.560	  0.303	 33.000	 100.832	 -1.325
44832	 -0.192	  0.426	  0.462	  6.164	 -3.201	 -9.533	 -2.354	 -5.427	  1.020	 33.000	 100.809	  0.732
44882	 -0.106	  0.368	  0.509	 -7.957	  0.919	 -7.391	 -0.138	 -0.322	  0.249	 33.000	 100.809	  0.732
44932	 -0.142	  0.377	  0.485	 -4.842	 -0.420	 -10.043	  0.957	  1.840	 -0.557	 33.000	 100.814	  0.284
44982	 -0.177	  0.396	  0.464	 -0.783	  0.521	 -10.216	  0.058	  0.426	 -0.066	 33.000	 100.809	  0.732
45032	 -0.192	  0.398	  0.449	  1.170	 -0.567	 -8.788	  0.391	  0.723	 -0.477	 33.000	 100.821	 -0.342
45082	 -0.234	  0.396	  0.445	  0.314	 -1.078	 -9.640	  0.209	  1.012	 -0.744	 33.000	 100.825	 -0.700
45132	 -0.279	  0.392	  0.430	  0.834	 -0.745	 -8.932	  0.435	  1.168	 -0.838	 33.000	 100.825	 -0.700
45182	 -0.327	  0.389	  0.413	  0.661	 -1.389	 -10.282	  0.446	  1.018	 -0.849	 33.000	 100.821	 -0.342
45232	 -0.370	  0.387	  0.391	  1.689	 -1.624	 -9.219	  0.540	  0.854	 -0.785	 33.000	 100.821	 -0.342
45282	 -0.400	  0.387	  0.372	  2.185	 -2.074	 -9.307	  0.213	  0.526	 -0.374	 33.000	 100.825	 -0.700
45332	 -0.417	  0.386	  0.358	  2.859	 -1.794	 -9.084	  0.227	  0.683	 -0.213	 33.000	 100.825	 -0.700
45382	 -0.443	  0.395	  0.346	  3.713	 -2.153	 -9.507	  0.123	  0.846	 -0.322	 33.000	 100.821	 -0.342
45432	 -0.460	  0.385	  0.325	  3.440	 -2.307	 -9.463	  0.127	  0.265	 -0.114	 33.000	 100.821	 -0.342
45482	 -0.458	  0.391	  0.336	  3.546	 -1.998	 -8.671	 -0.142	 -0.333	  0.061	 33.000	 100.825	 -0.700
45532	 -0.455	  0.384	  0.336	  3.329	 -2.121	 -8.926	  0.089	  0.077	  0.015	 33.000	 100.821	 -0.342
45582	 -0.455	  0.384	  0.335	  3.461	 -1.787	 -9.016	  0.013	  0.021	  0.056	 33.000	 100.814	  0.284
45632	 -0.452	  0.389	  0.340	  3.312	 -1.797	 -9.014	  0.010	 -0.047	  0.042	 33.000	 100.821	 -0.342
45682	 -0.449	  0.396	  0.341	  3.091	 -2.058	 -9.175	 -0.079	  0.018	  0.141	 33.000	 100.825	 -0.700
45732	 -0.448	  0.392	  0.337	  3.402	 -1.690	 -9.278	 -0.108	  0.122	  0.068	 33.000	 100.825	 -0.700
45782	 -0.445	  0.388	  0.339	  3.159	 -1.904	 -9.138	 -0.049	 -0.210	 -0.010	 33.000	 100.836	 -1.683
45832	 -0.442	  0.388	  0.344	  3.339	 -1.862	 -9.683	 -0.183	 -0.157	 -0.025	 33.000	 100.825	 -0.700
45882	 -0.440	  0.378	  0.353	  2.924	 -2.396	 -8.537	 -0.090	 -0.154	  0.003	 33.000	 100.809	  0.732
45932	 -0.433	  0.384	  0.357	  3.641	 -1.350	 -9.187	 -0.208	 -0.121	  0.136	 33.000	 100.809	  0.732
45982	 -0.433	  0.380	  0.362	  2.263	 -1.547	 -9.210	 -0.118	 -0.042	  0.052	 33.000	 100.814	  0.284
46032	 -0.420	  0.384	  0.372	  3.663	 -0.950	 -9.912	 -0.605	 -0.573	 -0.096	 33.000	 100.825	 -0.700
46082	 -0.408	  0.381	  0.381	  2.931	 -2.064	 -11.189	  0.598	 -0.631	 -0.304	 33.000	 100.825	 -0.700
46132	 -0.415	  0.375	  0.383	  1.541	 -2.740	 -8.742	  0.116	  0.205	  0.056	 33.000	 100.809	  0.732
46182	 -0.419	  0.379	  0.375	  2.678	 -1.915	 -9.035	 -0.105	  0.440	 -0.026	 33.000	 100.825	 -0.700
46232	 -0.425	  0.390	  0.365	  2.812	 -1.818	 -8.772	  0.645	  0.118	  0.166	 33.000	 100.821	 -0.342
46282	 -0.429	  0.381	  0.363	  0.666	 -3.260	 -6.918	 -1.661	  0.625	 -0.054	 33.000	 100.821	 -0.342
46332	 -0.419	  0.385	  0.373	  4.424	 -0.358	 -8.307	 -0.338	  0.242	  0.673	 33.000	 100.836	 -1.683
46382	 -0.431	  0.366	  0.374	  3.369	 -1.130	 -6.821	 -0.267	  0.163	 -0.803	 33.000	 100.821	 -0.342
46432	 -0.436	  0.352	  0.380	  2.691	 -1.487	 -10.683	  0.061	 -0.425	 -0.404	 33.000	 100.821	 -0.342
46482	 -0.436	  0.341	  0.389	  1.739	 -1.386	 -9.774	 -0.173	 -0.386	 -0.073	 33.000	 100.814	  0.284
46532	 -0.425	  0.338	  0.401	  2.910	 -1.158	 -9.226	 -0.053	 -0.247	  0.101	 33.000	 100.821	 -0.342
46582	 -0.422	  0.342	  0.402	  2.861	 -0.935	 -9.451	 -0.205	 -0.266	 -0.209	 33.000	 100.809	  0.732
46632	 -0.419	  0.333	  0.405	  2.227	 -1.387	 -9.219	  0.022	 -0.100	  0.107	 33.000	 100.809	  0.732
46682	 -0.417	  0.336	  0.408	  2.501	 -0.638	 -9.409	 -0.028	  0.118	 -0.008	 33.000	 100.809	  0.732
46732	 -0.420	  0.335	  0.403	  2.357	 -1.239	 -9.360	  0.184	  0.120	  0.084	 33.000	 100.814	  0.284
46782	 -0.423	  0.338	  0.401	  3.165	 -0.826	 -10.329	 -0.222	 -0.143	 -0.247	 33.000	 100.821	 -0.342
46832	 -0.414	  0.328	  0.418	  0.911	  2.733	 -4.369	  0.436	 -0.873	  0.039	 33.000	 100.814	  0.284
46882	 -0.412	  0.348	  0.408	 -3.190	 -0.593	 -5.719	  1.288	 -0.740	 -1.012	 33.000	 100.825	 -0.700
46932	 -0.438	  0.337	  0.404	  2.280	 -4.135	 -9.288	 -0.681	  1.105	  0.356	 33.000	 100.825	 -0.700
46982	 -0.451	  0.347	  0.398	  4.365	 -1.926	 -9.235	 -0.376	  0.855	  0.533	 33.000	 100.825	 -0.700
47032	 -0.464	  0.349	  0.390	  3.432	 -1.790	 -10.123	  0.274	  0.387	 -0.279	 33.000	 100.825	 -0.700
47082	 -0.466	  0.345	  0.388	  3.126	 -1.403	 -11.088	 -0.296	 -0.086	  0.077	 33.000	 100.825	 -0.700
47132	 -0.458	  0.326	  0.398	  2.977	 -1.299	 -9.604	 -0.225	 -0.574	  0.045	 33.000	 100.809	  0.732
47182	 -0.443	  0.313	  0.404	  2.645	 -1.930	 -9.501	  0.020	 -0.537	 -0.095	 33.000	 100.821	 -0.342
47232	 -0.437	  0.303	  0.402	  2.156	 -2.150	 -9.601	  0.075	 -0.017	  0.129	 33.000	 100.825	 -0.700
47282	 -0.431	  0.304	  0.400	  2.355	 -1.137	 -8.904	 -0.021	 -0.271	 -0.062	 33.000	 100.809	  0.732
47332	 -0.424	  0.294	  0.402	  0.855	 -1.556	 -8.582	  0.126	 -0.388	 -0.271	 33.000	 100.809	  0.732
47382	 -0.420	  0.287	  0.401	  0.963	 -1.578	 -9.276	 -0.097	 -0.070	 -0.126	 33.000	 100.825	 -0.700
47432	 -0.419	  0.284	  0.404	  1.944	 -1.160	 -8.936	  0.039	  0.035	 -0.141	 33.000	 100.825	 -0.700
47482	 -0.430	  0.293	  0.392	  1.976	 -1.343	 -9.778	  0.255	  0.426	 -0.495	 33.000	 100.809	  0.732
47532	 -0.447	  0.275	  0.382	  2.301	 -2.159	 -9.527	  0.324	  0.332	 -0.590	 32.900	 100.821	 -0.342
47582	 -0.458	  0.266	  0.375	  2.313	 -2.413	 -10.128	  0.077	  0.205	 -0.351	 33.000	 100.825	 -0.700
47632	 -0.464	  0.266	  0.360	  2.866	 -1.808	 -9.875	  0.206	  0.016	 -0.285	 33.000	 100.809	  0.732
47682	 -0.464	  0.261	  0.359	  2.586	 -1.814	 -9.717	 -0.028	 -0.121	 -0.281	 33.000	 100.814	  0.284
47732	 -0.456	  0.256	  0.356	  2.667	 -1.517	 -10.062	 -0.371	 -0.288	 -0.119	 33.000	 100.809	  0.732
47782	 -0.446	  0.256	  0.362	  2.681	 -1.365	 -9.688	 -0.253	 -0.622	 -0.113	 33.000	 100.821	 -0.342
47832	 -0.426	  0.236	  0.371	  1.764	 -1.482	 -9.887	 -0.308	 -0.680	 -0.078	 33.000	 100.832	 -1.325
47882	 -0.410	  0.230	  0.371	  1.290	 -1.043	 -9.667	 -0.103	 -0.199	 -0.100	 33.000	 100.809	  0.732
47932	 -0.404	  0.237	  0.361	  1.231	 -1.587	 -10.005	  0.493	  0.127	 -0.125	 33.000	 100.821	 -0.342
47982	 -0.399	  0.241	  0.344	  1.513	 -1.610	 -10.416	  0.790	 -0.119	 -0.178	 33.000	 100.821	 -0.342
48032	 -0.394	  0.238	  0.333	  1.103	 -1.882	 -10.027	  0.115	  0.030	 -0.390	 33.000	 100.821	 -0.342
48082	 -0.387	  0.237	  0.320	  1.579	 -1.694	 -9.859	  0.463	 -0.195	 -0.189	 33.000	 100.821	 -0.342
48132	 -0.379	  0.240	  0.317	  1.986	 -1.315	 -9.949	  0.136	 -0.371	 -0.166	 33.000	 100.836	 -1.683
48182	 -0.367	  0.232	  0.315	  1.414	 -1.064	 -8.768	 -0.231	 -0.225	 -0.305	 33.000	 100.814	  0.284
48232	 -0.363	  0.223	  0.310	  1.346	 -1.544	 -9.070	  0.136	  0.225	 -0.138	 33.000	 100.825	 -0.700
48282	 -0.363	  0.219	  0.300	  1.775	 -1.637	 -9.119	  0.411	  0.343	 -0.016	 33.000	 100.821	 -0.342
48332	 -0.365	  0.222	  0.287	  2.048	 -2.041	 -10.058	 -0.100	  0.586	 -0.063	 33.000	 100.809	  0.732
48382	 -0.367	  0.209	  0.274	  2.380	 -1.731	 -9.222	 -0.170	  0.113	  0.053	 33.000	 100.814	  0.284
48432	 -0.335	  0.215	  0.290	  1.802	 -1.622	 -12.270	 -0.311	 -1.883	 -0.088	 33.000	 100.825	 -0.700
48482	 -0.297	  0.199	  0.326	  0.514	 -1.902	 -9.105	 -0.937	 -1.639	  0.140	 33.000	 100.814	  0.284
48532	 -0.267	  0.178	  0.342	 -0.390	 -0.313	 -8.644	 -0.489	 -0.744	  0.179	 33.000	 100.809	  0.732
48583	 -0.251	  0.171	  0.343	  0.197	 -0.412	 -8.923	  0.022	 -0.120	  0.033	 33.000	 100.809	  0.732
48632	 -0.252	  0.182	  0.342	  0.251	 -1.007	 -10.604	  0.078	  0.123	 -0.124	 33.000	 100.814	  0.284
48682	 -0.253	  0.166	  0.335	  0.238	 -1.356	 -9.097	 -0.001	  0.102	 -0.159	 33.000	 100.821	 -0.342
48732	 -0.254	  0.160	  0.334	 -0.282	 -1.566	 -8.132	  0.129	  0.222	 -0.181	 33.000	 100.821	 -0.342
48781	 -0.264	  0.160	  0.331	 -0.414	 -1.655	 -7.905	  0.365	  0.215	 -0.251	 33.000	 100.814	  0.284
48831	 -0.263	  0.163	  0.327	 -0.089	 -1.790	 -7.952	  0.184	 -0.171	 -0.057	 33.000	 100.809	  0.732
48881	 -0.263	  0.160	  0.323	 -0.303	 -1.658	 -9.176	 -0.106	  0.345	  0.107	 33.000	 100.821	 -0.342
48931	 -0.275	  0.170	  0.317	  0.385	 -1.383	 -9.538	 -0.064	  0.996	  0.044	 33.000	 100.821	 -0.342
48981	 -0.294	  0.156	  0.310	  0.652	 -1.638	 -10.349	  0.027	  0.873	  0.094	 33.000	 100.809	  0.732
49032	 -0.306	  0.153	  0.300	  1.362	 -2.056	 -10.016	 -0.074	  0.337	 -0.001	 33.000	 100.821	 -0.342
49082	 -0.304	  0.153	  0.303	  1.302	 -2.197	 -10.206	  0.032	 -0.416	  0.106	 33.000	 100.821	 -0.342
49131	 -0.294	  0.155	  0.303	  0.253	 -1.671	 -10.550	 -0.283	 -0.346	  0.316	 33.000	 100.832	 -1.325
49182	 -0.287	  0.159	  0.301	  1.030	 -1.959	 -11.332	  0.194	  0.065	  0.222	 33.000	 100.821	 -0.342
49233	 -0.288	  0.164	  0.299	 -0.052	 -2.064	 -10.411	  0.678	  0.023	  0.157	 33.000	 100.825	 -0.700
49282	 -0.287	  0.176	  0.295	  0.057	 -2.864	 -11.020	  0.537	 -0.024	  0.093	 33.000	 100.821	 -0.342
49332	 -0.271	  0.188	  0.293	  0.859	 -2.395	 -8.652	  0.504	 -0.946	  0.023	 32.900	 100.821	 -0.342
49382	 -0.251	  0.186	  0.306	 -0.271	 -2.564	 -8.095	  0.019	 -1.024	 -0.375	 33.000	 100.809	  0.732
49432	 -0.240	  0.180	  0.306	  0.054	 -1.967	 -7.569	  0.192	 -0.365	 -0.004	 33.000	 100.825	 -0.700
49482	 -0.237	  0.189	  0.306	  0.454	 -1.849	 -9.790	  0.103	  0.482	  0.005	 33.000	 100.809	  0.732
49533	 -0.253	  0.202	  0.301	  0.998	 -1.814	 -8.875	 -0.142	  0.775	 -0.072	 33.000	 100.821	 -0.342
49583	 -0.261	  0.191	  0.289	  0.898	 -2.049	 -10.401	  0.398	  0.231	 -0.155	 33.000	 100.809	  0.732
49633	 -0.265	  0.185	  0.292	  0.779	 -2.391	 -9.190	 -0.087	 -0.289	 -0.549	 33.000	 100.809	  0.732
49683	 -0.255	  0.174	  0.291	  0.085	 -2.458	 -8.588	 -0.033	 -0.931	 -0.498	 33.000	 100.821	 -0.342
49733	 -0.246	  0.164	  0.308	  0.818	 -2.386	 -8.299	 -0.403	 -0.870	 -0.567	 33.000	 100.821	 -0.342
49783	 -0.238	  0.154	  0.317	 -0.048	 -2.259	 -8.472	 -0.296	 -0.456	 -0.568	 33.000	 100.809	  0.732
49833	 -0.242	  0.144	  0.325	  0.102	 -1.710	 -9.441	 -0.339	  0.098	 -0.553	 33.000	 100.809	  0.732
49883	 -0.251	  0.125	  0.329	  0.708	 -1.437	 -10.566	  0.079	  0.268	 -0.553	 33.000	 100.809	  0.732
49933	 -0.257	  0.120	  0.316	  1.362	 -1.802	 -10.066	  0.093	 -0.120	 -0.762	 33.000	 100.825	 -0.700
49983	 -0.248	  0.114	  0.321	  0.004	 -2.879	 -11.171	  0.361	 -1.047	 -0.891	 33.000	 100.809	  0.732
50033	 -0.228	  0.116	  0.329	 -1.646	 -2.229	 -11.201	  0.671	 -1.505	 -0.776	 33.000	 100.809	  0.732
50083	 -0.209	  0.122	  0.332	  0.424	 -2.144	 -9.293	  0.716	 -0.821	 -0.890	 33.000	 100.821	 -0.342
50133	 -0.206	  0.119	  0.328	  0.091	 -2.998	 -9.776	  0.285	 -0.210	 -0.994	 33.000	 100.809	  0.732
50183	 -0.205	  0.112	  0.321	 -0.820	 -2.422	 -10.426	 -0.210	  0.079	 -0.638	 32.900	 100.817	  0.016
50233	 -0.213	  0.101	  0.316	  0.252	 -2.222	 -9.689	 -0.334	  0.303	 -0.381	 33.000	 100.821	 -0.342
50283	 -0.214	  0.088	  0.319	 -1.060	 -2.803	 -9.693	 -0.473	 -0.179	 -0.431	 33.000	 100.821	 -0.342
50333	 -0.206	  0.080	  0.324	 -1.429	 -2.639	 -8.832	 -0.477	 -0.481	  0.040	 33.000	 100.809	  0.732
50383	 -0.193	  0.074	  0.324	 -0.899	 -2.751	 -8.387	 -0.242	 -0.379	  0.110	 33.000	 100.809	  0.732
50433	 -0.186	  0.069	  0.325	 -1.660	 -3.528	 -8.123	 -0.355	 -0.074	  0.029	 33.000	 100.809	  0.732
50483	 -0.180	  0.063	  0.322	 -1.724	 -3.594	 -8.372	 -0.622	 -0.269	  0.176	 33.000	 100.821	 -0.342
50533	 -0.176	  0.059	  0.329	 -2.258	 -3.128	 -8.908	 -0.424	  0.268	  0.502	 33.000	 100.809	  0.732
50583	 -0.179	  0.053	  0.325	 -1.426	 -2.500	 -9.545	 -0.321	  0.619	  0.858	 33.000	 100.809	  0.732
50633	 -0.178	  0.057	  0.326	 -1.988	 -3.116	 -10.165	 -0.139	 -0.226	  0.364	 33.000	 100.814	  0.284
50683	 -0.172	  0.056	  0.324	 -1.448	 -2.379	 -8.534	 -0.117	  0.242	  0.737	 33.000	 100.821	 -0.342
50733	 -0.175	  0.060	  0.322	 -0.788	 -2.386	 -8.564	 -0.031	  0.589	  0.697	 33.000	 100.821	 -0.342
50783	 -0.184	  0.067	  0.316	 -0.660	 -2.754	 -9.352	 -0.237	  0.988	  0.913	 33.000	 100.809	  0.732
50833	 -0.195	  0.068	  0.312	 -0.907	 -1.706	 -9.924	 -0.253	  0.577	  1.066	 32.900	 100.809	  0.732
50883	 -0.193	  0.068	  0.310	 -0.309	 -1.121	 -10.330	 -0.587	  0.386	  0.889	 33.000	 100.809	  0.732
50933	 -0.185	  0.070	  0.312	  0.432	 -0.773	 -9.901	 -0.177	 -0.815	  0.682	 33.000	 100.809	  0.732
50983	 -0.160	  0.064	  0.323	 -0.258	 -3.058	 -8.809	 -0.233	 -1.621	  0.372	 33.000	 100.821	 -0.342
51033	 -0.133	  0.059	  0.324	 -2.134	 -2.539	 -8.293	 -0.478	 -0.412	  0.289	 33.000	 100.814	  0.284
51083	 -0.136	  0.058	  0.324	 -3.009	 -1.139	 -7.457	  0.024	  0.743	  0.413	 33.000	 100.809	  0.732
51132	 -0.149	  0.053	  0.322	 -0.806	 -0.780	 -7.418	 -0.583	  0.681	 -0.414	 32.900	 100.809	  0.732
51183	 -0.158	  0.052	  0.318	 -2.055	 -0.379	 -6.977	 -0.649	  0.116	 -0.484	 33.000	 100.809	  0.732
51232	 -0.159	  0.033	  0.319	 -1.923	  0.849	 -9.151	 -0.444	  0.548	 -0.146	 33.000	 100.809	  0.732
51282	 -0.166	  0.027	  0.310	  0.256	  2.238	 -13.742	 -0.107	 -0.598	 -0.425	 33.000	 100.821	 -0.342
51332	 -0.146	  0.008	  0.312	 -3.439	  0.975	 -10.967	 -0.949	 -0.910	 -1.040	 33.000	 100.825	 -0.700
51382	 -0.134	  0.006	  0.321	 -3.553	  1.503	 -10.862	  0.109	 -0.149	  0.275	 33.000	 100.809	  0.732
51432	 -0.139	  0.004	  0.320	 -0.344	  2.418	 -12.746	 -0.446	  0.495	 -0.399	 33.000	 100.809	  0.732
51482	 -0.140	  0.003	  0.316	 -0.757	  0.857	 -10.924	 -0.098	  0.070	 -0.292	 33.000	 100.821	 -0.342
51532	 -0.143	 -0.008	  0.319	 -0.144	  1.577	 -10.229	  0.083	  0.100	 -0.121	 32.900	 100.805	  1.089
51582	 -0.141	 -0.006	  0.318	 -0.143	  0.726	 -9.266	  0.523	 -0.132	 -0.430	 33.000	 100.809	  0.732
51632	 -0.134	 -0.001	  0.316	 -0.815	  0.039	 -9.693	  0.145	 -0.426	 -0.353	 33.000	 100.821	 -0.342
51682	 -0.123	  0.004	  0.319	 -1.302	 -0.303	 -8.788	 -0.358	 -0.373	 -0.400	 33.000	 100.809	  0.732
51732	 -0.121	 -0.015	  0.321	 -1.209	 -0.199	 -8.704	 -0.382	  0.364	 -0.584	 33.000	 100.809	  0.732
51782	 -0.125	 -0.019	  0.322	 -1.278	 -1.222	 -9.709	  0.536	  0.717	 -0.588	 33.000	 100.821	 -0.342
51832	 -0.138	 -0.015	  0.313	 -0.893	 -1.625	 -11.052	  0.301	  0.605	 -0.414	 33.000	 100.821	 -0.342
51882	 -0.141	 -0.016	  0.311	 -0.558	 -1.391	 -9.233	 -0.009	  0.179	  0.013	 33.000	 100.821	 -0.342
51932	 -0.141	 -0.016	  0.312	  0.340	 -0.496	 -9.022	 -0.053	  0.211	 -0.232	 33.000	 100.821	 -0.342
51982	 -0.138	 -0.016	  0.311	 -0.556	 -1.768	 -8.506	  0.510	  0.242	 -0.252	 33.000	 100.821	 -0.342
52032	 -0.145	 -0.002	  0.306	 -0.468	 -2.202	 -9.272	  0.327	  0.824	  0.386	 33.000	 100.821	 -0.342
52082	 -0.154	 -0.005	  0.304	  1.878	 -0.748	 -11.355	  0.151	  0.343	  0.490	 33.000	 100.821	 -0.342
52132	 -0.149	 -0.007	  0.308	  0.136	 -1.818	 -10.070	 -0.052	 -0.130	  0.453	 33.000	 100.821	 -0.342
52182	 -0.141	 -0.008	  0.311	  0.685	 -0.655	 -10.922	 -0.362	  0.122	  0.639	 33.000	 100.809	  0.732
52232	 -0.142	 -0.013	  0.315	  1.273	  0.019	 -11.716	 -0.331	 -0.035	  0.488	 33.000	 100.814	  0.284
52282	 -0.134	 -0.029	  0.317	 -1.202	 -0.088	 -12.044	 -0.680	 -0.057	  0.560	 33.000	 100.809	  0.732
52332	 -0.135	 -0.027	  0.326	 -0.381	  1.320	 -11.586	 -0.202	  0.183	  1.014	 33.000	 100.809	  0.732
52382	 -0.140	 -0.032	  0.328	  0.578	  1.155	 -10.520	  0.492	  0.330	  1.040	 33.000	 100.821	 -0.342
52432	 -0.145	 -0.022	  0.322	  1.017	  0.145	 -8.625	  0.414	  0.440	  0.716	 33.000	 100.821	 -0.342
52482	 -0.156	 -0.010	  0.329	  0.542	 -0.046	 -8.640	  0.745	  0.070	  0.645	 33.000	 100.809	  0.732
52532	 -0.154	  0.005	  0.328	  0.462	 -0.660	 -8.691	  0.465	  0.178	  0.591	 33.000	 100.809	  0.732
52582	 -0.158	  0.011	  0.330	  0.769	 -0.122	 -8.076	  0.167	  0.273	  0.430	 33.000	 100.809	  0.732
52632	 -0.165	  0.020	  0.327	  1.343	 -0.512	 -8.088	  0.611	  0.041	  0.349	 33.000	 100.821	 -0.342
52682	 -0.164	  0.023	  0.325	  1.925	 -1.140	 -8.660	  0.430	 -0.209	  0.149	 33.000	 100.832	 -1.325
52732	 -0.161	  0.029	  0.330	  1.422	 -1.730	 -9.474	  0.293	 -0.461	 -0.072	 33.000	 100.809	  0.732
52782	 -0.158	  0.034	  0.331	  0.695	 -1.520	 -11.038	  0.365	 -0.343	 -0.247	 33.000	 100.809	  0.732
52832	 -0.158	  0.030	  0.338	  0.204	 -1.279	 -11.774	 -0.277	 -0.206	 -0.333	 33.000	 100.809	  0.732
52882	 -0.162	  0.024	  0.342	 -0.161	 -0.857	 -10.910	 -0.024	  0.005	 -0.441	 33.000	 100.821	 -0.342
52932	 -0.167	  0.023	  0.347	 -1.533	  0.570	 -10.172	  0.512	 -0.215	 -0.415	 33.000	 100.821	 -0.342
52982	 -0.167	  0.043	  0.348	 -1.721	 -0.945	 -10.261	  0.873	 -0.154	  0.151	 33.000	 100.821	 -0.342
53032	 -0.164	  0.060	  0.341	 -0.455	 -2.400	 -10.269	  0.671	 -0.096	  0.212	 33.000	 100.821	 -0.342
53082	 -0.167	  0.068	  0.342	 -0.091	 -2.727	 -9.048	  0.301	 -0.123	 -0.245	 33.000	 100.821	 -0.342
53132	 -0.172	  0.082	  0.345	 -0.325	 -2.057	 -7.714	  0.720	  0.114	 -0.539	 33.000	 100.821	 -0.342
53182	 -0.179	  0.089	  0.340	 -0.885	 -2.120	 -7.628	  0.234	  0.218	 -0.151	 32.900	 100.817	  0.016
53232	 -0.186	  0.087	  0.334	 -0.132	 -3.081	 -6.835	  0.010	  0.404	  0.230	 33.000	 100.809	  0.732
53282	 -0.192	  0.092	  0.325	  0.250	 -3.684	 -7.143	 -0.046	  0.092	  0.391	 33.000	 100.821	 -0.342
53332	 -0.189	  0.097	  0.331	  1.070	 -4.609	 -8.735	  0.102	 -0.289	  0.072	 33.000	 100.821	 -0.342
53382	 -0.186	  0.100	  0.330	  0.163	 -3.648	 -10.837	 -0.027	 -0.065	 -0.335	 32.900	 100.817	  0.016
53432	 -0.189	  0.099	  0.330	 -0.890	 -2.557	 -11.005	 -0.261	  0.045	 -0.087	 33.000	 100.821	 -0.342
53482	 -0.191	  0.091	  0.323	 -0.843	 -1.470	 -12.136	  0.080	 -0.090	  0.020	 32.900	 100.828	 -0.969
53532	 -0.190	  0.094	  0.324	 -1.155	 -1.298	 -11.701	 -0.115	  0.119	  0.725	 33.000	 100.821	 -0.342
53582	 -0.186	  0.110	  0.327	  0.839	 -2.426	 -11.416	 -0.211	  0.279	  0.986	 33.000	 100.821	 -0.342
53632	 -0.186	  0.102	  0.327	  0.676	 -1.983	 -10.613	 -0.238	  0.348	  0.596	 33.000	 100.809	  0.732
53682	 -0.187	  0.099	  0.322	 -0.031	 -1.648	 -9.443	 -0.098	  0.322	  0.585	 32.900	 100.817	  0.016
53732	 -0.187	  0.102	  0.322	  0.281	 -2.109	 -9.030	 -0.055	  0.135	  0.496	 32.900	 100.821	 -0.342
53782	 -0.186	  0.109	  0.323	 -0.388	 -2.122	 -7.592	 -0.010	  0.205	  0.281	 33.000	 100.821	 -0.342
53832	 -0.187	  0.108	  0.319	 -0.048	 -2.090	 -7.233	  0.300	  0.294	  0.276	 33.000	 100.832	 -1.325
53882	 -0.190	  0.124	  0.310	  0.249	 -2.911	 -7.511	  0.659	  0.380	  0.234	 33.000	 100.821	 -0.342
53932	 -0.197	  0.128	  0.301	  0.952	 -3.594	 -8.555	  0.479	  0.458	  0.100	 33.000	 100.809	  0.732
53982	 -0.204	  0.136	  0.294	  1.618	 -4.111	 -8.933	  0.457	  0.288	 -0.215	 33.000	 100.821	 -0.342
54032	 -0.208	  0.140	  0.296	  1.838	 -4.493	 -9.808	  0.169	  0.156	 -0.647	 33.000	 100.821	 -0.342
54082	 -0.219	  0.130	  0.295	  1.391	 -3.755	 -10.128	 -0.222	  0.056	 -1.221	 33.000	 100.821	 -0.342
54133	 -0.231	  0.107	  0.297	 -0.255	 -2.386	 -9.834	 -0.035	  0.042	 -1.168	 33.000	 100.821	 -0.342
54182	 -0.231	  0.097	  0.301	  0.786	 -3.426	 -10.202	  0.059	 -0.328	 -0.655	 33.000	 100.832	 -1.325
54232	 -0.231	  0.094	  0.305	  1.408	 -3.957	 -10.205	  0.205	 -0.837	 -1.377	 32.900	 100.817	  0.016
54282	 -0.221	  0.084	  0.316	 -1.303	 -3.126	 -10.942	  0.685	 -0.720	 -1.910	 32.900	 100.809	  0.732
54332	 -0.223	  0.074	  0.319	 -2.116	 -3.008	 -10.740	  0.223	 -0.204	 -1.152	 33.000	 100.821	 -0.342
54382	 -0.227	  0.065	  0.325	  0.405	 -3.543	 -8.887	 -0.213	  0.003	 -1.003	 33.000	 100.821	 -0.342
54432	 -0.232	  0.053	  0.340	  0.446	 -2.977	 -7.896	  0.306	  0.144	 -1.386	 33.000	 100.821	 -0.342
54482	 -0.241	  0.045	  0.344	  0.138	 -2.700	 -8.034	  0.370	  0.237	 -1.246	 33.000	 100.821	 -0.342
54532	 -0.249	  0.062	  0.351	  0.714	 -3.489	 -7.123	  0.555	  0.163	 -0.836	 32.900	 100.817	  0.016
54583	 -0.252	  0.064	  0.360	  1.266	 -4.354	 -8.009	  0.715	 -0.312	 -1.022	 32.900	 100.828	 -0.969
54632	 -0.248	  0.074	  0.380	  0.177	 -3.741	 -9.478	  0.848	 -0.420	 -1.258	 33.000	 100.821	 -0.342
54682	 -0.249	  0.089	  0.390	  0.357	 -2.797	 -8.993	  0.511	 -0.020	 -0.878	 32.900	 100.817	  0.016
54732	 -0.260	  0.108	  0.410	  0.991	 -2.721	 -7.178	  0.295	 -0.013	 -0.347	 32.900	 100.828	 -0.969
54783	 -0.257	  0.145	  0.430	  2.321	 -4.074	 -7.140	  0.239	 -0.386	 -0.046	 33.000	 100.821	 -0.342
54832	 -0.247	  0.172	  0.469	  3.378	 -3.732	 -8.994	 -0.440	 -1.387	 -0.897	 33.000	 100.821	 -0.342
54883	 -0.238	  0.189	  0.508	 -0.165	 -1.875	 -9.360	 -0.452	 -1.288	 -1.536	 32.900	 100.821	 -0.342
54933	 -0.233	  0.205	  0.552	 -0.512	 -0.458	 -9.859	 -1.074	 -1.415	 -1.207	 33.000	 100.809	  0.732
54982	 -0.228	  0.216	  0.593	 -0.555	 -0.013	 -9.978	 -0.760	 -1.388	 -1.142	 32.900	 100.805	  1.089
55033	 -0.218	  0.211	  0.626	 -0.334	 -0.078	 -10.408	 -0.553	 -1.163	 -1.067	 33.000	 100.809	  0.732
55083	 -0.213	  0.213	  0.643	 -0.942	 -0.806	 -9.922	 -0.061	 -1.150	 -0.957	 33.000	 100.821	 -0.342
55133	 -0.198	  0.222	  0.669	 -1.715	 -1.912	 -9.998	 -0.184	 -1.518	 -0.934	 32.900	 100.821	 -0.342
55183	 -0.169	  0.224	  0.671	 -2.992	 -1.550	 -9.433	  0.309	 -1.666	 -0.974	 33.000	 100.809	  0.732
55233	 -0.155	  0.257	  0.669	 -4.315	 -1.669	 -10.049	  1.049	 -0.634	 -0.568	 32.900	 100.805	  1.089
55283	 -0.150	  0.292	  0.657	 -4.428	 -2.442	 -9.123	  0.221	 -0.668	  0.239	 33.000	 100.809	  0.732
55333	 -0.126	  0.278	  0.661	 -2.125	 -3.812	 -8.457	 -0.090	 -0.918	  0.310	 32.900	 100.805	  1.089
55383	 -0.118	  0.323	  0.642	 -2.561	 -3.388	 -9.580	  2.151	 -0.394	 -0.811	 32.900	 100.805	  1.089
55433	 -0.116	  0.335	  0.631	 -2.191	 -3.011	 -5.238	  0.283	 -0.611	 -0.036	 33.000	 100.821	 -0.342
55483	 -0.097	  0.333	  0.624	 -3.667	 -4.095	 -8.538	 -0.195	 -0.470	  0.380	 32.900	 100.817	  0.016
55533	 -0.072	  0.325	  0.628	 -2.523	 -4.169	 -8.025	 -0.258	 -0.634	  0.276	 33.000	 100.821	 -0.342
55583	 -0.048	  0.315	  0.622	 -2.513	 -4.070	 -7.868	 -0.072	 -0.657	 -0.060	 32.900	 100.805	  1.089
55633	 -0.049	  0.317	  0.613	 -4.702	 -3.375	 -7.277	  0.391	 -0.105	 -0.204	 33.000	 100.809	  0.732
55683	 -0.056	  0.334	  0.596	 -4.688	 -4.881	 -9.524	  0.205	  0.177	  0.293	 32.900	 100.817	  0.016
55733	 -0.059	  0.342	  0.592	 -3.813	 -3.686	 -5.847	 -0.056	  0.101	  0.005	 32.900	 100.817	  0.016
55783	 -0.062	  0.336	  0.586	 -3.872	 -3.653	 -6.689	  0.251	 -0.695	 -0.666	 32.900	 100.805	  1.089
55833	 -0.064	  0.349	  0.573	 -3.962	 -4.108	 -7.150	  0.618	 -0.742	 -0.710	 32.900	 100.828	 -0.969
55883	 -0.069	  0.359	  0.573	 -4.104	 -4.590	 -8.327	  0.561	 -0.428	 -0.914	 33.000	 100.809	  0.732
55933	 -0.097	  0.382	  0.559	 -5.180	 -3.277	 -8.611	  0.786	  0.128	 -0.741	 32.900	 100.821	 -0.342
55983	 -0.117	  0.392	  0.551	 -3.922	 -4.696	 -8.903	  0.333	  0.338	  0.135	 32.900	 100.817	  0.016
56033	 -0.120	  0.394	  0.547	 -2.438	 -5.162	 -5.369	  0.155	 -0.197	  0.128	 32.900	 100.817	  0.016
56083	 -0.113	  0.394	  0.545	 -3.193	 -5.258	 -6.838	  0.241	 -0.731	 -0.077	 32.900	 100.805	  1.089
56133	 -0.120	  0.404	  0.539	 -4.363	 -5.133	 -8.617	  0.362	 -0.302	 -0.248	 32.900	 100.817	  0.016
56183	 -0.123	  0.374	  0.544	 -4.353	 -6.785	 -10.118	 -1.468	  0.426	  0.173	 32.900	 100.817	  0.016
56233	 -0.119	  0.335	  0.564	 -3.886	 -4.934	 -4.089	 -0.599	 -0.161	  0.617	 32.900	 100.821	 -0.342
56282	 -0.119	  0.340	  0.559	 -3.310	 -4.442	 -6.966	  0.513	  0.355	  0.025	 32.900	 100.828	 -0.969
56332	 -0.143	  0.344	  0.548	 -3.845	 -4.820	 -7.035	  0.321	  0.095	 -0.114	 32.900	 100.805	  1.089
56382	 -0.163	  0.334	  0.544	 -3.168	 -6.321	 -6.651	 -0.394	 -0.003	 -0.778	 32.900	 100.805	  1.089
56432	 -0.178	  0.301	  0.548	 -5.251	 -4.706	 -7.804	 -0.465	 -0.636	 -0.891	 32.900	 100.817	  0.016
56482	 -0.187	  0.284	  0.550	 -3.640	 -5.377	 -5.895	  0.383	 -0.061	 -0.292	 33.000	 100.809	  0.732
56532	 -0.219	  0.303	  0.531	 -3.925	 -5.139	 -6.261	  1.550	  0.126	 -0.436	 32.900	 100.817	  0.016
56582	 -0.231	  0.336	  0.512	 -3.606	 -5.923	 -7.016	  1.259	 -0.179	  0.326	 33.000	 100.832	 -1.325
56632	 -0.250	  0.337	  0.499	 -2.779	 -5.275	 -8.467	 -0.027	  0.425	 -1.129	 32.900	 100.828	 -0.969
56682	 -0.327	  0.275	  0.490	 -4.438	 -7.920	 -3.012	 -0.079	  1.669	 -1.681	 33.000	 100.821	 -0.342
56732	 -0.436	  0.272	  0.426	 -1.939	 -6.719	 -5.949	  2.743	  2.453	 -1.033	 32.900	 100.828	 -0.969
56782	 -0.530	  0.252	  0.357	 -0.425	 -6.653	 -8.412	  0.564	  2.081	 -1.450	 32.900	 100.817	  0.016
56832	 -0.618	  0.173	  0.311	 -0.751	 -8.053	 -5.896	 -1.743	  1.852	 -0.096	 32.900	 100.817	  0.016
56882	 -0.664	  0.130	  0.273	  1.977	 -7.323	 -7.535	 -1.484	  1.335	 -0.016	 32.900	 100.805	  1.089
56932	 -0.701	  0.071	  0.241	  2.510	 -8.266	 -8.476	 -1.861	  0.838	 -0.040	 32.900	 100.817	  0.016
56982	 -0.720	  0.043	  0.217	  5.476	 -4.860	 -9.416	 -1.122	  0.429	 -0.283	 32.900	 100.805	  1.089
57032	 -0.725	  0.023	  0.221	  1.749	 -6.189	 -7.956	 -0.226	 -0.103	 -0.178	 32.900	 100.817	  0.016
57082	 -0.722	  0.011	  0.227	  1.789	 -5.025	 -8.171	 -0.664	 -0.188	  0.116	 33.000	 100.809	  0.732
57132	 -0.724	  0.002	  0.228	  1.995	 -5.355	 -7.786	 -0.874	 -0.058	  0.001	 32.900	 100.817	  0.016
57182	 -0.719	 -0.011	  0.243	  1.485	 -4.525	 -9.181	 -0.774	 -0.332	 -0.001	 33.000	 100.832	 -1.325
57232	 -0.715	 -0.026	  0.251	  1.855	 -4.823	 -7.795	 -0.732	 -0.348	 -0.135	 32.900	 100.828	 -0.969
57282	 -0.705	 -0.053	  0.270	  1.415	 -3.397	 -8.546	 -1.079	 -0.789	  0.057	 32.900	 100.817	  0.016
57332	 -0.700	 -0.060	  0.279	 -0.176	 -4.106	 -8.829	 -0.656	 -0.127	  0.414	 32.900	 100.821	 -0.342
57382	 -0.701	 -0.060	  0.276	  2.750	 -2.821	 -10.861	 -0.806	  0.583	  0.323	 33.000	 100.821	 -0.342
57432	 -0.706	 -0.068	  0.273	  0.972	 -2.911	 -9.057	 -1.086	  0.101	  0.324	 32.900	 100.821	 -0.342
57482	 -0.700	 -0.072	  0.273	  0.380	 -3.670	 -10.008	 -0.262	 -0.263	  0.224	 32.900	 100.817	  0.016
57532	 -0.699	 -0.065	  0.273	  1.188	 -2.821	 -8.929	 -0.020	 -0.036	  0.021	 32.900	 100.828	 -0.969
57582	 -0.700	 -0.067	  0.274	  1.073	 -2.549	 -9.049	 -0.025	 -0.024	 -0.001	 32.900	 100.817	  0.016
57632	 -0.698	 -0.071	  0.269	  0.960	 -2.657	 -9.366	 -0.016	 -0.013	  0.001	 32.900	 100.821	 -0.342
57682	 -0.699	 -0.074	  0.270	  0.935	 -2.653	 -9.420	 -0.009	 -0.001	 -0.000	 32.900	 100.817	  0.016
57732	 -0.698	 -0.075	  0.274	  0.914	 -2.638	 -9.426	 -0.005	  0.003	  0.000	 32.900	 100.817	  0.016
57782	 -0.700	 -0.073	  0.276	  0.923	 -2.671	 -9.346	 -0.006	  0.005	 -0.000	 32.900	 100.805	  1.089
57832	 -0.699	 -0.073	  0.274	  0.941	 -2.662	 -9.383	 -0.008	  0.003	  0.001	 32.900	 100.812	  0.463
57882	 -0.699	 -0.074	  0.272	  0.983	 -2.710	 -9.284	 -0.001	  0.004	  0.000	 32.900	 100.817	  0.016
57932	 -0.698	 -0.076	  0.275	  0.928	 -2.672	 -9.373	 -0.004	  0.003	  0.001	 32.900	 100.828	 -0.969
57982	 -0.702	 -0.075	  0.271	  0.965	 -2.704	 -9.377	 -0.007	  0.001	 -0.009	 32.900	 100.817	  0.016
58032	 -0.700	 -0.074	  0.273	  0.908	 -2.657	 -9.379	 -0.004	  0.002	 -0.003	 32.900	 100.828	 -0.969
58082	 -0.698	 -0.074	  0.274	  0.945	 -2.659	 -9.392	 -0.005	  0.001	 -0.002	 32.900	 100.817	  0.016
58132	 -0.699	 -0.076	  0.271	  0.947	 -2.696	 -9.345	 -0.004	  0.000	 -0.007	 32.900	 100.817	  0.016
58182	 -0.698	 -0.075	  0.270	  0.932	 -2.676	 -9.360	 -0.005	  0.000	 -0.007	 32.900	 100.817	  0.016
58232	 -0.698	 -0.065	  0.274	  0.969	 -2.708	 -9.352	 -0.003	 -0.004	 -0.019	 32.900	 100.817	  0.016
58282	 -0.696	 -0.064	  0.273	  0.976	 -2.684	 -9.352	  0.000	 -0.011	 -0.040	 32.900	 100.812	  0.463
58332	 -0.695	 -0.079	  0.272	  1.022	 -2.708	 -9.359	  0.001	 -0.015	 -0.057	 32.900	 100.828	 -0.969
58382	 -0.695	 -0.083	  0.264	  0.913	 -2.641	 -9.393	 -0.003	 -0.013	 -0.053	 32.900	 100.817	  0.016
58432	 -0.695	 -0.077	  0.273	  1.002	 -2.747	 -9.344	  0.003	 -0.025	 -0.089	 32.900	 100.828	 -0.969
58482	 -0.691	 -0.088	  0.277	  1.222	 -2.907	 -9.318	  0.022	 -0.025	 -0.119	 32.900	 100.817	  0.016
58532	 -0.682	 -0.095	  0.271	  2.383	 -3.852	 -8.913	  0.059	 -0.122	 -0.480	 32.900	 100.817	  0.016
58582	 -0.658	 -0.133	  0.276	  3.218	 -2.807	 -9.889	 -0.010	 -0.373	 -1.362	 32.900	 100.817	  0.016
58632	 -0.604	 -0.179	  0.279	  0.175	 -0.202	 -8.528	  0.115	 -0.394	 -0.772	 32.900	 100.817	  0.016
58682	 -0.560	 -0.199	  0.261	 -1.044	 -1.643	 -9.157	  0.099	 -0.316	 -0.563	 32.900	 100.817	  0.016
58732	 -0.525	 -0.223	  0.248	 -1.741	 -3.416	 -9.147	  0.206	 -0.201	 -1.008	 33.000	 100.809	  0.732
58782	 -0.511	 -0.253	  0.234	 -1.046	 -2.092	 -10.360	  0.093	 -0.132	 -0.967	 32.900	 100.817	  0.016
58832	 -0.509	 -0.266	  0.221	  1.046	 -2.704	 -8.069	 -0.094	 -0.017	 -0.261	 32.900	 100.817	  0.016
58882	 -0.517	 -0.264	  0.215	  1.056	 -3.167	 -9.868	 -0.034	 -0.003	 -0.009	 32.900	 100.817	  0.016
58932	 -0.536	 -0.252	  0.210	  0.432	 -2.617	 -9.776	 -0.010	 -0.015	  0.004	 32.900	 100.817	  0.016
58982	 -0.555	 -0.261	  0.206	  1.955	 -2.783	 -9.516	  0.047	 -0.000	 -0.155	 32.900	 100.817	  0.016
59032	 -0.563	 -0.263	  0.208	  2.202	 -3.026	 -9.099	  0.052	 -0.076	 -0.300	 32.900	 100.817	  0.016
59082	 -0.566	 -0.256	  0.206	  2.062	 -2.889	 -9.165	  0.036	 -0.029	 -0.245	 33.000	 100.821	 -0.342
59132	 -0.566	 -0.272	  0.209	  1.044	 -2.726	 -9.441	  0.019	 -0.013	 -0.004	 32.900	 100.821	 -0.342
59182	 -0.563	 -0.271	  0.207	  1.073	 -2.621	 -9.522	  0.009	 -0.002	  0.002	 32.900	 100.817	  0.016
59232	 -0.564	 -0.274	  0.208	  1.083	 -2.554	 -9.509	 -0.002	  0.002	  0.001	 32.900	 100.817	  0.016
59282	 -0.563	 -0.273	  0.210	  1.076	 -2.524	 -9.472	 -0.006	  0.004	 -0.001	 32.900	 100.817	  0.016
59332	 -0.565	 -0.271	  0.208	  1.054	 -2.535	 -9.457	 -0.008	  0.006	 -0.001	 32.900	 100.817	  0.016
59382	 -0.563	 -0.266	  0.210	  1.062	 -2.495	 -9.426	 -0.009	  0.004	 -0.001	 32.900	 100.817	  0.016
59432	 -0.562	 -0.271	  0.209	  1.063	 -2.497	 -9.449	 -0.007	  0.006	  0.001	 32.900	 100.817	  0.016
59482	 -0.563	 -0.259	  0.209	  1.050	 -2.475	 -9.382	 -0.003	  0.002	 -0.000	 32.900	 100.817	  0.016
59532	 -0.567	 -0.272	  0.208	  1.059	 -2.503	 -9.413	 -0.003	  0.000	  0.001	 32.900	 100.817	  0.016
59582	 -0.563	 -0.272	  0.210	  1.046	 -2.482	 -9.372	 -0.001	  0.003	  0.001	 32.900	 100.817	  0.016
59632	 -0.563	 -0.271	  0.213	  1.049	 -2.503	 -9.382	 -0.004	  0.001	 -0.002	 32.900	 100.828	 -0.969
59682	 -0.563	 -0.256	  0.208	  1.075	 -2.492	 -9.392	 -0.002	  0.001	 -0.001	 32.900	 100.817	  0.016
59732	 -0.564	 -0.272	  0.210	  1.095	 -2.460	 -9.443	 -0.003	  0.001	  0.001	 32.900	 100.817	  0.016
59782	 -0.564	 -0.272	  0.208	  1.054	 -2.476	 -9.462	 -0.004	  0.001	  0.001	 32.900	 100.817	  0.016
59832	 -0.565	 -0.274	  0.211	  1.068	 -2.468	 -9.445	 -0.002	  0.003	  0.002	 32.900	 100.817	  0.016
59882	 -0.562	 -0.274	  0.206	  1.078	 -2.478	 -9.427	 -0.003	  0.002	  0.002	 32.900	 100.812	  0.463
59932	 -0.563	 -0.268	  0.208	  1.065	 -2.480	 -9.417	 -0.004	  0.004	  0.001	 32.900	 100.817	  0.016
59982	 -0.563	 -0.273	  0.212	  1.069	 -2.481	 -9.460	 -0.006	  0.003	  0.000	 32.900	 100.817	  0.016
60033	 -0.563	 -0.270	  0.210	  1.074	 -2.471	 -9.426	 -0.005	  0.002	 -0.001	 32.900	 100.817	  0.016
60082	 -0.564	 -0.269	  0.209	  1.061	 -2.496	 -9.432	 -0.003	  0.000	  0.001	 32.900	 100.817	  0.016
60133	 -0.562	 -0.274	  0.210	  1.070	 -2.466	 -9.424	 -0.003	  0.003	  0.002	 32.900	 100.817	  0.016
60182	 -0.561	 -0.271	  0.210	  1.057	 -2.483	 -9.453	 -0.004	  0.004	  0.001	 33.000	 100.821	 -0.342
