Time	 MagX	 MagY	 MagZ	 AccelX	 AccelY	 AccelZ	 Yaw	 Pitch	 Roll	 Temperature	 Pressure	 Altitude
5363	 -0.446	 -0.276	  0.468	  0.132	  0.050	 -9.781	 -0.003	  0.003	  0.002	 33.100	 100.062	 -99999.000
5413	 -0.446	 -0.277	  0.468	  0.130	  0.049	 -9.778	 -0.004	  0.002	  0.002	 33.200	 100.066	 -99999.000
5463	 -0.445	 -0.279	  0.468	  0.150	  0.039	 -9.769	 -0.003	  0.002	  0.000	 33.100	 100.040	 -99999.000
5513	 -0.445	 -0.280	  0.468	  0.112	  0.034	 -9.776	 -0.003	  0.003	  0.001	 33.100	 100.051	 -99999.000
5563	 -0.444	 -0.281	  0.468	  0.116	  0.039	 -9.767	 -0.003	  0.002	  0.000	 33.100	 100.062	 -99999.000
5613	 -0.446	 -0.276	  0.469	  0.133	  0.044	 -9.818	 -0.004	  0.002	  0.001	 33.100	 100.051	 -99999.000
5663	 -0.446	 -0.279	  0.469	  0.127	  0.034	 -9.768	 -0.004	  0.002	  0.002	 33.100	 100.062	 -99999.000
5713	 -0.447	 -0.282	  0.469	  0.148	  0.016	 -9.740	 -0.004	  0.002	 -0.000	 33.100	 100.047	 -99999.000
5763	 -0.446	 -0.280	  0.463	  0.148	  0.055	 -9.773	 -0.003	  0.002	  0.000	 33.100	 100.062	 -99999.000
5813	 -0.447	 -0.277	  0.466	  0.144	  0.076	 -9.737	 -0.003	  0.001	  0.001	 33.100	 100.051	 -99999.000
5863	 -0.447	 -0.282	  0.470	  0.140	  0.055	 -9.759	 -0.003	  0.003	  0.002	 33.100	 100.062	 -99999.000
5913	 -0.446	 -0.281	  0.469	  0.131	  0.036	 -9.729	 -0.003	  0.002	 -0.000	 33.100	 100.051	 -99999.000
5962	 -0.448	 -0.278	  0.468	  0.128	  0.025	 -9.747	 -0.005	  0.002	  0.001	 33.100	 100.051	 -99999.000
6012	 -0.446	 -0.278	  0.459	  0.117	  0.049	 -9.780	 -0.003	  0.003	 -0.000	 33.100	 100.062	 -99999.000
6062	 -0.445	 -0.271	  0.469	  0.146	  0.038	 -9.770	 -0.004	  0.001	  0.001	 33.100	 100.062	 -99999.000
6112	 -0.446	 -0.281	  0.468	  0.134	  0.038	 -9.759	 -0.003	  0.002	 -0.001	 33.100	 100.051	 -99999.000
6162	 -0.447	 -0.282	  0.465	  0.128	  0.044	 -9.786	 -0.004	  0.003	 -0.001	 33.100	 100.062	 -99999.000
6212	 -0.444	 -0.266	  0.468	  0.143	  0.053	 -9.762	 -0.003	  0.002	  0.000	 33.100	 100.051	 -99999.000
6262	 -0.448	 -0.281	  0.465	  0.141	  0.066	 -9.772	 -0.004	  0.001	  0.000	 33.100	 100.062	 -99999.000
6312	 -0.447	 -0.278	  0.467	  0.130	  0.056	 -9.737	 -0.004	  0.002	  0.001	 33.100	 100.051	 -99999.000
6362	 -0.448	 -0.279	  0.465	  0.134	  0.030	 -9.753	 -0.003	  0.001	 -0.000	 33.100	 100.062	 -99999.000
6412	 -0.445	 -0.277	  0.468	  0.121	  0.038	 -9.766	 -0.004	  0.002	  0.001	 33.100	 100.062	 -99999.000
6462	 -0.447	 -0.277	  0.468	  0.122	  0.069	 -9.763	 -0.004	  0.003	  0.000	 33.100	 100.051	 -99999.000
6512	 -0.446	 -0.281	  0.465	  0.157	  0.072	 -9.785	 -0.004	  0.002	  0.001	 33.100	 100.051	 -99999.000
6562	 -0.446	 -0.281	  0.465	  0.138	  0.030	 -9.752	 -0.003	  0.002	  0.000	 33.100	 100.062	 -99999.000
6612	 -0.444	 -0.279	  0.471	  0.135	  0.048	 -9.807	 -0.005	  0.001	  0.000	 33.100	 100.062	 -99999.000
6662	 -0.446	 -0.280	  0.470	  0.121	  0.055	 -9.802	 -0.003	  0.001	  0.001	 33.100	 100.051	 -99999.000
6712	 -0.449	 -0.280	  0.466	  0.134	  0.033	 -9.772	 -0.003	  0.002	  0.001	 33.100	 100.051	 -99999.000
6762	 -0.447	 -0.284	  0.468	  0.126	  0.044	 -9.763	 -0.004	  0.003	  0.000	 33.100	 100.051	 -99999.000
6812	 -0.449	 -0.265	  0.469	  0.129	  0.043	 -9.771	 -0.004	  0.001	 -0.000	 33.100	 100.058	 -99999.000
6862	 -0.443	 -0.283	  0.465	  0.120	  0.028	 -9.796	 -0.003	  0.002	  0.002	 33.100	 100.051	 -99999.000
6912	 -0.448	 -0.276	  0.467	  0.113	  0.039	 -9.766	 -0.004	  0.003	  0.001	 33.100	 100.051	 -99999.000
6962	 -0.446	 -0.279	  0.470	  0.116	  0.057	 -9.748	 -0.003	  0.002	  0.001	 33.100	 100.051	 -99999.000
7012	 -0.448	 -0.282	  0.466	  0.133	  0.042	 -9.750	 -0.004	  0.004	  0.001	 33.100	 100.051	 -99999.000
7062	 -0.446	 -0.277	  0.459	  0.123	  0.063	 -9.758	 -0.003	  0.003	  0.002	 33.100	 100.074	 -99999.000
7112	 -0.446	 -0.280	  0.465	  0.139	  0.036	 -9.784	 -0.004	  0.002	  0.001	 33.100	 100.062	 -99999.000
7162	 -0.445	 -0.281	  0.471	  0.126	  0.054	 -9.775	 -0.001	  0.002	  0.002	 33.100	 100.051	 -99999.000
7212	 -0.445	 -0.281	  0.467	  0.135	  0.055	 -9.799	 -0.003	  0.003	  0.002	 33.100	 100.051	 -99999.000
7262	 -0.446	 -0.277	  0.469	  0.128	  0.056	 -9.759	 -0.004	  0.001	 -0.000	 33.100	 100.040	 -99999.000
7312	 -0.446	 -0.279	  0.467	  0.140	  0.034	 -9.751	 -0.003	  0.002	  0.002	 33.100	 100.062	 -99999.000
7362	 -0.446	 -0.280	  0.468	  0.134	  0.056	 -9.790	 -0.004	  0.001	  0.001	 33.100	 100.051	 -99999.000
7412	 -0.446	 -0.277	  0.468	  0.125	  0.047	 -9.761	 -0.003	  0.004	  0.000	 33.100	 100.062	 -99999.000
7462	 -0.447	 -0.275	  0.467	  0.141	  0.055	 -9.740	 -0.003	  0.002	  0.001	 33.100	 100.051	 -99999.000
7512	 -0.446	 -0.280	  0.467	  0.102	  0.046	 -9.762	 -0.003	  0.002	  0.002	 33.100	 100.051	 -99999.000
7562	 -0.447	 -0.279	  0.468	  0.126	  0.014	 -9.783	 -0.003	  0.002	  0.001	 33.100	 100.062	 -99999.000
7612	 -0.447	 -0.279	  0.472	  0.147	  0.050	 -9.773	 -0.003	  0.002	  0.001	 33.200	 100.066	 -99999.000
7662	 -0.446	 -0.269	  0.467	  0.140	  0.050	 -9.774	 -0.003	  0.002	  0.001	 33.100	 100.062	 -99999.000
7712	 -0.447	 -0.281	  0.468	  0.146	  0.041	 -9.770	 -0.003	  0.003	  0.001	 33.100	 100.047	 -99999.000
7762	 -0.446	 -0.279	  0.468	  0.121	  0.052	 -9.753	 -0.003	  0.001	  0.001	 33.100	 100.047	 -99999.000
7812	 -0.444	 -0.280	  0.466	  0.141	  0.051	 -9.778	 -0.003	  0.003	  0.000	 33.100	 100.062	 -99999.000
7862	 -0.447	 -0.281	  0.469	  0.114	  0.050	 -9.779	 -0.004	  0.003	  0.001	 33.100	 100.062	 -99999.000
7912	 -0.445	 -0.279	  0.470	  0.119	  0.047	 -9.716	 -0.004	  0.002	  0.001	 33.100	 100.062	 -99999.000
7962	 -0.448	 -0.281	  0.468	  0.105	  0.060	 -9.751	 -0.002	  0.003	  0.000	 33.100	 100.051	 -99999.000
8012	 -0.447	 -0.277	  0.468	  0.147	  0.037	 -9.781	 -0.004	  0.002	  0.001	 33.100	 100.062	 -99999.000
8062	 -0.445	 -0.277	  0.468	  0.121	  0.043	 -9.754	 -0.003	  0.003	 -0.000	 33.100	 100.062	 -99999.000
8112	 -0.446	 -0.279	  0.467	  0.139	  0.048	 -9.728	 -0.003	  0.004	  0.001	 33.100	 100.062	 -99999.000
8162	 -0.446	 -0.280	  0.470	  0.124	  0.050	 -9.765	 -0.004	  0.004	  0.000	 33.100	 100.051	 -99999.000
8212	 -0.447	 -0.266	  0.468	  0.131	  0.057	 -9.775	 -0.004	  0.002	  0.001	 33.100	 100.062	 -99999.000
8262	 -0.447	 -0.278	  0.468	  0.138	  0.063	 -9.817	 -0.004	  0.003	  0.000	 33.100	 100.062	 -99999.000
8312	 -0.447	 -0.278	  0.470	  0.131	  0.056	 -9.766	 -0.004	  0.003	  0.001	 33.100	 100.047	 -99999.000
8362	 -0.445	 -0.282	  0.465	  0.132	  0.045	 -9.740	 -0.003	  0.003	  0.001	 33.100	 100.062	 -99999.000
8412	 -0.445	 -0.270	  0.467	  0.142	  0.063	 -9.766	 -0.003	  0.002	  0.001	 33.100	 100.062	 -99999.000
8462	 -0.447	 -0.279	  0.469	  0.122	  0.057	 -9.750	 -0.004	  0.002	 -0.000	 33.100	 100.051	 -99999.000
8512	 -0.449	 -0.283	  0.467	  0.123	  0.085	 -9.754	 -0.002	  0.003	  0.001	 33.100	 100.062	 -99999.000
8562	 -0.446	 -0.277	  0.469	  0.137	  0.043	 -9.780	 -0.003	  0.003	  0.001	 33.100	 100.051	 -99999.000
8612	 -0.448	 -0.279	  0.460	  0.122	  0.048	 -9.778	 -0.003	  0.002	  0.001	 33.100	 100.058	 -99999.000
8662	 -0.446	 -0.282	  0.468	  0.151	  0.048	 -9.799	 -0.003	  0.002	  0.001	 33.100	 100.058	 -99999.000
8711	 -0.447	 -0.279	  0.472	  0.134	  0.032	 -9.746	 -0.003	  0.002	  0.001	 33.100	 100.062	 -99999.000
8761	 -0.445	 -0.281	  0.466	  0.130	  0.055	 -9.798	 -0.003	  0.003	  0.001	 33.100	 100.051	 -99999.000
8811	 -0.446	 -0.279	  0.468	  0.137	  0.037	 -9.775	 -0.003	  0.003	  0.001	 33.100	 100.062	 -99999.000
8861	 -0.446	 -0.281	  0.464	  0.123	  0.043	 -9.764	 -0.004	  0.002	  0.001	 33.100	 100.062	 -99999.000
8911	 -0.445	 -0.278	  0.468	  0.144	  0.037	 -9.719	 -0.003	  0.003	  0.000	 33.100	 100.062	 -99999.000
8962	 -0.445	 -0.280	  0.469	  0.117	  0.023	 -9.769	 -0.002	  0.002	  0.001	 33.100	 100.051	 -99999.000
9011	 -0.450	 -0.280	  0.467	  0.134	  0.044	 -9.798	 -0.003	  0.002	  0.001	 33.100	 100.051	 -99999.000
9061	 -0.446	 -0.284	  0.468	  0.105	  0.039	 -9.767	 -0.004	  0.002	  0.001	 33.200	 100.051	 -99999.000
9111	 -0.447	 -0.277	  0.468	  0.143	  0.072	 -9.751	 -0.004	  0.001	  0.001	 33.100	 100.051	 -99999.000
9161	 -0.444	 -0.280	  0.467	  0.124	  0.033	 -9.767	 -0.003	  0.003	  0.001	 33.100	 100.062	 -99999.000
9211	 -0.447	 -0.280	  0.464	  0.131	  0.053	 -9.752	 -0.002	  0.002	  0.000	 33.100	 100.051	 -99999.000
9261	 -0.447	 -0.279	  0.473	  0.136	  0.047	 -9.774	 -0.003	  0.002	  0.001	 33.100	 100.051	 -99999.000
9311	 -0.447	 -0.279	  0.469	  0.152	  0.047	 -9.758	 -0.003	  0.003	  0.001	 33.100	 100.062	 -99999.000
9361	 -0.445	 -0.279	  0.467	  0.134	  0.046	 -9.778	 -0.003	  0.003	  0.001	 33.200	 100.051	 -99999.000
9411	 -0.446	 -0.274	  0.470	  0.136	  0.035	 -9.793	 -0.004	  0.002	  0.002	 33.100	 100.062	 -99999.000
9461	 -0.445	 -0.277	  0.466	  0.157	  0.054	 -9.762	 -0.002	  0.002	 -0.000	 33.100	 100.051	 -99999.000
9512	 -0.443	 -0.282	  0.466	  0.121	  0.032	 -9.763	 -0.003	  0.003	  0.001	 33.100	 100.051	 -99999.000
9561	 -0.448	 -0.282	  0.467	  0.152	  0.038	 -9.757	 -0.005	  0.002	  0.001	 33.100	 100.062	 -99999.000
9612	 -0.446	 -0.283	  0.468	  0.117	  0.036	 -9.779	 -0.003	  0.003	  0.000	 33.100	 100.047	 -99999.000
9661	 -0.447	 -0.269	  0.468	  0.121	  0.072	 -9.750	 -0.003	  0.003	  0.001	 33.100	 100.062	 -99999.000
9711	 -0.448	 -0.269	  0.470	  0.128	  0.045	 -9.769	 -0.004	  0.003	  0.000	 33.100	 100.062	 -99999.000
9761	 -0.446	 -0.282	  0.465	  0.149	  0.026	 -9.778	 -0.004	  0.003	  0.000	 33.100	 100.062	 -99999.000
9812	 -0.446	 -0.280	  0.472	  0.109	  0.044	 -9.763	 -0.003	  0.003	 -0.000	 33.100	 100.062	 -99999.000
9862	 -0.446	 -0.282	  0.468	  0.123	  0.058	 -9.737	 -0.003	  0.002	  0.001	 33.100	 100.051	 -99999.000
9912	 -0.448	 -0.278	  0.465	  0.125	  0.042	 -9.751	 -0.003	  0.002	  0.001	 33.100	 100.062	 -99999.000
9962	 -0.447	 -0.281	  0.470	  0.140	  0.053	 -9.759	 -0.003	  0.001	  0.001	 33.100	 100.051	 -99999.000
10012	 -0.444	 -0.280	  0.470	  0.130	  0.059	 -9.761	 -0.003	  0.001	  0.001	 33.100	 100.062	 -99999.000
10062	 -0.445	 -0.279	  0.466	  0.100	  0.047	 -9.797	 -0.002	  0.002	  0.000	 33.100	 100.051	 -99999.000
10112	 -0.447	 -0.280	  0.468	  0.133	  0.064	 -9.743	 -0.004	  0.003	  0.002	 33.100	 100.062	 -99999.000
10162	 -0.446	 -0.281	  0.460	  0.136	  0.045	 -9.773	 -0.003	  0.001	 -0.001	 33.100	 100.051	 -99999.000
10212	 -0.446	 -0.278	  0.467	  0.133	  0.022	 -9.733	 -0.005	  0.003	  0.001	 33.100	 100.074	 -99999.000
10262	 -0.446	 -0.281	  0.473	  0.125	  0.030	 -9.758	 -0.003	  0.002	  0.001	 33.100	 100.051	 -99999.000
10312	 -0.448	 -0.278	  0.466	  0.117	  0.048	 -9.752	 -0.003	  0.002	  0.002	 33.100	 100.062	 -99999.000
10362	 -0.447	 -0.278	  0.472	  0.136	  0.047	 -9.777	 -0.002	  0.003	  0.000	 33.200	 100.055	 -99999.000
10412	 -0.446	 -0.282	  0.470	  0.131	  0.056	 -9.793	 -0.004	  0.002	  0.000	 33.100	 100.062	 -99999.000
10462	 -0.446	 -0.278	  0.461	  0.141	  0.061	 -9.765	 -0.003	  0.002	  0.001	 33.100	 100.051	 -99999.000
10512	 -0.444	 -0.278	  0.471	  0.129	  0.043	 -9.780	 -0.003	  0.002	  0.001	 33.100	 100.062	 -99999.000
10562	 -0.446	 -0.281	  0.463	  0.118	  0.058	 -9.776	 -0.005	  0.002	  0.002	 33.100	 100.040	 -99999.000
10612	 -0.444	 -0.280	  0.472	  0.104	  0.051	 -9.774	 -0.004	  0.003	  0.000	 33.100	 100.040	 -99999.000
10662	 -0.447	 -0.279	  0.469	  0.147	  0.022	 -9.774	 -0.003	  0.003	  0.001	 33.100	 100.051	 -99999.000
10712	 -0.447	 -0.279	  0.469	  0.140	  0.040	 -9.747	 -0.003	  0.001	  0.001	 33.100	 100.062	 -99999.000
10762	 -0.447	 -0.278	  0.464	  0.122	  0.064	 -9.724	 -0.003	  0.003	 -0.000	 33.100	 100.051	 -99999.000
10812	 -0.446	 -0.279	  0.461	  0.124	  0.051	 -9.762	 -0.004	  0.002	  0.000	 33.100	 100.051	 -99999.000
10862	 -0.446	 -0.267	  0.472	  0.137	  0.045	 -9.728	 -0.003	  0.001	  0.001	 33.100	 100.051	 -99999.000
10912	 -0.446	 -0.281	  0.469	  0.121	  0.055	 -9.790	 -0.003	  0.003	  0.002	 33.100	 100.062	 -99999.000
10962	 -0.444	 -0.279	  0.469	  0.112	  0.057	 -9.773	 -0.004	  0.003	  0.000	 33.100	 100.051	 -99999.000
11012	 -0.444	 -0.283	  0.466	  0.130	  0.037	 -9.773	 -0.003	  0.001	  0.002	 33.100	 100.051	 -99999.000
11062	 -0.445	 -0.276	  0.472	  0.137	  0.055	 -9.712	 -0.003	  0.002	  0.000	 33.100	 100.062	 -99999.000
11112	 -0.446	 -0.277	  0.468	  0.134	  0.057	 -9.756	 -0.003	  0.002	  0.002	 33.100	 100.051	 -99999.000
11162	 -0.447	 -0.278	  0.461	  0.121	  0.046	 -9.787	 -0.002	  0.002	  0.001	 33.100	 100.062	 -99999.000
11212	 -0.445	 -0.280	  0.466	  0.118	  0.035	 -9.760	 -0.004	  0.002	  0.002	 33.200	 100.066	 -99999.000
11262	 -0.449	 -0.279	  0.474	  0.137	  0.035	 -9.758	 -0.003	  0.001	  0.001	 33.100	 100.062	 -99999.000
11312	 -0.448	 -0.278	  0.468	  0.122	  0.074	 -9.766	 -0.002	  0.002	  0.001	 33.100	 100.051	 -99999.000
14487	 -0.448	 -0.279	  0.462	  0.144	  0.035	 -9.668	 -0.003	  0.002	  0.001	 33.100	 100.051	  0.472
14536	 -0.446	 -0.268	  0.468	  0.105	  0.024	 -9.783	 -0.004	  0.002	  0.000	 33.200	 100.062	 -0.517
14587	 -0.447	 -0.266	  0.468	  0.125	  0.059	 -9.760	 -0.003	  0.002	 -0.000	 33.100	 100.062	 -0.517
14637	 -0.445	 -0.280	  0.468	  0.124	  0.067	 -9.783	 -0.002	  0.003	  0.001	 33.100	 100.051	  0.472
14687	 -0.447	 -0.280	  0.466	  0.119	  0.043	 -9.788	 -0.003	  0.003	  0.001	 33.100	 100.051	  0.472
14737	 -0.445	 -0.280	  0.469	  0.117	  0.036	 -9.751	 -0.003	  0.002	  0.001	 33.100	 100.062	 -0.517
14787	 -0.443	 -0.272	  0.463	  0.132	  0.046	 -9.754	 -0.003	  0.003	  0.001	 33.100	 100.051	  0.472
14837	 -0.444	 -0.278	  0.469	  0.137	  0.055	 -9.797	 -0.004	  0.001	  0.001	 33.100	 100.058	 -0.158
14887	 -0.445	 -0.280	  0.465	  0.136	  0.048	 -9.772	 -0.004	  0.003	  0.001	 33.100	 100.051	  0.472
14937	 -0.447	 -0.279	  0.470	  0.123	  0.043	 -9.778	 -0.003	  0.003	  0.001	 33.200	 100.066	 -0.878
14987	 -0.445	 -0.280	  0.467	  0.120	  0.054	 -9.738	 -0.004	  0.003	  0.000	 33.100	 100.062	 -0.517
15037	 -0.448	 -0.279	  0.466	  0.140	  0.045	 -9.757	 -0.003	  0.003	  0.001	 33.100	 100.051	  0.472
15087	 -0.447	 -0.271	  0.468	  0.128	  0.057	 -9.767	 -0.004	  0.001	  0.001	 33.100	 100.062	 -0.517
15137	 -0.447	 -0.278	  0.468	  0.144	  0.050	 -9.774	 -0.004	  0.002	  0.001	 33.100	 100.062	 -0.517
15187	 -0.446	 -0.267	  0.468	  0.143	  0.051	 -9.776	 -0.003	  0.002	  0.001	 33.100	 100.062	 -0.517
15237	 -0.446	 -0.275	  0.469	  0.105	  0.054	 -9.773	 -0.003	  0.001	  0.002	 33.100	 100.062	 -0.517
15287	 -0.444	 -0.278	  0.469	  0.110	  0.058	 -9.779	 -0.004	  0.001	  0.001	 33.100	 100.058	 -0.158
15337	 -0.445	 -0.274	  0.467	  0.125	  0.037	 -9.767	 -0.004	  0.001	  0.000	 33.100	 100.062	 -0.517
15387	 -0.447	 -0.282	  0.469	  0.117	  0.048	 -9.777	 -0.005	  0.002	  0.002	 33.100	 100.051	  0.472
15437	 -0.450	 -0.279	  0.469	  0.126	  0.049	 -9.776	 -0.003	  0.002	  0.000	 33.100	 100.055	  0.112
15487	 -0.444	 -0.279	  0.472	  0.118	  0.040	 -9.799	 -0.004	  0.003	  0.000	 33.100	 100.051	  0.472
15537	 -0.446	 -0.280	  0.466	  0.137	  0.061	 -9.756	 -0.003	  0.002	  0.001	 33.100	 100.066	 -0.878
15587	 -0.447	 -0.278	  0.467	  0.105	  0.048	 -9.738	 -0.004	  0.003	  0.001	 33.100	 100.051	  0.472
15637	 -0.445	 -0.278	  0.468	  0.101	  0.021	 -9.773	 -0.004	  0.002	  0.002	 33.100	 100.051	  0.472
15687	 -0.449	 -0.278	  0.469	  0.137	  0.060	 -9.749	 -0.003	  0.002	  0.001	 33.100	 100.062	 -0.517
15737	 -0.446	 -0.280	  0.464	  0.122	  0.030	 -9.727	 -0.004	  0.002	  0.001	 33.100	 100.051	  0.472
15787	 -0.446	 -0.276	  0.465	  0.117	  0.043	 -9.755	 -0.003	  0.002	  0.001	 33.200	 100.066	 -0.878
15837	 -0.446	 -0.279	  0.468	  0.130	  0.051	 -9.783	 -0.004	  0.001	  0.001	 33.100	 100.051	  0.472
15887	 -0.446	 -0.280	  0.467	  0.144	  0.037	 -9.794	 -0.002	  0.002	  0.001	 33.200	 100.055	  0.112
15937	 -0.447	 -0.276	  0.469	  0.111	  0.056	 -9.748	 -0.004	  0.002	  0.000	 33.100	 100.051	  0.472
15987	 -0.448	 -0.282	  0.472	  0.126	  0.040	 -9.772	 -0.003	  0.002	  0.000	 33.100	 100.051	  0.472
16037	 -0.446	 -0.276	  0.468	  0.134	  0.052	 -9.775	 -0.003	  0.003	  0.001	 33.100	 100.062	 -0.517
16087	 -0.447	 -0.281	  0.467	  0.125	  0.030	 -9.746	 -0.003	  0.002	  0.001	 33.100	 100.051	  0.472
16137	 -0.445	 -0.279	  0.467	  0.134	  0.041	 -9.779	 -0.003	  0.002	 -0.000	 33.100	 100.062	 -0.517
16187	 -0.445	 -0.283	  0.465	  0.151	  0.046	 -9.744	 -0.003	  0.002	  0.000	 33.200	 100.066	 -0.878
16237	 -0.447	 -0.279	  0.464	  0.121	  0.049	 -9.754	 -0.004	  0.002	 -0.000	 33.100	 100.051	  0.472
16287	 -0.447	 -0.279	  0.468	  0.141	  0.036	 -9.764	 -0.003	  0.001	  0.001	 33.200	 100.055	  0.112
16337	 -0.444	 -0.277	  0.467	  0.116	  0.060	 -9.784	 -0.004	  0.003	  0.000	 33.100	 100.062	 -0.517
16386	 -0.449	 -0.281	  0.470	  0.128	  0.041	 -9.776	 -0.004	  0.002	  0.001	 33.100	 100.062	 -0.517
16437	 -0.443	 -0.277	  0.468	  0.118	  0.056	 -9.748	 -0.003	  0.001	  0.000	 33.100	 100.062	 -0.517
16486	 -0.444	 -0.278	  0.468	  0.121	  0.061	 -9.737	 -0.002	  0.002	  0.001	 33.100	 100.051	  0.472
16536	 -0.443	 -0.279	  0.467	  0.146	  0.050	 -9.756	 -0.003	  0.001	  0.001	 33.200	 100.062	 -0.517
16586	 -0.446	 -0.279	  0.467	  0.122	  0.036	 -9.760	 -0.004	  0.002	  0.000	 33.200	 100.055	  0.112
16637	 -0.446	 -0.278	  0.469	  0.108	  0.048	 -9.775	 -0.002	  0.002	 -0.000	 33.100	 100.051	  0.472
16686	 -0.444	 -0.282	  0.470	  0.116	  0.032	 -9.754	 -0.002	  0.002	  0.001	 33.100	 100.062	 -0.517
16736	 -0.444	 -0.281	  0.471	  0.137	  0.033	 -9.776	 -0.003	  0.002	  0.001	 33.100	 100.062	 -0.517
16786	 -0.445	 -0.276	  0.461	  0.129	  0.052	 -9.755	 -0.003	  0.003	  0.002	 33.100	 100.062	 -0.517
16836	 -0.445	 -0.281	  0.463	  0.127	  0.012	 -9.765	 -0.003	  0.003	  0.001	 33.100	 100.051	  0.472
16886	 -0.446	 -0.280	  0.460	  0.133	  0.044	 -9.752	 -0.003	  0.002	  0.001	 33.100	 100.051	  0.472
16936	 -0.447	 -0.280	  0.466	  0.115	  0.055	 -9.758	 -0.004	  0.003	  0.001	 33.200	 100.062	 -0.517
16986	 -0.447	 -0.276	  0.466	  0.128	  0.059	 -9.775	 -0.004	  0.002	  0.002	 33.200	 100.055	  0.112
17036	 -0.450	 -0.279	  0.469	  0.123	  0.056	 -9.761	 -0.003	  0.003	  0.001	 33.100	 100.051	  0.472
17086	 -0.446	 -0.278	  0.472	  0.130	  0.025	 -9.747	 -0.004	  0.001	  0.001	 33.100	 100.062	 -0.517
17136	 -0.446	 -0.280	  0.469	  0.121	  0.023	 -9.774	 -0.003	  0.003	  0.002	 33.200	 100.051	  0.472
17186	 -0.444	 -0.277	  0.464	  0.130	  0.070	 -9.736	 -0.003	  0.002	  0.001	 33.100	 100.062	 -0.517
17236	 -0.446	 -0.275	  0.468	  0.126	  0.055	 -9.777	 -0.004	  0.003	 -0.000	 33.100	 100.051	  0.472
17286	 -0.445	 -0.267	  0.472	  0.138	  0.045	 -9.775	 -0.003	  0.002	 -0.000	 33.100	 100.062	 -0.517
17336	 -0.448	 -0.269	  0.466	  0.133	  0.048	 -9.726	 -0.004	  0.002	 -0.000	 33.100	 100.062	 -0.517
17386	 -0.446	 -0.278	  0.472	  0.104	  0.055	 -9.769	 -0.003	  0.002	  0.002	 33.100	 100.047	  0.832
17436	 -0.442	 -0.279	  0.467	  0.129	  0.022	 -9.775	 -0.003	  0.004	  0.001	 33.100	 100.062	 -0.517
17486	 -0.447	 -0.275	  0.465	  0.157	  0.055	 -9.759	 -0.002	  0.002	  0.001	 33.100	 100.062	 -0.517
17536	 -0.449	 -0.282	  0.468	  0.131	  0.040	 -9.791	 -0.002	  0.002	  0.001	 33.200	 100.055	  0.112
17586	 -0.445	 -0.278	  0.467	  0.120	  0.047	 -9.807	 -0.004	  0.003	  0.001	 33.100	 100.062	 -0.517
17636	 -0.444	 -0.279	  0.467	  0.108	  0.072	 -9.775	 -0.003	  0.003	  0.001	 33.100	 100.062	 -0.517
17686	 -0.446	 -0.279	  0.468	  0.132	  0.055	 -9.777	 -0.004	  0.003	  0.001	 33.100	 100.066	 -0.878
17736	 -0.445	 -0.273	  0.469	  0.117	  0.028	 -9.800	 -0.003	  0.003	 -0.000	 33.100	 100.062	 -0.517
17786	 -0.443	 -0.271	  0.466	  0.114	  0.042	 -9.743	 -0.003	  0.002	  0.001	 33.100	 100.062	 -0.517
17836	 -0.444	 -0.277	  0.468	  0.127	  0.054	 -9.747	 -0.004	  0.003	  0.001	 33.200	 100.051	  0.472
17886	 -0.445	 -0.279	  0.467	  0.098	  0.031	 -9.756	 -0.003	  0.003	  0.003	 33.100	 100.051	  0.472
17936	 -0.448	 -0.277	  0.465	  0.150	  0.035	 -9.745	 -0.003	  0.002	 -0.001	 33.100	 100.066	 -0.878
17986	 -0.445	 -0.279	  0.470	  0.108	  0.039	 -9.792	 -0.004	  0.003	  0.002	 33.100	 100.062	 -0.517
18036	 -0.448	 -0.277	  0.470	  0.114	  0.032	 -9.769	 -0.003	  0.002	 -0.000	 33.100	 100.055	  0.112
18086	 -0.447	 -0.279	  0.469	  0.125	  0.056	 -9.759	 -0.004	  0.003	 -0.000	 33.200	 100.066	 -0.878
18136	 -0.444	 -0.279	  0.465	  0.129	  0.042	 -9.777	 -0.004	  0.002	  0.002	 33.100	 100.066	 -0.878
18186	 -0.446	 -0.269	  0.467	  0.113	  0.058	 -9.741	 -0.003	  0.003	  0.001	 33.100	 100.058	 -0.158
18236	 -0.444	 -0.281	  0.466	  0.131	  0.040	 -9.763	 -0.003	  0.003	  0.001	 33.100	 100.062	 -0.517
18286	 -0.445	 -0.281	  0.466	  0.136	  0.048	 -9.755	 -0.003	  0.003	  0.002	 33.200	 100.066	 -0.878
18336	 -0.446	 -0.278	  0.468	  0.137	  0.034	 -9.780	 -0.003	  0.003	  0.002	 33.100	 100.051	  0.472
18386	 -0.445	 -0.282	  0.468	  0.137	  0.011	 -9.737	 -0.003	  0.001	  0.000	 33.100	 100.062	 -0.517
18436	 -0.447	 -0.279	  0.469	  0.107	  0.060	 -9.759	 -0.004	  0.002	  0.001	 33.200	 100.062	 -0.517
18486	 -0.446	 -0.270	  0.465	  0.137	  0.055	 -9.775	 -0.004	  0.002	 -0.001	 33.100	 100.051	  0.472
18536	 -0.446	 -0.281	  0.467	  0.116	  0.024	 -9.790	 -0.003	  0.003	  0.001	 33.100	 100.062	 -0.517
18586	 -0.445	 -0.278	  0.469	  0.100	  0.051	 -9.761	 -0.003	  0.001	  0.002	 33.100	 100.051	  0.472
18636	 -0.447	 -0.277	  0.468	  0.121	  0.029	 -9.776	 -0.003	  0.003	  0.001	 33.100	 100.062	 -0.517
18686	 -0.448	 -0.271	  0.468	  0.115	  0.051	 -9.784	 -0.005	  0.002	  0.001	 33.100	 100.051	  0.472
18736	 -0.445	 -0.283	  0.469	  0.118	  0.046	 -9.770	 -0.003	  0.003	  0.001	 33.100	 100.062	 -0.517
18786	 -0.444	 -0.280	  0.467	  0.126	  0.053	 -9.766	 -0.003	  0.003	  0.001	 33.100	 100.062	 -0.517
18836	 -0.447	 -0.277	  0.461	  0.114	  0.034	 -9.752	 -0.003	  0.001	  0.001	 33.100	 100.051	  0.472
18886	 -0.446	 -0.277	  0.470	  0.135	  0.039	 -9.749	 -0.003	  0.002	  0.001	 33.100	 100.062	 -0.517
18936	 -0.445	 -0.280	  0.472	  0.121	  0.037	 -9.797	 -0.003	  0.002	 -0.000	 33.100	 100.051	  0.472
18986	 -0.445	 -0.278	  0.472	  0.113	  0.044	 -9.780	 -0.003	  0.002	 -0.000	 33.100	 100.051	  0.472
19036	 -0.445	 -0.274	  0.469	  0.121	  0.044	 -9.797	 -0.002	  0.002	  0.001	 33.100	 100.051	  0.472
19086	 -0.450	 -0.279	  0.463	  0.137	  0.044	 -9.750	 -0.004	  0.002	  0.001	 33.100	 100.062	 -0.517
19136	 -0.447	 -0.280	  0.461	  0.135	  0.054	 -9.749	 -0.004	  0.002	  0.001	 33.100	 100.062	 -0.517
19186	 -0.447	 -0.282	  0.469	  0.137	  0.053	 -9.738	 -0.002	  0.002	  0.001	 33.100	 100.062	 -0.517
19236	 -0.445	 -0.277	  0.469	  0.132	  0.045	 -9.788	 -0.003	  0.003	  0.001	 33.100	 100.051	  0.472
19285	 -0.445	 -0.272	  0.469	  0.122	  0.039	 -9.758	 -0.002	  0.002	 -0.000	 33.100	 100.051	  0.472
19335	 -0.448	 -0.280	  0.469	  0.108	  0.048	 -9.743	 -0.003	  0.003	  0.001	 33.100	 100.051	  0.472
19385	 -0.445	 -0.278	  0.467	  0.136	  0.047	 -9.724	 -0.004	  0.002	  0.000	 33.100	 100.062	 -0.517
19435	 -0.447	 -0.277	  0.470	  0.114	  0.036	 -9.739	 -0.003	  0.002	 -0.000	 33.100	 100.051	  0.472
19485	 -0.446	 -0.278	  0.467	  0.097	  0.032	 -9.775	 -0.003	  0.002	  0.001	 33.200	 100.055	  0.112
19535	 -0.446	 -0.277	  0.467	  0.129	  0.048	 -9.741	 -0.004	  0.002	  0.001	 33.100	 100.051	  0.472
19585	 -0.446	 -0.276	  0.468	  0.123	  0.052	 -9.766	 -0.003	  0.002	  0.000	 33.100	 100.051	  0.472
19635	 -0.445	 -0.280	  0.467	  0.103	  0.048	 -9.787	 -0.004	  0.003	  0.001	 33.200	 100.051	  0.472
19685	 -0.445	 -0.262	  0.468	  0.131	  0.051	 -9.750	 -0.003	  0.003	  0.001	 33.100	 100.051	  0.472
19735	 -0.445	 -0.280	  0.468	  0.141	  0.039	 -9.757	 -0.003	  0.001	  0.002	 33.100	 100.062	 -0.517
19787	 -0.446	 -0.280	  0.467	  0.119	  0.056	 -9.789	 -0.003	  0.003	  0.001	 33.100	 100.062	 -0.517
19835	 -0.446	 -0.281	  0.469	  0.130	  0.041	 -9.745	 -0.004	  0.002	 -0.000	 33.100	 100.062	 -0.517
19886	 -0.446	 -0.281	  0.468	  0.136	  0.051	 -9.796	 -0.002	  0.003	  0.001	 33.100	 100.062	 -0.517
19936	 -0.447	 -0.277	  0.470	  0.117	  0.069	 -9.716	 -0.004	  0.003	 -0.000	 33.100	 100.051	  0.472
19986	 -0.447	 -0.278	  0.472	  0.134	  0.058	 -9.814	 -0.003	  0.003	  0.001	 33.100	 100.051	  0.472
20035	 -0.447	 -0.268	  0.469	  0.142	  0.063	 -9.754	 -0.004	  0.002	  0.001	 33.100	 100.051	  0.472
20086	 -0.445	 -0.279	  0.461	  0.123	  0.051	 -9.774	 -0.004	  0.003	  0.000	 33.100	 100.051	  0.472
20136	 -0.445	 -0.275	  0.473	  0.134	  0.054	 -9.771	 -0.003	  0.002	  0.001	 33.100	 100.062	 -0.517
20186	 -0.446	 -0.262	  0.469	  0.130	  0.058	 -9.742	 -0.002	  0.003	  0.000	 33.100	 100.051	  0.472
20236	 -0.446	 -0.279	  0.461	  0.144	  0.029	 -9.747	 -0.004	  0.003	  0.001	 33.100	 100.051	  0.472
20286	 -0.450	 -0.278	  0.469	  0.130	  0.046	 -9.786	 -0.003	  0.001	  0.001	 33.100	 100.062	 -0.517
20336	 -0.446	 -0.278	  0.465	  0.115	  0.027	 -9.742	 -0.003	  0.002	 -0.000	 33.100	 100.051	  0.472
20386	 -0.446	 -0.276	  0.467	  0.145	  0.048	 -9.770	 -0.003	  0.002	  0.002	 33.100	 100.062	 -0.517
20436	 -0.447	 -0.281	  0.470	  0.126	  0.050	 -9.775	 -0.003	  0.003	  0.001	 33.100	 100.062	 -0.517
20486	 -0.446	 -0.280	  0.467	  0.145	  0.039	 -9.760	 -0.004	  0.003	  0.002	 33.200	 100.066	 -0.878
20536	 -0.446	 -0.279	  0.466	  0.136	  0.049	 -9.776	 -0.004	  0.002	  0.000	 33.100	 100.062	 -0.517
20586	 -0.445	 -0.280	  0.470	  0.136	  0.035	 -9.773	 -0.003	  0.002	 -0.000	 33.200	 100.066	 -0.878
20636	 -0.445	 -0.277	  0.467	  0.122	  0.053	 -9.788	 -0.004	  0.001	 -0.000	 33.100	 100.078	 -1.957
20686	 -0.448	 -0.281	  0.469	  0.143	  0.052	 -9.754	 -0.003	  0.002	  0.001	 33.100	 100.062	 -0.517
20736	 -0.442	 -0.276	  0.465	  0.128	  0.035	 -9.756	 -0.004	  0.003	  0.000	 33.100	 100.062	 -0.517
20786	 -0.446	 -0.277	  0.466	  0.101	  0.033	 -9.746	 -0.002	  0.003	  0.001	 33.100	 100.062	 -0.517
20836	 -0.446	 -0.277	  0.460	  0.138	  0.039	 -9.740	 -0.002	  0.003	  0.001	 33.100	 100.062	 -0.517
20886	 -0.447	 -0.280	  0.473	  0.117	  0.064	 -9.782	 -0.004	  0.002	  0.001	 33.100	 100.051	  0.472
20936	 -0.449	 -0.281	  0.465	  0.147	  0.028	 -9.778	 -0.004	  0.001	  0.001	 33.100	 100.051	  0.472
20986	 -0.448	 -0.279	  0.472	  0.129	  0.061	 -9.781	 -0.003	  0.002	  0.001	 33.100	 100.051	  0.472
21036	 -0.444	 -0.280	  0.468	  0.147	  0.066	 -9.782	 -0.003	  0.002	  0.000	 33.100	 100.066	 -0.878
21086	 -0.446	 -0.274	  0.469	  0.124	  0.064	 -9.745	 -0.004	  0.002	  0.001	 33.200	 100.078	 -1.957
21136	 -0.446	 -0.281	  0.467	  0.123	  0.009	 -9.737	 -0.004	  0.002	  0.001	 33.200	 100.051	  0.472
21186	 -0.446	 -0.265	  0.465	  0.128	  0.050	 -9.769	 -0.004	  0.002	 -0.001	 33.100	 100.062	 -0.517
21236	 -0.443	 -0.277	  0.471	  0.150	  0.048	 -9.762	 -0.003	  0.002	  0.001	 33.100	 100.051	  0.472
21286	 -0.443	 -0.277	  0.470	  0.135	  0.033	 -9.761	 -0.002	  0.001	  0.001	 33.100	 100.062	 -0.517
21336	 -0.446	 -0.278	  0.464	  0.126	  0.050	 -9.764	 -0.003	  0.003	  0.002	 33.100	 100.051	  0.472
21386	 -0.446	 -0.281	  0.467	  0.130	  0.033	 -9.762	 -0.002	  0.002	  0.001	 33.200	 100.055	  0.112
21436	 -0.446	 -0.275	  0.465	  0.142	  0.042	 -9.790	 -0.003	  0.002	  0.000	 33.100	 100.062	 -0.517
21486	 -0.445	 -0.277	  0.467	  0.118	  0.043	 -9.750	 -0.004	  0.003	  0.001	 33.100	 100.051	  0.472
21535	 -0.446	 -0.280	  0.469	  0.128	  0.058	 -9.739	 -0.002	  0.002	  0.000	 33.100	 100.062	 -0.517
21585	 -0.447	 -0.279	  0.463	  0.137	  0.031	 -9.775	 -0.003	  0.002	  0.002	 33.100	 100.062	 -0.517
21635	 -0.445	 -0.282	  0.469	  0.139	  0.057	 -9.742	 -0.003	  0.002	  0.000	 33.100	 100.051	  0.472
21685	 -0.449	 -0.280	  0.469	  0.120	  0.040	 -9.747	 -0.003	  0.003	  0.001	 33.100	 100.047	  0.832
21735	 -0.445	 -0.280	  0.465	  0.118	  0.042	 -9.766	 -0.003	  0.002	  0.000	 33.200	 100.062	 -0.517
21785	 -0.446	 -0.280	  0.470	  0.129	  0.072	 -9.793	 -0.004	  0.001	  0.000	 33.100	 100.062	 -0.517
21836	 -0.448	 -0.277	  0.466	  0.146	  0.042	 -9.774	 -0.003	  0.003	  0.000	 33.100	 100.066	 -0.878
21885	 -0.445	 -0.271	  0.467	  0.131	  0.064	 -9.759	 -0.003	  0.002	  0.002	 33.100	 100.062	 -0.517
21935	 -0.445	 -0.271	  0.467	  0.125	  0.031	 -9.765	 -0.003	  0.003	  0.001	 33.100	 100.051	  0.472
21985	 -0.447	 -0.278	  0.469	  0.134	  0.044	 -9.787	 -0.004	  0.003	  0.000	 33.100	 100.051	  0.472
22035	 -0.445	 -0.280	  0.466	  0.120	  0.048	 -9.754	 -0.002	  0.003	  0.001	 33.100	 100.066	 -0.878
22085	 -0.447	 -0.280	  0.472	  0.117	  0.044	 -9.739	 -0.003	  0.002	  0.002	 33.100	 100.074	 -1.596
22135	 -0.445	 -0.278	  0.467	  0.152	  0.054	 -9.741	 -0.003	  0.002	  0.001	 33.100	 100.066	 -0.878
22185	 -0.445	 -0.279	  0.469	  0.118	  0.042	 -9.762	 -0.003	  0.003	  0.000	 33.100	 100.062	 -0.517
22235	 -0.447	 -0.279	  0.466	  0.122	  0.054	 -9.785	 -0.002	  0.003	  0.002	 33.100	 100.051	  0.472
22285	 -0.446	 -0.280	  0.467	  0.126	  0.061	 -9.769	 -0.003	  0.002	  0.000	 33.100	 100.062	 -0.517
22335	 -0.447	 -0.278	  0.469	  0.109	  0.042	 -9.742	 -0.003	  0.003	  0.000	 33.100	 100.066	 -0.878
22385	 -0.445	 -0.278	  0.467	  0.130	  0.050	 -9.771	 -0.002	  0.003	  0.001	 33.100	 100.062	 -0.517
22435	 -0.448	 -0.277	  0.463	  0.138	  0.049	 -9.756	 -0.003	  0.002	  0.001	 33.100	 100.062	 -0.517
22485	 -0.448	 -0.278	  0.467	  0.126	  0.041	 -9.742	 -0.003	  0.002	  0.000	 33.100	 100.062	 -0.517
22535	 -0.445	 -0.280	  0.469	  0.133	  0.085	 -9.768	 -0.003	  0.002	  0.001	 33.200	 100.051	  0.472
22585	 -0.449	 -0.279	  0.463	  0.135	  0.052	 -9.756	 -0.004	  0.003	  0.001	 33.100	 100.051	  0.472
22635	 -0.447	 -0.282	  0.470	  0.133	  0.036	 -9.753	 -0.003	  0.003	  0.000	 33.200	 100.055	  0.112
22685	 -0.446	 -0.277	  0.468	  0.142	  0.064	 -9.758	 -0.004	  0.002	  0.001	 33.100	 100.062	 -0.517
22735	 -0.446	 -0.275	  0.466	  0.140	  0.036	 -9.747	 -0.003	  0.002	  0.001	 33.100	 100.055	  0.112
22785	 -0.448	 -0.271	  0.468	  0.108	  0.030	 -9.751	 -0.004	  0.003	  0.002	 33.100	 100.074	 -1.596
22835	 -0.446	 -0.277	  0.467	  0.134	  0.051	 -9.789	 -0.002	  0.001	  0.002	 33.100	 100.062	 -0.517
22885	 -0.448	 -0.281	  0.469	  0.124	  0.047	 -9.711	 -0.003	  0.002	  0.002	 33.200	 100.055	  0.112
22935	 -0.446	 -0.272	  0.470	  0.159	  0.037	 -9.776	 -0.003	  0.003	  0.002	 33.100	 100.062	 -0.517
22985	 -0.446	 -0.277	  0.468	  0.138	  0.025	 -9.755	 -0.004	  0.002	  0.001	 33.200	 100.055	  0.112
23035	 -0.446	 -0.279	  0.469	  0.135	  0.053	 -9.770	 -0.003	  0.001	  0.000	 33.100	 100.066	 -0.878
23085	 -0.445	 -0.278	  0.468	  0.111	  0.053	 -9.754	 -0.003	  0.002	  0.000	 33.100	 100.062	 -0.517
23135	 -0.446	 -0.278	  0.469	  0.138	  0.041	 -9.779	 -0.003	  0.001	  0.001	 33.100	 100.062	 -0.517
23185	 -0.444	 -0.278	  0.468	  0.124	  0.033	 -9.775	 -0.004	  0.002	  0.002	 33.100	 100.051	  0.472
23235	 -0.445	 -0.280	  0.468	  0.111	  0.060	 -9.759	 -0.003	  0.002	  0.001	 33.200	 100.074	 -1.596
23285	 -0.445	 -0.278	  0.469	  0.130	  0.032	 -9.771	 -0.002	  0.003	  0.000	 33.100	 100.062	 -0.517
23335	 -0.448	 -0.279	  0.470	  0.138	  0.061	 -9.782	 -0.002	  0.002	  0.001	 33.100	 100.062	 -0.517
23385	 -0.446	 -0.275	  0.467	  0.116	  0.062	 -9.782	 -0.004	  0.003	  0.001	 33.100	 100.051	  0.472
23435	 -0.445	 -0.280	  0.464	  0.124	  0.057	 -9.764	 -0.003	  0.002	  0.000	 33.100	 100.051	  0.472
23485	 -0.447	 -0.278	  0.467	  0.133	  0.046	 -9.763	 -0.005	  0.004	  0.000	 33.200	 100.055	  0.112
23535	 -0.445	 -0.279	  0.470	  0.144	  0.056	 -9.764	 -0.004	  0.003	  0.001	 33.100	 100.062	 -0.517
23585	 -0.445	 -0.278	  0.470	  0.137	  0.040	 -9.769	 -0.003	  0.002	  0.001	 33.100	 100.051	  0.472
23635	 -0.445	 -0.279	  0.469	  0.134	  0.022	 -9.745	 -0.004	  0.002	  0.000	 33.100	 100.062	 -0.517
23685	 -0.445	 -0.281	  0.470	  0.126	  0.048	 -9.742	 -0.002	  0.003	  0.000	 33.100	 100.051	  0.472
23735	 -0.446	 -0.281	  0.470	  0.129	  0.048	 -9.765	 -0.003	  0.001	  0.001	 33.100	 100.051	  0.472
23785	 -0.445	 -0.280	  0.467	  0.122	  0.038	 -9.736	 -0.003	  0.003	  0.001	 33.100	 100.051	  0.472
23835	 -0.445	 -0.276	  0.468	  0.112	  0.022	 -9.745	 -0.004	  0.003	  0.001	 33.200	 100.051	  0.472
23885	 -0.446	 -0.279	  0.469	  0.114	  0.063	 -9.799	 -0.004	  0.002	  0.001	 33.100	 100.062	 -0.517
23935	 -0.442	 -0.279	  0.465	  0.119	  0.047	 -9.744	 -0.004	  0.002	  0.001	 33.200	 100.062	 -0.517
23985	 -0.445	 -0.269	  0.473	  0.135	  0.053	 -9.766	 -0.003	  0.002	  0.000	 33.100	 100.062	 -0.517
24035	 -0.447	 -0.279	  0.467	  0.110	  0.025	 -9.774	 -0.004	  0.003	  0.000	 33.100	 100.040	  1.462
24085	 -0.447	 -0.278	  0.467	  0.115	  0.033	 -9.773	 -0.004	  0.002	 -0.000	 33.100	 100.062	 -0.517
24135	 -0.444	 -0.281	  0.467	  0.108	  0.075	 -9.739	 -0.003	  0.003	  0.001	 33.100	 100.062	 -0.517
24185	 -0.447	 -0.277	  0.464	  0.137	  0.061	 -9.734	 -0.004	  0.003	  0.000	 33.100	 100.040	  1.462
24235	 -0.443	 -0.278	  0.466	  0.123	  0.032	 -9.779	 -0.003	  0.001	  0.002	 33.200	 100.066	 -0.878
24285	 -0.446	 -0.280	  0.466	  0.131	  0.036	 -9.764	 -0.003	  0.002	  0.001	 33.100	 100.062	 -0.517
24335	 -0.448	 -0.279	  0.470	  0.116	  0.070	 -9.756	 -0.004	  0.002	  0.002	 33.100	 100.051	  0.472
24385	 -0.446	 -0.279	  0.466	  0.116	  0.015	 -9.790	 -0.003	  0.002	  0.001	 33.100	 100.058	 -0.158
24435	 -0.445	 -0.279	  0.461	  0.122	  0.052	 -9.788	 -0.004	  0.002	 -0.000	 33.100	 100.062	 -0.517
24485	 -0.446	 -0.275	  0.466	  0.128	  0.067	 -9.789	 -0.003	  0.002	  0.000	 33.100	 100.051	  0.472
24534	 -0.446	 -0.279	  0.466	  0.136	  0.043	 -9.793	 -0.004	  0.001	  0.001	 33.100	 100.062	 -0.517
24584	 -0.444	 -0.278	  0.469	  0.145	  0.033	 -9.757	 -0.003	  0.002	  0.000	 33.100	 100.055	  0.112
24634	 -0.445	 -0.263	  0.469	  0.127	  0.066	 -9.804	 -0.003	  0.002	  0.002	 33.100	 100.062	 -0.517
24684	 -0.447	 -0.277	  0.469	  0.134	  0.021	 -9.765	 -0.004	  0.002	  0.000	 33.100	 100.074	 -1.596
24734	 -0.447	 -0.280	  0.466	  0.149	  0.039	 -9.776	 -0.003	  0.003	 -0.000	 33.100	 100.062	 -0.517
24784	 -0.447	 -0.277	  0.470	  0.108	  0.035	 -9.765	 -0.002	  0.003	  0.001	 33.100	 100.051	  0.472
24834	 -0.445	 -0.281	  0.466	  0.143	  0.060	 -9.769	 -0.004	  0.003	  0.000	 33.100	 100.062	 -0.517
24884	 -0.445	 -0.277	  0.468	 -0.471	 -3.453	 -9.583	 -0.013	 -0.038	  0.494	 33.100	 100.062	 -0.517
24934	 -0.448	 -0.263	  0.459	  3.788	  0.365	 -9.577	 -0.015	 -0.063	  0.398	 33.100	 100.051	  0.472
24984	 -0.416	 -0.313	  0.453	 -2.407	  1.963	 -4.521	  0.046	 -0.300	 -1.492	 33.100	 100.051	  0.472
25034	 -0.411	 -0.301	  0.462	  0.255	 -1.938	 -9.958	  0.335	 -0.389	  0.185	 33.100	 100.062	 -0.517
25084	 -0.411	 -0.284	  0.471	 -1.879	 -2.325	 -16.019	  0.153	 -1.638	  0.694	 33.200	 100.066	 -0.878
25134	 -0.284	 -0.308	  0.520	 -8.518	  0.113	 -19.895	  0.179	  0.322	 -1.203	 33.100	 100.051	  0.472
25184	 -0.469	 -0.306	  0.364	 -2.573	 -3.336	 20.471	  0.592	 12.024	  1.406	 33.100	 100.062	 -0.517
25235	 -0.550	 -0.256	  0.340	  7.288	 -4.602	 -9.950	  2.149	 -7.181	 -0.227	 33.100	 100.062	 -0.517
25286	 -0.423	 -0.248	  0.467	 -2.649	  0.049	 -20.690	 -1.070	  1.361	  1.535	 33.100	 100.062	 -0.517
25335	 -0.452	 -0.285	  0.413	  0.932	 -0.827	 -7.628	 -1.623	 -0.434	 -0.555	 33.200	 100.066	 -0.878
25385	 -0.455	 -0.313	  0.387	  2.133	 -0.903	 -4.744	 -0.547	  0.861	  0.715	 33.100	 100.051	  0.472
25436	 -0.432	 -0.332	  0.399	  1.782	  2.743	 -13.172	 -0.302	 -0.232	 -0.475	 33.100	 100.078	 -1.957
25486	 -0.456	 -0.324	  0.386	  2.974	  0.983	 -1.389	  1.175	  0.082	 -0.419	 33.100	 100.062	 -0.517
25536	 -0.444	 -0.293	  0.432	 -0.368	 -0.547	 -11.127	  1.055	 -1.574	 -0.369	 33.100	 100.062	 -0.517
25586	 -0.428	 -0.278	  0.467	  0.735	 -1.377	 -13.531	 -0.743	 -1.331	  0.014	 33.100	 100.051	  0.472
25635	 -0.416	 -0.290	  0.471	  1.074	 -0.747	 -9.125	 -0.266	 -0.106	 -0.524	 33.100	 100.074	 -1.596
25685	 -0.412	 -0.314	  0.476	  0.230	 -0.126	 -8.976	 -0.870	 -0.868	 -0.333	 33.100	 100.062	 -0.517
25735	 -0.398	 -0.331	  0.479	 -0.731	 -0.662	 -12.043	 -0.801	 -0.991	 -0.495	 33.100	 100.062	 -0.517
25785	 -0.402	 -0.336	  0.465	 -0.990	  0.978	 -7.762	  0.519	 -0.577	 -0.400	 33.100	 100.062	 -0.517
25835	 -0.395	 -0.328	  0.472	 -0.650	 -0.009	 -10.547	 -0.044	  0.184	 -0.137	 33.100	 100.062	 -0.517
25885	 -0.413	 -0.336	  0.457	  1.017	  0.385	 -8.810	  0.251	  1.018	 -0.377	 33.100	 100.062	 -0.517
25935	 -0.419	 -0.314	  0.460	  0.713	  1.073	 -15.240	  0.315	 -0.264	 -0.132	 33.100	 100.062	 -0.517
25985	 -0.420	 -0.328	  0.461	  0.643	 -0.224	 -9.585	 -0.008	  0.009	  0.055	 33.100	 100.062	 -0.517
26035	 -0.423	 -0.325	  0.457	  0.088	  0.033	 -9.828	 -0.004	  0.004	  0.002	 33.200	 100.062	 -0.517
26085	 -0.421	 -0.326	  0.457	  0.111	  0.043	 -9.817	 -0.003	  0.001	  0.001	 33.100	 100.058	 -0.158
26135	 -0.420	 -0.329	  0.458	  0.135	  0.062	 -9.739	 -0.003	  0.001	 -0.000	 33.100	 100.074	 -1.596
26185	 -0.423	 -0.330	  0.457	  0.147	  0.033	 -9.776	 -0.004	  0.004	  0.001	 33.100	 100.062	 -0.517
26235	 -0.422	 -0.328	  0.460	  0.143	  0.059	 -9.781	 -0.005	  0.003	  0.001	 33.100	 100.062	 -0.517
26285	 -0.421	 -0.324	  0.461	  0.134	  0.073	 -9.779	 -0.003	  0.001	  0.000	 33.200	 100.066	 -0.878
26335	 -0.420	 -0.328	  0.460	  0.102	  0.055	 -9.767	 -0.002	  0.003	 -0.000	 33.100	 100.055	  0.112
26385	 -0.422	 -0.325	  0.457	  0.129	  0.031	 -9.771	 -0.002	  0.003	  0.000	 33.100	 100.062	 -0.517
26435	 -0.421	 -0.325	  0.456	  0.134	  0.043	 -9.791	 -0.002	  0.002	  0.000	 33.100	 100.066	 -0.878
26485	 -0.420	 -0.331	  0.454	  0.103	  0.053	 -9.781	 -0.003	  0.003	  0.001	 33.100	 100.047	  0.832
26535	 -0.419	 -0.323	  0.454	  0.134	  0.062	 -9.774	 -0.004	  0.002	  0.002	 33.200	 100.051	  0.472
26585	 -0.421	 -0.326	  0.449	  0.124	  0.048	 -9.754	 -0.004	  0.001	  0.001	 33.100	 100.062	 -0.517
26635	 -0.420	 -0.323	  0.455	  0.119	  0.069	 -9.740	 -0.003	  0.002	  0.002	 33.100	 100.074	 -1.596
26685	 -0.420	 -0.330	  0.458	  0.125	  0.041	 -9.783	 -0.003	  0.003	  0.001	 33.100	 100.062	 -0.517
26735	 -0.422	 -0.327	  0.460	  0.140	  0.052	 -9.772	 -0.003	  0.002	  0.000	 33.200	 100.062	 -0.517
26785	 -0.420	 -0.329	  0.453	  0.119	  0.056	 -9.754	 -0.004	  0.003	  0.001	 33.100	 100.062	 -0.517
26835	 -0.422	 -0.328	  0.449	  0.147	  0.052	 -9.758	 -0.004	  0.002	  0.001	 33.100	 100.051	  0.472
26885	 -0.422	 -0.327	  0.453	  0.127	  0.064	 -9.755	 -0.002	  0.002	  0.001	 33.100	 100.062	 -0.517
26935	 -0.422	 -0.323	  0.458	  0.107	  0.031	 -9.541	 -0.004	  0.006	  0.001	 33.100	 100.051	  0.472
26985	 -0.420	 -0.328	  0.454	  0.144	  0.044	 -9.806	 -0.004	  0.004	  0.000	 33.100	 100.062	 -0.517
27035	 -0.420	 -0.323	  0.456	  0.117	  0.060	 -9.860	 -0.003	  0.002	  0.001	 33.100	 100.051	  0.472
27085	 -0.421	 -0.327	  0.457	  0.132	  0.033	 -9.790	 -0.003	  0.001	  0.000	 33.100	 100.062	 -0.517
27135	 -0.421	 -0.326	  0.460	  0.146	  0.038	 -9.732	 -0.003	  0.002	  0.001	 33.100	 100.062	 -0.517
27185	 -0.421	 -0.327	  0.455	  0.119	  0.031	 -9.778	 -0.001	  0.003	  0.002	 33.100	 100.062	 -0.517
27235	 -0.420	 -0.328	  0.452	  0.122	  0.059	 -9.753	 -0.003	  0.003	  0.001	 33.100	 100.051	  0.472
27285	 -0.422	 -0.328	  0.460	  0.146	  0.052	 -9.765	 -0.004	  0.002	  0.001	 33.100	 100.062	 -0.517
27335	 -0.422	 -0.327	  0.458	  0.107	  0.047	 -9.751	 -0.003	  0.002	  0.001	 33.100	 100.051	  0.472
27385	 -0.420	 -0.329	  0.456	  0.113	  0.049	 -9.768	 -0.004	  0.003	  0.001	 33.100	 100.051	  0.472
27435	 -0.421	 -0.325	  0.461	  0.118	  0.025	 -9.777	 -0.003	  0.003	  0.002	 33.100	 100.062	 -0.517
27485	 -0.423	 -0.327	  0.456	  0.129	  0.060	 -9.750	 -0.003	  0.002	  0.001	 33.100	 100.062	 -0.517
27535	 -0.420	 -0.333	  0.460	  0.129	  0.053	 -9.775	 -0.004	  0.002	  0.001	 33.200	 100.078	 -1.957
27585	 -0.423	 -0.326	  0.455	  0.119	  0.029	 -9.787	 -0.003	  0.002	 -0.001	 33.100	 100.051	  0.472
27635	 -0.422	 -0.330	  0.457	  0.155	  0.044	 -9.768	 -0.003	  0.002	  0.000	 33.100	 100.066	 -0.878
27685	 -0.423	 -0.327	  0.453	  0.117	  0.033	 -9.747	 -0.002	  0.003	  0.001	 33.100	 100.062	 -0.517
27735	 -0.422	 -0.327	  0.455	  0.118	  0.044	 -9.775	 -0.002	  0.002	  0.001	 33.100	 100.062	 -0.517
27785	 -0.421	 -0.325	  0.458	  0.115	  0.022	 -9.750	 -0.004	  0.003	  0.001	 33.100	 100.051	  0.472
27835	 -0.419	 -0.326	  0.460	  0.111	  0.053	 -9.739	 -0.003	  0.002	  0.000	 33.100	 100.062	 -0.517
27885	 -0.422	 -0.326	  0.458	  0.122	  0.047	 -9.738	 -0.003	  0.001	  0.001	 33.100	 100.062	 -0.517
27935	 -0.420	 -0.327	  0.458	  0.134	  0.046	 -9.764	 -0.004	  0.004	  0.000	 33.100	 100.051	  0.472
27985	 -0.422	 -0.329	  0.458	  0.125	  0.036	 -9.791	 -0.004	  0.002	  0.000	 33.100	 100.062	 -0.517
28035	 -0.423	 -0.326	  0.457	  0.122	  0.037	 -9.785	 -0.003	  0.003	  0.001	 33.100	 100.066	 -0.878
28085	 -0.420	 -0.318	  0.462	  0.146	  0.051	 -9.784	 -0.002	  0.003	  0.001	 33.100	 100.062	 -0.517
28135	 -0.420	 -0.319	  0.457	  0.112	  0.045	 -9.762	 -0.003	  0.002	  0.001	 33.100	 100.051	  0.472
28185	 -0.420	 -0.326	  0.459	  0.144	  0.034	 -9.762	 -0.003	  0.003	  0.001	 33.100	 100.051	  0.472
28235	 -0.422	 -0.328	  0.458	  0.123	  0.054	 -9.749	 -0.003	  0.003	  0.000	 33.100	 100.062	 -0.517
28285	 -0.422	 -0.327	  0.457	  0.127	  0.057	 -9.813	 -0.003	  0.002	 -0.000	 33.200	 100.066	 -0.878
28335	 -0.420	 -0.329	  0.454	  0.121	  0.067	 -9.741	 -0.004	  0.002	  0.001	 33.200	 100.062	 -0.517
28385	 -0.422	 -0.329	  0.456	  0.121	  0.044	 -9.752	 -0.002	  0.002	  0.001	 33.200	 100.078	 -1.957
28435	 -0.423	 -0.325	  0.458	  0.127	  0.048	 -9.773	 -0.003	  0.002	  0.001	 33.100	 100.062	 -0.517
28485	 -0.420	 -0.327	  0.459	  0.122	  0.046	 -9.781	 -0.003	  0.003	  0.000	 33.100	 100.074	 -1.596
28535	 -0.420	 -0.327	  0.458	  0.123	  0.044	 -9.744	 -0.002	  0.002	  0.001	 33.200	 100.051	  0.472
28585	 -0.422	 -0.331	  0.453	  0.137	  0.043	 -9.786	 -0.004	  0.003	  0.001	 33.100	 100.062	 -0.517
28635	 -0.421	 -0.329	  0.449	  0.127	  0.047	 -9.767	 -0.003	  0.003	  0.002	 33.100	 100.062	 -0.517
28685	 -0.422	 -0.328	  0.458	  0.114	  0.053	 -9.751	 -0.003	  0.002	  0.001	 33.200	 100.066	 -0.878
28735	 -0.421	 -0.321	  0.458	  0.131	  0.032	 -9.755	 -0.003	  0.003	  0.001	 33.100	 100.055	  0.112
28785	 -0.420	 -0.324	  0.456	  0.140	  0.045	 -9.767	 -0.003	  0.003	  0.001	 33.100	 100.062	 -0.517
28835	 -0.422	 -0.328	  0.460	  0.136	  0.036	 -9.769	 -0.004	  0.002	  0.001	 33.100	 100.062	 -0.517
28885	 -0.420	 -0.328	  0.456	  0.124	  0.045	 -9.801	 -0.004	  0.002	  0.000	 33.100	 100.062	 -0.517
28934	 -0.422	 -0.329	  0.455	  0.130	  0.075	 -9.763	 -0.004	  0.002	  0.001	 33.100	 100.051	  0.472
28984	 -0.423	 -0.329	  0.455	  0.106	  0.049	 -9.783	 -0.003	  0.002	  0.000	 33.100	 100.062	 -0.517
29034	 -0.421	 -0.316	  0.457	  0.135	  0.078	 -9.778	 -0.002	  0.003	  0.002	 33.100	 100.051	  0.472
29084	 -0.419	 -0.328	  0.458	  0.119	  0.069	 -9.758	 -0.004	  0.002	  0.000	 33.100	 100.062	 -0.517
29135	 -0.420	 -0.328	  0.458	  0.117	  0.081	 -9.764	 -0.002	  0.001	  0.002	 33.200	 100.051	  0.472
29184	 -0.420	 -0.325	  0.458	  0.106	  0.053	 -9.728	 -0.003	  0.003	 -0.000	 33.100	 100.062	 -0.517
29234	 -0.421	 -0.329	  0.459	  0.145	  0.074	 -9.767	 -0.003	  0.004	  0.001	 33.100	 100.062	 -0.517
29284	 -0.422	 -0.322	  0.457	  0.110	  0.067	 -9.746	 -0.003	  0.003	  0.001	 33.100	 100.062	 -0.517
29334	 -0.420	 -0.327	  0.458	  0.141	  0.077	 -9.758	 -0.003	  0.002	  0.000	 33.100	 100.062	 -0.517
29384	 -0.422	 -0.328	  0.455	  0.118	  0.069	 -9.753	 -0.003	  0.003	  0.001	 33.200	 100.066	 -0.878
29434	 -0.421	 -0.331	  0.456	  0.172	  0.043	 -9.766	 -0.003	  0.002	  0.001	 33.100	 100.062	 -0.517
29484	 -0.421	 -0.327	  0.456	  0.127	  0.040	 -9.751	 -0.003	  0.002	  0.001	 33.100	 100.062	 -0.517
29534	 -0.422	 -0.324	  0.457	  0.137	  0.029	 -9.778	 -0.003	  0.002	  0.000	 33.200	 100.062	 -0.517
29584	 -0.420	 -0.314	  0.457	  0.125	  0.033	 -9.748	 -0.003	  0.003	  0.002	 33.100	 100.051	  0.472
29634	 -0.420	 -0.328	  0.460	  0.124	  0.057	 -9.724	 -0.003	  0.001	  0.000	 33.100	 100.062	 -0.517
29684	 -0.423	 -0.327	  0.456	  0.134	  0.064	 -9.747	 -0.003	  0.002	  0.000	 33.100	 100.062	 -0.517
29734	 -0.420	 -0.327	  0.456	  0.124	  0.041	 -9.727	 -0.003	  0.002	  0.002	 33.200	 100.074	 -1.596
29784	 -0.420	 -0.330	  0.456	  0.151	  0.041	 -9.731	 -0.003	  0.002	  0.001	 33.200	 100.066	 -0.878
29834	 -0.421	 -0.326	  0.457	  0.123	  0.057	 -9.762	 -0.003	  0.002	  0.002	 33.100	 100.066	 -0.878
29884	 -0.421	 -0.327	  0.459	  0.122	  0.036	 -9.750	 -0.003	  0.002	  0.000	 33.100	 100.051	  0.472
29934	 -0.420	 -0.328	  0.453	  0.126	  0.058	 -9.738	 -0.002	  0.003	  0.001	 33.100	 100.066	 -0.878
29984	 -0.421	 -0.317	  0.458	  0.113	  0.053	 -9.750	 -0.002	  0.002	  0.001	 33.100	 100.069	 -1.147
30034	 -0.421	 -0.324	  0.455	  0.108	  0.058	 -9.745	 -0.004	  0.003	  0.001	 33.100	 100.062	 -0.517
30084	 -0.420	 -0.329	  0.453	  0.114	  0.038	 -9.748	 -0.004	  0.002	  0.001	 33.100	 100.062	 -0.517
30134	 -0.424	 -0.328	  0.455	  0.121	  0.052	 -9.794	 -0.003	  0.002	 -0.000	 33.200	 100.051	  0.472
30184	 -0.419	 -0.327	  0.449	  0.127	  0.071	 -9.751	 -0.003	  0.003	  0.000	 33.100	 100.062	 -0.517
30234	 -0.421	 -0.329	  0.453	  0.121	  0.038	 -9.760	 -0.003	  0.003	  0.001	 33.200	 100.062	 -0.517
30284	 -0.421	 -0.327	  0.456	  0.116	  0.039	 -9.773	 -0.003	  0.003	  0.001	 33.100	 100.062	 -0.517
30334	 -0.421	 -0.327	  0.451	  0.130	  0.063	 -9.759	 -0.003	  0.001	 -0.000	 33.100	 100.051	  0.472
30384	 -0.422	 -0.328	  0.460	  0.114	  0.034	 -9.799	 -0.002	  0.002	  0.000	 33.100	 100.062	 -0.517
30434	 -0.422	 -0.326	  0.458	  0.113	  0.028	 -9.787	 -0.004	  0.002	  0.001	 33.200	 100.062	 -0.517
30485	 -0.422	 -0.327	  0.453	  0.117	  0.071	 -9.761	 -0.004	  0.003	 -0.000	 33.100	 100.062	 -0.517
30534	 -0.422	 -0.323	  0.457	  0.103	  0.031	 -9.765	 -0.003	  0.003	  0.002	 33.100	 100.062	 -0.517
30584	 -0.420	 -0.325	  0.460	  0.115	  0.048	 -9.776	 -0.004	  0.002	  0.001	 33.100	 100.062	 -0.517
30634	 -0.421	 -0.329	  0.453	  0.141	  0.042	 -9.773	 -0.003	  0.003	  0.002	 33.100	 100.062	 -0.517
30684	 -0.423	 -0.326	  0.455	  0.123	  0.045	 -9.776	 -0.003	  0.002	  0.001	 33.100	 100.062	 -0.517
30734	 -0.423	 -0.331	  0.456	  0.137	  0.075	 -9.778	 -0.002	  0.002	  0.000	 33.100	 100.062	 -0.517
30784	 -0.420	 -0.322	  0.459	  0.119	  0.047	 -9.766	 -0.003	  0.002	  0.001	 33.100	 100.074	 -1.596
30835	 -0.420	 -0.326	  0.456	  0.129	  0.027	 -9.798	 -0.003	  0.002	  0.002	 33.200	 100.062	 -0.517
30885	 -0.421	 -0.320	  0.457	  0.149	  0.061	 -9.796	 -0.003	  0.002	  0.001	 33.100	 100.062	 -0.517
30935	 -0.422	 -0.326	  0.457	  0.118	  0.053	 -9.776	 -0.003	  0.003	  0.001	 33.100	 100.062	 -0.517
30985	 -0.422	 -0.329	  0.456	  0.125	  0.051	 -9.767	 -0.003	  0.002	  0.001	 33.100	 100.062	 -0.517
31035	 -0.419	 -0.328	  0.456	  0.142	  0.043	 -9.740	 -0.004	  0.002	  0.001	 33.100	 100.062	 -0.517
31085	 -0.421	 -0.329	  0.453	  0.128	  0.051	 -9.745	 -0.002	  0.003	  0.002	 33.100	 100.062	 -0.517
31134	 -0.421	 -0.328	  0.459	  0.123	  0.045	 -9.763	 -0.002	  0.001	  0.001	 33.100	 100.062	 -0.517
31184	 -0.419	 -0.331	  0.453	  0.132	  0.074	 -9.749	 -0.003	  0.002	  0.000	 33.100	 100.062	 -0.517
31235	 -0.422	 -0.322	  0.458	  0.128	  0.051	 -9.812	 -0.002	  0.003	  0.001	 33.100	 100.062	 -0.517
31285	 -0.420	 -0.332	  0.452	  0.133	  0.062	 -9.768	 -0.002	  0.002	  0.000	 33.100	 100.074	 -1.596
31335	 -0.424	 -0.318	  0.457	  0.110	  0.062	 -9.777	 -0.003	  0.001	 -0.000	 33.100	 100.062	 -0.517
31385	 -0.422	 -0.328	  0.458	  0.118	  0.045	 -9.734	 -0.002	  0.003	  0.001	 33.100	 100.062	 -0.517
31435	 -0.423	 -0.319	  0.457	  0.123	  0.036	 -9.767	 -0.003	  0.002	  0.001	 33.100	 100.074	 -1.596
31485	 -0.421	 -0.327	  0.454	  0.120	  0.034	 -9.720	 -0.003	  0.003	  0.001	 33.100	 100.074	 -1.596
31535	 -0.420	 -0.327	  0.455	  0.113	  0.042	 -9.782	 -0.002	  0.002	  0.001	 33.100	 100.062	 -0.517
31585	 -0.421	 -0.329	  0.459	  0.115	  0.039	 -9.757	 -0.002	  0.003	  0.001	 33.200	 100.066	 -0.878
31635	 -0.423	 -0.320	  0.454	  0.140	  0.051	 -9.760	 -0.003	  0.002	  0.001	 33.200	 100.062	 -0.517
31685	 -0.421	 -0.329	  0.460	  0.138	  0.053	 -9.747	 -0.003	  0.003	  0.001	 33.100	 100.062	 -0.517
31735	 -0.421	 -0.327	  0.452	  0.109	  0.058	 -9.764	 -0.003	  0.002	  0.001	 33.100	 100.074	 -1.596
31785	 -0.420	 -0.327	  0.455	  0.128	  0.062	 -9.747	 -0.004	  0.002	  0.000	 33.200	 100.066	 -0.878
31835	 -0.421	 -0.328	  0.457	  0.121	  0.059	 -9.763	 -0.003	  0.003	  0.001	 33.100	 100.062	 -0.517
31885	 -0.423	 -0.330	  0.458	  0.132	  0.052	 -9.760	 -0.003	  0.003	  0.001	 33.100	 100.062	 -0.517
31935	 -0.421	 -0.322	  0.460	  0.116	  0.028	 -9.748	 -0.003	  0.001	 -0.000	 33.100	 100.062	 -0.517
31985	 -0.422	 -0.326	  0.457	  0.129	  0.042	 -9.714	 -0.003	  0.003	  0.001	 33.100	 100.062	 -0.517
32034	 -0.424	 -0.328	  0.458	  0.138	  0.050	 -9.765	 -0.003	  0.002	  0.000	 33.100	 100.066	 -0.878
32084	 -0.421	 -0.323	  0.455	  0.112	  0.055	 -9.757	 -0.003	  0.001	  0.001	 33.100	 100.062	 -0.517
32134	 -0.423	 -0.329	  0.458	  0.128	  0.053	 -9.749	 -0.002	  0.003	  0.001	 33.100	 100.062	 -0.517
32184	 -0.423	 -0.329	  0.456	  0.151	  0.028	 -9.778	 -0.004	  0.002	  0.002	 33.200	 100.066	 -0.878
32234	 -0.425	 -0.326	  0.458	  0.121	  0.057	 -9.757	 -0.003	  0.002	  0.000	 33.100	 100.051	  0.472
32284	 -0.418	 -0.328	  0.459	  0.119	  0.061	 -9.766	 -0.003	  0.001	  0.000	 33.100	 100.062	 -0.517
32334	 -0.422	 -0.327	  0.458	  0.112	  0.032	 -9.751	 -0.004	  0.001	  0.001	 33.200	 100.051	  0.472
32384	 -0.423	 -0.329	  0.457	  0.132	  0.056	 -9.772	 -0.003	  0.003	  0.000	 33.200	 100.055	  0.112
32434	 -0.422	 -0.328	  0.454	  0.121	  0.040	 -9.775	 -0.002	  0.003	  0.001	 33.200	 100.062	 -0.517
32484	 -0.421	 -0.320	  0.455	  0.118	  0.056	 -9.772	 -0.003	  0.003	  0.001	 33.100	 100.062	 -0.517
32534	 -0.419	 -0.330	  0.447	  0.105	  0.053	 -9.783	 -0.003	  0.003	  0.000	 33.100	 100.062	 -0.517
32584	 -0.421	 -0.330	  0.459	  0.104	  0.045	 -9.770	 -0.003	  0.001	  0.001	 33.100	 100.062	 -0.517
32634	 -0.421	 -0.327	  0.457	  0.132	  0.068	 -9.779	 -0.003	  0.003	  0.001	 33.100	 100.074	 -1.596
32684	 -0.421	 -0.324	  0.461	  0.123	  0.050	 -9.769	 -0.002	  0.003	  0.000	 33.200	 100.078	 -1.957
32734	 -0.421	 -0.326	  0.461	  0.126	  0.083	 -9.777	 -0.004	  0.003	  0.001	 33.100	 100.055	  0.112
32784	 -0.421	 -0.328	  0.460	  0.109	  0.048	 -9.768	 -0.003	  0.001	  0.001	 33.100	 100.062	 -0.517
32834	 -0.422	 -0.330	  0.453	  0.119	  0.048	 -9.775	 -0.002	  0.002	  0.001	 33.100	 100.074	 -1.596
32884	 -0.423	 -0.326	  0.458	  0.138	  0.049	 -9.770	 -0.003	  0.003	  0.001	 33.100	 100.051	  0.472
32934	 -0.420	 -0.326	  0.457	  0.124	  0.051	 -9.774	 -0.004	  0.003	  0.001	 33.100	 100.074	 -1.596
32984	 -0.423	 -0.329	  0.460	  0.120	  0.061	 -9.773	 -0.003	  0.003	  0.001	 33.100	 100.062	 -0.517
33034	 -0.420	 -0.316	  0.460	  0.103	  0.047	 -9.751	 -0.003	  0.002	  0.001	 33.100	 100.058	 -0.158
33084	 -0.420	 -0.329	  0.453	  0.132	  0.036	 -9.749	 -0.002	  0.003	  0.002	 33.100	 100.051	  0.472
33134	 -0.421	 -0.329	  0.459	  0.132	  0.069	 -9.806	 -0.004	  0.002	  0.000	 33.100	 100.062	 -0.517
33184	 -0.421	 -0.327	  0.459	  0.126	  0.028	 -9.752	 -0.004	  0.002	  0.001	 33.200	 100.078	 -1.957
33234	 -0.421	 -0.326	  0.457	  0.145	  0.070	 -9.810	 -0.003	  0.003	  0.001	 33.100	 100.062	 -0.517
33284	 -0.421	 -0.327	  0.454	  0.132	  0.058	 -9.770	 -0.003	  0.003	  0.001	 33.100	 100.062	 -0.517
33334	 -0.422	 -0.327	  0.456	  0.118	  0.058	 -9.765	 -0.003	  0.003	  0.002	 33.100	 100.051	  0.472
33384	 -0.422	 -0.323	  0.457	  0.141	  0.054	 -9.755	 -0.003	  0.002	  0.000	 33.200	 100.066	 -0.878
33434	 -0.421	 -0.328	  0.457	  0.125	  0.035	 -9.767	 -0.003	  0.004	 -0.000	 33.100	 100.062	 -0.517
33484	 -0.421	 -0.319	  0.461	  0.113	  0.033	 -9.770	 -0.001	  0.002	  0.001	 33.100	 100.051	  0.472
33534	 -0.423	 -0.331	  0.454	  0.120	  0.040	 -9.763	 -0.004	  0.002	  0.000	 33.200	 100.062	 -0.517
33584	 -0.425	 -0.325	  0.451	  0.125	  0.046	 -9.773	 -0.003	  0.002	  0.001	 33.100	 100.062	 -0.517
33634	 -0.422	 -0.321	  0.461	  0.139	  0.070	 -9.773	 -0.003	  0.002	  0.000	 33.100	 100.055	  0.112
33684	 -0.420	 -0.324	  0.457	  0.146	  0.064	 -9.781	 -0.004	  0.004	  0.001	 33.100	 100.062	 -0.517
33734	 -0.420	 -0.326	  0.459	  0.142	  0.055	 -9.764	 -0.003	  0.003	  0.000	 33.100	 100.062	 -0.517
33784	 -0.424	 -0.329	  0.456	  0.134	  0.051	 -9.778	 -0.003	  0.003	  0.001	 33.100	 100.051	  0.472
33834	 -0.419	 -0.328	  0.458	  0.102	  0.053	 -9.747	 -0.003	  0.002	  0.001	 33.100	 100.062	 -0.517
33884	 -0.420	 -0.320	  0.455	  0.130	  0.057	 -9.768	 -0.004	  0.002	  0.002	 33.100	 100.062	 -0.517
33934	 -0.421	 -0.330	  0.454	  0.132	  0.071	 -9.758	 -0.002	  0.003	  0.000	 33.100	 100.074	 -1.596
33984	 -0.423	 -0.327	  0.456	  0.142	  0.038	 -9.758	 -0.004	  0.002	  0.000	 33.100	 100.062	 -0.517
34034	 -0.419	 -0.330	  0.456	  0.159	  0.072	 -9.737	 -0.003	  0.003	  0.001	 33.100	 100.074	 -1.596
34084	 -0.422	 -0.328	  0.460	  0.130	  0.054	 -9.810	 -0.003	  0.002	  0.000	 33.100	 100.062	 -0.517
34134	 -0.420	 -0.328	  0.451	  0.126	  0.036	 -9.772	 -0.003	  0.002	  0.001	 33.100	 100.066	 -0.878
34184	 -0.424	 -0.330	  0.460	  0.124	  0.053	 -9.748	 -0.003	  0.003	  0.002	 33.100	 100.062	 -0.517
34234	 -0.422	 -0.325	  0.454	  0.121	  0.079	 -9.755	 -0.002	  0.002	  0.001	 33.100	 100.062	 -0.517
34284	 -0.422	 -0.314	  0.458	  0.119	  0.046	 -9.763	 -0.002	  0.003	  0.000	 33.100	 100.058	 -0.158
34334	 -0.422	 -0.329	  0.452	  0.124	  0.041	 -9.798	 -0.003	  0.003	  0.001	 33.200	 100.074	 -1.596
34384	 -0.423	 -0.328	  0.458	  0.126	  0.053	 -9.783	 -0.003	  0.003	  0.000	 33.200	 100.066	 -0.878
34433	 -0.422	 -0.327	  0.457	  0.108	  0.057	 -9.754	 -0.003	  0.003	  0.001	 33.100	 100.062	 -0.517
34484	 -0.420	 -0.321	  0.458	  0.130	  0.066	 -9.731	 -0.003	  0.002	  0.001	 33.100	 100.062	 -0.517
34533	 -0.422	 -0.316	  0.460	  0.120	  0.058	 -9.740	 -0.004	  0.004	  0.001	 33.100	 100.074	 -1.596
34583	 -0.421	 -0.327	  0.455	  0.121	  0.058	 -9.756	 -0.003	  0.002	  0.001	 33.200	 100.066	 -0.878
34633	 -0.423	 -0.322	  0.460	  0.132	  0.050	 -9.772	 -0.003	  0.003	 -0.000	 33.100	 100.066	 -0.878
34683	 -0.420	 -0.328	  0.460	  0.124	  0.046	 -9.764	 -0.002	  0.002	 -0.000	 33.100	 100.062	 -0.517
34733	 -0.420	 -0.327	  0.456	  0.108	  0.039	 -9.741	 -0.004	  0.003	  0.001	 33.200	 100.066	 -0.878
34783	 -0.419	 -0.325	  0.458	  0.140	  0.046	 -9.790	 -0.003	  0.004	  0.000	 33.100	 100.062	 -0.517
34833	 -0.422	 -0.323	  0.460	  0.112	  0.078	 -9.742	 -0.003	  0.002	  0.001	 33.100	 100.074	 -1.596
34883	 -0.421	 -0.324	  0.453	  0.125	  0.042	 -9.758	 -0.003	  0.001	  0.001	 33.100	 100.062	 -0.517
34933	 -0.422	 -0.332	  0.456	  0.127	  0.041	 -9.735	 -0.002	  0.003	  0.001	 33.100	 100.062	 -0.517
34983	 -0.422	 -0.328	  0.458	  0.122	  0.060	 -9.769	 -0.002	  0.003	  0.001	 33.100	 100.062	 -0.517
35033	 -0.422	 -0.327	  0.455	  0.138	  0.062	 -9.771	 -0.004	  0.002	  0.002	 33.200	 100.066	 -0.878
35083	 -0.423	 -0.318	  0.457	  0.144	  0.055	 -9.766	 -0.003	  0.003	 -0.000	 33.100	 100.074	 -1.596
35133	 -0.421	 -0.331	  0.454	  0.111	  0.032	 -9.754	 -0.003	  0.002	  0.000	 33.100	 100.062	 -0.517
35183	 -0.422	 -0.330	  0.461	  0.136	  0.046	 -9.738	 -0.003	  0.001	  0.001	 33.200	 100.066	 -0.878
35233	 -0.423	 -0.328	  0.457	  0.142	  0.046	 -9.780	 -0.004	  0.003	  0.000	 33.100	 100.062	 -0.517
35283	 -0.422	 -0.327	  0.461	  0.137	  0.066	 -9.757	 -0.003	  0.003	  0.000	 33.100	 100.062	 -0.517
35333	 -0.422	 -0.328	  0.453	  0.112	  0.075	 -9.757	 -0.002	  0.003	  0.001	 33.100	 100.078	 -1.957
35383	 -0.421	 -0.324	  0.457	  0.126	  0.048	 -9.790	 -0.004	  0.002	  0.001	 33.100	 100.074	 -1.596
35433	 -0.422	 -0.329	  0.457	  0.144	  0.065	 -9.761	 -0.004	  0.002	  0.001	 33.100	 100.074	 -1.596
35483	 -0.421	 -0.330	  0.458	  0.122	  0.042	 -9.772	 -0.003	  0.002	  0.001	 33.100	 100.062	 -0.517
35533	 -0.419	 -0.330	  0.455	  0.127	  0.035	 -9.738	 -0.003	  0.004	  0.001	 33.100	 100.062	 -0.517
35583	 -0.422	 -0.328	  0.455	  0.127	  0.051	 -9.755	 -0.003	  0.002	  0.001	 33.100	 100.062	 -0.517
35633	 -0.420	 -0.329	  0.460	  0.125	  0.044	 -9.792	 -0.003	  0.002	  0.001	 33.100	 100.062	 -0.517
35683	 -0.420	 -0.329	  0.458	  0.125	  0.055	 -9.773	 -0.003	  0.004	  0.001	 33.100	 100.062	 -0.517
35733	 -0.419	 -0.330	  0.450	  0.142	  0.043	 -9.755	 -0.003	  0.001	  0.001	 33.100	 100.074	 -1.596
35783	 -0.421	 -0.330	  0.457	  0.131	  0.044	 -9.745	 -0.003	  0.002	  0.000	 33.200	 100.078	 -1.957
35833	 -0.421	 -0.326	  0.456	  0.146	  0.051	 -9.783	 -0.003	  0.003	  0.000	 33.100	 100.074	 -1.596
35883	 -0.423	 -0.323	  0.457	  0.133	  0.061	 -9.790	 -0.003	  0.002	  0.001	 33.100	 100.062	 -0.517
35933	 -0.419	 -0.314	  0.460	  0.123	  0.042	 -9.782	 -0.003	  0.003	  0.000	 33.100	 100.074	 -1.596
35984	 -0.422	 -0.327	  0.455	  0.124	  0.045	 -9.754	 -0.003	  0.003	  0.001	 33.100	 100.074	 -1.596
36033	 -0.421	 -0.327	  0.460	  0.104	  0.045	 -9.764	 -0.004	  0.003	  0.001	 33.200	 100.074	 -1.596
36084	 -0.424	 -0.330	  0.456	  0.140	  0.049	 -9.784	 -0.003	  0.003	  0.001	 33.100	 100.062	 -0.517
36133	 -0.422	 -0.327	  0.457	  0.121	  0.035	 -9.776	 -0.005	  0.003	  0.002	 33.100	 100.062	 -0.517
36184	 -0.420	 -0.327	  0.455	  0.142	  0.053	 -9.794	 -0.003	  0.003	  0.001	 33.100	 100.062	 -0.517
36233	 -0.422	 -0.329	  0.456	  0.128	  0.070	 -9.736	 -0.002	  0.003	  0.001	 33.100	 100.078	 -1.957
36284	 -0.421	 -0.327	  0.456	  0.113	  0.041	 -9.744	 -0.003	  0.002	  0.001	 33.100	 100.074	 -1.596
36334	 -0.424	 -0.325	  0.456	  0.102	  0.048	 -9.747	 -0.003	  0.002	  0.000	 33.200	 100.062	 -0.517
36384	 -0.420	 -0.326	  0.455	  0.111	  0.043	 -9.757	 -0.004	  0.002	  0.001	 33.100	 100.062	 -0.517
36434	 -0.421	 -0.324	  0.456	  0.148	  0.040	 -9.756	 -0.003	  0.004	  0.000	 33.100	 100.062	 -0.517
36484	 -0.422	 -0.327	  0.457	  0.122	  0.041	 -9.753	 -0.004	  0.004	  0.002	 33.100	 100.062	 -0.517
36534	 -0.420	 -0.329	  0.453	  0.139	  0.059	 -9.748	 -0.003	  0.002	 -0.000	 33.100	 100.062	 -0.517
36584	 -0.423	 -0.329	  0.453	  0.113	  0.053	 -9.766	 -0.003	  0.002	  0.001	 33.100	 100.062	 -0.517
36634	 -0.420	 -0.328	  0.455	  0.137	  0.062	 -9.748	 -0.002	  0.001	  0.001	 33.200	 100.074	 -1.596
36684	 -0.420	 -0.329	  0.459	  0.098	  0.059	 -9.766	 -0.002	  0.002	  0.000	 33.100	 100.062	 -0.517
36734	 -0.421	 -0.327	  0.456	  0.133	  0.035	 -9.751	 -0.002	  0.002	  0.001	 33.100	 100.062	 -0.517
36784	 -0.420	 -0.325	  0.458	  0.114	  0.038	 -9.798	 -0.003	  0.003	  0.001	 33.200	 100.066	 -0.878
36834	 -0.420	 -0.329	  0.455	  0.152	  0.060	 -9.761	 -0.004	  0.002	  0.000	 33.100	 100.078	 -1.957
36884	 -0.420	 -0.328	  0.456	  0.149	  0.065	 -9.721	 -0.004	  0.002	  0.001	 33.200	 100.066	 -0.878
36934	 -0.421	 -0.328	  0.453	  0.141	  0.042	 -9.756	 -0.003	  0.004	  0.000	 33.100	 100.066	 -0.878
36984	 -0.421	 -0.328	  0.448	  0.116	  0.040	 -9.740	 -0.003	  0.002	 -0.000	 33.100	 100.062	 -0.517
37034	 -0.422	 -0.324	  0.455	  0.116	  0.040	 -9.791	 -0.003	  0.002	  0.001	 33.200	 100.078	 -1.957
37084	 -0.421	 -0.332	  0.456	  0.140	  0.059	 -9.767	 -0.003	  0.003	  0.002	 33.100	 100.051	  0.472
37134	 -0.420	 -0.330	  0.458	  0.132	  0.063	 -9.810	 -0.004	  0.003	  0.001	 33.100	 100.062	 -0.517
37184	 -0.421	 -0.327	  0.460	  0.124	  0.040	 -9.736	 -0.003	  0.002	  0.000	 33.100	 100.085	 -2.587
37234	 -0.421	 -0.331	  0.453	  0.113	  0.059	 -9.775	 -0.004	  0.003	  0.000	 33.200	 100.062	 -0.517
37284	 -0.422	 -0.328	  0.448	  0.127	  0.057	 -9.751	 -0.004	  0.003	  0.001	 33.100	 100.074	 -1.596
