Time	 MagX	 MagY	 MagZ	 AccelX	 AccelY	 AccelZ	 Yaw	 Pitch	 Roll	 Temperature	 Pressure	 Altitude
18304	 -0.325	 -0.441	  0.405	  0.154	  0.012	 -9.754	 -0.004	  0.003	 -0.000	 31.500	 99.947	 -99999.000

18354	 -0.328	 -0.443	  0.405	  0.148	  0.004	 -9.752	 -0.003	  0.003	  0.001	 31.500	 99.935	 -99999.000

18404	 -0.328	 -0.437	  0.407	  0.152	  0.019	 -9.771	 -0.003	  0.003	  0.001	 31.500	 99.943	 -99999.000

18454	 -0.328	 -0.439	  0.402	  0.168	 -0.003	 -9.754	 -0.002	  0.002	  0.000	 31.500	 99.947	 -99999.000

18504	 -0.328	 -0.442	  0.408	  0.173	  0.009	 -9.690	 -0.003	  0.002	  0.001	 31.500	 99.935	 -99999.000

18554	 -0.328	 -0.441	  0.401	  0.164	 -0.015	 -9.753	 -0.004	  0.003	  0.001	 31.500	 99.947	 -99999.000

18604	 -0.326	 -0.439	  0.400	  0.156	  0.025	 -9.745	 -0.003	  0.004	  0.001	 31.500	 99.947	 -99999.000

18654	 -0.325	 -0.440	  0.403	  0.147	  0.019	 -9.746	 -0.004	  0.003	 -0.000	 31.500	 99.947	 -99999.000

18704	 -0.324	 -0.441	  0.409	  0.157	 -0.000	 -9.759	 -0.003	  0.003	  0.001	 31.500	 99.947	 -99999.000

18754	 -0.325	 -0.439	  0.405	  0.154	  0.024	 -9.758	 -0.004	  0.001	  0.001	 31.500	 99.931	 -99999.000

18804	 -0.328	 -0.437	  0.405	  0.129	  0.015	 -9.753	 -0.003	  0.002	  0.001	 31.500	 99.947	 -99999.000

18854	 -0.327	 -0.445	  0.404	  0.155	  0.027	 -9.726	 -0.003	  0.001	 -0.000	 31.500	 99.943	 -99999.000

18904	 -0.326	 -0.441	  0.402	  0.147	  0.021	 -9.745	 -0.003	  0.003	  0.001	 31.500	 99.947	 -99999.000

18954	 -0.323	 -0.444	  0.409	  0.173	  0.011	 -9.745	 -0.004	  0.002	  0.001	 31.500	 99.947	 -99999.000

19004	 -0.325	 -0.434	  0.398	  0.155	  0.013	 -9.752	 -0.004	  0.001	  0.002	 31.500	 99.947	 -99999.000

19054	 -0.326	 -0.445	  0.400	  0.148	  0.005	 -9.749	 -0.004	  0.002	  0.001	 31.500	 99.947	 -99999.000

19104	 -0.327	 -0.438	  0.404	  0.162	  0.019	 -9.743	 -0.004	  0.003	  0.001	 31.500	 99.947	 -99999.000

19154	 -0.328	 -0.441	  0.408	  0.162	  0.017	 -9.786	 -0.003	  0.002	  0.001	 31.500	 99.947	 -99999.000

19204	 -0.327	 -0.427	  0.407	  0.135	  0.022	 -9.760	 -0.003	  0.002	  0.002	 31.500	 99.958	 -99999.000

19254	 -0.326	 -0.440	  0.409	  0.166	  0.027	 -9.737	 -0.003	  0.002	  0.001	 31.500	 99.947	 -99999.000

19304	 -0.327	 -0.439	  0.406	  0.152	  0.014	 -9.793	 -0.003	  0.003	  0.001	 31.500	 99.947	 -99999.000

19355	 -0.326	 -0.434	  0.404	  0.172	  0.006	 -9.781	 -0.005	  0.002	  0.001	 31.500	 99.947	 -99999.000

19404	 -0.327	 -0.444	  0.404	  0.166	  0.002	 -9.743	 -0.003	  0.003	  0.000	 31.500	 99.947	 -99999.000

19455	 -0.327	 -0.437	  0.404	  0.147	  0.016	 -9.733	 -0.003	  0.004	  0.001	 31.500	 99.947	 -99999.000

19505	 -0.325	 -0.441	  0.410	  0.159	 -0.005	 -9.767	 -0.003	  0.002	  0.000	 31.500	 99.947	 -99999.000

19555	 -0.325	 -0.439	  0.406	  0.147	  0.027	 -9.759	 -0.003	  0.003	  0.001	 31.500	 99.947	 -99999.000

19605	 -0.327	 -0.444	  0.403	  0.162	  0.019	 -9.766	 -0.004	  0.002	  0.000	 31.500	 99.947	 -99999.000

19655	 -0.327	 -0.442	  0.406	  0.134	  0.000	 -9.776	 -0.003	  0.002	  0.001	 31.500	 99.947	 -99999.000

19705	 -0.325	 -0.435	  0.406	  0.146	  0.019	 -9.702	 -0.004	  0.002	  0.001	 31.500	 99.947	 -99999.000

19755	 -0.323	 -0.438	  0.405	  0.145	  0.003	 -9.771	 -0.004	  0.002	  0.000	 31.500	 99.947	 -99999.000

19805	 -0.326	 -0.438	  0.406	  0.180	  0.030	 -9.756	 -0.004	  0.001	 -0.000	 31.500	 99.943	 -99999.000

19854	 -0.325	 -0.442	  0.409	  0.143	  0.017	 -9.770	 -0.002	  0.002	  0.001	 31.500	 99.947	 -99999.000

19905	 -0.324	 -0.443	  0.404	  0.169	  0.019	 -9.739	 -0.004	  0.001	 -0.000	 31.500	 99.943	 -99999.000

19955	 -0.328	 -0.443	  0.405	  0.145	  0.015	 -9.786	 -0.004	  0.002	  0.001	 31.500	 99.947	 -99999.000

20005	 -0.327	 -0.438	  0.400	  0.174	  0.022	 -9.765	 -0.003	  0.003	  0.001	 31.500	 99.935	 -99999.000

20055	 -0.325	 -0.441	  0.404	  0.158	 -0.001	 -9.739	 -0.004	  0.002	  0.001	 31.500	 99.947	 -99999.000

20105	 -0.325	 -0.439	  0.404	  0.161	  0.019	 -9.742	 -0.004	  0.003	  0.000	 31.500	 99.947	 -99999.000

20155	 -0.331	 -0.444	  0.399	  0.158	  0.025	 -9.745	 -0.004	  0.003	  0.001	 31.500	 99.947	 -99999.000

20205	 -0.327	 -0.438	  0.406	  0.157	  0.004	 -9.749	 -0.003	  0.004	  0.002	 31.500	 99.935	 -99999.000

20255	 -0.328	 -0.442	  0.405	  0.141	 -0.004	 -9.765	 -0.004	  0.002	  0.001	 31.500	 99.943	 -99999.000

20305	 -0.324	 -0.440	  0.406	  0.142	  0.029	 -9.735	 -0.004	  0.002	  0.000	 31.500	 99.958	 -99999.000

20355	 -0.329	 -0.427	  0.406	  0.161	  0.016	 -9.768	 -0.003	  0.001	  0.001	 31.500	 99.947	 -99999.000

20405	 -0.328	 -0.440	  0.405	  0.158	  0.017	 -9.787	 -0.003	  0.002	  0.001	 31.500	 99.931	 -99999.000

20455	 -0.326	 -0.437	  0.403	  0.144	  0.016	 -9.750	 -0.003	  0.004	  0.000	 31.500	 99.947	 -99999.000

20505	 -0.326	 -0.440	  0.407	  0.156	  0.014	 -9.741	 -0.003	  0.003	 -0.001	 31.500	 99.947	 -99999.000

20555	 -0.325	 -0.439	  0.409	  0.153	  0.007	 -9.770	 -0.004	  0.003	  0.000	 31.500	 99.947	 -99999.000

20605	 -0.325	 -0.441	  0.405	  0.149	  0.016	 -9.741	 -0.004	  0.002	  0.000	 31.500	 99.935	 -99999.000

20655	 -0.326	 -0.439	  0.406	  0.150	 -0.001	 -9.743	 -0.004	  0.003	  0.000	 31.500	 99.935	 -99999.000

20705	 -0.326	 -0.438	  0.409	  0.172	  0.040	 -9.793	 -0.004	  0.003	  0.001	 31.500	 99.947	 -99999.000

20755	 -0.327	 -0.436	  0.406	  0.143	  0.009	 -9.776	 -0.002	  0.003	  0.000	 31.500	 99.954	 -99999.000

20805	 -0.327	 -0.440	  0.407	  0.183	 -0.005	 -9.721	 -0.003	  0.003	 -0.000	 31.500	 99.947	 -99999.000

20855	 -0.325	 -0.438	  0.404	  0.141	  0.022	 -9.776	 -0.004	  0.001	  0.000	 31.500	 99.947	 -99999.000

20905	 -0.327	 -0.438	  0.405	  0.162	  0.007	 -9.725	 -0.004	  0.003	  0.000	 31.500	 99.947	 -99999.000

20955	 -0.326	 -0.433	  0.405	  0.184	  0.005	 -9.786	 -0.003	  0.001	  0.000	 31.500	 99.935	 -99999.000

21005	 -0.327	 -0.441	  0.406	  0.162	  0.023	 -9.766	 -0.003	  0.002	  0.001	 31.500	 99.958	 -99999.000

21055	 -0.327	 -0.442	  0.405	  0.148	  0.013	 -9.749	 -0.003	  0.003	 -0.000	 31.500	 99.935	 -99999.000

21105	 -0.328	 -0.442	  0.405	  0.147	 -0.002	 -9.742	 -0.003	  0.003	  0.000	 31.500	 99.947	 -99999.000

21155	 -0.328	 -0.438	  0.406	  0.173	  0.017	 -9.726	 -0.003	  0.002	 -0.000	 31.500	 99.947	 -99999.000

21205	 -0.325	 -0.433	  0.405	  0.151	  0.005	 -9.752	 -0.003	  0.004	  0.001	 31.500	 99.947	 -99999.000

21255	 -0.327	 -0.442	  0.407	  0.160	  0.020	 -9.755	 -0.004	  0.002	  0.001	 31.500	 99.947	 -99999.000

21305	 -0.328	 -0.440	  0.408	  0.177	 -0.001	 -9.783	 -0.003	  0.003	  0.001	 31.500	 99.947	 -99999.000

21355	 -0.327	 -0.439	  0.406	  0.138	 -0.013	 -9.764	 -0.002	  0.002	  0.000	 31.500	 99.947	 -99999.000

21405	 -0.325	 -0.430	  0.406	  0.168	  0.003	 -9.753	 -0.004	  0.001	  0.001	 31.500	 99.935	 -99999.000

21455	 -0.328	 -0.442	  0.407	  0.133	  0.002	 -9.778	 -0.004	  0.003	  0.002	 31.500	 99.947	 -99999.000

21505	 -0.326	 -0.439	  0.406	  0.143	  0.007	 -9.771	 -0.004	  0.003	  0.001	 31.500	 99.947	 -99999.000

21555	 -0.328	 -0.439	  0.397	  0.156	  0.044	 -9.767	 -0.004	  0.003	  0.001	 31.500	 99.935	 -99999.000

21605	 -0.328	 -0.441	  0.408	  0.155	  0.028	 -9.734	 -0.004	  0.003	  0.001	 31.500	 99.947	 -99999.000

21655	 -0.327	 -0.434	  0.405	  0.141	 -0.008	 -9.721	 -0.006	  0.003	 -0.001	 31.500	 99.947	 -99999.000

21705	 -0.328	 -0.441	  0.408	  0.131	  0.002	 -9.721	 -0.004	  0.002	  0.000	 31.500	 99.951	 -99999.000

21755	 -0.325	 -0.437	  0.404	  0.155	  0.022	 -9.745	 -0.003	  0.001	  0.002	 31.500	 99.947	 -99999.000

21805	 -0.325	 -0.440	  0.402	  0.140	  0.029	 -9.763	 -0.003	  0.003	  0.001	 31.500	 99.947	 -99999.000

21855	 -0.326	 -0.436	  0.403	  0.155	  0.012	 -9.758	 -0.004	  0.003	  0.001	 31.500	 99.958	 -99999.000

21905	 -0.327	 -0.440	  0.405	  0.149	  0.019	 -9.773	 -0.004	  0.003	  0.001	 31.500	 99.947	 -99999.000

21955	 -0.326	 -0.442	  0.406	  0.141	  0.004	 -9.728	 -0.004	  0.004	  0.001	 31.500	 99.935	 -99999.000

22005	 -0.328	 -0.441	  0.407	  0.159	  0.025	 -9.756	 -0.004	  0.003	 -0.001	 31.500	 99.958	 -99999.000

22055	 -0.326	 -0.440	  0.406	  0.141	  0.006	 -9.780	 -0.004	  0.003	  0.001	 31.500	 99.943	 -99999.000

22105	 -0.326	 -0.438	  0.406	  0.183	  0.047	 -9.794	 -0.003	  0.002	  0.001	 31.500	 99.947	 -99999.000

22155	 -0.325	 -0.439	  0.403	  0.160	 -0.005	 -9.802	 -0.003	  0.002	  0.000	 31.500	 99.947	 -99999.000

22205	 -0.326	 -0.440	  0.406	  0.154	  0.035	 -9.754	 -0.003	  0.002	  0.001	 31.500	 99.935	 -99999.000

22255	 -0.329	 -0.442	  0.408	  0.150	  0.030	 -9.730	 -0.004	  0.003	  0.001	 31.500	 99.947	 -99999.000

22305	 -0.326	 -0.442	  0.402	  0.153	 -0.010	 -9.756	 -0.003	  0.003	  0.001	 31.500	 99.951	 -99999.000

22355	 -0.326	 -0.438	  0.406	  0.178	  0.034	 -9.806	 -0.003	  0.002	  0.000	 31.500	 99.947	 -99999.000

22405	 -0.328	 -0.441	  0.410	  0.153	  0.010	 -9.727	 -0.003	  0.002	  0.000	 31.500	 99.947	 -99999.000

22454	 -0.326	 -0.443	  0.407	  0.177	  0.019	 -9.742	 -0.004	  0.001	  0.001	 31.500	 99.951	 -99999.000

22505	 -0.325	 -0.434	  0.404	  0.140	  0.002	 -9.784	 -0.003	  0.002	  0.000	 31.500	 99.947	 -99999.000

22555	 -0.325	 -0.443	  0.405	  0.149	  0.020	 -9.773	 -0.005	  0.002	  0.000	 31.500	 99.947	 -99999.000

22605	 -0.325	 -0.438	  0.404	  0.158	  0.018	 -9.730	 -0.004	  0.002	  0.002	 31.500	 99.947	 -99999.000

22655	 -0.325	 -0.441	  0.406	  0.124	  0.021	 -9.744	 -0.005	  0.003	  0.002	 31.500	 99.947	 -99999.000

22705	 -0.329	 -0.441	  0.405	  0.128	  0.027	 -9.754	 -0.005	  0.001	 -0.000	 31.500	 99.947	 -99999.000

22755	 -0.326	 -0.434	  0.404	  0.145	 -0.003	 -9.743	 -0.004	  0.003	  0.001	 31.500	 99.947	 -99999.000

22805	 -0.326	 -0.444	  0.406	  0.155	  0.005	 -9.718	 -0.003	  0.003	  0.001	 31.500	 99.947	 -99999.000

22855	 -0.328	 -0.438	  0.404	  0.164	  0.002	 -9.748	 -0.004	  0.002	  0.001	 31.500	 99.943	 -99999.000

22904	 -0.330	 -0.443	  0.400	  0.143	  0.022	 -9.760	 -0.004	  0.001	  0.000	 31.500	 99.947	 -99999.000

22954	 -0.327	 -0.443	  0.407	  0.141	 -0.004	 -9.742	 -0.003	  0.001	 -0.000	 31.500	 99.951	 -99999.000

23004	 -0.326	 -0.431	  0.406	  0.163	  0.011	 -9.737	 -0.004	  0.001	  0.001	 31.500	 99.958	 -99999.000

23054	 -0.329	 -0.438	  0.406	  0.182	  0.032	 -9.735	 -0.004	  0.004	 -0.000	 31.500	 99.935	 -99999.000

23104	 -0.326	 -0.443	  0.406	  0.177	  0.021	 -9.749	 -0.003	  0.002	  0.001	 31.500	 99.935	 -99999.000

23154	 -0.326	 -0.440	  0.406	  0.151	  0.035	 -9.719	 -0.003	  0.003	  0.001	 31.500	 99.951	 -99999.000

23204	 -0.326	 -0.447	  0.410	  0.131	  0.014	 -9.729	 -0.004	  0.003	  0.001	 31.500	 99.935	 -99999.000

23254	 -0.327	 -0.440	  0.406	  0.148	  0.006	 -9.727	 -0.004	  0.003	  0.000	 31.500	 99.947	 -99999.000

23304	 -0.325	 -0.433	  0.403	  0.170	  0.023	 -9.759	 -0.003	  0.003	  0.002	 31.500	 99.947	 -99999.000

23354	 -0.327	 -0.438	  0.407	  0.149	  0.027	 -9.766	 -0.004	  0.001	 -0.000	 31.500	 99.935	 -99999.000

23404	 -0.327	 -0.437	  0.397	  0.154	  0.012	 -9.779	 -0.004	  0.003	  0.000	 31.500	 99.931	 -99999.000

23454	 -0.327	 -0.441	  0.405	  0.165	  0.001	 -9.749	 -0.004	  0.003	  0.000	 31.500	 99.947	 -99999.000

23504	 -0.328	 -0.438	  0.405	  0.151	  0.022	 -9.763	 -0.002	  0.002	  0.001	 31.500	 99.958	 -99999.000

23554	 -0.326	 -0.443	  0.403	  0.156	 -0.002	 -9.735	 -0.003	  0.004	  0.002	 31.500	 99.947	 -99999.000

23605	 -0.326	 -0.436	  0.404	  0.164	  0.022	 -9.775	 -0.005	  0.003	  0.000	 31.500	 99.947	 -99999.000

23654	 -0.325	 -0.429	  0.404	  0.158	  0.021	 -9.748	 -0.003	  0.004	  0.000	 31.500	 99.935	 -99999.000

23704	 -0.325	 -0.441	  0.404	  0.161	  0.017	 -9.785	 -0.003	  0.003	  0.000	 31.500	 99.935	 -99999.000

23754	 -0.328	 -0.442	  0.402	  0.165	  0.012	 -9.738	 -0.003	  0.003	  0.000	 31.500	 99.947	 -99999.000

23804	 -0.326	 -0.439	  0.404	  0.171	  0.012	 -9.796	 -0.003	  0.002	  0.001	 31.500	 99.947	 -99999.000

23855	 -0.330	 -0.442	  0.406	  0.143	  0.013	 -9.763	 -0.003	  0.002	  0.001	 31.500	 99.947	 -99999.000

23904	 -0.327	 -0.442	  0.407	  0.143	 -0.015	 -9.746	 -0.004	  0.003	 -0.000	 31.500	 99.935	 -99999.000

23954	 -0.326	 -0.439	  0.405	  0.139	  0.032	 -9.726	 -0.004	  0.002	 -0.000	 31.500	 99.947	 -99999.000

24004	 -0.326	 -0.443	  0.410	  0.150	  0.017	 -9.728	 -0.003	  0.003	  0.001	 31.500	 99.935	 -99999.000

24054	 -0.324	 -0.436	  0.406	  0.167	  0.011	 -9.724	 -0.004	  0.003	 -0.000	 31.500	 99.928	 -99999.000

24104	 -0.326	 -0.440	  0.407	  0.167	  0.017	 -9.744	 -0.002	  0.002	  0.001	 31.500	 99.947	 -99999.000

24154	 -0.323	 -0.424	  0.409	  0.141	  0.008	 -9.762	 -0.003	  0.001	  0.003	 31.500	 99.947	 -99999.000

24204	 -0.324	 -0.441	  0.407	  0.159	 -0.003	 -9.769	 -0.003	  0.002	  0.002	 31.500	 99.947	 -99999.000

24254	 -0.326	 -0.440	  0.405	  0.142	  0.009	 -9.745	 -0.004	  0.002	  0.001	 31.500	 99.947	 -99999.000

27005	 -0.330	 -0.440	  0.407	  0.163	 -0.001	 -9.709	 -0.004	  0.003	  0.001	 31.500	 99.951	 -0.545

27055	 -0.325	 -0.441	  0.406	  0.134	  0.019	 -9.758	 -0.004	  0.002	  0.002	 31.500	 99.935	  0.890

27105	 -0.329	 -0.438	  0.404	  0.147	  0.038	 -9.754	 -0.004	  0.003	  0.001	 31.500	 99.935	  0.890

27155	 -0.327	 -0.439	  0.407	  0.153	  0.020	 -9.761	 -0.004	  0.003	  0.001	 31.500	 99.947	 -0.186

27205	 -0.327	 -0.442	  0.409	  0.154	  0.029	 -9.777	 -0.003	  0.002	  0.000	 31.500	 99.947	 -0.186

27255	 -0.327	 -0.437	  0.404	  0.153	  0.007	 -9.748	 -0.002	  0.003	 -0.000	 31.500	 99.940	  0.441

27305	 -0.326	 -0.437	  0.407	  0.149	  0.022	 -9.798	 -0.003	  0.003	  0.002	 31.500	 99.940	  0.441

27355	 -0.324	 -0.441	  0.408	  0.133	  0.002	 -9.734	 -0.003	  0.002	  0.001	 31.500	 99.951	 -0.545

27405	 -0.327	 -0.439	  0.406	  0.150	  0.007	 -9.759	 -0.004	  0.002	  0.002	 31.500	 99.940	  0.441

27455	 -0.327	 -0.437	  0.405	  0.166	  0.021	 -9.772	 -0.003	  0.003	 -0.000	 31.500	 99.935	  0.890

27505	 -0.325	 -0.444	  0.408	  0.146	  0.002	 -9.778	 -0.003	  0.001	  0.000	 31.500	 99.940	  0.441

27555	 -0.327	 -0.439	  0.406	  0.173	  0.015	 -9.745	 -0.002	  0.002	  0.001	 31.500	 99.951	 -0.545

27604	 -0.327	 -0.442	  0.406	  0.163	 -0.001	 -9.782	 -0.003	  0.003	 -0.001	 31.500	 99.962	 -1.531

27654	 -0.326	 -0.441	  0.407	  0.172	  0.043	 -9.729	 -0.002	  0.002	  0.001	 31.500	 99.940	  0.441

27704	 -0.329	 -0.436	  0.404	  0.156	 -0.023	 -9.762	 -0.004	  0.002	  0.001	 31.500	 99.940	  0.441

27754	 -0.326	 -0.442	  0.406	  0.161	  0.018	 -9.763	 -0.004	  0.003	  0.001	 31.500	 99.951	 -0.545

27804	 -0.327	 -0.443	  0.402	  0.140	  0.013	 -9.780	 -0.003	  0.002	  0.000	 31.500	 99.947	 -0.186

27854	 -0.327	 -0.444	  0.407	  0.146	  0.007	 -9.733	 -0.004	  0.002	  0.000	 31.500	 99.947	 -0.186

27904	 -0.326	 -0.442	  0.403	  0.141	  0.016	 -9.749	 -0.004	  0.003	  0.002	 31.500	 99.951	 -0.545

27954	 -0.329	 -0.441	  0.405	  0.159	  0.013	 -9.743	 -0.004	  0.002	  0.000	 31.500	 99.940	  0.441

28004	 -0.327	 -0.439	  0.404	  0.171	  0.024	 -9.742	 -0.004	  0.002	  0.001	 31.500	 99.947	 -0.186

28054	 -0.328	 -0.440	  0.407	  0.174	  0.028	 -9.751	 -0.003	  0.003	  0.002	 31.500	 99.951	 -0.545

28105	 -0.326	 -0.438	  0.405	  0.124	 -0.024	 -9.740	 -0.003	  0.001	  0.001	 31.500	 99.947	 -0.186

28154	 -0.328	 -0.440	  0.408	  0.167	  0.041	 -9.758	 -0.004	  0.003	  0.001	 31.500	 99.951	 -0.545

28204	 -0.327	 -0.441	  0.407	  0.164	  0.007	 -9.729	 -0.003	  0.002	 -0.001	 31.500	 99.947	 -0.186

28254	 -0.325	 -0.441	  0.408	  0.636	 -0.295	 -9.861	 -0.001	  0.005	  0.029	 31.500	 99.951	 -0.545

28304	 -0.333	 -0.436	  0.405	  1.453	 -0.044	 -9.595	 -0.265	  0.033	  0.195	 31.500	 99.940	  0.441

28354	 -0.330	 -0.432	  0.405	 -0.174	 -1.003	 -10.560	 -0.003	 -0.031	 -0.013	 31.500	 99.947	 -0.186

28404	 -0.330	 -0.437	  0.410	 -0.191	 -0.779	 -10.960	  0.010	  0.013	  0.020	 31.500	 99.947	 -0.186

28454	 -0.329	 -0.438	  0.402	  0.379	  0.444	 -9.867	 -0.097	  0.018	 -0.103	 31.500	 99.947	 -0.186

28504	 -0.322	 -0.437	  0.411	  0.588	 -0.174	 -10.393	  0.286	 -0.615	 -0.059	 31.500	 99.951	 -0.545

28554	 -0.318	 -0.435	  0.402	 -0.826	 -1.363	 -9.119	 -0.378	  0.150	  0.288	 31.500	 99.947	 -0.186

28604	 -0.317	 -0.444	  0.409	 -1.628	 -0.884	 -11.438	 -0.344	 -0.651	  0.473	 31.500	 99.951	 -0.545

28654	 -0.263	 -0.465	  0.396	 -6.375	 -0.191	 -10.765	 -1.896	 -1.704	  0.300	 31.500	 99.947	 -0.186

28704	 -0.296	 -0.476	  0.389	  5.056	  1.336	 -7.390	 -0.019	  4.120	  0.180	 31.500	 99.940	  0.441

28754	 -0.337	 -0.458	  0.379	 -1.492	 -0.475	 -13.956	  0.462	 -2.698	 -0.424	 31.500	 99.947	 -0.186

28804	 -0.311	 -0.480	  0.382	  2.648	  2.210	 -11.460	 -2.513	  2.455	  1.313	 31.500	 99.940	  0.441

28854	 -0.361	 -0.468	  0.332	 -0.133	 -2.359	  0.564	  2.523	  0.120	 -0.967	 31.500	 99.951	 -0.545

28904	 -0.345	 -0.459	  0.378	  1.603	  5.302	 -18.714	 -0.993	  0.034	  0.973	 31.500	 99.951	 -0.545

28954	 -0.381	 -0.461	  0.348	 -0.907	 -0.644	 -5.669	  0.218	  0.036	 -0.002	 31.500	 99.940	  0.441

29004	 -0.368	 -0.471	  0.351	  5.077	  2.811	 -11.438	 -1.480	  0.548	  0.501	 31.500	 99.940	  0.441

29054	 -0.388	 -0.460	  0.349	 -3.033	 -1.814	 -10.457	  2.195	 -0.850	 -0.150	 31.500	 99.947	 -0.186

29104	 -0.377	 -0.449	  0.365	  3.695	  5.045	 -9.651	 -0.685	  2.015	  0.568	 31.500	 99.935	  0.890

29154	 -0.424	 -0.435	  0.347	  0.120	 -4.622	 -5.338	  0.486	 -1.869	  0.220	 31.500	 99.940	  0.441

29204	 -0.408	 -0.422	  0.368	  4.266	  5.727	 -15.360	 -1.183	  2.133	  0.659	 31.500	 99.935	  0.890

29254	 -0.436	 -0.437	  0.336	 -1.398	  2.958	 -5.835	  0.463	 -2.359	 -0.133	 31.500	 99.947	 -0.186

29304	 -0.427	 -0.427	  0.358	  3.858	  5.247	 -9.096	  0.615	  2.379	  0.827	 31.500	 99.940	  0.441

29354	 -0.437	 -0.399	  0.375	 -1.392	 -2.317	 -18.558	  0.305	 -1.732	 -0.275	 31.500	 99.951	 -0.545

29404	 -0.445	 -0.428	  0.333	  5.030	 -0.673	  4.955	 -1.616	  1.953	  1.464	 31.500	 99.935	  0.890

29454	 -0.431	 -0.418	  0.365	  0.136	  1.507	 -20.770	  0.995	 -2.688	 -1.649	 31.500	 99.940	  0.441

29504	 -0.439	 -0.421	  0.340	 -2.757	 -0.004	  1.368	 -0.736	  0.885	  1.211	 31.500	 99.947	 -0.186

29554	 -0.402	 -0.442	  0.366	  3.954	  4.552	 -24.213	 -0.902	 -0.082	 -0.785	 31.500	 99.935	  0.890

29604	 -0.439	 -0.458	  0.301	  1.521	 -0.294	  4.851	 -0.272	  0.655	  1.221	 31.500	 99.940	  0.441

29654	 -0.422	 -0.430	  0.348	  2.977	  4.438	 -21.735	  1.640	  0.648	 -0.560	 31.500	 99.940	  0.441

29704	 -0.465	 -0.417	  0.299	  2.005	 -1.876	  5.145	 -0.648	  0.565	  0.746	 31.500	 99.935	  0.890

29754	 -0.444	 -0.391	  0.372	  3.158	  2.140	 -21.640	  2.065	 -0.295	 -0.318	 31.500	 99.940	  0.441

29804	 -0.471	 -0.374	  0.343	  0.565	 -2.805	  1.796	 -0.627	 -0.436	  0.134	 31.500	 99.951	 -0.545

29854	 -0.455	 -0.381	  0.377	  5.779	  0.184	 -25.262	 -0.602	  0.824	  0.866	 31.500	 99.951	 -0.545

29904	 -0.475	 -0.395	  0.324	  0.667	 -1.503	  8.259	  0.258	 -0.016	 -1.067	 31.500	 99.935	  0.890

29954	 -0.477	 -0.387	  0.346	  6.129	 -0.834	 -18.578	  0.101	  1.104	  1.567	 31.500	 99.951	 -0.545

30004	 -0.490	 -0.358	  0.352	  0.467	 -4.032	 -7.091	  1.005	 -1.519	 -1.179	 31.500	 99.947	 -0.186

30055	 -0.490	 -0.370	  0.345	  5.845	 -0.461	 -13.070	 -1.714	  1.473	  1.873	 31.500	 99.951	 -0.545

30105	 -0.478	 -0.375	  0.339	  0.693	 -0.892	 -8.269	  1.177	 -0.997	 -2.810	 31.500	 99.947	 -0.186

30155	 -0.485	 -0.394	  0.322	  7.884	 -2.097	 -12.731	 -2.029	  1.485	  2.319	 31.500	 99.947	 -0.186

30204	 -0.489	 -0.390	  0.313	  1.295	 -0.496	 -3.650	  1.234	 -1.137	 -1.364	 31.500	 99.947	 -0.186

30255	 -0.478	 -0.396	  0.325	  3.008	 -0.735	 -10.125	 -0.727	  0.440	  0.100	 31.500	 99.951	 -0.545

30304	 -0.476	 -0.409	  0.314	  2.181	  0.780	 -9.615	 -1.322	 -0.850	  0.173	 31.500	 99.951	 -0.545

30355	 -0.469	 -0.447	  0.295	  3.204	  0.555	 -4.492	 -1.048	 -0.224	 -1.306	 31.500	 99.951	 -0.545

30405	 -0.449	 -0.467	  0.310	  1.434	  2.410	 -9.711	  0.839	 -0.739	 -1.110	 31.500	 99.940	  0.441

30454	 -0.449	 -0.452	  0.345	  1.029	 -1.277	 -9.769	  0.731	 -1.381	 -0.031	 31.500	 99.940	  0.441

30505	 -0.441	 -0.440	  0.372	  1.441	  0.347	 -12.071	  0.271	 -0.228	 -0.136	 31.500	 99.935	  0.890

30555	 -0.434	 -0.444	  0.370	  1.792	  0.328	 -8.134	 -0.046	  0.015	 -0.506	 31.500	 99.951	 -0.545

30605	 -0.419	 -0.445	  0.381	  1.285	  1.091	 -8.369	  0.574	 -0.680	 -0.537	 31.500	 99.951	 -0.545

30655	 -0.404	 -0.436	  0.405	  0.718	  0.819	 -10.279	  0.631	 -0.873	 -0.391	 31.500	 99.940	  0.441

30705	 -0.382	 -0.429	  0.425	  1.285	  0.195	 -9.893	  0.148	 -1.064	 -0.215	 31.500	 99.940	  0.441

30755	 -0.368	 -0.413	  0.440	 -0.867	  0.832	 -10.160	  0.510	  0.043	 -0.046	 31.500	 99.947	 -0.186

30805	 -0.375	 -0.412	  0.433	  0.453	  0.025	 -9.836	  0.096	  0.065	  0.084	 31.500	 99.947	 -0.186

30855	 -0.377	 -0.410	  0.445	  0.017	  0.282	 -9.414	  0.236	  0.059	 -0.028	 31.500	 99.940	  0.441

30905	 -0.383	 -0.410	  0.444	 -0.211	  0.040	 -9.993	 -0.005	 -0.023	  0.004	 31.500	 99.940	  0.441

30955	 -0.381	 -0.409	  0.444	  0.020	  0.025	 -9.940	 -0.004	 -0.004	  0.001	 31.500	 99.951	 -0.545

31005	 -0.379	 -0.407	  0.444	  0.118	  0.050	 -9.727	 -0.004	  0.007	 -0.000	 31.500	 99.951	 -0.545

31055	 -0.380	 -0.409	  0.442	  0.119	  0.036	 -9.732	 -0.005	  0.000	  0.001	 31.500	 99.940	  0.441

31105	 -0.379	 -0.408	  0.444	  0.129	  0.033	 -9.737	 -0.003	  0.003	  0.000	 31.500	 99.940	  0.441

31155	 -0.382	 -0.394	  0.445	  0.112	  0.034	 -9.757	 -0.004	  0.001	  0.001	 31.500	 99.951	 -0.545

31205	 -0.383	 -0.410	  0.443	  0.115	  0.060	 -9.774	 -0.004	  0.003	  0.000	 31.500	 99.951	 -0.545

31255	 -0.380	 -0.409	  0.443	  0.110	  0.068	 -9.752	 -0.003	  0.002	  0.002	 31.500	 99.935	  0.890

31305	 -0.383	 -0.412	  0.443	  0.111	  0.059	 -9.768	 -0.003	  0.002	  0.001	 31.500	 99.951	 -0.545

31355	 -0.382	 -0.409	  0.447	  0.110	  0.073	 -9.751	 -0.003	  0.001	 -0.000	 31.500	 99.947	 -0.186

31405	 -0.383	 -0.411	  0.445	  0.133	  0.061	 -9.751	 -0.002	  0.001	  0.002	 31.500	 99.951	 -0.545

31455	 -0.382	 -0.405	  0.443	  0.112	  0.062	 -9.758	 -0.003	  0.002	  0.001	 31.500	 99.940	  0.441

31505	 -0.381	 -0.406	  0.441	  0.107	  0.057	 -9.751	 -0.003	  0.003	  0.001	 31.500	 99.940	  0.441

31555	 -0.382	 -0.411	  0.442	  0.122	  0.064	 -9.768	 -0.003	  0.002	  0.000	 31.500	 99.951	 -0.545

31605	 -0.381	 -0.410	  0.446	  0.126	  0.053	 -9.770	 -0.004	  0.002	  0.001	 31.500	 99.940	  0.441

31655	 -0.380	 -0.406	  0.446	  0.105	  0.045	 -9.769	 -0.004	  0.002	 -0.000	 31.500	 99.940	  0.441

31705	 -0.381	 -0.406	  0.438	  0.103	  0.048	 -9.754	 -0.004	  0.003	  0.001	 31.500	 99.951	 -0.545

31755	 -0.379	 -0.401	  0.444	  0.118	  0.057	 -9.797	 -0.004	  0.003	  0.000	 31.500	 99.940	  0.441

31805	 -0.382	 -0.400	  0.435	  0.111	  0.062	 -9.742	 -0.003	  0.002	  0.000	 31.500	 99.951	 -0.545

31855	 -0.381	 -0.410	  0.436	  0.137	  0.090	 -9.741	 -0.004	  0.002	 -0.000	 31.500	 99.951	 -0.545

31905	 -0.382	 -0.405	  0.435	  0.122	  0.047	 -9.754	 -0.003	  0.003	  0.001	 31.500	 99.951	 -0.545

31955	 -0.382	 -0.410	  0.449	  0.109	  0.045	 -9.769	 -0.003	  0.002	  0.001	 31.500	 99.935	  0.890

32005	 -0.380	 -0.406	  0.445	  0.111	  0.062	 -9.778	 -0.004	  0.001	  0.000	 31.500	 99.940	  0.441

32055	 -0.381	 -0.411	  0.445	  0.125	  0.055	 -9.752	 -0.003	  0.002	  0.001	 31.500	 99.935	  0.890

32105	 -0.381	 -0.411	  0.444	  0.127	  0.052	 -9.731	 -0.003	  0.002	  0.000	 31.500	 99.940	  0.441

32155	 -0.380	 -0.405	  0.441	  0.115	  0.049	 -9.716	 -0.004	  0.001	  0.001	 31.500	 99.947	 -0.186

32205	 -0.382	 -0.413	  0.444	  0.120	  0.041	 -9.758	 -0.003	  0.002	  0.002	 31.500	 99.940	  0.441

32255	 -0.383	 -0.406	  0.443	  0.127	  0.042	 -9.750	 -0.004	  0.002	  0.001	 31.500	 99.951	 -0.545

32305	 -0.381	 -0.408	  0.444	  0.125	  0.063	 -9.778	 -0.002	  0.002	  0.000	 31.500	 99.951	 -0.545

32355	 -0.381	 -0.405	  0.442	  0.126	  0.058	 -9.749	 -0.004	  0.004	  0.001	 31.500	 99.940	  0.441

32405	 -0.381	 -0.412	  0.441	  0.122	  0.056	 -9.752	 -0.004	  0.002	  0.001	 31.500	 99.951	 -0.545

32455	 -0.380	 -0.408	  0.444	  0.121	  0.053	 -9.770	 -0.003	  0.002	  0.001	 31.500	 99.940	  0.441

32505	 -0.379	 -0.407	  0.444	  0.116	  0.061	 -9.744	 -0.004	  0.002	 -0.000	 31.500	 99.951	 -0.545

32555	 -0.383	 -0.393	  0.443	  0.111	  0.049	 -9.759	 -0.002	  0.002	  0.001	 31.500	 99.940	  0.441

32605	 -0.381	 -0.408	  0.444	  0.121	  0.045	 -9.799	 -0.003	  0.002	  0.001	 31.500	 99.951	 -0.545

32655	 -0.380	 -0.407	  0.444	  0.113	  0.046	 -9.760	 -0.003	  0.003	  0.001	 31.500	 99.935	  0.890

32705	 -0.383	 -0.408	  0.443	  0.108	  0.066	 -9.737	 -0.003	  0.002	  0.001	 31.500	 99.940	  0.441

32755	 -0.383	 -0.411	  0.445	  0.116	  0.060	 -9.739	 -0.004	  0.003	  0.000	 31.500	 99.951	 -0.545

32805	 -0.382	 -0.404	  0.441	  0.096	  0.050	 -9.760	 -0.003	  0.002	 -0.001	 31.500	 99.951	 -0.545

32855	 -0.380	 -0.414	  0.443	  0.127	  0.053	 -9.738	 -0.004	  0.002	  0.001	 31.500	 99.940	  0.441

32905	 -0.384	 -0.407	  0.445	  0.130	  0.048	 -9.758	 -0.003	  0.004	  0.001	 31.500	 99.940	  0.441

32955	 -0.380	 -0.409	  0.446	  0.101	  0.075	 -9.762	 -0.003	  0.002	  0.000	 31.500	 99.940	  0.441

33005	 -0.383	 -0.405	  0.443	  0.142	  0.080	 -9.744	 -0.003	  0.002	  0.001	 31.500	 99.940	  0.441

33055	 -0.382	 -0.408	  0.435	  0.133	  0.057	 -9.755	 -0.003	  0.003	 -0.001	 31.500	 99.940	  0.441

33105	 -0.382	 -0.413	  0.442	  0.097	  0.058	 -9.774	 -0.003	  0.003	  0.001	 31.500	 99.951	 -0.545

33155	 -0.380	 -0.396	  0.442	  0.112	  0.061	 -9.754	 -0.003	  0.002	  0.001	 31.500	 99.928	  1.518

33205	 -0.380	 -0.410	  0.441	  0.115	  0.053	 -9.772	 -0.003	  0.001	  0.002	 31.500	 99.951	 -0.545

33255	 -0.379	 -0.410	  0.443	  0.099	  0.056	 -9.738	 -0.003	  0.003	  0.001	 31.500	 99.951	 -0.545

33305	 -0.380	 -0.409	  0.441	  0.116	  0.052	 -9.753	 -0.003	  0.003	  0.001	 31.500	 99.940	  0.441

33355	 -0.381	 -0.412	  0.445	  0.117	  0.045	 -9.747	 -0.004	  0.002	  0.001	 31.500	 99.955	 -0.904

33405	 -0.381	 -0.409	  0.445	  0.125	  0.060	 -9.770	 -0.002	  0.001	  0.000	 31.500	 99.940	  0.441

33455	 -0.380	 -0.397	  0.444	  0.116	  0.057	 -9.743	 -0.002	  0.002	  0.001	 31.500	 99.951	 -0.545

33505	 -0.384	 -0.407	  0.443	  0.126	  0.047	 -9.777	 -0.004	  0.003	  0.001	 31.500	 99.940	  0.441

33555	 -0.382	 -0.409	  0.446	  0.133	  0.058	 -9.759	 -0.003	  0.003	  0.000	 31.500	 99.928	  1.518

33605	 -0.380	 -0.408	  0.443	  0.118	  0.036	 -9.792	 -0.003	  0.003	  0.002	 31.500	 99.944	  0.083

33655	 -0.379	 -0.413	  0.444	  0.113	  0.056	 -9.726	 -0.003	  0.003	 -0.000	 31.500	 99.951	 -0.545

33705	 -0.383	 -0.405	  0.446	  0.121	  0.059	 -9.782	 -0.003	  0.002	  0.001	 31.500	 99.940	  0.441

33755	 -0.379	 -0.400	  0.443	  0.083	  0.037	 -9.735	 -0.003	  0.002	  0.000	 31.500	 99.928	  1.518

33805	 -0.383	 -0.406	  0.440	  0.100	  0.049	 -9.781	 -0.004	  0.002	 -0.001	 31.500	 99.940	  0.441

33855	 -0.382	 -0.408	  0.444	  0.120	  0.061	 -9.771	 -0.003	  0.002	  0.001	 31.500	 99.928	  1.518

33905	 -0.379	 -0.396	  0.444	  0.123	  0.038	 -9.734	 -0.003	  0.003	  0.001	 31.500	 99.940	  0.441

33955	 -0.381	 -0.408	  0.444	  0.116	  0.070	 -9.773	 -0.003	  0.003	  0.000	 31.500	 99.951	 -0.545

34005	 -0.380	 -0.412	  0.444	  0.114	  0.049	 -9.774	 -0.003	  0.003	  0.001	 31.500	 99.940	  0.441

34055	 -0.380	 -0.396	  0.434	  0.121	  0.060	 -9.771	 -0.004	  0.003	  0.001	 31.500	 99.940	  0.441

34105	 -0.380	 -0.413	  0.446	  0.109	  0.040	 -9.771	 -0.004	  0.001	  0.001	 31.500	 99.935	  0.890

34155	 -0.381	 -0.404	  0.437	  0.112	  0.050	 -9.741	 -0.004	  0.003	  0.001	 31.500	 99.940	  0.441

34205	 -0.379	 -0.407	  0.441	  0.099	  0.049	 -9.721	 -0.005	  0.002	  0.000	 31.500	 99.940	  0.441

34255	 -0.385	 -0.408	  0.440	  0.122	  0.038	 -9.743	 -0.004	  0.002	  0.000	 31.500	 99.940	  0.441

34305	 -0.382	 -0.410	  0.444	  0.132	  0.045	 -9.743	 -0.004	  0.002	  0.001	 31.500	 99.940	  0.441

34355	 -0.383	 -0.401	  0.437	  0.112	  0.037	 -9.779	 -0.003	  0.003	  0.001	 31.500	 99.940	  0.441

34404	 -0.382	 -0.410	  0.443	  0.111	  0.051	 -9.785	 -0.003	  0.002	 -0.000	 31.500	 99.928	  1.518

34455	 -0.384	 -0.409	  0.440	  0.097	  0.039	 -9.750	 -0.004	  0.003	  0.002	 31.500	 99.928	  1.518

34505	 -0.378	 -0.403	  0.441	  0.104	  0.041	 -9.730	 -0.004	  0.001	  0.002	 31.500	 99.947	 -0.186

34555	 -0.381	 -0.407	  0.444	  0.117	  0.041	 -9.786	 -0.003	  0.002	  0.002	 31.500	 99.940	  0.441

34605	 -0.384	 -0.406	  0.440	  0.125	  0.049	 -9.761	 -0.003	  0.004	  0.001	 31.500	 99.940	  0.441

34655	 -0.380	 -0.410	  0.446	  0.098	  0.046	 -9.768	 -0.003	  0.002	  0.001	 31.500	 99.940	  0.441

34704	 -0.378	 -0.407	  0.443	  0.113	  0.066	 -9.755	 -0.003	  0.002	  0.000	 31.500	 99.928	  1.518

34754	 -0.381	 -0.408	  0.444	  0.125	  0.048	 -9.722	 -0.005	  0.003	  0.001	 31.500	 99.944	  0.083

34804	 -0.380	 -0.408	  0.441	  0.135	  0.057	 -9.739	 -0.004	  0.003	  0.000	 31.500	 99.928	  1.518

34854	 -0.379	 -0.409	  0.441	  0.116	  0.052	 -9.769	 -0.004	  0.001	  0.000	 31.500	 99.940	  0.441

34905	 -0.380	 -0.409	  0.443	  0.122	  0.045	 -9.785	 -0.004	  0.003	  0.001	 31.500	 99.951	 -0.545

34955	 -0.383	 -0.407	  0.444	  0.130	  0.069	 -9.777	 -0.003	  0.002	  0.000	 31.500	 99.940	  0.441

35004	 -0.380	 -0.410	  0.442	  0.129	  0.020	 -9.760	 -0.003	  0.002	  0.001	 31.500	 99.940	  0.441

35054	 -0.380	 -0.395	  0.441	  0.129	  0.054	 -9.789	 -0.004	  0.002	  0.001	 31.500	 99.940	  0.441

35104	 -0.381	 -0.408	  0.444	  0.129	  0.066	 -9.741	 -0.003	  0.004	 -0.000	 31.500	 99.951	 -0.545

35154	 -0.382	 -0.406	  0.442	  0.123	  0.049	 -9.780	 -0.004	  0.002	  0.001	 31.500	 99.940	  0.441

35204	 -0.382	 -0.403	  0.440	  0.140	  0.062	 -9.777	 -0.003	  0.003	 -0.000	 31.500	 99.928	  1.518

35254	 -0.380	 -0.407	  0.441	  0.101	  0.044	 -9.771	 -0.004	  0.002	  0.001	 31.500	 99.940	  0.441

35304	 -0.380	 -0.410	  0.441	  0.108	  0.052	 -9.767	 -0.003	  0.003	  0.002	 31.500	 99.940	  0.441

35354	 -0.379	 -0.407	  0.443	  0.128	  0.065	 -9.767	 -0.004	  0.002	  0.001	 31.500	 99.940	  0.441

35405	 -0.380	 -0.411	  0.444	  0.113	  0.055	 -9.746	 -0.004	  0.002	 -0.000	 31.500	 99.951	 -0.545

35454	 -0.382	 -0.411	  0.443	  0.133	  0.057	 -9.723	 -0.004	  0.002	  0.001	 31.500	 99.951	 -0.545

35504	 -0.380	 -0.410	  0.442	  0.114	  0.053	 -9.735	 -0.003	  0.001	  0.001	 31.500	 99.940	  0.441

35554	 -0.381	 -0.396	  0.440	  0.122	  0.044	 -9.751	 -0.003	  0.003	  0.002	 31.500	 99.940	  0.441

35605	 -0.380	 -0.395	  0.436	  0.135	  0.081	 -9.765	 -0.004	  0.002	  0.001	 31.500	 99.951	 -0.545

35654	 -0.382	 -0.407	  0.444	  0.091	  0.061	 -9.740	 -0.003	  0.003	 -0.000	 31.500	 99.940	  0.441

35705	 -0.380	 -0.407	  0.440	  0.102	  0.054	 -9.760	 -0.004	  0.003	 -0.000	 31.500	 99.940	  0.441

35754	 -0.380	 -0.412	  0.445	  0.141	  0.039	 -9.726	 -0.004	  0.002	  0.002	 31.500	 99.940	  0.441

35805	 -0.379	 -0.410	  0.443	  0.111	  0.062	 -9.740	 -0.004	  0.002	 -0.000	 31.500	 99.935	  0.890

35855	 -0.380	 -0.409	  0.443	  0.124	  0.080	 -9.752	 -0.002	  0.002	  0.001	 31.500	 99.928	  1.518

35905	 -0.380	 -0.406	  0.437	  0.097	  0.061	 -9.783	 -0.003	  0.003	  0.001	 31.500	 99.940	  0.441

35954	 -0.379	 -0.408	  0.443	  0.121	  0.057	 -9.746	 -0.003	  0.002	  0.001	 31.500	 99.955	 -0.904

36005	 -0.382	 -0.399	  0.444	  0.121	  0.041	 -9.791	 -0.004	  0.002	  0.001	 31.500	 99.944	  0.083

36055	 -0.381	 -0.405	  0.447	  0.101	  0.061	 -9.757	 -0.004	  0.001	  0.001	 31.500	 99.928	  1.518

36105	 -0.380	 -0.408	  0.440	  0.116	  0.049	 -9.753	 -0.004	  0.002	  0.000	 31.500	 99.924	  1.877

36155	 -0.380	 -0.406	  0.443	  0.088	  0.046	 -9.762	 -0.003	  0.002	  0.002	 31.500	 99.933	  1.070

36205	 -0.381	 -0.408	  0.438	  0.111	  0.060	 -9.751	 -0.002	  0.001	  0.000	 31.500	 99.940	  0.441

36255	 -0.380	 -0.408	  0.441	  0.108	  0.064	 -9.702	 -0.004	  0.002	  0.001	 31.500	 99.940	  0.441

36305	 -0.380	 -0.410	  0.445	  0.108	  0.052	 -9.736	 -0.003	  0.001	  0.001	 31.500	 99.951	 -0.545

36355	 -0.383	 -0.406	  0.439	  0.128	  0.069	 -9.733	 -0.003	  0.002	  0.002	 31.500	 99.940	  0.441

36405	 -0.380	 -0.409	  0.442	  0.106	  0.056	 -9.761	 -0.003	  0.002	  0.001	 31.500	 99.944	  0.083

36455	 -0.382	 -0.408	  0.445	  0.137	  0.032	 -9.737	 -0.003	  0.002	  0.001	 31.500	 99.940	  0.441

36505	 -0.379	 -0.411	  0.444	  0.109	  0.068	 -9.753	 -0.003	  0.002	  0.001	 31.500	 99.944	  0.083

36555	 -0.380	 -0.408	  0.444	  0.137	  0.034	 -9.746	 -0.003	  0.002	 -0.000	 31.500	 99.940	  0.441

36605	 -0.382	 -0.409	  0.447	  0.117	  0.040	 -9.781	 -0.004	  0.002	  0.001	 31.500	 99.924	  1.877

36655	 -0.381	 -0.409	  0.441	  0.114	  0.041	 -9.771	 -0.002	  0.002	  0.001	 31.500	 99.951	 -0.545

36705	 -0.380	 -0.405	  0.442	  0.115	  0.025	 -9.751	 -0.005	  0.002	  0.000	 31.500	 99.940	  0.441

36755	 -0.381	 -0.410	  0.446	  0.115	  0.066	 -9.766	 -0.004	  0.002	  0.001	 31.500	 99.951	 -0.545

36805	 -0.381	 -0.407	  0.442	  0.110	  0.021	 -9.722	 -0.004	  0.003	  0.001	 31.500	 99.940	  0.441

36855	 -0.382	 -0.413	  0.444	  0.100	  0.060	 -9.762	 -0.003	  0.002	  0.001	 31.500	 99.955	 -0.904

36905	 -0.382	 -0.392	  0.440	  0.129	  0.065	 -9.757	 -0.003	  0.003	  0.001	 31.500	 99.944	  0.083

36955	 -0.379	 -0.410	  0.444	  0.136	  0.060	 -9.768	 -0.004	  0.003	 -0.000	 31.500	 99.940	  0.441

37005	 -0.381	 -0.406	  0.446	  0.122	  0.055	 -9.769	 -0.003	  0.003	 -0.000	 31.500	 99.962	 -1.531

37055	 -0.381	 -0.410	  0.438	  0.114	  0.083	 -9.754	 -0.004	  0.002	  0.001	 31.500	 99.955	 -0.904

37105	 -0.381	 -0.412	  0.440	  0.121	  0.055	 -9.765	 -0.003	  0.003	  0.000	 31.500	 99.951	 -0.545

37155	 -0.381	 -0.409	  0.436	  0.109	  0.039	 -9.745	 -0.002	  0.002	  0.001	 31.500	 99.940	  0.441

37205	 -0.380	 -0.410	  0.438	  0.116	  0.028	 -9.759	 -0.003	  0.002	  0.001	 31.500	 99.944	  0.083

37255	 -0.384	 -0.407	  0.438	  0.123	  0.054	 -9.709	 -0.003	  0.003	  0.001	 31.500	 99.951	 -0.545

37305	 -0.380	 -0.402	  0.445	  0.110	  0.056	 -9.713	 -0.003	  0.003	  0.001	 31.500	 99.955	 -0.904

37355	 -0.382	 -0.408	  0.442	  0.101	  0.060	 -9.752	 -0.003	  0.003	 -0.000	 31.500	 99.940	  0.441

37405	 -0.383	 -0.407	  0.443	  0.100	  0.035	 -9.762	 -0.004	  0.003	  0.000	 31.500	 99.951	 -0.545

37455	 -0.380	 -0.407	  0.442	  0.111	  0.042	 -9.768	 -0.003	  0.004	  0.001	 31.500	 99.940	  0.441

37505	 -0.381	 -0.397	  0.444	  0.122	  0.067	 -9.765	 -0.005	  0.003	  0.001	 31.500	 99.940	  0.441

37555	 -0.381	 -0.409	  0.444	  0.097	  0.042	 -9.753	 -0.003	  0.003	  0.001	 31.500	 99.951	 -0.545

37605	 -0.385	 -0.405	  0.442	  0.131	  0.047	 -9.771	 -0.003	  0.002	  0.001	 31.500	 99.940	  0.441

37655	 -0.381	 -0.409	  0.441	  0.123	  0.037	 -9.765	 -0.003	  0.001	  0.001	 31.500	 99.940	  0.441

37705	 -0.381	 -0.408	  0.437	  0.112	  0.055	 -9.772	 -0.004	  0.003	 -0.000	 31.500	 99.944	  0.083

37755	 -0.378	 -0.413	  0.441	  0.121	  0.048	 -9.757	 -0.002	  0.002	  0.001	 31.500	 99.944	  0.083

37805	 -0.380	 -0.404	  0.435	  0.113	  0.037	 -9.769	 -0.003	  0.002	  0.000	 31.500	 99.951	 -0.545

37855	 -0.382	 -0.409	  0.441	  0.126	  0.044	 -9.776	 -0.003	  0.002	  0.002	 31.500	 99.940	  0.441

37905	 -0.383	 -0.406	  0.439	  0.115	  0.054	 -9.744	 -0.003	  0.002	  0.001	 31.500	 99.940	  0.441

37955	 -0.380	 -0.410	  0.444	  0.092	  0.046	 -9.759	 -0.004	  0.002	  0.001	 31.500	 99.951	 -0.545

38005	 -0.382	 -0.409	  0.441	  0.122	  0.034	 -9.732	 -0.002	  0.003	  0.000	 31.500	 99.962	 -1.531

38055	 -0.382	 -0.407	  0.441	  0.111	  0.045	 -9.745	 -0.003	  0.003	  0.002	 31.500	 99.944	  0.083

38105	 -0.383	 -0.409	  0.439	  0.104	  0.049	 -9.773	 -0.004	  0.003	  0.001	 31.500	 99.955	 -0.904

38155	 -0.383	 -0.407	  0.440	  0.120	  0.035	 -9.726	 -0.003	  0.002	 -0.000	 31.500	 99.940	  0.441

38205	 -0.381	 -0.412	  0.441	  0.115	  0.049	 -9.772	 -0.003	  0.001	  0.001	 31.500	 99.944	  0.083

38255	 -0.381	 -0.406	  0.443	  0.131	  0.055	 -9.742	 -0.003	  0.003	  0.001	 31.500	 99.944	  0.083

38305	 -0.379	 -0.406	  0.437	  0.141	  0.060	 -9.758	 -0.003	  0.002	  0.000	 31.500	 99.928	  1.518

38355	 -0.381	 -0.410	  0.438	  0.108	  0.043	 -9.771	 -0.004	  0.002	  0.002	 31.500	 99.951	 -0.545

38405	 -0.381	 -0.409	  0.445	  0.119	  0.058	 -9.813	 -0.003	  0.002	  0.001	 31.500	 99.951	 -0.545

38455	 -0.380	 -0.410	  0.438	  0.117	  0.062	 -9.758	 -0.003	  0.001	 -0.000	 31.500	 99.955	 -0.904

38505	 -0.382	 -0.402	  0.442	  0.114	  0.046	 -9.755	 -0.004	  0.003	  0.000	 31.500	 99.940	  0.441

38555	 -0.381	 -0.409	  0.444	  0.106	  0.036	 -9.728	 -0.004	  0.002	  0.001	 31.500	 99.951	 -0.545

38605	 -0.383	 -0.406	  0.437	  0.123	  0.042	 -9.723	 -0.003	  0.003	  0.001	 31.500	 99.951	 -0.545

38655	 -0.381	 -0.411	  0.442	  0.103	  0.072	 -9.744	 -0.003	  0.002	  0.000	 31.500	 99.940	  0.441

38705	 -0.381	 -0.408	  0.444	  0.108	  0.031	 -9.735	 -0.006	  0.003	  0.001	 31.500	 99.955	 -0.904

38755	 -0.381	 -0.410	  0.445	  0.113	  0.052	 -9.757	 -0.003	  0.002	  0.001	 31.500	 99.940	  0.441

38805	 -0.380	 -0.409	  0.443	  0.121	  0.024	 -9.757	 -0.003	  0.003	  0.000	 31.500	 99.955	 -0.904

38855	 -0.379	 -0.407	  0.442	  0.105	  0.046	 -9.779	 -0.003	  0.003	  0.001	 31.500	 99.944	  0.083

38905	 -0.380	 -0.411	  0.442	  0.118	  0.066	 -9.730	 -0.004	  0.004	  0.000	 31.500	 99.951	 -0.545

38955	 -0.382	 -0.409	  0.441	  0.134	  0.061	 -9.776	 -0.003	  0.002	  0.001	 31.500	 99.944	  0.083

39005	 -0.380	 -0.404	  0.444	  0.108	  0.032	 -9.758	 -0.003	  0.002	  0.001	 31.500	 99.955	 -0.904

39054	 -0.380	 -0.407	  0.443	  0.109	  0.048	 -9.763	 -0.003	  0.003	  0.001	 31.500	 99.944	  0.083

39104	 -0.380	 -0.410	  0.444	  0.103	  0.078	 -9.756	 -0.004	  0.002	  0.001	 31.500	 99.940	  0.441

39154	 -0.382	 -0.405	  0.435	  0.112	  0.047	 -9.755	 -0.003	  0.002	 -0.000	 31.500	 99.940	  0.441

39204	 -0.380	 -0.406	  0.442	  0.096	  0.058	 -9.742	 -0.003	  0.003	  0.002	 31.500	 99.951	 -0.545

39254	 -0.378	 -0.399	  0.441	  0.111	  0.038	 -9.794	 -0.004	  0.004	  0.002	 31.500	 99.951	 -0.545

39304	 -0.381	 -0.408	  0.445	  0.112	  0.076	 -9.766	 -0.003	  0.003	 -0.000	 31.500	 99.940	  0.441

39354	 -0.381	 -0.413	  0.446	  0.120	  0.059	 -9.784	 -0.003	  0.002	  0.002	 31.500	 99.940	  0.441

39404	 -0.383	 -0.405	  0.439	  0.117	  0.041	 -9.770	 -0.003	  0.002	  0.001	 31.500	 99.940	  0.441

39454	 -0.381	 -0.406	  0.444	  0.113	  0.043	 -9.775	 -0.004	  0.004	  0.001	 31.500	 99.944	  0.083

39504	 -0.382	 -0.406	  0.442	  0.114	  0.058	 -9.760	 -0.004	  0.003	  0.001	 31.500	 99.944	  0.083

39555	 -0.380	 -0.409	  0.442	  0.131	  0.058	 -9.766	 -0.003	  0.001	  0.001	 31.500	 99.955	 -0.904

39605	 -0.381	 -0.408	  0.441	  0.099	  0.068	 -9.764	 -0.003	  0.004	  0.000	 31.500	 99.940	  0.441

39654	 -0.382	 -0.411	  0.444	  0.113	  0.031	 -9.722	 -0.003	  0.002	 -0.000	 31.500	 99.951	 -0.545

39704	 -0.379	 -0.406	  0.442	  0.113	  0.053	 -9.774	 -0.003	  0.002	  0.002	 31.500	 99.940	  0.441

39754	 -0.383	 -0.408	  0.442	  0.125	  0.057	 -9.728	 -0.003	  0.001	  0.000	 31.500	 99.955	 -0.904

39804	 -0.382	 -0.410	  0.443	  0.124	  0.050	 -9.802	 -0.002	  0.002	 -0.000	 31.500	 99.951	 -0.545

39854	 -0.379	 -0.411	  0.441	  0.127	  0.063	 -9.743	 -0.004	  0.002	  0.001	 31.500	 99.944	  0.083

39904	 -0.381	 -0.409	  0.443	  0.130	  0.087	 -9.775	 -0.004	  0.003	  0.001	 31.500	 99.955	 -0.904

39954	 -0.380	 -0.411	  0.445	  0.141	  0.053	 -9.778	 -0.004	  0.002	 -0.000	 31.500	 99.951	 -0.545

40004	 -0.381	 -0.406	  0.443	  0.109	  0.040	 -9.734	 -0.004	  0.001	  0.002	 31.500	 99.955	 -0.904

40054	 -0.382	 -0.403	  0.441	  0.143	  0.057	 -9.771	 -0.004	  0.002	  0.000	 31.500	 99.944	  0.083

40104	 -0.383	 -0.408	  0.445	  0.114	  0.049	 -9.746	 -0.003	  0.002	  0.000	 31.500	 99.955	 -0.904

40154	 -0.382	 -0.410	  0.442	  0.123	  0.062	 -9.789	 -0.003	  0.002	  0.001	 31.500	 99.944	  0.083

40204	 -0.381	 -0.408	  0.443	  0.122	  0.046	 -9.745	 -0.004	  0.003	  0.000	 31.500	 99.944	  0.083

40254	 -0.379	 -0.405	  0.438	  0.123	  0.033	 -9.738	 -0.004	  0.002	  0.001	 31.500	 99.944	  0.083

40304	 -0.383	 -0.412	  0.443	  0.135	  0.035	 -9.750	 -0.004	  0.003	  0.001	 31.500	 99.940	  0.441

40354	 -0.382	 -0.412	  0.444	  0.120	  0.039	 -9.769	 -0.003	  0.001	  0.001	 31.500	 99.940	  0.441

40404	 -0.380	 -0.401	  0.438	  0.126	  0.063	 -9.768	 -0.003	  0.002	  0.000	 31.500	 99.940	  0.441

40454	 -0.379	 -0.408	  0.442	  0.155	  0.055	 -9.729	 -0.003	  0.002	  0.001	 31.500	 99.940	  0.441

40504	 -0.382	 -0.406	  0.446	  0.111	  0.041	 -9.752	 -0.005	  0.003	  0.000	 31.500	 99.940	  0.441

40554	 -0.381	 -0.407	  0.443	  0.126	  0.039	 -9.749	 -0.003	  0.002	  0.000	 31.500	 99.951	 -0.545

40604	 -0.381	 -0.411	  0.446	  0.113	  0.064	 -9.714	 -0.003	  0.002	  0.001	 31.500	 99.940	  0.441

40654	 -0.383	 -0.408	  0.442	  0.109	  0.069	 -9.760	 -0.004	  0.004	  0.001	 31.500	 99.944	  0.083

40704	 -0.381	 -0.409	  0.442	  0.115	  0.054	 -9.753	 -0.004	  0.002	 -0.001	 31.500	 99.955	 -0.904

40754	 -0.382	 -0.408	  0.435	  0.107	  0.070	 -9.789	 -0.004	  0.002	  0.001	 31.500	 99.940	  0.441

40804	 -0.381	 -0.406	  0.444	  0.113	  0.035	 -9.780	 -0.004	  0.001	  0.001	 31.500	 99.951	 -0.545

40854	 -0.380	 -0.406	  0.443	  0.098	  0.053	 -9.772	 -0.002	  0.002	  0.000	 31.500	 99.935	  0.890

40904	 -0.380	 -0.408	  0.443	  0.133	  0.062	 -9.786	 -0.005	  0.002	  0.000	 31.500	 99.940	  0.441

40954	 -0.379	 -0.409	  0.442	  0.111	  0.048	 -9.724	 -0.003	  0.002	  0.001	 31.500	 99.944	  0.083

41005	 -0.382	 -0.411	  0.443	  0.111	  0.054	 -9.749	 -0.004	  0.002	  0.001	 31.500	 99.944	  0.083

41054	 -0.381	 -0.407	  0.443	  0.093	  0.056	 -9.720	 -0.003	  0.003	  0.002	 31.500	 99.955	 -0.904

41105	 -0.379	 -0.405	  0.442	  0.089	  0.084	 -9.763	 -0.002	  0.002	  0.001	 31.500	 99.944	  0.083

41155	 -0.381	 -0.407	  0.441	  0.116	  0.044	 -9.758	 -0.004	  0.001	  0.001	 31.500	 99.940	  0.441

41205	 -0.380	 -0.410	  0.444	  0.115	  0.034	 -9.790	 -0.003	  0.002	  0.001	 31.500	 99.955	 -0.904

41255	 -0.383	 -0.399	  0.435	  0.128	  0.034	 -9.771	 -0.005	  0.003	  0.000	 31.500	 99.944	  0.083

41305	 -0.383	 -0.398	  0.436	  0.104	  0.033	 -9.755	 -0.004	  0.002	  0.001	 31.500	 99.955	 -0.904

41355	 -0.380	 -0.408	  0.443	  0.135	  0.058	 -9.780	 -0.004	  0.002	  0.002	 31.500	 99.944	  0.083

41405	 -0.380	 -0.411	  0.443	  0.099	  0.041	 -9.750	 -0.004	  0.003	  0.002	 31.500	 99.955	 -0.904

41455	 -0.382	 -0.408	  0.442	  0.112	  0.057	 -9.789	 -0.003	  0.002	  0.001	 31.500	 99.951	 -0.545

41505	 -0.381	 -0.408	  0.442	  0.113	  0.041	 -9.741	 -0.003	  0.002	  0.001	 31.500	 99.955	 -0.904

