Time	 MagX	 MagY	 MagZ	 AccelX	 AccelY	 AccelZ	 Yaw	 Pitch	 Roll	 Temperature	 Pressure	 Altitude
5276	 -0.444	 -0.288	  0.471	  0.118	  0.044	 -9.810	 -0.003	  0.002	  0.001	 33.100	 100.016	 -99999.000
5326	 -0.442	 -0.285	  0.470	  0.103	  0.041	 -9.731	 -0.003	  0.002	  0.001	 33.100	 100.016	 -99999.000
5376	 -0.442	 -0.287	  0.471	  0.149	  0.042	 -9.781	 -0.003	  0.003	  0.001	 33.100	 100.016	 -99999.000
5426	 -0.440	 -0.288	  0.470	  0.109	  0.025	 -9.788	 -0.003	  0.003	  0.001	 33.100	 100.004	 -99999.000
5476	 -0.443	 -0.286	  0.473	  0.112	  0.027	 -9.753	 -0.003	  0.001	  0.002	 33.100	 100.009	 -99999.000
5526	 -0.443	 -0.284	  0.470	  0.118	  0.048	 -9.727	 -0.003	  0.002	  0.002	 33.100	 100.016	 -99999.000
5576	 -0.443	 -0.289	  0.471	  0.121	  0.051	 -9.759	 -0.004	  0.003	  0.001	 33.100	 100.009	 -99999.000
5626	 -0.443	 -0.292	  0.467	  0.145	  0.038	 -9.807	 -0.003	  0.003	  0.001	 33.100	 100.020	 -99999.000
5676	 -0.442	 -0.289	  0.470	  0.127	  0.043	 -9.785	 -0.003	  0.004	  0.002	 33.100	 100.009	 -99999.000
5726	 -0.442	 -0.287	  0.470	  0.131	  0.049	 -9.736	 -0.003	  0.002	  0.001	 33.100	 100.020	 -99999.000
5776	 -0.441	 -0.288	  0.467	  0.116	  0.052	 -9.785	 -0.003	  0.002	  0.001	 33.100	 99.997	 -99999.000
5826	 -0.442	 -0.276	  0.473	  0.132	  0.032	 -9.761	 -0.003	  0.001	  0.001	 33.100	 100.020	 -99999.000
5876	 -0.444	 -0.286	  0.467	  0.113	  0.037	 -9.755	 -0.003	  0.002	  0.002	 33.100	 100.020	 -99999.000
5926	 -0.444	 -0.290	  0.471	  0.136	  0.045	 -9.756	 -0.003	  0.001	  0.001	 33.100	 100.020	 -99999.000
5976	 -0.441	 -0.292	  0.470	  0.113	  0.042	 -9.744	 -0.003	  0.003	  0.002	 33.100	 100.020	 -99999.000
6026	 -0.442	 -0.288	  0.471	  0.158	  0.051	 -9.771	 -0.003	  0.003	  0.000	 33.100	 100.009	 -99999.000
6076	 -0.440	 -0.275	  0.470	  0.143	  0.034	 -9.762	 -0.002	  0.003	  0.001	 33.100	 100.009	 -99999.000
6126	 -0.440	 -0.288	  0.468	  0.116	  0.015	 -9.763	 -0.003	  0.002	  0.001	 33.100	 100.020	 -99999.000
6176	 -0.441	 -0.288	  0.466	  0.093	  0.035	 -9.776	 -0.004	  0.001	  0.001	 33.100	 100.020	 -99999.000
6226	 -0.441	 -0.288	  0.472	  0.130	  0.042	 -9.749	 -0.003	  0.002	  0.000	 33.100	 100.016	 -99999.000
6276	 -0.442	 -0.290	  0.470	  0.141	  0.043	 -9.744	 -0.003	  0.002	 -0.000	 33.100	 100.009	 -99999.000
6326	 -0.441	 -0.278	  0.467	  0.106	  0.039	 -9.755	 -0.002	  0.003	  0.000	 33.100	 100.016	 -99999.000
6377	 -0.444	 -0.289	  0.468	  0.098	  0.058	 -9.756	 -0.004	  0.002	  0.001	 33.100	 100.016	 -99999.000
6426	 -0.444	 -0.287	  0.468	  0.138	  0.044	 -9.773	 -0.004	  0.002	  0.001	 33.100	 100.004	 -99999.000
6476	 -0.440	 -0.290	  0.470	  0.110	  0.049	 -9.784	 -0.004	  0.004	  0.001	 33.100	 100.004	 -99999.000
6526	 -0.442	 -0.286	  0.467	  0.136	  0.036	 -9.788	 -0.003	  0.002	  0.000	 33.100	 100.009	 -99999.000
6576	 -0.440	 -0.287	  0.470	  0.151	  0.040	 -9.757	 -0.004	  0.002	  0.001	 33.100	 100.016	 -99999.000
6626	 -0.445	 -0.293	  0.468	  0.123	  0.036	 -9.770	 -0.003	  0.003	  0.000	 33.100	 100.016	 -99999.000
6677	 -0.444	 -0.290	  0.468	  0.109	  0.068	 -9.783	 -0.003	  0.001	  0.002	 33.100	 100.020	 -99999.000
6727	 -0.444	 -0.286	  0.465	  0.118	  0.042	 -9.770	 -0.003	  0.002	  0.000	 33.100	 100.009	 -99999.000
6777	 -0.442	 -0.289	  0.468	  0.136	  0.055	 -9.779	 -0.003	  0.002	  0.002	 33.100	 100.009	 -99999.000
6827	 -0.439	 -0.287	  0.471	  0.123	  0.036	 -9.768	 -0.002	  0.002	  0.002	 33.100	 100.016	 -99999.000
6877	 -0.442	 -0.288	  0.463	  0.142	  0.035	 -9.737	 -0.003	  0.002	  0.002	 33.100	 100.020	 -99999.000
6927	 -0.443	 -0.286	  0.471	  0.147	  0.049	 -9.767	 -0.004	  0.002	  0.001	 33.100	 100.009	 -99999.000
6977	 -0.443	 -0.275	  0.472	  0.121	  0.053	 -9.791	 -0.003	  0.002	  0.001	 33.100	 100.004	 -99999.000
7027	 -0.441	 -0.286	  0.470	  0.123	  0.042	 -9.756	 -0.003	  0.003	  0.002	 33.100	 100.004	 -99999.000
7077	 -0.441	 -0.289	  0.466	  0.093	  0.033	 -9.776	 -0.002	  0.002	  0.000	 33.100	 100.009	 -99999.000
7127	 -0.442	 -0.278	  0.472	  0.119	  0.059	 -9.759	 -0.003	  0.003	  0.000	 33.100	 100.009	 -99999.000
7177	 -0.443	 -0.292	  0.466	  0.132	  0.056	 -9.755	 -0.003	  0.003	 -0.000	 33.100	 100.009	 -99999.000
7227	 -0.442	 -0.292	  0.472	  0.139	  0.054	 -9.776	 -0.002	  0.001	  0.001	 33.100	 100.020	 -99999.000
7277	 -0.443	 -0.289	  0.467	  0.125	  0.056	 -9.731	 -0.003	  0.002	 -0.000	 33.100	 100.016	 -99999.000
7327	 -0.441	 -0.288	  0.466	  0.135	  0.042	 -9.752	 -0.003	  0.002	  0.001	 33.100	 100.016	 -99999.000
7377	 -0.439	 -0.289	  0.469	  0.131	  0.039	 -9.748	 -0.003	  0.001	  0.000	 33.100	 100.016	 -99999.000
7427	 -0.442	 -0.288	  0.468	  0.127	  0.057	 -9.741	 -0.002	  0.002	  0.002	 33.100	 100.004	 -99999.000
7477	 -0.444	 -0.286	  0.466	  0.131	  0.052	 -9.770	 -0.002	  0.004	  0.000	 33.100	 100.020	 -99999.000
7527	 -0.443	 -0.286	  0.471	  0.138	  0.041	 -9.744	 -0.004	  0.002	  0.001	 33.100	 100.009	 -99999.000
7577	 -0.441	 -0.287	  0.472	  0.103	  0.044	 -9.757	 -0.004	  0.002	  0.000	 33.100	 100.020	 -99999.000
7627	 -0.441	 -0.287	  0.468	  0.118	  0.046	 -9.777	 -0.003	  0.003	  0.001	 33.100	 100.020	 -99999.000
7677	 -0.444	 -0.287	  0.471	  0.131	  0.063	 -9.773	 -0.003	  0.002	  0.001	 33.100	 100.009	 -99999.000
7727	 -0.439	 -0.289	  0.471	  0.143	  0.044	 -9.759	 -0.004	  0.003	  0.001	 33.100	 100.016	 -99999.000
7777	 -0.443	 -0.288	  0.463	  0.111	  0.020	 -9.779	 -0.003	  0.002	  0.001	 33.100	 100.009	 -99999.000
7827	 -0.442	 -0.275	  0.474	  0.124	  0.045	 -9.755	 -0.003	  0.003	  0.001	 33.100	 100.020	 -99999.000
7877	 -0.443	 -0.277	  0.469	  0.141	  0.048	 -9.741	 -0.003	  0.003	  0.001	 33.100	 100.009	 -99999.000
7926	 -0.442	 -0.290	  0.475	  0.109	  0.040	 -9.793	 -0.003	  0.002	 -0.001	 33.100	 100.020	 -99999.000
7976	 -0.441	 -0.287	  0.465	  0.139	  0.071	 -9.775	 -0.003	  0.001	  0.001	 33.100	 100.020	 -99999.000
8026	 -0.441	 -0.288	  0.468	  0.142	  0.037	 -9.731	 -0.003	  0.002	  0.001	 33.100	 100.004	 -99999.000
8076	 -0.441	 -0.288	  0.472	  0.138	  0.012	 -9.783	 -0.003	  0.003	  0.001	 33.100	 100.020	 -99999.000
8126	 -0.443	 -0.289	  0.466	  0.146	  0.032	 -9.768	 -0.002	  0.002	  0.001	 33.100	 100.016	 -99999.000
8176	 -0.443	 -0.280	  0.469	  0.135	  0.052	 -9.798	 -0.003	  0.003	  0.001	 33.100	 100.009	 -99999.000
8226	 -0.443	 -0.288	  0.468	  0.133	  0.040	 -9.769	 -0.003	  0.002	  0.000	 33.100	 100.009	 -99999.000
8277	 -0.444	 -0.290	  0.467	  0.122	  0.045	 -9.765	 -0.003	  0.003	  0.002	 33.100	 100.004	 -99999.000
8326	 -0.443	 -0.287	  0.470	  0.133	  0.045	 -9.752	 -0.003	  0.003	  0.001	 33.100	 100.009	 -99999.000
8376	 -0.442	 -0.287	  0.473	  0.158	  0.052	 -9.760	 -0.003	  0.002	  0.001	 33.100	 100.016	 -99999.000
8427	 -0.441	 -0.286	  0.470	  0.104	  0.019	 -9.779	 -0.004	  0.002	  0.001	 33.100	 100.009	 -99999.000
8476	 -0.443	 -0.285	  0.466	  0.117	  0.046	 -9.748	 -0.003	  0.002	  0.001	 33.100	 100.027	 -99999.000
8526	 -0.442	 -0.285	  0.472	  0.113	  0.051	 -9.754	 -0.003	  0.002	  0.001	 33.100	 100.020	 -99999.000
8576	 -0.442	 -0.289	  0.468	  0.130	  0.046	 -9.780	 -0.003	  0.002	  0.001	 33.100	 100.009	 -99999.000
8626	 -0.441	 -0.277	  0.472	  0.136	  0.054	 -9.768	 -0.002	  0.003	  0.000	 33.100	 100.009	 -99999.000
8676	 -0.442	 -0.282	  0.471	  0.117	  0.037	 -9.777	 -0.003	  0.001	  0.000	 33.100	 100.020	 -99999.000
8726	 -0.442	 -0.282	  0.470	  0.136	  0.046	 -9.772	 -0.003	  0.003	  0.001	 33.100	 100.020	 -99999.000
8776	 -0.440	 -0.287	  0.471	  0.131	  0.039	 -9.731	 -0.004	  0.003	  0.002	 33.100	 100.016	 -99999.000
8826	 -0.445	 -0.285	  0.470	  0.129	  0.058	 -9.731	 -0.003	  0.002	  0.000	 33.100	 100.020	 -99999.000
8876	 -0.440	 -0.286	  0.468	  0.121	  0.041	 -9.755	 -0.004	  0.003	  0.000	 33.100	 100.009	 -99999.000
8926	 -0.441	 -0.285	  0.470	  0.127	  0.030	 -9.763	 -0.002	  0.003	  0.001	 33.100	 100.020	 -99999.000
8976	 -0.442	 -0.278	  0.472	  0.122	  0.047	 -9.778	 -0.003	  0.001	  0.002	 33.100	 100.009	 -99999.000
9026	 -0.443	 -0.289	  0.464	  0.136	  0.032	 -9.741	 -0.002	  0.003	  0.001	 33.100	 100.020	 -99999.000
9076	 -0.444	 -0.288	  0.471	  0.130	  0.067	 -9.775	 -0.004	  0.002	  0.001	 33.100	 99.997	 -99999.000
9126	 -0.443	 -0.295	  0.464	  0.147	  0.047	 -9.733	 -0.003	  0.003	  0.001	 33.100	 100.016	 -99999.000
9176	 -0.442	 -0.274	  0.469	  0.146	  0.058	 -9.759	 -0.003	  0.002	  0.001	 33.100	 100.009	 -99999.000
9227	 -0.441	 -0.286	  0.473	  0.128	  0.053	 -9.730	 -0.004	  0.003	 -0.000	 33.100	 100.004	 -99999.000
9277	 -0.444	 -0.287	  0.472	  0.134	  0.043	 -9.759	 -0.005	  0.001	  0.000	 33.100	 100.020	 -99999.000
9327	 -0.443	 -0.288	  0.461	  0.120	  0.063	 -9.765	 -0.002	  0.004	  0.001	 33.100	 100.020	 -99999.000
9377	 -0.440	 -0.289	  0.468	  0.121	  0.050	 -9.772	 -0.004	  0.002	  0.003	 33.100	 100.004	 -99999.000
9427	 -0.443	 -0.292	  0.472	  0.141	  0.062	 -9.751	 -0.005	  0.003	  0.001	 33.100	 100.009	 -99999.000
9477	 -0.447	 -0.288	  0.468	  0.138	  0.071	 -9.781	 -0.003	  0.003	  0.002	 33.100	 100.020	 -99999.000
9527	 -0.442	 -0.286	  0.471	  0.134	  0.054	 -9.787	 -0.002	  0.004	  0.002	 33.100	 100.020	 -99999.000
9577	 -0.440	 -0.292	  0.467	  0.113	  0.055	 -9.750	 -0.004	  0.002	 -0.000	 33.100	 100.004	 -99999.000
9627	 -0.442	 -0.290	  0.464	  0.121	  0.059	 -9.736	 -0.003	  0.003	  0.002	 33.100	 100.020	 -99999.000
9677	 -0.442	 -0.288	  0.470	  0.135	  0.061	 -9.766	 -0.003	  0.002	  0.000	 33.100	 100.016	 -99999.000
9726	 -0.441	 -0.287	  0.471	  0.116	  0.039	 -9.775	 -0.004	  0.001	  0.002	 33.100	 100.020	 -99999.000
9776	 -0.442	 -0.287	  0.468	  0.127	  0.052	 -9.786	 -0.003	  0.002	  0.001	 33.100	 100.020	 -99999.000
9826	 -0.441	 -0.292	  0.467	  0.156	  0.011	 -9.766	 -0.002	  0.002	  0.001	 33.100	 100.009	 -99999.000
9876	 -0.442	 -0.289	  0.470	  0.126	  0.054	 -9.741	 -0.004	  0.003	 -0.000	 33.100	 100.009	 -99999.000
9926	 -0.442	 -0.283	  0.471	  0.116	  0.058	 -9.774	 -0.004	  0.002	  0.002	 33.100	 100.009	 -99999.000
9976	 -0.442	 -0.282	  0.471	  0.124	  0.064	 -9.793	 -0.004	  0.002	  0.001	 33.100	 100.009	 -99999.000
10026	 -0.443	 -0.289	  0.472	  0.142	  0.039	 -9.777	 -0.004	  0.002	  0.001	 33.100	 100.009	 -99999.000
10076	 -0.445	 -0.279	  0.470	  0.125	  0.055	 -9.728	 -0.003	  0.003	  0.000	 33.100	 100.004	 -99999.000
10126	 -0.445	 -0.290	  0.468	  0.134	  0.076	 -9.771	 -0.003	  0.002	  0.001	 33.100	 100.009	 -99999.000
10176	 -0.439	 -0.289	  0.472	  0.117	  0.041	 -9.736	 -0.003	  0.002	  0.002	 33.100	 100.031	 -99999.000
10226	 -0.441	 -0.286	  0.466	  0.150	  0.066	 -9.782	 -0.003	  0.002	  0.000	 33.100	 100.004	 -99999.000
10276	 -0.442	 -0.292	  0.464	  0.115	  0.057	 -9.770	 -0.003	  0.003	  0.000	 33.100	 100.009	 -99999.000
10326	 -0.443	 -0.291	  0.473	  0.128	  0.034	 -9.765	 -0.003	  0.002	  0.000	 33.100	 100.009	 -99999.000
10376	 -0.442	 -0.294	  0.471	  0.145	  0.059	 -9.758	 -0.003	  0.002	  0.002	 33.100	 100.020	 -99999.000
10426	 -0.444	 -0.285	  0.469	  0.123	  0.045	 -9.804	 -0.003	  0.002	  0.001	 33.100	 100.004	 -99999.000
10477	 -0.442	 -0.285	  0.471	  0.113	  0.053	 -9.779	 -0.004	  0.002	  0.001	 33.100	 99.993	 -99999.000
10526	 -0.442	 -0.290	  0.472	  0.123	  0.058	 -9.764	 -0.003	  0.003	  0.000	 33.100	 100.016	 -99999.000
10576	 -0.441	 -0.287	  0.462	  0.108	  0.047	 -9.768	 -0.003	  0.001	  0.002	 33.100	 100.009	 -99999.000
10626	 -0.442	 -0.283	  0.471	  0.128	  0.047	 -9.772	 -0.002	  0.002	  0.001	 33.100	 100.009	 -99999.000
10676	 -0.440	 -0.282	  0.472	  0.131	  0.062	 -9.755	 -0.003	  0.002	  0.000	 33.100	 100.016	 -99999.000
10726	 -0.442	 -0.286	  0.471	  0.114	  0.042	 -9.779	 -0.004	  0.000	 -0.000	 33.100	 100.009	 -99999.000
10776	 -0.441	 -0.286	  0.473	  0.131	  0.081	 -9.746	 -0.002	  0.003	 -0.001	 33.100	 100.031	 -99999.000
10826	 -0.443	 -0.289	  0.467	  0.132	  0.064	 -9.760	 -0.002	  0.004	  0.001	 33.100	 100.020	 -99999.000
10876	 -0.443	 -0.287	  0.471	  0.120	  0.037	 -9.749	 -0.003	  0.002	  0.001	 33.100	 100.016	 -99999.000
10926	 -0.441	 -0.290	  0.470	  0.120	  0.044	 -9.761	 -0.003	  0.004	  0.001	 33.100	 100.004	 -99999.000
10976	 -0.445	 -0.288	  0.469	  0.126	  0.042	 -9.737	 -0.003	  0.001	  0.001	 33.100	 100.009	 -99999.000
11026	 -0.443	 -0.287	  0.470	  0.125	  0.038	 -9.771	 -0.003	  0.002	  0.000	 33.100	 100.009	 -99999.000
11076	 -0.443	 -0.290	  0.473	  0.126	  0.060	 -9.767	 -0.002	  0.002	  0.001	 33.100	 100.016	 -99999.000
11126	 -0.441	 -0.283	  0.470	  0.137	  0.056	 -9.759	 -0.004	  0.003	 -0.000	 33.100	 100.009	 -99999.000
11176	 -0.442	 -0.288	  0.468	  0.128	  0.042	 -9.740	 -0.004	  0.003	  0.001	 33.100	 100.016	 -99999.000
11226	 -0.444	 -0.290	  0.472	  0.127	  0.064	 -9.758	 -0.004	  0.004	  0.001	 33.100	 100.009	 -99999.000
13902	 -0.443	 -0.289	  0.468	  0.145	  0.052	 -9.831	 -0.002	  0.003	  0.000	 33.100	 100.004	  0.781
13952	 -0.443	 -0.291	  0.472	  0.149	  0.066	 -9.753	 -0.002	  0.003	  0.001	 33.100	 100.020	 -0.659
14002	 -0.441	 -0.289	  0.468	  0.127	  0.057	 -9.742	 -0.004	  0.003	  0.001	 33.100	 100.009	  0.331
14052	 -0.441	 -0.288	  0.470	  0.129	  0.029	 -9.728	 -0.003	  0.003	 -0.000	 33.100	 100.009	  0.331
14102	 -0.441	 -0.287	  0.470	  0.110	  0.038	 -9.751	 -0.002	  0.004	  0.000	 33.100	 100.009	  0.331
14152	 -0.442	 -0.290	  0.464	  0.119	  0.038	 -9.760	 -0.004	  0.002	  0.001	 33.100	 100.016	 -0.298
14202	 -0.442	 -0.290	  0.470	  0.139	  0.057	 -9.806	 -0.003	  0.003	  0.001	 33.100	 100.016	 -0.298
14252	 -0.442	 -0.289	  0.466	  0.126	  0.041	 -9.730	 -0.003	  0.003	  0.001	 33.100	 100.009	  0.331
14302	 -0.440	 -0.289	  0.466	  0.123	  0.061	 -9.780	 -0.002	  0.004	  0.000	 33.100	 100.020	 -0.659
14352	 -0.441	 -0.286	  0.468	  0.142	  0.039	 -9.766	 -0.003	  0.003	  0.002	 33.100	 100.020	 -0.659
14402	 -0.443	 -0.289	  0.468	  0.119	  0.057	 -9.763	 -0.004	  0.001	  0.001	 33.100	 100.009	  0.331
14452	 -0.442	 -0.289	  0.463	  0.137	  0.054	 -9.726	 -0.003	  0.003	  0.001	 33.100	 100.020	 -0.659
14502	 -0.442	 -0.288	  0.473	  0.140	  0.052	 -9.781	 -0.002	  0.002	  0.000	 33.100	 100.009	  0.331
14552	 -0.444	 -0.286	  0.471	  0.117	  0.044	 -9.778	 -0.003	  0.002	  0.002	 33.100	 100.020	 -0.659
14602	 -0.443	 -0.288	  0.471	  0.137	  0.030	 -9.739	 -0.002	  0.003	  0.001	 33.100	 100.020	 -0.659
14651	 -0.443	 -0.288	  0.472	  0.108	  0.038	 -9.772	 -0.004	  0.002	  0.001	 33.100	 100.020	 -0.659
14701	 -0.441	 -0.288	  0.466	  0.118	  0.032	 -9.762	 -0.002	  0.001	  0.002	 33.100	 100.009	  0.331
14751	 -0.441	 -0.288	  0.466	  0.130	  0.044	 -9.763	 -0.004	  0.001	 -0.000	 33.100	 100.031	 -1.648
14801	 -0.443	 -0.289	  0.473	  0.122	  0.059	 -9.748	 -0.005	  0.002	  0.001	 33.100	 100.024	 -1.020
14851	 -0.442	 -0.290	  0.471	  0.136	  0.039	 -9.752	 -0.004	  0.003	  0.001	 33.100	 100.020	 -0.659
14901	 -0.443	 -0.277	  0.469	  0.146	  0.031	 -9.744	 -0.003	  0.003	  0.000	 33.100	 100.020	 -0.659
14951	 -0.443	 -0.283	  0.470	  0.128	  0.043	 -9.777	 -0.004	  0.002	  0.002	 33.100	 100.009	  0.331
15002	 -0.441	 -0.283	  0.473	  0.146	  0.062	 -9.773	 -0.004	  0.004	  0.000	 33.100	 100.020	 -0.659
15051	 -0.442	 -0.290	  0.471	  0.120	  0.043	 -9.760	 -0.003	  0.002	  0.001	 33.100	 100.009	  0.331
15101	 -0.442	 -0.289	  0.472	  0.155	  0.034	 -9.744	 -0.003	  0.002	  0.002	 33.100	 100.020	 -0.659
15151	 -0.441	 -0.292	  0.468	  0.141	  0.057	 -9.762	 -0.004	  0.002	 -0.000	 33.100	 100.004	  0.781
15201	 -0.441	 -0.289	  0.465	  0.135	  0.047	 -9.777	 -0.004	  0.001	  0.001	 33.100	 99.997	  1.411
15251	 -0.442	 -0.277	  0.470	  0.120	  0.042	 -9.758	 -0.004	  0.002	  0.001	 33.100	 100.009	  0.331
15301	 -0.442	 -0.288	  0.468	  0.140	  0.058	 -9.787	 -0.004	  0.001	 -0.000	 33.100	 100.009	  0.331
15351	 -0.442	 -0.288	  0.466	  0.124	  0.045	 -9.755	 -0.003	  0.001	  0.002	 33.100	 100.009	  0.331
15401	 -0.442	 -0.290	  0.467	  0.132	  0.038	 -9.793	 -0.003	  0.002	  0.001	 33.100	 100.009	  0.331
15451	 -0.443	 -0.288	  0.464	  0.137	  0.050	 -9.740	 -0.005	  0.003	  0.001	 33.100	 100.016	 -0.298
15501	 -0.442	 -0.280	  0.467	  0.144	  0.070	 -9.790	 -0.004	  0.003	  0.001	 33.100	 100.020	 -0.659
15551	 -0.441	 -0.286	  0.470	  0.128	  0.059	 -9.749	 -0.004	  0.003	  0.001	 33.100	 100.020	 -0.659
15601	 -0.443	 -0.283	  0.470	  0.130	  0.048	 -9.737	 -0.003	  0.002	  0.000	 33.100	 100.009	  0.331
15651	 -0.442	 -0.282	  0.468	  0.121	  0.064	 -9.761	 -0.004	  0.002	  0.001	 33.100	 100.020	 -0.659
15701	 -0.443	 -0.287	  0.465	  0.121	  0.035	 -9.767	 -0.002	  0.003	  0.001	 33.100	 100.009	  0.331
15751	 -0.441	 -0.289	  0.468	  0.117	  0.029	 -9.760	 -0.003	  0.002	  0.000	 33.100	 100.020	 -0.659
15801	 -0.443	 -0.289	  0.470	  0.113	  0.071	 -9.786	 -0.003	  0.003	  0.001	 33.100	 100.004	  0.781
15851	 -0.443	 -0.274	  0.469	  0.137	  0.042	 -9.772	 -0.003	  0.003	  0.001	 33.100	 100.020	 -0.659
15901	 -0.441	 -0.289	  0.468	  0.155	  0.069	 -9.762	 -0.003	  0.002	  0.000	 33.100	 100.020	 -0.659
15951	 -0.443	 -0.288	  0.471	  0.129	  0.054	 -9.758	 -0.004	  0.002	  0.002	 33.100	 100.020	 -0.659
16001	 -0.443	 -0.292	  0.463	  0.113	  0.044	 -9.747	 -0.004	  0.002	  0.001	 33.100	 100.009	  0.331
16051	 -0.440	 -0.285	  0.471	  0.106	  0.079	 -9.769	 -0.003	  0.002	  0.001	 33.100	 100.020	 -0.659
16101	 -0.441	 -0.288	  0.468	  0.139	  0.062	 -9.739	 -0.003	  0.003	  0.000	 33.100	 100.009	  0.331
16151	 -0.443	 -0.280	  0.469	  0.128	  0.033	 -9.747	 -0.004	  0.002	  0.000	 33.100	 100.016	 -0.298
16201	 -0.443	 -0.283	  0.471	  0.122	  0.042	 -9.762	 -0.003	  0.002	  0.001	 33.100	 100.016	 -0.298
16251	 -0.441	 -0.290	  0.468	  0.125	  0.062	 -9.764	 -0.004	  0.003	  0.002	 33.100	 100.009	  0.331
16301	 -0.440	 -0.285	  0.470	  0.126	  0.026	 -9.749	 -0.004	  0.001	 -0.000	 33.100	 100.020	 -0.659
16351	 -0.444	 -0.289	  0.470	  0.149	  0.033	 -9.756	 -0.003	  0.002	  0.000	 33.100	 100.009	  0.331
16401	 -0.443	 -0.288	  0.468	  0.107	  0.063	 -9.748	 -0.003	  0.004	  0.001	 33.100	 100.004	  0.781
16451	 -0.440	 -0.289	  0.472	  0.107	  0.021	 -9.768	 -0.003	  0.002	  0.001	 33.100	 100.009	  0.331
16501	 -0.440	 -0.289	  0.470	  0.121	  0.059	 -9.779	 -0.003	  0.002	  0.001	 33.100	 100.016	 -0.298
16551	 -0.441	 -0.289	  0.471	  0.127	  0.058	 -9.777	 -0.003	  0.003	  0.001	 33.100	 100.020	 -0.659
16601	 -0.443	 -0.286	  0.467	  0.126	  0.046	 -9.767	 -0.004	  0.002	  0.001	 33.100	 100.020	 -0.659
16651	 -0.442	 -0.288	  0.472	  0.117	  0.050	 -9.794	 -0.004	  0.002	  0.000	 33.100	 100.009	  0.331
16701	 -0.442	 -0.289	  0.468	  0.143	  0.043	 -9.762	 -0.004	  0.001	  0.001	 33.100	 100.009	  0.331
16751	 -0.442	 -0.288	  0.471	  0.142	  0.058	 -9.752	 -0.002	  0.003	  0.001	 33.100	 100.009	  0.331
16801	 -0.443	 -0.284	  0.468	  0.136	  0.031	 -9.739	 -0.003	  0.003	  0.001	 33.100	 100.020	 -0.659
16851	 -0.442	 -0.284	  0.472	  0.126	  0.050	 -9.771	 -0.004	  0.002	  0.000	 33.100	 100.020	 -0.659
16901	 -0.441	 -0.284	  0.468	  0.136	  0.031	 -9.806	 -0.003	  0.003	  0.001	 33.100	 100.009	  0.331
16951	 -0.442	 -0.284	  0.470	  0.099	  0.033	 -9.788	 -0.002	  0.003	  0.001	 33.100	 100.020	 -0.659
17001	 -0.442	 -0.276	  0.471	  0.119	  0.039	 -9.799	 -0.002	  0.003	  0.000	 33.100	 100.004	  0.781
17051	 -0.443	 -0.276	  0.468	  0.127	  0.045	 -9.760	 -0.003	  0.002	  0.001	 33.100	 100.031	 -1.648
17101	 -0.442	 -0.288	  0.471	  0.115	  0.038	 -9.748	 -0.003	  0.002	  0.000	 33.100	 100.004	  0.781
17151	 -0.440	 -0.288	  0.471	  0.141	  0.066	 -9.780	 -0.002	  0.002	  0.001	 33.100	 100.009	  0.331
17201	 -0.440	 -0.286	  0.470	  0.144	  0.028	 -9.754	 -0.003	  0.003	  0.000	 33.100	 100.016	 -0.298
17251	 -0.439	 -0.287	  0.463	  0.147	  0.036	 -9.765	 -0.004	  0.002	 -0.000	 33.100	 100.016	 -0.298
17301	 -0.443	 -0.288	  0.471	  0.099	  0.050	 -9.786	 -0.003	  0.002	 -0.000	 33.100	 100.009	  0.331
17351	 -0.441	 -0.285	  0.472	  0.101	  0.043	 -9.780	 -0.003	  0.002	  0.002	 33.100	 100.004	  0.781
17401	 -0.445	 -0.287	  0.467	  0.115	  0.047	 -9.749	 -0.002	  0.002	  0.001	 33.100	 100.009	  0.331
17451	 -0.440	 -0.275	  0.467	  0.129	  0.046	 -9.784	 -0.003	  0.003	  0.001	 33.100	 100.004	  0.781
17501	 -0.445	 -0.282	  0.473	  0.143	  0.048	 -9.743	 -0.004	  0.003	  0.001	 33.100	 100.020	 -0.659
17551	 -0.443	 -0.291	  0.470	  0.121	  0.053	 -9.789	 -0.003	  0.002	  0.001	 33.100	 100.009	  0.331
17601	 -0.441	 -0.290	  0.470	  0.126	  0.051	 -9.766	 -0.003	  0.003	  0.001	 33.100	 100.020	 -0.659
17651	 -0.440	 -0.290	  0.471	  0.111	  0.056	 -9.777	 -0.003	  0.003	 -0.001	 33.100	 100.009	  0.331
17701	 -0.439	 -0.289	  0.466	  0.111	  0.036	 -9.782	 -0.004	  0.002	  0.001	 33.100	 100.016	 -0.298
17751	 -0.442	 -0.286	  0.471	  0.137	  0.062	 -9.776	 -0.004	  0.004	  0.001	 33.100	 100.009	  0.331
17801	 -0.441	 -0.286	  0.463	  0.099	  0.042	 -9.753	 -0.004	  0.003	  0.001	 33.100	 100.009	  0.331
17851	 -0.443	 -0.290	  0.467	  0.119	  0.050	 -9.778	 -0.003	  0.002	  0.002	 33.100	 100.009	  0.331
17902	 -0.441	 -0.289	  0.468	  0.142	  0.051	 -9.756	 -0.004	  0.003	  0.001	 33.100	 100.009	  0.331
17951	 -0.442	 -0.287	  0.471	  0.130	  0.037	 -9.784	 -0.003	  0.002	  0.002	 33.100	 100.020	 -0.659
18001	 -0.441	 -0.288	  0.473	  0.136	  0.045	 -9.748	 -0.003	  0.003	  0.001	 33.100	 100.020	 -0.659
18051	 -0.443	 -0.289	  0.460	  0.137	  0.064	 -9.771	 -0.005	  0.001	  0.001	 33.100	 100.020	 -0.659
18102	 -0.444	 -0.291	  0.468	  0.128	  0.037	 -9.784	 -0.004	  0.001	  0.001	 33.100	 100.009	  0.331
18151	 -0.443	 -0.289	  0.472	  0.119	  0.055	 -9.812	 -0.003	  0.004	 -0.000	 33.100	 99.997	  1.411
18201	 -0.440	 -0.290	  0.464	  0.130	  0.055	 -9.766	 -0.003	  0.001	  0.002	 33.100	 100.009	  0.331
18252	 -0.442	 -0.288	  0.472	  0.155	  0.043	 -9.759	 -0.004	  0.002	  0.000	 33.100	 100.009	  0.331
18301	 -0.443	 -0.289	  0.471	  0.136	  0.058	 -9.806	 -0.003	  0.002	  0.001	 33.100	 100.020	 -0.659
18352	 -0.443	 -0.285	  0.471	  0.120	  0.047	 -9.800	 -0.003	  0.003	  0.001	 33.100	 100.009	  0.331
18401	 -0.441	 -0.288	  0.468	  0.120	  0.059	 -9.781	 -0.003	  0.002	  0.001	 33.100	 100.009	  0.331
18452	 -0.441	 -0.293	  0.463	  0.126	  0.046	 -9.751	 -0.003	  0.002	  0.002	 33.100	 100.009	  0.331
18502	 -0.443	 -0.289	  0.468	  0.097	  0.060	 -9.737	 -0.003	  0.001	  0.001	 33.100	 100.016	 -0.298
18552	 -0.443	 -0.288	  0.472	  0.128	  0.058	 -9.812	 -0.005	  0.002	  0.002	 33.100	 100.009	  0.331
18602	 -0.443	 -0.290	  0.466	  0.104	  0.068	 -9.773	 -0.003	  0.003	  0.000	 33.100	 100.020	 -0.659
18652	 -0.440	 -0.285	  0.470	  0.128	  0.048	 -9.759	 -0.003	  0.003	  0.001	 33.100	 99.997	  1.411
18702	 -0.443	 -0.290	  0.470	  0.130	  0.056	 -9.758	 -0.002	  0.003	  0.002	 33.100	 100.020	 -0.659
18752	 -0.442	 -0.287	  0.472	  0.133	  0.041	 -9.766	 -0.004	  0.001	  0.000	 33.100	 100.009	  0.331
18802	 -0.443	 -0.292	  0.463	  0.121	  0.041	 -9.760	 -0.003	  0.002	  0.000	 33.100	 100.009	  0.331
18852	 -0.442	 -0.288	  0.465	  0.089	  0.055	 -9.771	 -0.003	  0.002	 -0.001	 33.100	 100.020	 -0.659
18902	 -0.442	 -0.289	  0.463	  0.150	  0.062	 -9.762	 -0.003	  0.002	  0.001	 33.100	 100.009	  0.331
18952	 -0.441	 -0.275	  0.467	  0.143	  0.065	 -9.767	 -0.004	  0.003	 -0.000	 33.100	 100.009	  0.331
19002	 -0.442	 -0.288	  0.470	  0.132	  0.040	 -9.732	 -0.005	  0.002	  0.001	 33.100	 100.009	  0.331
19052	 -0.442	 -0.287	  0.468	  0.153	  0.061	 -9.767	 -0.002	 -0.005	 -0.001	 33.100	 99.997	  1.411
19102	 -0.439	 -0.294	  0.464	  3.596	 -2.664	 -9.469	 -0.032	 -0.023	 -0.501	 33.100	 100.009	  0.331
19152	 -0.425	 -0.305	  0.443	 -2.959	  5.070	 -6.114	 -0.096	 -0.246	  0.529	 33.100	 100.020	 -0.659
19202	 -0.412	 -0.305	  0.452	 -5.359	 -2.180	 -17.693	 -2.062	 -0.754	  1.662	 33.100	 100.009	  0.331
19252	 -0.381	 -0.340	  0.432	  5.486	  4.171	 -14.827	 -1.254	  2.825	  0.437	 33.100	 100.020	 -0.659
19302	 -0.511	 -0.287	  0.360	  1.384	 -0.404	 12.343	  4.869	  3.029	  0.814	 33.100	 100.020	 -0.659
19352	 -0.418	 -0.202	  0.493	 -5.162	 -2.625	 -40.302	  1.365	 -3.781	 -0.675	 33.100	 100.020	 -0.659
19402	 -0.517	 -0.188	  0.396	 -1.655	 -3.439	 20.946	 -0.374	  4.990	  1.452	 33.100	 100.020	 -0.659
19452	 -0.463	 -0.197	  0.446	 -1.465	 -2.871	 -31.830	 -1.525	 -2.548	 -0.228	 33.100	 100.020	 -0.659
19502	 -0.522	 -0.246	  0.370	  3.606	 -0.148	 17.224	 -1.502	  3.716	  0.415	 33.100	 100.020	 -0.659
19552	 -0.480	 -0.250	  0.435	 -3.890	 -3.552	 -35.451	 -1.048	 -4.561	 -0.831	 33.100	 100.020	 -0.659
19602	 -0.513	 -0.296	  0.366	  3.356	  0.907	  8.094	 -0.577	  4.889	  0.842	 33.100	 100.020	 -0.659
19652	 -0.505	 -0.281	  0.390	  0.387	 -2.966	 -16.835	 -0.209	 -4.679	 -0.445	 33.100	 100.009	  0.331
19702	 -0.493	 -0.300	  0.391	  2.121	  0.819	 -4.058	 -0.689	  0.979	 -0.534	 33.100	 100.020	 -0.659
19752	 -0.484	 -0.298	  0.422	  2.300	  0.290	 -13.294	  0.087	 -1.900	 -0.522	 33.100	 100.009	  0.331
19802	 -0.460	 -0.303	  0.446	 -0.457	 -0.887	 -10.457	  0.233	 -0.550	  0.065	 33.100	 100.009	  0.331
19852	 -0.467	 -0.291	  0.438	  0.773	 -0.693	 -9.011	  0.530	  0.119	 -0.215	 33.100	 100.009	  0.331
19902	 -0.473	 -0.270	  0.442	  0.592	  0.710	 -11.781	  0.342	  0.188	  0.141	 33.100	 100.009	  0.331
19952	 -0.473	 -0.275	  0.435	  0.753	  0.572	 -8.930	  0.237	 -0.264	 -0.426	 33.100	 100.009	  0.331
20002	 -0.471	 -0.268	  0.445	  1.153	  0.637	 -9.890	  0.333	 -0.161	 -0.139	 33.100	 100.020	 -0.659
20052	 -0.465	 -0.273	  0.451	  0.366	  0.361	 -7.968	 -1.089	 -0.629	 -0.360	 33.100	 100.020	 -0.659
20102	 -0.443	 -0.276	  0.464	 -0.943	 -1.302	 -12.381	 -0.442	  0.382	 -0.084	 33.100	 100.009	  0.331
20152	 -0.446	 -0.280	  0.461	  0.144	  0.239	 -9.649	  0.011	 -0.010	  0.003	 33.100	 100.009	  0.331
20202	 -0.446	 -0.267	  0.466	  0.090	  0.062	 -9.777	 -0.005	  0.007	  0.001	 33.100	 100.020	 -0.659
20252	 -0.446	 -0.273	  0.468	  0.138	  0.040	 -9.821	 -0.002	 -0.001	  0.001	 33.100	 100.013	 -0.029
20302	 -0.448	 -0.282	  0.467	  0.130	  0.068	 -9.792	 -0.003	  0.002	  0.000	 33.100	 100.020	 -0.659
20352	 -0.445	 -0.279	  0.468	  0.125	  0.052	 -9.771	 -0.003	  0.001	  0.000	 33.100	 100.009	  0.331
20402	 -0.445	 -0.280	  0.470	  0.134	  0.048	 -9.789	 -0.003	  0.001	  0.002	 33.100	 100.020	 -0.659
20452	 -0.446	 -0.281	  0.467	  0.105	  0.070	 -9.767	 -0.004	  0.003	 -0.000	 33.100	 100.009	  0.331
20502	 -0.447	 -0.279	  0.466	  0.139	  0.039	 -9.752	 -0.003	  0.001	  0.000	 33.100	 100.020	 -0.659
20552	 -0.446	 -0.279	  0.468	  0.135	  0.056	 -9.732	 -0.003	  0.002	  0.000	 33.100	 100.009	  0.331
20602	 -0.447	 -0.279	  0.470	  0.129	  0.065	 -9.788	 -0.004	  0.002	  0.001	 33.100	 100.020	 -0.659
20652	 -0.444	 -0.270	  0.470	  0.100	  0.051	 -9.773	 -0.004	  0.001	  0.001	 33.100	 100.024	 -1.020
20702	 -0.447	 -0.280	  0.469	  0.156	  0.045	 -9.750	 -0.002	  0.001	  0.001	 33.100	 100.020	 -0.659
20752	 -0.446	 -0.279	  0.467	  0.141	  0.052	 -9.750	 -0.003	  0.003	 -0.000	 33.100	 100.009	  0.331
20802	 -0.446	 -0.281	  0.460	  0.136	  0.042	 -9.766	 -0.003	  0.003	  0.001	 33.100	 100.009	  0.331
20852	 -0.448	 -0.277	  0.473	  0.125	  0.035	 -9.755	 -0.003	  0.002	  0.001	 33.100	 100.009	  0.331
20902	 -0.446	 -0.277	  0.467	  0.128	  0.077	 -9.757	 -0.004	  0.002	 -0.001	 33.100	 100.020	 -0.659
20952	 -0.447	 -0.278	  0.468	  0.121	  0.055	 -9.762	 -0.004	  0.003	 -0.000	 33.100	 100.016	 -0.298
21002	 -0.446	 -0.272	  0.468	  0.118	  0.039	 -9.785	 -0.003	  0.003	  0.001	 33.100	 100.020	 -0.659
21052	 -0.446	 -0.279	  0.466	  0.105	 -0.010	 -9.500	 -0.002	  0.004	  0.002	 33.100	 100.031	 -1.648
21102	 -0.448	 -0.281	  0.469	  0.140	  0.036	 -9.793	 -0.003	  0.001	  0.001	 33.100	 100.009	  0.331
21152	 -0.446	 -0.280	  0.469	  0.127	  0.032	 -9.752	 -0.003	  0.003	 -0.000	 33.100	 100.016	 -0.298
21202	 -0.447	 -0.271	  0.471	  0.136	  0.062	 -9.805	 -0.002	  0.002	  0.000	 33.100	 100.020	 -0.659
21252	 -0.447	 -0.282	  0.460	  0.113	  0.045	 -9.751	 -0.004	  0.002	  0.001	 33.100	 100.009	  0.331
21302	 -0.447	 -0.268	  0.468	  0.141	  0.028	 -9.794	 -0.003	  0.003	  0.001	 33.100	 100.020	 -0.659
21352	 -0.447	 -0.279	  0.467	  0.146	  0.045	 -9.723	 -0.004	  0.002	  0.002	 33.100	 100.020	 -0.659
21402	 -0.444	 -0.281	  0.467	  0.143	  0.056	 -9.738	 -0.004	  0.003	 -0.001	 33.100	 100.013	 -0.029
21452	 -0.444	 -0.280	  0.469	  0.131	  0.053	 -9.735	 -0.004	  0.002	  0.001	 33.100	 100.020	 -0.659
21502	 -0.448	 -0.279	  0.468	  0.139	  0.050	 -9.750	 -0.003	  0.003	  0.000	 33.100	 100.031	 -1.648
21552	 -0.445	 -0.276	  0.460	  0.118	  0.030	 -9.749	 -0.003	  0.002	  0.000	 33.100	 100.020	 -0.659
21602	 -0.445	 -0.280	  0.467	  0.113	  0.043	 -9.734	 -0.002	  0.004	 -0.001	 33.100	 100.020	 -0.659
21652	 -0.447	 -0.281	  0.467	  0.126	  0.055	 -9.759	 -0.002	  0.002	 -0.000	 33.100	 100.009	  0.331
21702	 -0.445	 -0.275	  0.468	  0.131	  0.053	 -9.775	 -0.003	  0.004	  0.001	 33.100	 100.009	  0.331
21752	 -0.447	 -0.280	  0.470	  0.133	  0.054	 -9.755	 -0.003	  0.002	  0.000	 33.100	 100.020	 -0.659
21802	 -0.447	 -0.270	  0.470	  0.126	  0.063	 -9.760	 -0.004	  0.001	 -0.000	 33.100	 100.009	  0.331
21852	 -0.444	 -0.277	  0.463	  0.133	  0.038	 -9.772	 -0.004	  0.001	  0.001	 33.100	 100.016	 -0.298
21902	 -0.446	 -0.276	  0.469	  0.153	  0.045	 -9.732	 -0.003	  0.002	  0.002	 33.100	 100.009	  0.331
21952	 -0.446	 -0.283	  0.464	  0.129	  0.017	 -9.780	 -0.002	  0.003	  0.000	 33.100	 100.009	  0.331
22002	 -0.448	 -0.281	  0.463	  0.125	  0.054	 -9.739	 -0.003	  0.003	  0.000	 33.100	 100.009	  0.331
22052	 -0.445	 -0.280	  0.466	  0.124	  0.030	 -9.764	 -0.003	  0.003	  0.000	 33.100	 100.020	 -0.659
22102	 -0.447	 -0.279	  0.468	  0.140	  0.052	 -9.751	 -0.004	  0.002	  0.001	 33.100	 100.016	 -0.298
22152	 -0.447	 -0.275	  0.470	  0.128	  0.042	 -9.795	 -0.003	  0.003	  0.001	 33.100	 100.004	  0.781
22202	 -0.448	 -0.279	  0.467	  0.135	  0.047	 -9.761	 -0.004	  0.003	  0.001	 33.100	 100.013	 -0.029
22252	 -0.447	 -0.277	  0.472	  0.135	  0.019	 -9.780	 -0.004	  0.001	  0.000	 33.100	 100.031	 -1.648
22302	 -0.445	 -0.284	  0.461	  0.117	  0.057	 -9.783	 -0.003	  0.002	  0.000	 33.100	 100.009	  0.331
22352	 -0.445	 -0.281	  0.472	  0.114	  0.035	 -9.728	 -0.004	  0.003	  0.001	 33.100	 100.020	 -0.659
22402	 -0.445	 -0.275	  0.468	  0.132	  0.039	 -9.784	 -0.002	  0.002	  0.000	 33.100	 100.009	  0.331
22451	 -0.445	 -0.279	  0.465	  0.099	  0.037	 -9.740	 -0.004	  0.002	  0.001	 33.100	 100.009	  0.331
22502	 -0.448	 -0.278	  0.465	  0.127	  0.035	 -9.784	 -0.004	  0.002	 -0.000	 33.100	 100.009	  0.331
22551	 -0.446	 -0.280	  0.469	  0.124	  0.040	 -9.764	 -0.002	 -0.000	 -0.000	 33.100	 100.020	 -0.659
22602	 -0.445	 -0.280	  0.461	  0.138	  0.048	 -9.785	 -0.002	  0.003	  0.001	 33.100	 100.020	 -0.659
22651	 -0.447	 -0.277	  0.467	  0.138	  0.033	 -9.811	 -0.004	  0.001	 -0.000	 33.100	 100.009	  0.331
22701	 -0.447	 -0.280	  0.470	  0.122	  0.026	 -9.749	 -0.002	  0.002	  0.001	 33.100	 100.009	  0.331
22751	 -0.446	 -0.279	  0.468	  0.135	  0.041	 -9.738	 -0.003	  0.003	  0.000	 33.100	 100.020	 -0.659
22801	 -0.448	 -0.278	  0.468	  0.133	  0.057	 -9.782	 -0.003	  0.002	  0.000	 33.100	 100.009	  0.331
22851	 -0.443	 -0.277	  0.464	  0.145	  0.056	 -9.782	 -0.003	  0.002	  0.001	 33.100	 100.004	  0.781
22901	 -0.445	 -0.278	  0.468	  0.126	  0.057	 -9.748	 -0.003	  0.003	  0.000	 33.100	 100.020	 -0.659
22951	 -0.446	 -0.279	  0.467	  0.135	  0.045	 -9.702	 -0.004	  0.002	  0.001	 33.100	 100.009	  0.331
23002	 -0.446	 -0.279	  0.467	  0.115	  0.062	 -9.779	 -0.004	  0.002	 -0.001	 33.100	 100.009	  0.331
23052	 -0.444	 -0.283	  0.469	  0.116	  0.029	 -9.775	 -0.002	  0.004	  0.000	 33.100	 100.016	 -0.298
23101	 -0.444	 -0.277	  0.472	  0.145	  0.044	 -9.775	 -0.002	  0.002	  0.001	 33.100	 100.009	  0.331
23151	 -0.448	 -0.269	  0.469	  0.118	  0.042	 -9.770	 -0.004	  0.003	  0.001	 33.100	 100.009	  0.331
23201	 -0.446	 -0.280	  0.467	  0.128	  0.062	 -9.778	 -0.002	  0.003	  0.000	 33.100	 100.020	 -0.659
23251	 -0.445	 -0.282	  0.466	  0.106	  0.059	 -9.790	 -0.004	  0.002	  0.001	 33.100	 100.009	  0.331
23301	 -0.444	 -0.274	  0.468	  0.153	  0.019	 -9.757	 -0.003	  0.003	 -0.000	 33.100	 100.009	  0.331
23351	 -0.447	 -0.277	  0.470	  0.121	  0.053	 -9.809	 -0.004	  0.002	 -0.000	 33.100	 100.020	 -0.659
23401	 -0.445	 -0.279	  0.467	  0.114	  0.021	 -9.767	 -0.003	  0.002	  0.002	 33.100	 100.009	  0.331
23451	 -0.444	 -0.279	  0.466	  0.133	  0.033	 -9.784	 -0.002	  0.002	  0.002	 33.100	 100.009	  0.331
23502	 -0.447	 -0.280	  0.468	  0.148	  0.048	 -9.760	 -0.003	  0.002	  0.000	 33.100	 100.009	  0.331
23551	 -0.445	 -0.277	  0.465	  0.126	  0.043	 -9.771	 -0.003	  0.003	  0.000	 33.100	 100.004	  0.781
23602	 -0.447	 -0.270	  0.470	  0.105	  0.040	 -9.769	 -0.002	  0.002	  0.002	 33.100	 100.016	 -0.298
23651	 -0.447	 -0.280	  0.466	  0.121	  0.040	 -9.768	 -0.002	  0.002	  0.000	 33.100	 100.009	  0.331
23701	 -0.448	 -0.279	  0.467	  0.144	  0.045	 -9.753	 -0.003	  0.002	  0.000	 33.100	 100.009	  0.331
23751	 -0.444	 -0.277	  0.461	  0.156	  0.062	 -9.757	 -0.004	  0.001	  0.001	 33.100	 100.004	  0.781
23801	 -0.446	 -0.279	  0.470	  0.131	  0.049	 -9.781	 -0.004	  0.001	  0.001	 33.100	 100.009	  0.331
23851	 -0.445	 -0.281	  0.467	  0.123	  0.036	 -9.770	 -0.004	  0.002	  0.002	 33.100	 100.013	 -0.029
23902	 -0.444	 -0.278	  0.468	  0.132	  0.057	 -9.787	 -0.003	  0.004	 -0.001	 33.100	 100.009	  0.331
23952	 -0.445	 -0.276	  0.467	  0.137	  0.062	 -9.774	 -0.002	  0.003	  0.000	 33.100	 100.020	 -0.659
24002	 -0.447	 -0.280	  0.466	  0.125	  0.064	 -9.755	 -0.003	  0.003	  0.000	 33.100	 100.020	 -0.659
24052	 -0.445	 -0.283	  0.468	  0.121	  0.043	 -9.775	 -0.004	  0.002	  0.001	 33.100	 100.009	  0.331
24102	 -0.448	 -0.277	  0.465	  0.113	  0.041	 -9.783	 -0.004	  0.001	  0.002	 33.100	 100.020	 -0.659
24152	 -0.444	 -0.279	  0.469	  0.134	  0.042	 -9.761	 -0.004	  0.002	  0.001	 33.100	 100.016	 -0.298
24202	 -0.447	 -0.277	  0.468	  0.142	  0.053	 -9.799	 -0.002	  0.003	  0.000	 33.100	 100.009	  0.331
24252	 -0.448	 -0.273	  0.468	  0.123	  0.033	 -9.765	 -0.003	  0.003	  0.000	 33.100	 100.009	  0.331
24302	 -0.445	 -0.279	  0.467	  0.111	  0.049	 -9.796	 -0.003	  0.001	  0.001	 33.100	 100.020	 -0.659
24352	 -0.449	 -0.280	  0.467	  0.124	  0.062	 -9.773	 -0.003	  0.001	  0.001	 33.100	 100.009	  0.331
24402	 -0.444	 -0.277	  0.469	  0.120	  0.050	 -9.755	 -0.004	  0.002	  0.000	 33.100	 100.009	  0.331
24452	 -0.447	 -0.280	  0.470	  0.115	  0.053	 -9.756	 -0.003	  0.002	  0.001	 33.100	 100.020	 -0.659
24502	 -0.444	 -0.275	  0.468	  0.133	  0.066	 -9.764	 -0.004	  0.002	  0.000	 33.100	 100.020	 -0.659
24552	 -0.448	 -0.280	  0.468	  0.130	  0.045	 -9.748	 -0.004	  0.003	 -0.000	 33.100	 100.009	  0.331
24602	 -0.447	 -0.265	  0.468	  0.115	  0.044	 -9.798	 -0.003	  0.005	  0.002	 33.100	 100.020	 -0.659
24652	 -0.448	 -0.279	  0.467	  0.130	  0.053	 -9.749	 -0.004	  0.001	  0.001	 33.100	 100.020	 -0.659
24702	 -0.447	 -0.279	  0.469	  0.132	  0.062	 -9.749	 -0.003	  0.003	  0.001	 33.100	 100.020	 -0.659
24752	 -0.448	 -0.280	  0.468	  0.145	  0.077	 -9.753	 -0.002	  0.002	  0.002	 33.100	 100.013	 -0.029
24802	 -0.448	 -0.280	  0.468	  0.104	  0.054	 -9.758	 -0.004	  0.002	  0.001	 33.100	 100.020	 -0.659
24852	 -0.445	 -0.280	  0.469	  0.164	  0.045	 -9.778	 -0.003	  0.003	  0.001	 33.100	 100.020	 -0.659
24902	 -0.447	 -0.280	  0.468	  0.095	  0.023	 -9.765	 -0.002	  0.001	  0.001	 33.100	 100.009	  0.331
24952	 -0.447	 -0.279	  0.468	  0.148	  0.034	 -9.777	 -0.003	  0.002	  0.001	 33.100	 100.009	  0.331
25002	 -0.446	 -0.280	  0.465	  0.150	  0.043	 -9.766	 -0.002	  0.002	  0.000	 33.100	 100.009	  0.331
25052	 -0.446	 -0.277	  0.472	  0.111	  0.035	 -9.769	 -0.004	  0.002	  0.001	 33.100	 100.020	 -0.659
25102	 -0.445	 -0.274	  0.470	  0.103	  0.054	 -9.773	 -0.003	  0.004	  0.000	 33.100	 100.009	  0.331
25152	 -0.446	 -0.275	  0.470	  0.135	  0.053	 -9.743	 -0.004	  0.001	  0.002	 33.100	 100.009	  0.331
25202	 -0.445	 -0.268	  0.468	  0.141	  0.057	 -9.789	 -0.005	  0.002	  0.001	 33.100	 100.009	  0.331
25252	 -0.445	 -0.278	  0.467	  0.128	  0.041	 -9.769	 -0.003	  0.002	  0.001	 33.100	 100.009	  0.331
25302	 -0.448	 -0.280	  0.468	  0.146	  0.044	 -9.756	 -0.002	  0.003	  0.000	 33.100	 100.020	 -0.659
25352	 -0.446	 -0.268	  0.469	  0.119	  0.044	 -9.768	 -0.002	  0.002	  0.001	 33.100	 100.009	  0.331
25402	 -0.447	 -0.276	  0.465	  0.124	  0.035	 -9.750	 -0.004	  0.003	  0.001	 33.100	 99.997	  1.411
25452	 -0.448	 -0.282	  0.472	  0.141	  0.037	 -9.747	 -0.004	  0.001	  0.000	 33.100	 100.009	  0.331
25502	 -0.445	 -0.277	  0.463	  0.131	  0.054	 -9.754	 -0.003	  0.002	  0.001	 33.100	 100.020	 -0.659
25552	 -0.447	 -0.272	  0.468	  0.123	  0.069	 -9.763	 -0.003	  0.003	  0.001	 33.100	 100.016	 -0.298
25602	 -0.445	 -0.280	  0.467	  0.156	  0.040	 -9.760	 -0.002	  0.001	  0.000	 33.100	 100.009	  0.331
25652	 -0.445	 -0.279	  0.469	  0.120	  0.035	 -9.763	 -0.003	  0.003	  0.001	 33.100	 100.009	  0.331
25702	 -0.445	 -0.280	  0.472	  0.133	  0.040	 -9.740	 -0.004	  0.002	  0.001	 33.100	 100.009	  0.331
25752	 -0.444	 -0.277	  0.468	  0.149	  0.057	 -9.751	 -0.003	  0.002	  0.001	 33.100	 100.009	  0.331
25802	 -0.446	 -0.275	  0.469	  0.137	  0.051	 -9.774	 -0.003	  0.001	 -0.000	 33.100	 100.020	 -0.659
25852	 -0.446	 -0.279	  0.468	  0.134	  0.038	 -9.786	 -0.002	  0.002	  0.001	 33.100	 100.009	  0.331
25902	 -0.444	 -0.279	  0.468	  0.120	  0.065	 -9.743	 -0.003	  0.003	  0.000	 33.100	 100.009	  0.331
25952	 -0.445	 -0.268	  0.468	  0.140	  0.064	 -9.762	 -0.004	  0.002	  0.001	 33.100	 100.020	 -0.659
26002	 -0.446	 -0.266	  0.469	  0.110	  0.049	 -9.748	 -0.003	  0.002	  0.000	 33.100	 100.009	  0.331
26052	 -0.446	 -0.276	  0.466	  0.094	  0.058	 -9.739	 -0.003	  0.003	  0.000	 33.100	 100.020	 -0.659
26102	 -0.447	 -0.280	  0.469	  0.153	  0.040	 -9.787	 -0.002	  0.003	  0.000	 33.100	 100.020	 -0.659
26152	 -0.447	 -0.274	  0.469	  0.128	  0.058	 -9.766	 -0.003	  0.002	  0.001	 33.100	 100.009	  0.331
26202	 -0.446	 -0.280	  0.468	  0.127	  0.048	 -9.758	 -0.003	  0.003	  0.001	 33.100	 100.020	 -0.659
26252	 -0.444	 -0.273	  0.466	  0.145	  0.048	 -9.787	 -0.003	  0.002	  0.001	 33.100	 100.020	 -0.659
26302	 -0.446	 -0.282	  0.467	  0.109	  0.045	 -9.774	 -0.003	  0.004	  0.001	 33.100	 100.013	 -0.029
26352	 -0.445	 -0.281	  0.469	  0.122	  0.039	 -9.803	 -0.003	  0.003	  0.001	 33.100	 100.009	  0.331
26402	 -0.446	 -0.282	  0.466	  0.126	  0.045	 -9.779	 -0.003	  0.003	  0.001	 33.100	 100.009	  0.331
26452	 -0.446	 -0.279	  0.473	  0.139	  0.053	 -9.739	 -0.003	  0.002	  0.001	 33.100	 100.009	  0.331
26502	 -0.445	 -0.279	  0.464	  0.118	  0.046	 -9.768	 -0.004	  0.001	  0.001	 33.100	 100.009	  0.331
26552	 -0.445	 -0.280	  0.470	  0.127	  0.054	 -9.752	 -0.003	  0.002	  0.001	 33.100	 100.020	 -0.659
26602	 -0.444	 -0.280	  0.463	  0.126	  0.070	 -9.768	 -0.004	  0.002	  0.002	 33.100	 100.009	  0.331
26652	 -0.443	 -0.277	  0.467	  0.123	  0.043	 -9.745	 -0.003	  0.002	  0.001	 33.100	 100.020	 -0.659
26702	 -0.446	 -0.272	  0.468	  0.152	  0.039	 -9.778	 -0.003	  0.002	  0.001	 33.100	 100.020	 -0.659
26752	 -0.446	 -0.279	  0.466	  0.117	  0.064	 -9.802	 -0.003	  0.003	  0.001	 33.100	 100.009	  0.331
26802	 -0.447	 -0.280	  0.466	  0.146	  0.041	 -9.760	 -0.003	  0.002	  0.001	 33.100	 100.013	 -0.029
26852	 -0.444	 -0.281	  0.467	  0.094	  0.039	 -9.836	 -0.004	  0.005	  0.001	 33.100	 100.020	 -0.659
26902	 -0.445	 -0.272	  0.470	  0.105	  0.071	 -9.795	 -0.003	  0.003	  0.001	 33.100	 100.020	 -0.659
26952	 -0.447	 -0.277	  0.468	  0.122	  0.068	 -9.714	 -0.003	  0.003	  0.000	 33.100	 100.020	 -0.659
27002	 -0.445	 -0.283	  0.469	  0.139	  0.073	 -9.769	 -0.003	  0.001	 -0.000	 33.100	 100.009	  0.331
27052	 -0.449	 -0.285	  0.468	  0.108	  0.022	 -9.754	 -0.004	  0.002	  0.002	 33.100	 100.009	  0.331
27102	 -0.447	 -0.275	  0.469	  0.106	  0.049	 -9.785	 -0.005	  0.002	  0.001	 33.100	 100.009	  0.331
27152	 -0.448	 -0.281	  0.458	  0.147	  0.034	 -9.820	 -0.002	  0.002	  0.001	 33.100	 100.009	  0.331
27202	 -0.446	 -0.281	  0.466	  0.113	  0.043	 -9.729	 -0.003	  0.001	  0.001	 33.100	 100.024	 -1.020
27252	 -0.445	 -0.274	  0.467	  0.131	  0.042	 -9.759	 -0.003	  0.002	  0.001	 33.100	 100.020	 -0.659
27301	 -0.444	 -0.280	  0.470	  0.137	  0.058	 -9.738	 -0.003	  0.002	  0.001	 33.100	 100.009	  0.331
27351	 -0.442	 -0.280	  0.470	  0.134	  0.010	 -9.767	 -0.003	  0.002	  0.000	 33.100	 100.020	 -0.659
27401	 -0.448	 -0.281	  0.470	  0.126	  0.032	 -9.762	 -0.003	  0.002	  0.002	 33.100	 100.009	  0.331
27451	 -0.445	 -0.281	  0.468	  0.125	  0.051	 -9.724	 -0.003	  0.002	  0.001	 33.100	 100.020	 -0.659
