Time	 MagX	 MagY	 MagZ	 AccelX	 AccelY	 AccelZ	 Yaw	 Pitch	 Roll	 Temperature	 Pressure	 Altitude
16339	 -0.094	 -0.402	  0.282	  0.102	 -0.090	 -9.824	 -0.003	  0.003	  0.002	 32.700	 98.994	 -99999.000
16389	 -0.093	 -0.402	  0.282	  0.106	 -0.084	 -9.874	 -0.003	  0.003	  0.002	 32.600	 99.005	 -99999.000
16439	 -0.092	 -0.402	  0.273	  0.104	 -0.091	 -9.863	 -0.004	  0.001	 -0.001	 32.600	 99.005	 -99999.000
16489	 -0.094	 -0.402	  0.285	  0.115	 -0.093	 -9.827	 -0.003	  0.003	 -0.000	 32.600	 98.994	 -99999.000
16539	 -0.094	 -0.400	  0.282	  0.094	 -0.121	 -9.821	 -0.003	  0.000	 -0.000	 32.600	 98.994	 -99999.000
16589	 -0.093	 -0.404	  0.281	  0.110	 -0.105	 -9.841	 -0.002	  0.001	 -0.001	 32.600	 98.990	 -99999.000
16639	 -0.091	 -0.396	  0.276	  0.088	 -0.079	 -9.818	 -0.004	  0.003	  0.003	 32.600	 98.994	 -99999.000
16689	 -0.096	 -0.401	  0.279	  0.099	 -0.104	 -9.837	 -0.003	  0.003	 -0.001	 32.600	 98.994	 -99999.000
16739	 -0.095	 -0.403	  0.277	  0.112	 -0.114	 -9.803	 -0.004	  0.002	  0.003	 32.600	 99.005	 -99999.000
16789	 -0.093	 -0.404	  0.278	  0.090	 -0.075	 -9.850	 -0.003	  0.003	  0.001	 32.600	 98.994	 -99999.000
16839	 -0.091	 -0.404	  0.282	  0.100	 -0.111	 -9.764	 -0.004	  0.001	  0.001	 32.700	 99.009	 -99999.000
16889	 -0.093	 -0.403	  0.282	  0.089	 -0.108	 -9.871	 -0.004	  0.003	  0.003	 32.600	 98.994	 -99999.000
16938	 -0.092	 -0.402	  0.282	  0.091	 -0.100	 -9.839	 -0.005	  0.002	  0.001	 32.600	 99.005	 -99999.000
16988	 -0.093	 -0.399	  0.280	  0.072	 -0.091	 -9.846	 -0.003	  0.003	  0.002	 32.600	 98.982	 -99999.000
17038	 -0.093	 -0.401	  0.283	  0.105	 -0.106	 -9.806	 -0.003	  0.003	  0.001	 32.600	 99.005	 -99999.000
17088	 -0.094	 -0.404	  0.282	  0.109	 -0.088	 -9.819	 -0.004	  0.002	  0.001	 32.700	 98.982	 -99999.000
17138	 -0.093	 -0.405	  0.284	  0.098	 -0.093	 -9.822	 -0.002	  0.002	  0.002	 32.600	 98.994	 -99999.000
17188	 -0.096	 -0.405	  0.280	  0.114	 -0.081	 -9.815	 -0.004	  0.002	  0.001	 32.600	 98.994	 -99999.000
17238	 -0.094	 -0.395	  0.283	  0.113	 -0.105	 -9.818	 -0.003	  0.000	  0.002	 32.600	 98.994	 -99999.000
17288	 -0.094	 -0.394	  0.282	  0.101	 -0.089	 -9.834	 -0.005	  0.003	  0.002	 32.700	 98.994	 -99999.000
17338	 -0.093	 -0.393	  0.282	  0.117	 -0.073	 -9.850	 -0.003	  0.002	  0.000	 32.600	 98.982	 -99999.000
17388	 -0.090	 -0.403	  0.282	  0.084	 -0.111	 -9.826	 -0.004	  0.002	  0.000	 32.600	 98.994	 -99999.000
17438	 -0.092	 -0.402	  0.281	  0.090	 -0.069	 -9.838	 -0.004	  0.002	  0.003	 32.600	 98.994	 -99999.000
17488	 -0.094	 -0.397	  0.279	  0.109	 -0.084	 -9.846	 -0.004	  0.002	  0.001	 32.700	 98.987	 -99999.000
17538	 -0.094	 -0.402	  0.279	  0.122	 -0.099	 -9.830	 -0.004	  0.002	  0.001	 32.600	 98.994	 -99999.000
17588	 -0.094	 -0.405	  0.282	  0.100	 -0.095	 -9.831	 -0.004	  0.001	 -0.001	 32.700	 99.009	 -99999.000
17638	 -0.092	 -0.401	  0.278	  0.081	 -0.091	 -9.848	 -0.003	  0.004	  0.001	 32.600	 98.994	 -99999.000
17688	 -0.094	 -0.400	  0.279	  0.103	 -0.096	 -9.843	 -0.003	  0.002	  0.000	 32.600	 98.994	 -99999.000
17738	 -0.092	 -0.400	  0.278	  0.101	 -0.101	 -9.855	 -0.003	  0.002	  0.001	 32.600	 98.994	 -99999.000
17788	 -0.094	 -0.403	  0.278	  0.099	 -0.117	 -9.813	 -0.005	  0.003	  0.001	 32.700	 98.982	 -99999.000
17838	 -0.091	 -0.399	  0.281	  0.102	 -0.078	 -9.814	 -0.004	  0.002	  0.002	 32.600	 98.982	 -99999.000
17888	 -0.093	 -0.401	  0.278	  0.109	 -0.093	 -9.837	 -0.004	  0.001	 -0.000	 32.600	 99.005	 -99999.000
17938	 -0.094	 -0.404	  0.280	  0.115	 -0.085	 -9.829	 -0.003	  0.002	 -0.001	 32.700	 98.987	 -99999.000
17988	 -0.095	 -0.402	  0.283	  0.099	 -0.092	 -9.833	 -0.004	  0.003	  0.002	 32.700	 98.998	 -99999.000
18038	 -0.092	 -0.401	  0.282	  0.098	 -0.087	 -9.847	 -0.003	  0.003	  0.001	 32.600	 98.982	 -99999.000
18088	 -0.094	 -0.402	  0.284	  0.092	 -0.094	 -9.831	 -0.002	  0.003	  0.002	 32.700	 98.998	 -99999.000
18138	 -0.095	 -0.392	  0.280	  0.115	 -0.081	 -9.851	 -0.003	  0.002	  0.002	 32.700	 98.998	 -99999.000
18188	 -0.094	 -0.402	  0.278	  0.122	 -0.115	 -9.851	 -0.003	  0.002	  0.002	 32.600	 98.994	 -99999.000
18238	 -0.093	 -0.402	  0.280	  0.118	 -0.079	 -9.828	 -0.004	  0.002	  0.002	 32.600	 98.994	 -99999.000
18288	 -0.093	 -0.404	  0.281	  0.095	 -0.089	 -9.850	 -0.004	  0.003	  0.001	 32.700	 98.998	 -99999.000
18338	 -0.093	 -0.403	  0.280	  0.098	 -0.066	 -9.844	 -0.004	  0.003	  0.001	 32.600	 98.982	 -99999.000
18388	 -0.093	 -0.399	  0.283	  0.111	 -0.085	 -9.847	 -0.002	  0.003	  0.000	 32.700	 98.998	 -99999.000
18438	 -0.093	 -0.406	  0.283	  0.122	 -0.095	 -9.808	 -0.004	  0.002	  0.002	 32.700	 98.987	 -99999.000
18488	 -0.094	 -0.405	  0.271	  0.118	 -0.093	 -9.838	 -0.003	  0.002	  0.000	 32.700	 98.994	 -99999.000
18538	 -0.093	 -0.403	  0.284	  0.115	 -0.076	 -9.866	 -0.004	  0.003	 -0.000	 32.700	 98.994	 -99999.000
18588	 -0.093	 -0.399	  0.282	  0.103	 -0.106	 -9.845	 -0.004	  0.002	  0.000	 32.700	 98.998	 -99999.000
18638	 -0.093	 -0.401	  0.278	  0.113	 -0.093	 -9.839	 -0.003	  0.001	  0.001	 32.700	 98.998	 -99999.000
18688	 -0.092	 -0.401	  0.282	  0.092	 -0.075	 -9.874	 -0.003	  0.001	 -0.002	 32.700	 98.994	 -99999.000
18738	 -0.091	 -0.401	  0.277	  0.097	 -0.081	 -9.824	 -0.003	  0.002	  0.000	 32.700	 98.998	 -99999.000
18788	 -0.093	 -0.403	  0.281	  0.113	 -0.070	 -9.840	 -0.002	  0.002	  0.001	 32.700	 98.987	 -99999.000
18838	 -0.090	 -0.401	  0.282	  0.091	 -0.098	 -9.810	 -0.004	  0.002	  0.001	 32.700	 98.994	 -99999.000
18888	 -0.093	 -0.402	  0.283	  0.104	 -0.112	 -9.846	 -0.004	  0.002	  0.003	 32.700	 98.998	 -99999.000
18938	 -0.092	 -0.401	  0.282	  0.118	 -0.067	 -9.817	 -0.004	  0.002	  0.003	 32.700	 98.987	 -99999.000
18988	 -0.094	 -0.396	  0.274	  0.119	 -0.085	 -9.865	 -0.002	  0.002	  0.000	 32.700	 98.994	 -99999.000
19038	 -0.093	 -0.399	  0.278	  0.120	 -0.106	 -9.833	 -0.004	  0.001	 -0.000	 32.700	 98.994	 -99999.000
19088	 -0.092	 -0.392	  0.282	  0.084	 -0.076	 -9.846	 -0.003	  0.002	 -0.000	 32.700	 99.009	 -99999.000
19138	 -0.093	 -0.404	  0.280	  0.111	 -0.101	 -9.838	 -0.004	  0.001	 -0.002	 32.700	 98.998	 -99999.000
19188	 -0.092	 -0.399	  0.282	  0.073	 -0.105	 -9.860	 -0.003	  0.001	 -0.001	 32.700	 98.998	 -99999.000
19238	 -0.094	 -0.402	  0.279	  0.117	 -0.100	 -9.825	 -0.004	  0.001	 -0.001	 32.700	 98.998	 -99999.000
19288	 -0.093	 -0.401	  0.280	  0.132	 -0.084	 -9.850	 -0.003	  0.002	 -0.001	 32.700	 98.998	 -99999.000
19338	 -0.093	 -0.406	  0.282	  0.111	 -0.102	 -9.841	 -0.003	  0.002	 -0.000	 32.700	 98.998	 -99999.000
19388	 -0.093	 -0.401	  0.279	  0.096	 -0.090	 -9.866	 -0.004	  0.002	  0.002	 32.700	 98.987	 -99999.000
19438	 -0.093	 -0.404	  0.282	  0.102	 -0.095	 -9.847	 -0.004	  0.002	  0.001	 32.700	 98.998	 -99999.000
19488	 -0.091	 -0.391	  0.276	  0.115	 -0.093	 -9.851	 -0.004	  0.001	  0.000	 32.700	 98.998	 -99999.000
19538	 -0.093	 -0.400	  0.280	  0.105	 -0.094	 -9.844	 -0.003	  0.003	 -0.000	 32.700	 99.002	 -99999.000
19588	 -0.092	 -0.401	  0.284	  0.077	 -0.088	 -9.805	 -0.004	  0.001	  0.003	 32.700	 98.998	 -99999.000
19638	 -0.093	 -0.396	  0.282	  0.095	 -0.111	 -9.829	 -0.003	  0.003	 -0.000	 32.700	 98.998	 -99999.000
19688	 -0.092	 -0.402	  0.282	  0.104	 -0.112	 -9.826	 -0.004	  0.003	  0.002	 32.700	 98.982	 -99999.000
19738	 -0.093	 -0.405	  0.280	  0.106	 -0.110	 -9.840	 -0.004	  0.001	  0.000	 32.700	 98.987	 -99999.000
19788	 -0.092	 -0.397	  0.276	  0.088	 -0.083	 -9.851	 -0.003	  0.002	  0.001	 32.700	 98.998	 -99999.000
19839	 -0.095	 -0.403	  0.279	  0.090	 -0.089	 -9.822	 -0.002	  0.002	  0.002	 32.700	 98.987	 -99999.000
19888	 -0.095	 -0.399	  0.280	  0.109	 -0.108	 -9.833	 -0.004	  0.003	  0.003	 32.700	 98.998	 -99999.000
19938	 -0.093	 -0.402	  0.278	  0.117	 -0.094	 -9.793	 -0.004	  0.001	  0.000	 32.700	 98.998	 -99999.000
19988	 -0.093	 -0.404	  0.283	  0.117	 -0.081	 -9.812	 -0.004	  0.002	 -0.001	 32.700	 98.998	 -99999.000
20038	 -0.094	 -0.402	  0.279	  0.080	 -0.093	 -9.858	 -0.003	  0.001	  0.000	 32.700	 98.998	 -99999.000
20089	 -0.093	 -0.395	  0.282	  0.107	 -0.114	 -9.860	 -0.004	  0.003	  0.002	 32.700	 98.998	 -99999.000
20138	 -0.093	 -0.405	  0.284	  0.102	 -0.099	 -9.859	 -0.004	  0.001	  0.002	 32.700	 98.998	 -99999.000
20188	 -0.093	 -0.400	  0.279	  0.112	 -0.097	 -9.836	 -0.004	  0.003	 -0.001	 32.700	 98.998	 -99999.000
20238	 -0.093	 -0.403	  0.280	  0.125	 -0.089	 -9.839	 -0.003	  0.002	  0.003	 32.700	 99.002	 -99999.000
20288	 -0.094	 -0.406	  0.280	  0.121	 -0.086	 -9.832	 -0.002	  0.001	  0.001	 32.700	 99.002	 -99999.000
20339	 -0.094	 -0.407	  0.277	  0.100	 -0.086	 -9.818	 -0.003	  0.002	  0.001	 32.700	 98.998	 -99999.000
20388	 -0.093	 -0.404	  0.284	  0.111	 -0.113	 -9.854	 -0.003	  0.002	 -0.001	 32.700	 98.987	 -99999.000
20438	 -0.096	 -0.402	  0.278	  0.090	 -0.102	 -9.840	 -0.003	  0.002	  0.001	 32.700	 98.998	 -99999.000
20488	 -0.096	 -0.406	  0.282	  0.088	 -0.086	 -9.827	 -0.004	  0.002	  0.001	 32.700	 98.987	 -99999.000
20539	 -0.094	 -0.403	  0.282	  0.132	 -0.073	 -9.826	 -0.004	  0.002	  0.002	 32.700	 98.998	 -99999.000
20588	 -0.094	 -0.402	  0.280	  0.119	 -0.089	 -9.813	 -0.003	  0.002	 -0.001	 32.700	 99.009	 -99999.000
20639	 -0.091	 -0.403	  0.284	  0.091	 -0.110	 -9.832	 -0.004	  0.002	  0.000	 32.700	 98.987	 -99999.000
20689	 -0.091	 -0.401	  0.281	  0.091	 -0.101	 -9.857	 -0.005	  0.001	  0.001	 32.700	 98.987	 -99999.000
20739	 -0.091	 -0.400	  0.283	  0.091	 -0.093	 -9.824	 -0.002	  0.002	  0.002	 32.700	 98.998	 -99999.000
20789	 -0.094	 -0.400	  0.284	  0.111	 -0.110	 -9.858	 -0.003	  0.002	 -0.000	 32.700	 98.998	 -99999.000
20839	 -0.090	 -0.405	  0.282	  0.095	 -0.065	 -9.831	 -0.004	  0.003	  0.001	 32.700	 98.998	 -99999.000
20889	 -0.094	 -0.403	  0.282	  0.108	 -0.092	 -9.828	 -0.003	  0.003	  0.003	 32.700	 98.987	 -99999.000
20939	 -0.092	 -0.397	  0.283	  0.027	 -0.065	 -9.768	 -0.004	  0.002	  0.001	 32.700	 99.002	 -99999.000
20989	 -0.093	 -0.396	  0.284	  0.160	 -0.095	 -9.835	 -0.006	  0.001	 -0.000	 32.700	 98.987	 -99999.000
21039	 -0.091	 -0.400	  0.282	  0.068	 -0.103	 -9.853	 -0.004	  0.003	  0.002	 32.700	 99.009	 -99999.000
21089	 -0.093	 -0.403	  0.280	  0.130	 -0.077	 -9.835	 -0.003	  0.003	 -0.000	 32.700	 98.998	 -99999.000
21139	 -0.096	 -0.405	  0.280	  0.112	 -0.101	 -9.852	 -0.002	  0.003	  0.000	 32.700	 98.998	 -99999.000
21189	 -0.093	 -0.403	  0.278	  0.086	 -0.075	 -9.863	 -0.004	  0.002	 -0.000	 32.700	 99.002	 -99999.000
21239	 -0.093	 -0.389	  0.279	  0.125	 -0.125	 -9.827	 -0.004	  0.003	  0.001	 32.700	 98.998	 -99999.000
21289	 -0.093	 -0.403	  0.280	  0.110	 -0.083	 -9.839	 -0.004	  0.003	  0.002	 32.700	 98.998	 -99999.000
21339	 -0.094	 -0.403	  0.283	  0.093	 -0.102	 -9.811	 -0.003	  0.002	  0.002	 32.700	 98.987	 -99999.000
21389	 -0.093	 -0.399	  0.280	  0.093	 -0.098	 -9.853	 -0.004	  0.001	  0.001	 32.700	 99.002	 -99999.000
21439	 -0.093	 -0.400	  0.282	  0.104	 -0.088	 -9.826	 -0.004	  0.003	  0.002	 32.700	 98.987	 -99999.000
21489	 -0.095	 -0.404	  0.280	  0.086	 -0.122	 -9.829	 -0.003	  0.002	  0.002	 32.700	 98.998	 -99999.000
21539	 -0.093	 -0.403	  0.279	  0.115	 -0.100	 -9.807	 -0.004	  0.002	 -0.001	 32.700	 98.998	 -99999.000
21589	 -0.090	 -0.403	  0.283	  0.099	 -0.108	 -9.875	 -0.003	  0.002	  0.002	 32.700	 98.998	 -99999.000
21639	 -0.093	 -0.398	  0.277	  0.114	 -0.111	 -9.831	 -0.004	  0.003	  0.000	 32.700	 98.998	 -99999.000
21689	 -0.094	 -0.404	  0.278	  0.093	 -0.102	 -9.878	 -0.003	  0.003	 -0.000	 32.700	 98.998	 -99999.000
21739	 -0.094	 -0.406	  0.280	  0.107	 -0.068	 -9.819	 -0.002	  0.004	 -0.001	 32.700	 99.002	 -99999.000
21789	 -0.095	 -0.402	  0.282	  0.095	 -0.093	 -9.817	 -0.003	  0.001	  0.001	 32.700	 98.987	 -99999.000
21839	 -0.094	 -0.400	  0.285	  0.123	 -0.093	 -9.813	 -0.004	  0.002	  0.000	 32.700	 99.002	 -99999.000
21889	 -0.093	 -0.400	  0.279	  0.124	 -0.101	 -9.832	 -0.003	  0.004	  0.001	 32.700	 98.991	 -99999.000
21939	 -0.094	 -0.405	  0.276	  0.107	 -0.086	 -9.824	 -0.004	  0.003	  0.002	 32.700	 98.991	 -99999.000
21989	 -0.091	 -0.399	  0.282	  0.123	 -0.108	 -9.870	 -0.004	  0.001	  0.001	 32.700	 98.987	 -99999.000
22039	 -0.093	 -0.402	  0.280	  0.108	 -0.118	 -9.803	 -0.002	  0.002	  0.001	 32.700	 99.002	 -99999.000
22089	 -0.094	 -0.398	  0.277	  0.107	 -0.086	 -9.832	 -0.003	  0.002	  0.001	 32.700	 99.006	 -99999.000
22139	 -0.093	 -0.400	  0.278	  0.089	 -0.109	 -9.830	 -0.003	  0.002	 -0.001	 32.700	 99.002	 -99999.000
22189	 -0.093	 -0.401	  0.282	  0.099	 -0.071	 -9.827	 -0.004	  0.002	  0.001	 32.700	 98.987	 -99999.000
22239	 -0.091	 -0.390	  0.277	  0.119	 -0.107	 -9.815	 -0.004	  0.002	  0.002	 32.700	 98.991	 -99999.000
22289	 -0.094	 -0.405	  0.281	  0.112	 -0.091	 -9.847	 -0.004	  0.001	  0.000	 32.700	 98.991	 -99999.000
31714	 -0.093	 -0.393	  0.279	  0.085	 -0.062	 -9.950	  0.006	  0.007	  0.001	 32.700	 98.992	  0.350
31764	 -0.091	 -0.403	  0.280	  0.132	 -0.061	 -9.850	 -0.000	  0.005	 -0.000	 32.700	 98.988	  0.711
31814	 -0.095	 -0.403	  0.277	  0.124	 -0.117	 -9.735	 -0.007	  0.000	 -0.000	 32.700	 98.992	  0.350
31864	 -0.094	 -0.402	  0.282	  0.106	 -0.076	 -9.815	 -0.004	  0.002	  0.002	 32.700	 99.003	 -0.642
31914	 -0.095	 -0.404	  0.280	  0.101	 -0.118	 -9.834	 -0.004	  0.002	  0.001	 32.700	 98.992	  0.350
31964	 -0.094	 -0.395	  0.284	  0.096	 -0.116	 -9.846	 -0.004	  0.003	  0.000	 32.700	 98.992	  0.350
32014	 -0.094	 -0.398	  0.283	  0.116	 -0.091	 -9.832	 -0.004	  0.002	  0.001	 32.700	 98.988	  0.711
32064	 -0.094	 -0.403	  0.276	  0.103	 -0.089	 -9.832	 -0.003	  0.001	  0.001	 32.700	 98.992	  0.350
32114	 -0.095	 -0.403	  0.279	  0.110	 -0.084	 -9.798	 -0.003	  0.002	  0.001	 32.700	 98.992	  0.350
32164	 -0.094	 -0.408	  0.283	  0.114	 -0.089	 -9.803	 -0.001	  0.002	  0.002	 32.700	 98.988	  0.711
32214	 -0.094	 -0.402	  0.277	  0.109	 -0.066	 -9.846	 -0.004	  0.002	  0.000	 32.700	 98.992	  0.350
32264	 -0.091	 -0.398	  0.281	  0.104	 -0.120	 -9.862	 -0.004	  0.003	  0.001	 32.700	 98.992	  0.350
32314	 -0.094	 -0.405	  0.283	  0.126	 -0.067	 -9.802	 -0.004	  0.002	  0.001	 32.700	 98.992	  0.350
32364	 -0.094	 -0.404	  0.277	  0.082	 -0.106	 -9.849	 -0.003	  0.002	  0.000	 32.700	 98.996	 -0.011
32414	 -0.094	 -0.405	  0.277	  0.100	 -0.088	 -9.806	 -0.004	  0.003	  0.001	 32.700	 98.992	  0.350
32464	 -0.095	 -0.401	  0.282	  0.092	 -0.098	 -9.816	 -0.004	  0.001	 -0.000	 32.700	 99.003	 -0.642
32514	 -0.096	 -0.404	  0.285	  0.102	 -0.110	 -9.834	 -0.004	  0.002	  0.000	 32.700	 99.003	 -0.642
32564	 -0.094	 -0.405	  0.282	  0.108	 -0.079	 -9.829	 -0.005	  0.002	  0.000	 32.700	 98.992	  0.350
32614	 -0.095	 -0.402	  0.284	  0.115	 -0.095	 -9.814	 -0.003	  0.001	 -0.000	 32.700	 98.992	  0.350
32664	 -0.094	 -0.404	  0.280	  0.107	 -0.086	 -9.830	 -0.003	  0.002	  0.001	 32.700	 98.992	  0.350
32714	 -0.094	 -0.405	  0.281	  0.124	 -0.103	 -9.809	 -0.003	  0.002	  0.001	 32.700	 98.992	  0.350
32764	 -0.095	 -0.403	  0.278	  0.094	 -0.081	 -9.849	 -0.004	  0.003	 -0.001	 32.700	 99.003	 -0.642
32814	 -0.094	 -0.407	  0.282	  0.085	 -0.088	 -9.824	 -0.003	  0.001	  0.003	 32.700	 98.981	  1.341
32864	 -0.094	 -0.402	  0.282	  0.104	 -0.108	 -9.827	 -0.004	  0.001	  0.002	 32.700	 99.003	 -0.642
32914	 -0.094	 -0.401	  0.284	  0.111	 -0.105	 -9.857	 -0.004	  0.002	  0.002	 32.700	 98.992	  0.350
32964	 -0.094	 -0.402	  0.275	  0.123	 -0.091	 -9.851	 -0.004	  0.002	 -0.000	 32.700	 98.981	  1.341
33014	 -0.095	 -0.406	  0.285	  0.092	 -0.120	 -9.827	 -0.003	  0.003	 -0.000	 32.800	 98.996	 -0.011
33064	 -0.094	 -0.393	  0.282	  0.119	 -0.109	 -9.808	 -0.004	  0.002	 -0.001	 32.700	 99.003	 -0.642
33114	 -0.093	 -0.403	  0.281	  0.124	 -0.112	 -9.800	 -0.004	  0.003	  0.002	 32.800	 98.996	 -0.011
33164	 -0.094	 -0.401	  0.280	  0.129	 -0.086	 -9.794	 -0.004	  0.002	  0.002	 32.700	 99.003	 -0.642
33214	 -0.098	 -0.401	  0.280	  0.101	 -0.104	 -9.803	 -0.003	  0.002	  0.001	 32.700	 98.992	  0.350
33264	 -0.096	 -0.401	  0.284	  0.128	 -0.090	 -9.820	 -0.004	  0.003	  0.003	 32.700	 99.003	 -0.642
33314	 -0.094	 -0.402	  0.278	  0.103	 -0.054	 -9.859	 -0.003	  0.003	  0.001	 32.800	 98.985	  0.981
33364	 -0.094	 -0.405	  0.284	  0.114	 -0.103	 -9.843	 -0.005	  0.002	 -0.001	 32.800	 99.003	 -0.642
33414	 -0.094	 -0.400	  0.285	  0.142	 -0.088	 -9.844	 -0.004	  0.002	  0.004	 32.700	 99.003	 -0.642
33464	 -0.093	 -0.404	  0.280	  0.088	 -0.087	 -9.792	 -0.003	  0.003	  0.002	 32.800	 99.007	 -1.003
33514	 -0.091	 -0.404	  0.282	  0.097	 -0.093	 -9.843	 -0.003	  0.002	  0.002	 32.800	 98.996	 -0.011
33564	 -0.093	 -0.400	  0.280	  0.099	 -0.109	 -9.835	 -0.004	  0.003	  0.003	 32.700	 98.981	  1.341
33614	 -0.097	 -0.391	  0.280	  0.104	 -0.088	 -9.813	 -0.004	  0.002	  0.002	 32.800	 98.996	 -0.011
33664	 -0.094	 -0.401	  0.278	  0.088	 -0.089	 -9.832	 -0.003	  0.002	  0.002	 32.700	 98.992	  0.350
33714	 -0.095	 -0.397	  0.283	  0.107	 -0.113	 -9.830	 -0.003	  0.003	  0.001	 32.700	 99.003	 -0.642
33764	 -0.095	 -0.400	  0.282	  0.098	 -0.102	 -9.820	 -0.004	  0.003	  0.001	 32.700	 98.992	  0.350
33814	 -0.094	 -0.404	  0.284	  0.096	 -0.092	 -9.845	 -0.004	  0.003	  0.000	 32.800	 98.996	 -0.011
33864	 -0.095	 -0.405	  0.284	  0.117	 -0.101	 -9.835	 -0.003	  0.003	  0.001	 32.700	 99.007	 -1.003
33914	 -0.095	 -0.391	  0.280	  0.127	 -0.092	 -9.841	 -0.004	  0.002	 -0.000	 32.700	 98.992	  0.350
33964	 -0.097	 -0.407	  0.279	  0.102	 -0.098	 -9.791	 -0.003	  0.003	  0.001	 32.700	 98.985	  0.981
34014	 -0.096	 -0.399	  0.282	  0.100	 -0.097	 -9.832	 -0.003	  0.002	  0.000	 32.700	 98.992	  0.350
34064	 -0.095	 -0.401	  0.279	  0.090	 -0.086	 -9.791	 -0.004	  0.002	  0.000	 32.800	 98.992	  0.350
34114	 -0.094	 -0.405	  0.284	  0.119	 -0.088	 -9.844	 -0.004	  0.002	  0.001	 32.800	 98.996	 -0.011
34164	 -0.096	 -0.401	  0.283	  0.104	 -0.101	 -9.840	 -0.003	  0.002	  0.000	 32.700	 98.992	  0.350
34214	 -0.093	 -0.393	  0.282	  0.134	 -0.091	 -9.834	 -0.003	  0.003	  0.001	 32.800	 99.007	 -1.003
34264	 -0.095	 -0.401	  0.279	  0.082	 -0.105	 -9.834	 -0.004	  0.002	  0.002	 32.700	 98.992	  0.350
34314	 -0.094	 -0.403	  0.283	  0.122	 -0.084	 -9.818	 -0.004	  0.003	  0.002	 32.700	 98.981	  1.341
34364	 -0.092	 -0.396	  0.282	  0.107	 -0.104	 -9.805	 -0.003	  0.002	  0.001	 32.700	 99.007	 -1.003
34414	 -0.094	 -0.403	  0.277	  0.130	 -0.091	 -9.818	 -0.004	  0.003	  0.002	 32.700	 98.992	  0.350
34464	 -0.094	 -0.388	  0.271	  0.105	 -0.090	 -9.831	 -0.003	  0.003	  0.003	 32.800	 98.996	 -0.011
34514	 -0.093	 -0.398	  0.273	  0.113	 -0.099	 -9.814	 -0.004	  0.002	  0.001	 32.800	 98.985	  0.981
34564	 -0.097	 -0.406	  0.279	  0.093	 -0.099	 -9.818	 -0.005	  0.002	  0.001	 32.800	 98.996	 -0.011
34614	 -0.094	 -0.400	  0.282	  0.100	 -0.080	 -9.836	 -0.004	  0.001	  0.001	 32.700	 98.992	  0.350
34664	 -0.094	 -0.400	  0.279	  0.093	 -0.080	 -9.837	 -0.003	  0.002	  0.000	 32.700	 99.003	 -0.642
34714	 -0.097	 -0.399	  0.282	  0.099	 -0.105	 -9.845	 -0.004	  0.001	 -0.000	 32.800	 99.007	 -1.003
34764	 -0.094	 -0.403	  0.281	  0.099	 -0.103	 -9.851	 -0.004	  0.004	  0.001	 32.800	 99.007	 -1.003
34814	 -0.093	 -0.398	  0.282	  0.102	 -0.094	 -9.812	 -0.004	  0.001	  0.000	 32.800	 98.996	 -0.011
34864	 -0.093	 -0.398	  0.276	  0.083	 -0.098	 -9.882	 -0.004	  0.001	  0.001	 32.800	 98.996	 -0.011
34914	 -0.095	 -0.407	  0.282	  0.097	 -0.091	 -9.834	 -0.003	  0.003	  0.002	 32.800	 98.985	  0.981
34964	 -0.093	 -0.399	  0.277	  0.101	 -0.090	 -9.815	 -0.004	  0.001	  0.002	 32.800	 98.992	  0.350
35014	 -0.094	 -0.404	  0.280	  0.101	 -0.087	 -9.848	 -0.003	  0.002	  0.002	 32.800	 98.996	 -0.011
35064	 -0.095	 -0.403	  0.282	  0.099	 -0.086	 -9.825	 -0.004	  0.003	  0.001	 32.800	 98.985	  0.981
35114	 -0.094	 -0.401	  0.280	  0.104	 -0.079	 -9.819	 -0.004	  0.001	  0.003	 32.800	 98.996	 -0.011
35164	 -0.095	 -0.400	  0.280	  0.098	 -0.090	 -9.841	 -0.004	  0.002	 -0.001	 32.800	 99.003	 -0.642
35214	 -0.094	 -0.403	  0.278	  0.103	 -0.082	 -9.866	 -0.003	  0.003	  0.003	 32.700	 99.003	 -0.642
35264	 -0.094	 -0.404	  0.285	  0.105	 -0.086	 -9.828	 -0.003	  0.002	  0.002	 32.700	 98.996	 -0.011
35314	 -0.094	 -0.404	  0.283	  0.097	 -0.106	 -9.834	 -0.003	  0.002	  0.000	 32.700	 98.992	  0.350
35364	 -0.094	 -0.402	  0.278	  0.093	 -0.104	 -9.807	 -0.003	  0.002	  0.001	 32.800	 98.996	 -0.011
35414	 -0.094	 -0.404	  0.282	  0.113	 -0.089	 -9.857	 -0.003	  0.002	  0.002	 32.800	 98.996	 -0.011
35464	 -0.093	 -0.402	  0.282	  0.093	 -0.088	 -9.806	 -0.004	  0.002	  0.001	 32.800	 98.996	 -0.011
35514	 -0.094	 -0.402	  0.285	  0.071	 -0.087	 -9.854	 -0.003	  0.002	 -0.001	 32.700	 98.992	  0.350
35564	 -0.094	 -0.402	  0.284	  0.100	 -0.097	 -9.827	 -0.003	  0.001	  0.001	 32.800	 98.996	 -0.011
35614	 -0.094	 -0.403	  0.282	  0.100	 -0.101	 -9.824	 -0.004	  0.002	  0.002	 32.800	 99.007	 -1.003
35664	 -0.094	 -0.402	  0.279	  0.111	 -0.094	 -9.828	 -0.004	  0.002	  0.002	 32.800	 98.996	 -0.011
35714	 -0.094	 -0.400	  0.280	  0.116	 -0.094	 -9.858	 -0.003	  0.003	  0.001	 32.800	 98.985	  0.981
35764	 -0.095	 -0.406	  0.281	  0.106	 -0.095	 -9.853	 -0.002	  0.003	  0.001	 32.700	 98.985	  0.981
35814	 -0.096	 -0.394	  0.283	  0.094	 -0.083	 -9.809	 -0.004	  0.002	  0.002	 32.700	 99.003	 -0.642
35865	 -0.093	 -0.395	  0.280	  0.109	 -0.085	 -9.836	 -0.004	  0.002	 -0.000	 32.800	 98.996	 -0.011
35914	 -0.094	 -0.401	  0.282	  0.092	 -0.090	 -9.809	 -0.005	  0.001	  0.001	 32.800	 99.007	 -1.003
35964	 -0.093	 -0.398	  0.279	  0.103	 -0.097	 -9.826	 -0.004	  0.003	  0.001	 32.800	 98.996	 -0.011
36014	 -0.096	 -0.404	  0.277	  0.112	 -0.072	 -9.794	 -0.004	  0.002	  0.001	 32.800	 98.996	 -0.011
36064	 -0.092	 -0.390	  0.270	  0.100	 -0.090	 -9.814	 -0.003	  0.002	  0.001	 32.800	 98.996	 -0.011
36114	 -0.094	 -0.391	  0.273	  0.108	 -0.094	 -9.857	 -0.003	  0.002	  0.000	 32.800	 98.996	 -0.011
36164	 -0.094	 -0.407	  0.283	  0.096	 -0.097	 -9.842	 -0.004	  0.002	  0.001	 32.800	 98.996	 -0.011
36215	 -0.094	 -0.403	  0.282	  0.108	 -0.088	 -9.859	 -0.004	  0.002	  0.001	 32.800	 98.996	 -0.011
36265	 -0.095	 -0.401	  0.284	  0.108	 -0.070	 -9.848	 -0.004	  0.002	  0.001	 32.800	 98.996	 -0.011
36315	 -0.094	 -0.405	  0.280	  0.099	 -0.113	 -9.791	 -0.004	  0.003	  0.001	 32.800	 98.989	  0.620
36365	 -0.094	 -0.405	  0.285	  0.089	 -0.080	 -9.854	 -0.005	  0.002	  0.001	 32.800	 98.996	 -0.011
36415	 -0.095	 -0.403	  0.284	  0.111	 -0.100	 -9.834	 -0.002	  0.001	  0.000	 32.700	 98.992	  0.350
36465	 -0.094	 -0.400	  0.280	  0.096	 -0.087	 -9.836	 -0.003	  0.003	  0.000	 32.800	 98.996	 -0.011
36513	 -0.096	 -0.402	  0.283	  0.105	 -0.069	 -9.844	 -0.004	  0.003	  0.002	 32.800	 99.000	 -0.371
36564	 -0.095	 -0.402	  0.282	  0.081	 -0.089	 -9.841	 -0.003	  0.003	  0.002	 32.800	 98.996	 -0.011
36615	 -0.097	 -0.405	  0.275	  0.111	 -0.089	 -9.823	 -0.005	  0.003	  0.000	 32.800	 98.996	 -0.011
36664	 -0.094	 -0.404	  0.282	  0.098	 -0.075	 -9.862	 -0.003	  0.002	  0.001	 32.800	 99.007	 -1.003
36714	 -0.095	 -0.404	  0.284	  0.100	 -0.075	 -9.816	 -0.003	  0.001	  0.001	 32.800	 98.985	  0.981
36764	 -0.097	 -0.400	  0.277	  0.104	 -0.080	 -9.849	 -0.003	  0.002	  0.002	 32.800	 98.996	 -0.011
36814	 -0.094	 -0.404	  0.282	  0.087	 -0.100	 -9.862	 -0.003	  0.001	  0.000	 32.800	 98.996	 -0.011
36864	 -0.094	 -0.401	  0.278	  0.107	 -0.106	 -9.842	 -0.004	  0.004	  0.001	 32.800	 98.996	 -0.011
36914	 -0.094	 -0.403	  0.281	  0.103	 -0.094	 -9.831	 -0.004	  0.002	  0.000	 32.800	 98.996	 -0.011
36964	 -0.093	 -0.399	  0.280	  0.113	 -0.104	 -9.822	 -0.004	  0.002	  0.002	 32.800	 99.000	 -0.371
37014	 -0.095	 -0.403	  0.279	  0.101	 -0.092	 -9.828	 -0.003	  0.001	  0.002	 32.800	 98.985	  0.981
37064	 -0.094	 -0.404	  0.276	  0.103	 -0.087	 -9.819	 -0.005	  0.002	  0.001	 32.800	 99.000	 -0.371
37114	 -0.094	 -0.401	  0.278	  0.109	 -0.104	 -9.863	 -0.004	  0.003	  0.001	 32.800	 99.000	 -0.371
37164	 -0.094	 -0.400	  0.282	  0.118	 -0.102	 -9.854	 -0.003	  0.002	  0.002	 32.800	 99.000	 -0.371
37214	 -0.096	 -0.402	  0.283	  0.079	 -0.076	 -9.840	 -0.004	  0.002	  0.001	 32.800	 98.985	  0.981
37264	 -0.091	 -0.396	  0.281	  0.102	 -0.101	 -9.851	 -0.005	  0.001	  0.001	 32.800	 98.996	 -0.011
37314	 -0.093	 -0.400	  0.283	  0.085	 -0.089	 -9.861	 -0.003	  0.002	  0.001	 32.800	 99.000	 -0.371
37364	 -0.094	 -0.401	  0.277	  0.116	 -0.072	 -9.815	 -0.004	  0.002	  0.002	 32.800	 99.000	 -0.371
37414	 -0.093	 -0.390	  0.280	  0.109	 -0.110	 -9.824	 -0.002	  0.004	  0.003	 32.800	 98.985	  0.981
37464	 -0.093	 -0.398	  0.278	  0.117	 -0.086	 -9.811	 -0.002	  0.002	  0.003	 32.800	 98.996	 -0.011
37514	 -0.094	 -0.404	  0.283	  0.105	 -0.080	 -9.815	 -0.003	  0.003	  0.003	 32.800	 99.000	 -0.371
37564	 -0.094	 -0.399	  0.280	  0.089	 -0.085	 -9.820	 -0.004	  0.001	  0.002	 32.800	 98.985	  0.981
37614	 -0.094	 -0.402	  0.278	  0.099	 -0.120	 -9.845	 -0.004	  0.002	  0.001	 32.800	 98.985	  0.981
37664	 -0.094	 -0.400	  0.282	  0.085	 -0.074	 -9.841	 -0.004	  0.002	  0.001	 32.800	 98.989	  0.620
37714	 -0.094	 -0.401	  0.278	  0.107	 -0.082	 -9.840	 -0.004	  0.003	  0.002	 32.800	 98.989	  0.620
37764	 -0.094	 -0.400	  0.284	  0.097	 -0.082	 -9.821	 -0.004	  0.002	  0.000	 32.800	 98.996	 -0.011
37814	 -0.092	 -0.404	  0.282	  0.097	 -0.128	 -9.842	 -0.004	  0.001	 -0.000	 32.800	 99.000	 -0.371
37864	 -0.095	 -0.400	  0.283	  0.107	 -0.101	 -9.829	 -0.003	  0.003	  0.001	 32.800	 98.996	 -0.011
37914	 -0.093	 -0.398	  0.271	  0.081	 -0.104	 -9.856	 -0.004	  0.002	  0.001	 32.800	 98.989	  0.620
37964	 -0.094	 -0.404	  0.282	  0.102	 -0.113	 -9.842	 -0.004	  0.002	 -0.001	 32.800	 99.000	 -0.371
38014	 -0.094	 -0.404	  0.281	  0.110	 -0.109	 -9.852	 -0.004	  0.001	  0.002	 32.800	 99.000	 -0.371
38064	 -0.094	 -0.403	  0.281	  0.099	 -0.086	 -9.817	 -0.005	  0.002	  0.003	 32.800	 98.996	 -0.011
38114	 -0.093	 -0.397	  0.281	  0.126	 -0.135	 -9.842	 -0.003	  0.002	  0.000	 32.800	 98.989	  0.620
38164	 -0.095	 -0.399	  0.279	  0.106	 -0.099	 -9.816	 -0.003	  0.001	  0.002	 32.800	 98.989	  0.620
38214	 -0.095	 -0.399	  0.275	  0.091	 -0.087	 -9.829	 -0.002	  0.003	  0.001	 32.800	 98.996	 -0.011
38264	 -0.093	 -0.402	  0.281	  0.083	 -0.089	 -9.826	 -0.003	  0.002	  0.001	 32.800	 98.996	 -0.011
38314	 -0.094	 -0.405	  0.282	  0.103	 -0.078	 -9.835	 -0.004	  0.002	 -0.001	 32.800	 98.985	  0.981
38364	 -0.094	 -0.403	  0.282	  0.093	 -0.111	 -9.784	 -0.004	  0.002	 -0.002	 32.800	 99.000	 -0.371
38414	 -0.093	 -0.402	  0.280	  0.086	 -0.098	 -9.815	 -0.005	  0.002	  0.001	 32.800	 98.989	  0.620
38464	 -0.096	 -0.403	  0.282	  0.101	 -0.096	 -9.823	 -0.002	  0.003	  0.002	 32.800	 99.000	 -0.371
38514	 -0.094	 -0.401	  0.276	  0.125	 -0.087	 -9.791	 -0.004	  0.002	  0.002	 32.800	 99.011	 -1.363
38564	 -0.097	 -0.391	  0.285	  0.097	 -0.085	 -9.844	 -0.004	  0.001	  0.001	 32.800	 98.989	  0.620
38614	 -0.093	 -0.400	  0.282	  0.098	 -0.086	 -9.869	 -0.005	  0.002	 -0.000	 32.800	 98.989	  0.620
38664	 -0.094	 -0.406	  0.277	  0.114	 -0.100	 -9.822	 -0.004	  0.003	  0.001	 32.800	 98.989	  0.620
38714	 -0.094	 -0.401	  0.284	  0.086	 -0.099	 -9.829	 -0.004	  0.002	  0.002	 32.800	 99.000	 -0.371
38764	 -0.093	 -0.402	  0.277	  0.099	 -0.102	 -9.812	 -0.003	  0.003	  0.001	 32.800	 98.996	 -0.011
38814	 -0.097	 -0.405	  0.282	  0.059	 -0.089	 -9.798	 -0.003	  0.002	  0.002	 32.800	 99.000	 -0.371
38864	 -0.094	 -0.401	  0.274	  0.100	 -0.106	 -9.830	 -0.005	  0.003	  0.000	 32.800	 98.989	  0.620
38914	 -0.094	 -0.405	  0.280	  0.107	 -0.106	 -9.852	 -0.003	  0.001	  0.000	 32.800	 98.989	  0.620
38964	 -0.094	 -0.402	  0.278	  0.130	 -0.094	 -9.836	 -0.004	  0.001	  0.001	 32.800	 99.011	 -1.363
39014	 -0.094	 -0.402	  0.274	  0.079	 -0.078	 -9.857	 -0.004	  0.002	  0.003	 32.800	 98.989	  0.620
39064	 -0.095	 -0.405	  0.281	  0.110	 -0.107	 -9.858	 -0.004	  0.003	 -0.001	 32.800	 99.000	 -0.371
39114	 -0.094	 -0.398	  0.280	  0.100	 -0.089	 -9.807	 -0.004	  0.002	  0.001	 32.800	 99.000	 -0.371
39164	 -0.094	 -0.401	  0.284	  0.098	 -0.099	 -9.828	 -0.003	  0.002	 -0.001	 32.800	 99.000	 -0.371
39214	 -0.094	 -0.405	  0.283	  0.094	 -0.106	 -9.822	 -0.003	  0.002	  0.002	 32.800	 98.989	  0.620
39264	 -0.094	 -0.402	  0.280	  0.126	 -0.088	 -9.866	 -0.004	  0.002	  0.003	 32.800	 98.996	 -0.011
39314	 -0.094	 -0.402	  0.284	  0.112	 -0.100	 -9.832	 -0.002	  0.002	  0.002	 32.800	 98.989	  0.620
39364	 -0.094	 -0.394	  0.271	  0.101	 -0.098	 -9.869	 -0.003	  0.002	  0.000	 32.800	 99.000	 -0.371
39414	 -0.095	 -0.402	  0.280	  0.082	 -0.091	 -9.795	 -0.003	  0.001	 -0.001	 32.800	 99.000	 -0.371
39464	 -0.095	 -0.402	  0.283	  0.106	 -0.100	 -9.832	 -0.003	  0.001	  0.001	 32.800	 99.000	 -0.371
39514	 -0.094	 -0.399	  0.278	  0.118	 -0.081	 -9.822	 -0.003	  0.002	  0.003	 32.800	 98.989	  0.620
39564	 -0.094	 -0.403	  0.278	  0.119	 -0.092	 -9.820	 -0.003	  0.002	  0.002	 32.800	 99.000	 -0.371
39614	 -0.094	 -0.399	  0.274	  0.083	 -0.105	 -9.846	 -0.003	  0.003	  0.002	 32.800	 99.000	 -0.371
39664	 -0.094	 -0.402	  0.285	  0.096	 -0.087	 -9.814	 -0.004	  0.001	  0.002	 32.800	 98.989	  0.620
39714	 -0.094	 -0.401	  0.279	  0.096	 -0.092	 -9.809	 -0.003	  0.003	  0.002	 32.800	 99.000	 -0.371
39764	 -0.094	 -0.404	  0.283	  0.113	 -0.093	 -9.812	 -0.003	  0.003	  0.000	 32.800	 99.000	 -0.371
39814	 -0.094	 -0.399	  0.281	  0.123	 -0.086	 -9.854	 -0.005	  0.003	  0.003	 32.800	 99.000	 -0.371
39864	 -0.095	 -0.404	  0.284	  0.091	 -0.103	 -9.820	 -0.003	  0.002	 -0.000	 32.800	 98.989	  0.620
39914	 -0.094	 -0.399	  0.283	  0.091	 -0.096	 -9.836	 -0.004	  0.002	  0.003	 32.800	 98.989	  0.620
39964	 -0.094	 -0.399	  0.281	  0.122	 -0.080	 -9.847	 -0.004	  0.001	  0.001	 32.800	 98.989	  0.620
40014	 -0.093	 -0.394	  0.279	  0.117	 -0.094	 -9.827	 -0.004	  0.003	  0.000	 32.800	 98.989	  0.620
40064	 -0.094	 -0.404	  0.281	  0.098	 -0.074	 -9.840	 -0.004	  0.002	  0.002	 32.800	 99.000	 -0.371
40114	 -0.093	 -0.403	  0.282	  0.127	 -0.104	 -9.838	 -0.003	  0.003	  0.001	 32.800	 98.989	  0.620
40164	 -0.094	 -0.400	  0.280	  0.106	 -0.099	 -9.814	 -0.004	  0.002	  0.002	 32.800	 99.000	 -0.371
40214	 -0.094	 -0.401	  0.280	  0.113	 -0.104	 -9.825	 -0.004	  0.002	  0.001	 32.800	 98.989	  0.620
40264	 -0.095	 -0.405	  0.282	  0.098	 -0.104	 -9.867	 -0.003	  0.003	  0.001	 32.800	 99.000	 -0.371
40314	 -0.094	 -0.403	  0.281	  0.103	 -0.073	 -9.851	 -0.003	  0.003	  0.001	 32.800	 99.004	 -0.732
40364	 -0.094	 -0.404	  0.283	  0.108	 -0.102	 -9.830	 -0.004	  0.002	  0.002	 32.800	 99.000	 -0.371
40414	 -0.094	 -0.406	  0.281	  0.117	 -0.092	 -9.842	 -0.005	  0.002	 -0.000	 32.800	 99.004	 -0.732
40464	 -0.094	 -0.403	  0.282	  0.094	 -0.101	 -9.838	 -0.002	  0.002	  0.000	 32.800	 99.000	 -0.371
40513	 -0.093	 -0.394	  0.282	  0.118	 -0.092	 -9.823	 -0.004	  0.002	  0.001	 32.800	 99.000	 -0.371
40563	 -0.093	 -0.400	  0.273	  0.097	 -0.112	 -9.837	 -0.004	  0.002	  0.002	 32.800	 99.000	 -0.371
40613	 -0.095	 -0.403	  0.282	  0.117	 -0.085	 -9.844	 -0.004	  0.000	  0.002	 32.800	 98.989	  0.620
40663	 -0.096	 -0.400	  0.283	  0.104	 -0.091	 -9.822	 -0.004	  0.002	  0.001	 32.800	 99.004	 -0.732
40713	 -0.094	 -0.401	  0.281	  0.112	 -0.101	 -9.822	 -0.003	  0.002	  0.003	 32.800	 98.989	  0.620
40763	 -0.097	 -0.407	  0.282	  0.107	 -0.099	 -9.856	 -0.005	  0.002	  0.003	 32.800	 99.000	 -0.371
40813	 -0.094	 -0.398	  0.281	  0.122	 -0.102	 -9.813	 -0.005	  0.001	  0.003	 32.800	 99.000	 -0.371
40863	 -0.096	 -0.403	  0.283	  0.102	 -0.079	 -9.831	 -0.002	  0.002	  0.001	 32.800	 98.989	  0.620
40913	 -0.094	 -0.399	  0.278	  0.078	 -0.089	 -9.847	 -0.002	  0.001	 -0.001	 32.800	 99.004	 -0.732
40963	 -0.095	 -0.404	  0.276	  0.095	 -0.095	 -9.800	 -0.004	  0.002	  0.001	 32.800	 98.989	  0.620
41013	 -0.093	 -0.403	  0.284	  0.091	 -0.087	 -9.820	 -0.003	  0.001	  0.001	 32.800	 98.989	  0.620
41063	 -0.093	 -0.402	  0.281	  0.116	 -0.117	 -9.824	 -0.004	  0.001	  0.003	 32.800	 98.989	  0.620
41113	 -0.094	 -0.403	  0.281	  0.109	 -0.096	 -9.836	 -0.002	  0.002	  0.002	 32.800	 98.993	  0.260
41163	 -0.094	 -0.395	  0.282	  0.111	 -0.110	 -9.849	 -0.004	  0.002	 -0.000	 32.800	 99.000	 -0.371
41213	 -0.095	 -0.400	  0.283	  0.102	 -0.080	 -9.854	 -0.003	  0.003	  0.003	 32.800	 99.004	 -0.732
41263	 -0.092	 -0.389	  0.281	  0.111	 -0.086	 -9.833	 -0.003	  0.001	  0.001	 32.800	 98.993	  0.260
41314	 -0.094	 -0.405	  0.281	  0.119	 -0.104	 -9.824	 -0.004	  0.002	  0.002	 32.800	 99.004	 -0.732
41363	 -0.098	 -0.397	  0.284	  0.090	 -0.119	 -9.865	 -0.003	  0.002	 -0.000	 32.800	 98.993	  0.260
41413	 -0.094	 -0.403	  0.281	  0.099	 -0.098	 -9.835	 -0.004	  0.001	  0.001	 32.800	 99.004	 -0.732
41463	 -0.097	 -0.405	  0.282	  0.110	 -0.103	 -9.837	 -0.004	  0.002	  0.002	 32.800	 98.993	  0.260
41513	 -0.094	 -0.407	  0.278	  0.097	 -0.119	 -9.793	 -0.003	  0.001	  0.002	 32.800	 99.000	 -0.371
41563	 -0.094	 -0.396	  0.282	  0.108	 -0.093	 -9.836	 -0.003	  0.003	  0.002	 32.800	 98.989	  0.620
41613	 -0.093	 -0.404	  0.284	  0.108	 -0.094	 -9.846	 -0.003	  0.001	  0.001	 32.800	 99.000	 -0.371
41664	 -0.095	 -0.399	  0.280	  0.114	 -0.125	 -9.828	 -0.004	  0.002	  0.001	 32.800	 98.993	  0.260
41714	 -0.094	 -0.400	  0.277	  0.115	 -0.120	 -9.855	 -0.006	  0.004	  0.001	 32.800	 98.993	  0.260
41764	 -0.095	 -0.402	  0.282	  0.079	 -0.044	 -9.697	 -0.000	  0.002	  0.001	 32.800	 99.004	 -0.732
41814	 -0.095	 -0.391	  0.276	  0.118	 -0.129	 -9.910	 -0.002	  0.002	  0.003	 32.800	 98.989	  0.620
41864	 -0.094	 -0.394	  0.271	  0.077	 -0.059	 -9.830	 -0.005	  0.003	 -0.000	 32.800	 98.989	  0.620
41914	 -0.094	 -0.402	  0.277	  0.373	 -0.288	 -10.145	 -0.068	 -0.013	 -0.043	 32.800	 99.004	 -0.732
41964	 -0.093	 -0.403	  0.281	  0.317	  0.181	 -10.131	 -0.039	 -0.007	  0.033	 32.800	 99.000	 -0.371
42014	 -0.100	 -0.400	  0.279	 -1.055	  0.104	 -9.790	  0.011	  0.007	  0.384	 32.800	 99.004	 -0.732
42064	 -0.103	 -0.392	  0.278	  0.737	  0.631	 -12.741	 -0.194	 -0.042	 -0.028	 32.800	 98.993	  0.260
42114	 -0.104	 -0.414	  0.270	 -0.405	 -0.016	 -9.975	 -1.467	 -0.501	  1.435	 32.800	 98.982	  1.251
42164	 -0.119	 -0.424	  0.260	 -1.423	  0.799	 -9.518	 -0.461	  0.075	  0.869	 32.800	 98.993	  0.260
42214	 -0.129	 -0.423	  0.263	  3.480	  0.307	 -9.822	 -0.390	 -0.475	  0.651	 32.800	 98.993	  0.260
42264	 -0.125	 -0.423	  0.266	 -2.472	  3.337	 -10.240	 -0.415	  0.171	  0.539	 32.800	 99.000	 -0.371
42314	 -0.142	 -0.429	  0.260	  1.931	  1.607	 -11.878	 -0.918	  0.667	  0.228	 32.800	 98.993	  0.260
42364	 -0.140	 -0.437	  0.249	 -0.170	  1.960	 -6.884	 -0.287	  0.073	 -0.400	 32.800	 99.004	 -0.732
42414	 -0.140	 -0.432	  0.263	  2.373	  3.535	 -13.615	  0.403	 -0.349	  0.092	 32.800	 98.993	  0.260
42464	 -0.144	 -0.422	  0.274	  0.974	  0.496	 -10.382	  0.554	 -0.028	  0.377	 32.800	 99.004	 -0.732
42514	 -0.155	 -0.418	  0.273	 -0.169	  0.527	 -9.545	 -0.022	  0.293	  0.131	 32.800	 98.993	  0.260
42564	 -0.148	 -0.417	  0.278	  0.924	  0.976	 -11.096	 -0.063	 -0.495	 -0.286	 32.800	 98.993	  0.260
42614	 -0.136	 -0.415	  0.280	 -0.953	  2.110	 -8.595	  0.360	 -0.404	 -0.213	 32.800	 98.989	  0.620
42664	 -0.135	 -0.405	  0.288	 -0.081	  0.985	 -10.707	 -0.156	  0.532	  0.426	 32.800	 98.989	  0.620
42714	 -0.144	 -0.404	  0.282	  0.284	  0.980	 -9.743	  0.075	  0.365	  0.463	 32.800	 98.993	  0.260
42764	 -0.143	 -0.407	  0.282	 -0.474	  0.980	 -9.910	 -0.282	  0.005	 -0.072	 32.800	 98.993	  0.260
42814	 -0.144	 -0.406	  0.285	  0.304	  1.951	 -9.871	  0.022	  0.569	 -0.168	 32.800	 98.993	  0.260
42864	 -0.147	 -0.401	  0.281	  0.655	  1.198	 -9.597	  0.005	  0.320	 -0.193	 32.800	 98.993	  0.260
42914	 -0.147	 -0.401	  0.280	  0.350	  1.458	 -8.353	 -0.346	  0.069	 -0.174	 32.800	 98.993	  0.260
42964	 -0.141	 -0.396	  0.275	  1.173	  1.567	 -11.610	 -0.448	 -0.117	 -0.249	 32.800	 99.004	 -0.732
43014	 -0.140	 -0.409	  0.266	  0.417	  1.851	 -8.689	 -0.083	  0.096	  0.175	 32.800	 98.986	  0.891
43064	 -0.139	 -0.405	  0.274	  1.464	  1.803	 -11.368	 -0.010	  0.141	  0.340	 32.800	 98.993	  0.260
43114	 -0.148	 -0.409	  0.264	  0.491	  1.926	 -8.335	 -0.019	  0.093	  0.214	 32.800	 98.993	  0.260
43164	 -0.147	 -0.411	  0.256	 -0.191	  1.973	 -8.756	 -0.332	  0.014	  0.059	 32.800	 98.993	  0.260
43214	 -0.149	 -0.410	  0.265	  0.841	  1.359	 -9.380	  0.048	 -0.151	  0.115	 32.800	 98.997	 -0.101
43264	 -0.152	 -0.414	  0.270	  0.697	  1.594	 -9.056	  0.138	 -0.138	  0.052	 32.800	 98.993	  0.260
43314	 -0.151	 -0.401	  0.273	  0.764	  1.588	 -9.760	 -0.130	  0.032	 -0.132	 32.800	 99.008	 -1.093
43364	 -0.156	 -0.408	  0.271	  1.050	  1.608	 -9.835	 -0.081	  0.167	 -0.049	 32.800	 98.993	  0.260
43414	 -0.156	 -0.414	  0.275	  0.729	  2.718	 -9.023	  0.173	  0.210	  0.079	 32.800	 98.993	  0.260
43464	 -0.161	 -0.411	  0.276	  1.770	  0.691	 -9.205	 -0.083	 -0.121	 -0.032	 32.800	 98.997	 -0.101
43514	 -0.143	 -0.403	  0.294	  0.683	  5.594	 -5.805	  2.666	 -4.993	  1.792	 32.800	 98.993	  0.260
43564	 -0.122	 -0.383	  0.315	 -2.928	 -3.722	 -9.907	  0.115	 -0.627	  0.184	 32.800	 99.008	 -1.093
43614	 -0.124	 -0.399	  0.295	 -1.725	  1.051	 -11.659	 -0.375	  1.285	 -0.534	 32.800	 99.004	 -0.732
43664	 -0.134	 -0.406	  0.281	 -1.867	  0.856	 -8.739	 -0.560	  1.242	 -0.324	 32.800	 98.993	  0.260
43714	 -0.132	 -0.401	  0.275	 -1.169	  1.815	 -9.434	  0.319	  0.127	 -0.886	 32.800	 98.982	  1.251
43764	 -0.127	 -0.398	  0.286	 -0.796	  3.346	 -10.705	  0.323	  0.524	 -0.428	 32.800	 98.993	  0.260
43814	 -0.136	 -0.393	  0.291	 -0.551	  1.692	 -10.482	  0.404	  0.583	 -0.089	 32.800	 98.982	  1.251
43864	 -0.139	 -0.375	  0.291	  0.372	  1.459	 -10.448	  0.823	  0.276	  0.350	 32.800	 99.008	 -1.093
43914	 -0.139	 -0.354	  0.313	  0.683	 -0.774	 -10.786	  1.451	 -0.460	  0.670	 32.800	 99.004	 -0.732
43964	 -0.127	 -0.319	  0.326	 -0.146	 -1.058	 -10.403	  0.991	 -0.114	  0.212	 32.800	 98.993	  0.260
44014	 -0.121	 -0.297	  0.327	 -0.972	  0.008	 -9.455	  0.858	  0.066	  0.037	 32.800	 98.993	  0.260
44064	 -0.109	 -0.283	  0.332	 -1.426	  0.310	 -8.403	  0.581	 -0.602	  0.378	 32.800	 98.993	  0.260
44114	 -0.099	 -0.274	  0.339	 -0.613	 -0.026	 -8.473	  0.018	 -0.758	  0.766	 32.800	 98.982	  1.251
44164	 -0.091	 -0.281	  0.350	 -0.034	 -1.893	 -9.665	 -0.564	 -0.297	  0.574	 32.800	 98.982	  1.251
44214	 -0.082	 -0.280	  0.352	 -0.346	 -0.804	 -9.716	 -0.281	 -0.048	 -0.310	 32.800	 98.982	  1.251
44264	 -0.080	 -0.303	  0.356	  0.280	 -2.314	 -9.670	 -0.145	 -0.064	  0.009	 32.800	 99.004	 -0.732
44314	 -0.078	 -0.303	  0.352	  0.316	 -1.358	 -11.299	  0.041	  0.270	 -0.048	 32.800	 98.993	  0.260
44364	 -0.073	 -0.291	  0.353	 -0.557	 -2.682	 -9.624	  1.082	 -0.694	  0.139	 32.800	 98.993	  0.260
44414	 -0.058	 -0.269	  0.353	 -0.260	 -1.812	 -11.261	  0.463	 -0.034	  0.176	 32.800	 98.997	 -0.101
44464	 -0.064	 -0.263	  0.342	 -1.343	 -2.331	 -9.512	  0.075	  0.263	 -0.055	 32.800	 98.986	  0.891
44514	 -0.063	 -0.269	  0.336	 -1.399	 -1.298	 -9.863	 -0.029	  0.297	 -0.325	 32.800	 98.986	  0.891
44564	 -0.061	 -0.267	  0.330	 -0.808	 -0.341	 -9.174	 -0.219	  0.604	 -0.498	 32.800	 98.997	 -0.101
44614	 -0.069	 -0.269	  0.323	 -0.332	 -0.807	 -8.790	 -0.272	  0.324	 -0.331	 32.800	 98.982	  1.251
44664	 -0.070	 -0.279	  0.323	  0.612	 -1.355	 -10.300	 -0.199	 -0.171	 -0.194	 32.800	 98.982	  1.251
44714	 -0.060	 -0.273	  0.319	 -0.485	 -0.754	 -10.879	 -0.027	  0.243	 -0.416	 32.800	 98.997	 -0.101
44764	 -0.067	 -0.282	  0.316	  0.103	 -1.114	 -9.663	 -0.417	  0.527	 -0.496	 32.800	 98.997	 -0.101
44814	 -0.068	 -0.292	  0.307	  0.112	 -0.936	 -8.916	 -0.593	  0.585	 -0.469	 32.800	 98.997	 -0.101
44864	 -0.073	 -0.297	  0.306	 -0.020	 -0.877	 -8.743	  0.028	 -0.080	  0.538	 32.800	 98.993	  0.260
44914	 -0.081	 -0.292	  0.299	  0.748	 -0.105	 -11.792	 -0.974	  0.633	  0.875	 32.800	 98.997	 -0.101
44964	 -0.102	 -0.325	  0.285	 -0.082	 -0.669	 -8.998	 -1.342	  0.862	  0.743	 32.800	 98.986	  0.891
45014	 -0.118	 -0.328	  0.270	  0.970	 -0.135	 -8.045	 -0.666	  0.318	  0.088	 32.800	 98.997	 -0.101
45064	 -0.130	 -0.348	  0.271	  0.384	  0.785	 -8.581	 -0.126	  1.045	  0.296	 32.800	 98.993	  0.260
45114	 -0.131	 -0.349	  0.270	  0.694	 -1.232	 -9.134	 -0.240	 -0.667	 -0.129	 32.800	 98.997	 -0.101
45164	 -0.115	 -0.350	  0.270	  2.598	  0.502	 -9.376	  0.014	 -0.591	 -0.365	 32.800	 98.997	 -0.101
45214	 -0.105	 -0.340	  0.270	  0.997	  1.555	 -11.634	  0.170	 -0.248	  0.150	 32.800	 98.997	 -0.101
45264	 -0.124	 -0.351	  0.264	  0.757	  1.883	 -10.340	 -0.119	  1.974	  0.851	 32.800	 98.993	  0.260
45314	 -0.147	 -0.342	  0.269	  2.849	  0.135	 -8.542	  0.267	  0.497	  0.418	 32.800	 98.997	 -0.101
45364	 -0.151	 -0.343	  0.266	  1.658	  0.462	 -9.558	 -0.598	 -0.388	  0.613	 32.800	 98.993	  0.260
45414	 -0.152	 -0.345	  0.266	  2.049	  0.368	 -8.007	 -0.063	  0.162	  0.415	 32.800	 98.997	 -0.101
45464	 -0.149	 -0.337	  0.267	  0.588	 -0.245	 -8.465	  0.558	 -1.671	  0.787	 32.800	 98.997	 -0.101
45514	 -0.139	 -0.305	  0.277	  0.427	  0.241	 -11.770	  1.590	 -0.205	  1.073	 32.800	 98.986	  0.891
45564	 -0.143	 -0.298	  0.289	  2.956	 -0.523	 -9.394	 -0.758	  0.097	 -0.004	 32.800	 98.997	 -0.101
45614	 -0.146	 -0.318	  0.278	  1.506	 -0.161	 -10.414	 -1.062	  0.489	 -0.439	 32.800	 98.997	 -0.101
45664	 -0.153	 -0.334	  0.271	  1.185	  1.318	 -10.301	 -0.090	  0.989	 -0.319	 32.800	 98.997	 -0.101
45714	 -0.169	 -0.328	  0.266	  2.188	  0.096	 -8.055	  0.493	  0.859	 -0.180	 32.800	 98.986	  0.891
45764	 -0.169	 -0.317	  0.270	  2.170	  0.106	 -8.213	  0.171	 -0.850	 -0.013	 32.800	 98.997	 -0.101
45814	 -0.153	 -0.312	  0.277	  1.056	 -0.547	 -7.959	 -0.275	 -1.163	  0.373	 32.800	 98.993	  0.260
45864	 -0.141	 -0.310	  0.282	  2.910	 -0.047	 -10.786	 -0.067	 -0.608	 -0.055	 32.800	 98.986	  0.891
45914	 -0.133	 -0.320	  0.277	  1.066	  0.518	 -11.349	 -0.246	  0.362	 -0.046	 32.800	 98.993	  0.260
45964	 -0.157	 -0.325	  0.272	  1.241	  0.141	 -10.097	 -0.653	  1.827	 -0.378	 32.800	 98.993	  0.260
46014	 -0.178	 -0.332	  0.262	  3.333	  0.929	 -7.358	  0.044	  0.966	 -0.006	 32.800	 98.993	  0.260
46064	 -0.178	 -0.336	  0.266	  2.322	  1.413	 -7.227	 -0.132	 -0.921	 -0.172	 32.800	 98.997	 -0.101
46114	 -0.153	 -0.328	  0.273	  2.687	  0.469	 -11.352	 -0.519	 -1.432	 -0.264	 32.800	 98.986	  0.891
46164	 -0.137	 -0.334	  0.273	  2.492	  1.269	 -15.470	  0.216	  0.109	 -0.328	 32.800	 99.008	 -1.093
46214	 -0.145	 -0.336	  0.267	  3.006	  2.061	 -16.729	  0.174	  0.861	 -0.142	 32.800	 98.986	  0.891
46264	 -0.152	 -0.343	  0.265	 -0.869	  3.121	 -12.360	  0.716	  0.591	  0.093	 32.800	 98.986	  0.891
46314	 -0.168	 -0.334	  0.269	 -1.209	  1.041	  6.468	  1.295	  0.924	  0.863	 32.800	 98.997	 -0.101
46364	 -0.187	 -0.315	  0.267	 -0.267	  1.091	  7.864	 -0.386	  0.144	  0.369	 32.800	 98.997	 -0.101
46414	 -0.138	 -0.331	  0.281	 -4.122	 -0.048	 -42.303	 -1.695	 -5.861	 -0.524	 32.800	 99.008	 -1.093
46464	 -0.138	 -0.322	  0.289	  2.886	 -0.294	 -2.244	  2.300	  2.510	  0.957	 32.800	 98.997	 -0.101
46514	 -0.159	 -0.315	  0.287	  1.549	  1.325	  7.440	 -2.229	 -0.848	 -0.440	 32.800	 98.997	 -0.101
46564	 -0.131	 -0.339	  0.288	  4.189	 -4.002	 -20.458	  0.413	  0.121	 -0.002	 32.800	 98.990	  0.530
46614	 -0.139	 -0.326	  0.289	  1.539	  0.984	 -8.094	  0.350	  0.360	 -0.486	 32.800	 98.990	  0.530
46664	 -0.134	 -0.322	  0.293	  1.197	  0.704	 -10.348	  0.118	  0.091	 -0.718	 32.800	 98.986	  0.891
46715	 -0.135	 -0.317	  0.292	 -1.455	  1.375	 -8.743	  0.267	  0.270	 -0.505	 32.800	 98.997	 -0.101
46764	 -0.129	 -0.319	  0.299	  1.506	  0.023	 -9.407	  0.107	 -0.234	 -0.690	 32.800	 98.986	  0.891
46814	 -0.121	 -0.323	  0.293	  2.692	 -0.009	 -9.815	 -0.250	  0.818	 -0.914	 32.800	 98.986	  0.891
46865	 -0.134	 -0.326	  0.287	  2.143	  0.585	 -6.762	 -0.597	  0.787	 -0.193	 32.800	 99.008	 -1.093
46914	 -0.147	 -0.337	  0.280	  1.885	  1.541	 -8.343	 -0.069	  0.669	  0.734	 32.800	 99.001	 -0.462
46964	 -0.162	 -0.333	  0.276	  4.426	 -0.515	 -10.885	  0.033	  0.701	 -0.650	 32.800	 98.997	 -0.101
47014	 -0.155	 -0.335	  0.279	  1.335	  1.155	 -7.301	  0.178	 -0.522	 -0.701	 32.800	 98.990	  0.530
47064	 -0.140	 -0.320	  0.280	 -5.077	  4.569	 -3.844	  0.517	 -0.866	 -0.029	 32.800	 98.997	 -0.101
47114	 -0.112	 -0.319	  0.303	  1.054	  0.878	 -19.139	 -0.176	 -1.174	 -1.494	 32.800	 98.997	 -0.101
47164	 -0.080	 -0.325	  0.298	  0.066	  1.656	 -23.231	  1.606	 -0.533	 -1.073	 32.800	 98.986	  0.891
47215	 -0.076	 -0.298	  0.290	 -2.534	  0.510	 -7.251	  0.486	  0.269	 -0.125	 32.800	 98.997	 -0.101
47264	 -0.071	 -0.308	  0.297	  0.631	  6.257	 11.814	  0.607	  0.327	  0.048	 32.800	 98.986	  0.891
47315	 -0.076	 -0.319	  0.292	  3.949	  0.005	 14.476	 -2.142	 -1.421	  0.946	 32.800	 98.986	  0.891
47365	 -0.001	 -0.362	  0.268	  3.581	  3.050	 -52.690	 -0.627	 -1.852	 -1.342	 32.800	 99.001	 -0.462
47415	 -0.078	 -0.325	  0.295	 -11.357	  2.843	  9.585	  0.977	  4.886	  0.124	 32.800	 98.997	 -0.101
47465	 -0.085	 -0.331	  0.289	  6.386	  1.819	 -30.861	 -0.300	 -1.715	 -0.546	 32.800	 99.001	 -0.462
47515	 -0.131	 -0.310	  0.296	 -7.601	  3.504	  7.846	  1.922	  4.611	  1.206	 32.800	 98.979	  1.522
47565	 -0.128	 -0.322	  0.291	  7.619	 -1.783	 -17.935	 -3.676	 -5.725	 -1.956	 32.800	 98.997	 -0.101
47615	 -0.105	 -0.322	  0.286	  2.249	  1.055	 -22.170	  3.084	  4.061	  0.083	 32.800	 98.986	  0.891
47665	 -0.141	 -0.296	  0.291	 -12.877	  1.880	 30.120	 -1.544	 -2.713	 -0.948	 32.800	 98.990	  0.530
47715	 -0.050	 -0.338	  0.271	  9.997	 10.924	 -52.728	  0.543	 -0.322	 -0.894	 32.800	 99.013	 -1.544
47765	 -0.083	 -0.303	  0.301	 -13.730	 -5.631	 26.013	 -0.177	 -1.156	  1.012	 32.800	 98.986	  0.891
47815	 -0.017	 -0.340	  0.280	 11.694	 11.938	 -45.839	  1.203	 -0.354	 -1.084	 32.800	 99.001	 -0.462
47865	 -0.071	 -0.286	  0.306	 -12.710	 -9.412	 25.682	  1.300	  2.638	  1.890	 32.800	 98.986	  0.891
47915	 -0.027	 -0.331	  0.281	 14.662	  8.633	 -49.777	 -2.620	 -2.824	 -2.406	 32.800	 98.990	  0.530
47965	 -0.080	 -0.293	  0.301	 -14.283	  0.750	 14.215	  4.218	  4.031	  2.643	 32.800	 98.986	  0.891
48015	 -0.061	 -0.309	  0.298	  6.133	 -3.447	 -19.631	 -6.481	 -4.616	 -3.470	 32.800	 98.986	  0.891
48065	 -0.062	 -0.327	  0.287	 -0.695	  8.332	 -12.561	  4.285	  4.599	  2.971	 32.800	 98.990	  0.530
48115	 -0.084	 -0.313	  0.297	 -3.879	 -3.638	  9.488	 -3.638	 -4.066	 -1.559	 32.800	 98.979	  1.522
48165	 -0.034	 -0.337	  0.275	  9.191	  5.097	 -32.907	  1.288	  1.145	  0.760	 32.800	 98.990	  0.530
48215	 -0.067	 -0.328	  0.293	 -3.332	  0.930	 -0.868	  0.847	  0.829	  0.896	 32.800	 98.986	  0.891
48265	 -0.069	 -0.316	  0.294	 -1.007	 -0.682	 -3.323	  0.351	 -0.851	  0.031	 32.800	 98.990	  0.530
48315	 -0.058	 -0.317	  0.293	  2.457	 -2.864	 -10.859	 -1.568	 -0.099	 -0.204	 32.800	 98.979	  1.522
48365	 -0.048	 -0.345	  0.274	  0.781	  2.504	 -15.083	 -0.740	 -0.529	  0.062	 32.800	 98.990	  0.530
48415	 -0.058	 -0.354	  0.276	  1.350	  1.467	 -6.894	  0.144	  0.394	  0.490	 32.800	 98.990	  0.530
48465	 -0.055	 -0.344	  0.276	 -0.355	  0.800	 -8.733	 -0.133	 -0.321	  0.160	 32.800	 98.974	  1.973
48515	 -0.066	 -0.347	  0.277	  1.304	  1.570	 -5.983	  0.896	  0.259	  0.976	 32.800	 98.986	  0.891
48565	 -0.067	 -0.335	  0.289	  0.220	  0.157	 -11.344	  0.279	 -0.574	  0.364	 32.800	 98.986	  0.891
48615	 -0.050	 -0.343	  0.285	  2.147	  2.455	 -7.951	  0.039	 -1.829	 -0.000	 32.800	 98.990	  0.530
48664	 -0.021	 -0.326	  0.290	 -1.961	  0.470	 -11.070	  0.711	 -0.813	 -0.330	 32.800	 98.990	  0.530
48715	 -0.016	 -0.315	  0.300	  0.139	 -1.674	 -12.104	  0.857	 -0.307	  0.374	 32.800	 98.990	  0.530
48764	  0.000	 -0.321	  0.288	  1.917	 -2.151	 -10.599	 -2.715	 -1.215	 -0.131	 32.800	 98.979	  1.522
48815	  0.016	 -0.368	  0.251	 -2.178	  1.001	 -8.724	 -2.736	 -0.603	  0.310	 32.800	 98.986	  0.891
48864	  0.002	 -0.410	  0.226	 -0.622	  2.483	 -8.688	 -1.261	  0.767	  0.711	 32.800	 98.997	 -0.101
48914	 -0.014	 -0.426	  0.218	 -1.139	  3.773	 -8.886	 -0.934	  0.075	  0.602	 32.800	 98.990	  0.530
48964	 -0.023	 -0.427	  0.214	 -0.056	  3.239	 -9.227	  0.245	 -0.164	  0.729	 32.800	 98.990	  0.530
49014	 -0.022	 -0.427	  0.217	 -1.122	  3.899	 -9.931	  0.251	 -0.282	  0.116	 32.800	 98.986	  0.891
49064	 -0.025	 -0.428	  0.216	 -0.274	  2.472	 -9.303	  0.286	 -0.454	  0.136	 32.800	 98.986	  0.891
49114	 -0.016	 -0.419	  0.219	 -1.479	  2.961	 -9.329	  0.547	 -0.750	 -0.064	 32.800	 98.979	  1.522
49164	 -0.006	 -0.407	  0.224	 -1.393	  2.614	 -9.084	  0.531	 -0.614	  0.119	 32.800	 98.974	  1.973
49215	  0.007	 -0.407	  0.230	 -1.516	  1.791	 -8.814	  0.608	 -1.054	  0.040	 32.800	 98.979	  1.522
49264	  0.025	 -0.398	  0.238	 -1.844	  2.164	 -10.939	  0.407	 -1.016	 -0.126	 32.800	 98.986	  0.891
49315	  0.032	 -0.400	  0.235	 -2.531	  1.080	 -9.838	 -0.727	  0.269	 -0.189	 32.800	 98.979	  1.522
49364	  0.023	 -0.410	  0.223	 -0.727	  2.050	 -8.272	 -0.621	  1.002	 -0.067	 32.800	 98.990	  0.530
49414	  0.011	 -0.398	  0.219	 -1.387	  2.385	 -7.682	  0.008	  1.078	 -0.466	 32.800	 98.990	  0.530
49465	  0.012	 -0.391	  0.235	 -0.844	  2.394	 -9.830	  0.698	 -0.388	 -0.355	 32.800	 98.986	  0.891
49514	  0.022	 -0.391	  0.244	 -2.323	  2.085	 -13.518	  0.233	  0.289	 -0.377	 32.800	 98.979	  1.522
49564	  0.018	 -0.383	  0.251	 -1.332	  1.880	 -7.364	  0.071	  0.426	 -0.452	 32.800	 98.990	  0.530
49614	  0.022	 -0.380	  0.251	 -2.936	  1.566	 -9.283	  0.045	  0.365	 -0.416	 32.800	 98.986	  0.891
49664	  0.016	 -0.376	  0.260	 -2.455	  2.686	 -9.518	  0.325	 -0.028	  0.116	 32.800	 98.986	  0.891
49714	  0.022	 -0.373	  0.257	 -1.003	  0.531	 -8.228	  0.247	 -0.401	  0.076	 32.800	 98.979	  1.522
49764	  0.032	 -0.373	  0.259	 -2.270	  2.420	 -11.658	  0.067	 -1.028	  0.053	 32.800	 98.990	  0.530
49814	  0.043	 -0.372	  0.257	 -2.380	  1.396	 -9.202	 -0.146	 -0.260	  0.088	 32.800	 98.979	  1.522
49864	  0.050	 -0.371	  0.254	 -2.893	  1.413	 -10.670	  0.070	 -0.319	 -0.057	 32.800	 99.001	 -0.462
49914	  0.048	 -0.369	  0.258	 -2.046	  1.280	 -9.539	  0.059	  0.062	  0.141	 32.800	 98.990	  0.530
49964	  0.048	 -0.370	  0.259	 -2.584	  1.584	 -8.977	  0.114	 -0.298	  0.078	 32.800	 98.990	  0.530
50014	  0.047	 -0.371	  0.257	 -2.575	  1.572	 -10.360	  0.024	  0.065	  0.132	 32.800	 98.990	  0.530
50064	  0.044	 -0.370	  0.253	 -2.455	  1.177	 -9.251	 -0.089	 -0.013	 -0.017	 32.800	 98.990	  0.530
50114	  0.045	 -0.367	  0.253	 -2.512	  1.501	 -9.173	 -0.092	 -0.046	  0.022	 32.800	 98.990	  0.530
50164	  0.041	 -0.373	  0.254	 -2.426	  1.373	 -9.028	 -0.063	  0.114	  0.014	 32.800	 98.986	  0.891
50214	  0.044	 -0.371	  0.257	 -2.498	  1.853	 -9.401	  0.190	 -0.191	 -0.053	 32.800	 98.990	  0.530
50264	  0.045	 -0.371	  0.257	 -2.756	  1.328	 -9.529	  0.044	  0.017	 -0.051	 32.800	 98.990	  0.530
50314	  0.045	 -0.371	  0.252	 -2.476	  1.394	 -9.132	  0.026	 -0.061	  0.022	 32.800	 98.994	  0.169
50364	  0.043	 -0.370	  0.260	 -2.491	  1.180	 -9.907	 -0.055	  0.027	 -0.037	 32.800	 98.979	  1.522
50414	  0.041	 -0.373	  0.257	 -2.621	  1.407	 -9.163	 -0.189	  0.132	  0.026	 32.800	 98.990	  0.530
50464	  0.043	 -0.369	  0.253	 -2.469	  1.535	 -9.232	  0.062	 -0.125	 -0.028	 32.800	 98.983	  1.161
50514	  0.047	 -0.368	  0.259	 -2.489	  1.675	 -9.491	 -0.064	  0.016	 -0.042	 32.800	 98.994	  0.169
50564	  0.043	 -0.368	  0.257	 -2.653	  1.557	 -9.451	  0.001	  0.045	 -0.064	 32.800	 98.990	  0.530
50614	  0.043	 -0.372	  0.258	 -2.559	  1.341	 -9.276	 -0.063	  0.136	 -0.008	 32.800	 98.990	  0.530
50664	  0.041	 -0.372	  0.258	 -2.490	  1.490	 -9.148	  0.022	 -0.071	 -0.027	 32.800	 98.979	  1.522
50714	  0.041	 -0.370	  0.257	 -2.500	  1.439	 -9.604	 -0.087	  0.013	 -0.066	 32.800	 98.990	  0.530
50764	  0.043	 -0.374	  0.254	 -2.487	  1.713	 -9.052	 -0.013	 -0.031	 -0.057	 32.800	 98.994	  0.169
50814	  0.046	 -0.366	  0.252	 -2.920	  1.417	 -10.153	 -0.177	 -0.058	 -0.164	 32.800	 98.979	  1.522
50864	  0.043	 -0.372	  0.252	 -2.492	  1.785	 -9.208	 -0.089	  0.112	  0.112	 32.800	 98.990	  0.530
50914	  0.044	 -0.375	  0.253	 -2.961	  2.139	 -9.783	 -0.287	 -0.140	  0.072	 32.800	 98.990	  0.530
50964	  0.044	 -0.380	  0.246	 -2.911	  2.334	 -9.211	 -0.173	  0.195	  0.056	 32.800	 98.983	  1.161
51014	  0.043	 -0.384	  0.245	 -2.676	  1.775	 -9.770	 -0.153	 -0.183	  0.093	 32.800	 98.994	  0.169
51064	  0.040	 -0.387	  0.243	 -3.236	  1.839	 -8.286	 -0.234	  0.196	  0.280	 32.800	 98.994	  0.169
51114	  0.038	 -0.396	  0.240	 -2.600	  1.982	 -10.224	 -0.230	 -0.267	  0.254	 32.800	 98.979	  1.522
51164	  0.037	 -0.398	  0.236	 -2.633	  2.476	 -8.456	  0.236	  0.073	  0.323	 32.800	 98.983	  1.161
51214	  0.034	 -0.396	  0.239	 -2.373	  1.546	 -10.922	  0.229	 -0.036	  0.324	 32.800	 98.994	  0.169
51264	  0.029	 -0.395	  0.241	 -2.101	  1.944	 -8.085	  0.058	  0.264	  0.106	 32.800	 98.994	  0.169
51314	  0.030	 -0.390	  0.247	 -2.884	  1.558	 -10.298	  0.464	  0.015	 -0.005	 32.800	 98.990	  0.530
51364	  0.029	 -0.392	  0.252	 -1.729	  1.393	 -8.990	  0.232	 -0.129	  0.132	 32.800	 98.994	  0.169
51414	  0.027	 -0.386	  0.251	 -3.038	  1.622	 -9.654	 -0.120	  0.415	  0.090	 32.800	 98.979	  1.522
51464	  0.027	 -0.390	  0.255	 -2.388	  2.469	 -9.323	  0.087	 -0.238	 -0.043	 32.800	 98.994	  0.169
51514	  0.025	 -0.389	  0.252	 -2.478	  1.575	 -8.623	 -0.154	  0.085	  0.161	 32.800	 98.979	  1.522
51564	  0.020	 -0.390	  0.255	 -1.957	  1.386	 -11.194	  0.070	  0.175	 -0.099	 32.800	 98.990	  0.530
51614	  0.022	 -0.389	  0.252	 -1.739	  2.474	 -9.310	  0.195	 -0.082	  0.024	 32.800	 98.979	  1.522
51664	  0.024	 -0.385	  0.256	 -1.662	  0.795	 -8.826	 -0.064	  0.190	 -0.088	 32.800	 98.994	  0.169
51714	  0.019	 -0.389	  0.255	 -2.536	  2.905	 -9.885	  0.305	  0.335	  0.118	 32.800	 98.990	  0.530
51764	  0.013	 -0.354	  0.266	 -3.842	 -1.603	 -1.244	  3.791	 -0.122	 -0.860	 32.800	 98.994	  0.169
51814	  0.024	 -0.319	  0.297	 -2.279	 -0.459	 -10.095	  1.352	 -0.070	  0.386	 32.800	 98.990	  0.530
51864	  0.020	 -0.320	  0.297	 -0.971	 -0.080	 -9.591	 -0.747	  0.216	  0.043	 32.800	 98.983	  1.161
51914	  0.015	 -0.325	  0.297	 -3.052	 -0.337	 -11.597	 -0.243	  0.239	 -0.107	 32.800	 98.994	  0.169
51964	  0.011	 -0.319	  0.287	 -2.956	  1.101	 -11.205	 -0.108	  0.233	 -0.188	 32.800	 98.990	  0.530
52014	  0.006	 -0.322	  0.293	 -2.755	  2.054	 -10.555	  0.488	  0.329	 -0.136	 32.800	 98.979	  1.522
52064	 -0.003	 -0.324	  0.294	 -2.527	  2.294	 -11.605	 -0.094	  0.370	  0.028	 32.800	 98.990	  0.530
52114	 -0.006	 -0.331	  0.285	 -3.120	  2.879	 -10.908	 -0.125	  0.201	  0.645	 32.800	 98.983	  1.161
52164	 -0.012	 -0.339	  0.282	 -3.091	  3.795	 -12.052	  0.061	  0.111	  0.893	 32.800	 98.979	  1.522
52214	 -0.026	 -0.333	  0.282	 -2.255	  2.612	 -9.816	  1.041	  1.007	  1.202	 32.800	 98.994	  0.169
52264	 -0.049	 -0.320	  0.287	 -1.757	  2.788	 -10.656	  0.488	  1.088	  1.564	 32.800	 98.994	  0.169
52314	 -0.081	 -0.324	  0.285	 -1.152	  1.459	 -8.610	  0.109	  0.985	  2.476	 32.800	 98.983	  1.161
52364	 -0.105	 -0.314	  0.280	 -1.510	  1.109	 -8.390	  0.264	  0.541	  3.041	 32.800	 98.983	  1.161
52414	 -0.139	 -0.304	  0.276	 -1.593	  0.061	 -9.152	 -0.096	  0.508	  3.445	 32.800	 98.983	  1.161
52464	 -0.166	 -0.294	  0.269	 -1.364	 -0.084	 -7.774	 -0.366	  0.262	  3.670	 32.800	 98.983	  1.161
52514	 -0.183	 -0.287	  0.267	 -1.041	  0.282	 -7.599	 -0.002	 -0.026	  3.086	 32.800	 98.994	  0.169
52564	 -0.200	 -0.268	  0.268	 -0.129	 -0.756	 -8.985	  0.482	  0.410	  2.911	 32.800	 98.990	  0.530
52615	 -0.219	 -0.248	  0.265	  0.174	 -0.522	 -8.046	 -0.219	  0.859	  2.159	 32.800	 98.983	  1.161
52664	 -0.231	 -0.243	  0.257	  0.900	 -1.660	 -8.634	 -0.386	  0.149	  1.616	 32.800	 98.971	  2.243
52714	 -0.235	 -0.239	  0.250	  0.700	 -0.774	 -9.668	 -0.465	  0.488	  1.144	 32.800	 98.983	  1.161
52763	 -0.237	 -0.241	  0.248	  0.872	 -1.914	 -9.745	 -0.282	  0.056	  0.781	 32.800	 98.983	  1.161
52813	 -0.235	 -0.243	  0.241	 -0.066	 -0.658	 -9.999	 -0.286	  0.514	  0.419	 32.800	 98.979	  1.522
52864	 -0.240	 -0.242	  0.234	 -0.374	 -1.610	 -9.465	  0.066	 -0.070	  0.744	 32.800	 98.983	  1.161
52914	 -0.232	 -0.237	  0.237	 -0.155	 -1.728	 -11.090	 -0.243	 -0.439	  0.822	 32.800	 98.983	  1.161
52964	 -0.229	 -0.238	  0.242	 -0.118	 -0.708	 -9.827	 -0.440	  0.087	  0.904	 32.800	 98.983	  1.161
53014	 -0.226	 -0.234	  0.235	  0.320	 -1.448	 -9.499	 -0.357	 -0.502	  0.907	 32.800	 98.983	  1.161
53063	 -0.219	 -0.234	  0.244	 -0.155	 -0.585	 -9.489	  0.085	 -0.596	  0.860	 32.800	 98.983	  1.161
53114	 -0.211	 -0.223	  0.250	 -0.035	 -1.217	 -9.002	  0.293	 -0.205	  0.800	 32.800	 98.994	  0.169
53164	 -0.209	 -0.219	  0.251	 -0.124	 -1.087	 -9.148	  0.018	  0.165	  0.588	 32.800	 98.994	  0.169
53214	 -0.211	 -0.214	  0.249	  0.397	 -1.867	 -8.868	 -0.034	  0.036	  0.622	 32.900	 98.983	  1.161
53265	 -0.209	 -0.209	  0.250	  0.783	 -1.867	 -9.670	  0.107	 -0.107	  0.403	 32.800	 98.979	  1.522
53315	 -0.206	 -0.203	  0.257	  0.740	 -1.827	 -10.603	  0.051	 -0.077	  0.566	 32.800	 98.983	  1.161
53365	 -0.202	 -0.204	  0.266	 -0.115	 -0.950	 -11.610	 -0.330	 -0.072	  0.415	 32.800	 98.983	  1.161
53415	 -0.206	 -0.205	  0.266	 -0.220	 -0.990	 -10.569	 -0.188	  0.286	  0.671	 32.800	 98.983	  1.161
53464	 -0.207	 -0.202	  0.269	 -0.328	 -0.634	 -10.164	 -0.004	 -0.294	  0.759	 32.800	 98.994	  0.169
53515	 -0.201	 -0.199	  0.279	  0.645	 -0.807	 -11.452	 -0.219	 -0.549	  0.808	 32.800	 98.994	  0.169
53564	 -0.201	 -0.195	  0.280	  0.932	 -1.318	 -9.987	 -0.028	  0.267	  0.734	 32.800	 98.983	  1.161
53614	 -0.211	 -0.193	  0.281	  0.042	 -0.555	 -8.854	  0.043	 -0.070	  0.228	 32.800	 98.994	  0.169
53664	 -0.213	 -0.190	  0.288	  0.247	 -0.602	 -8.929	  0.214	  0.180	  0.657	 32.800	 98.983	  1.161
53714	 -0.222	 -0.182	  0.292	  0.282	 -1.030	 -7.622	  0.204	 -0.220	  0.482	 32.800	 98.971	  2.243
53764	 -0.224	 -0.181	  0.296	  0.526	 -0.932	 -7.732	  0.297	 -0.074	  0.175	 32.800	 98.983	  1.161
53814	 -0.231	 -0.180	  0.295	  1.647	 -1.437	 -8.905	  0.208	 -0.031	 -0.207	 32.800	 98.990	  0.530
53864	 -0.231	 -0.180	  0.295	  1.954	 -2.094	 -10.471	  0.230	  0.131	 -0.459	 32.800	 98.983	  1.161
53914	 -0.240	 -0.191	  0.296	  1.366	 -1.949	 -11.407	  0.064	  0.057	 -0.555	 32.800	 98.983	  1.161
53964	 -0.245	 -0.202	  0.296	  0.770	 -2.106	 -11.943	 -0.217	  0.248	 -0.598	 32.800	 98.983	  1.161
54014	 -0.250	 -0.220	  0.291	 -0.216	 -1.568	 -10.672	  0.001	  0.477	 -0.872	 32.800	 98.983	  1.161
54064	 -0.255	 -0.227	  0.287	 -0.912	 -2.276	 -11.577	 -0.018	 -0.063	 -0.929	 32.800	 98.994	  0.169
54114	 -0.247	 -0.240	  0.289	 -1.525	 -0.395	 -11.065	 -0.294	  0.323	 -0.508	 32.800	 98.983	  1.161
54164	 -0.258	 -0.245	  0.290	 -0.833	 -1.154	 -8.427	 -0.036	  0.388	 -0.624	 32.800	 98.983	  1.161
54214	 -0.254	 -0.251	  0.293	 -0.600	 -0.367	 -9.212	 -0.100	 -0.677	 -0.073	 32.800	 98.994	  0.169
54264	 -0.243	 -0.252	  0.299	  0.022	 -0.591	 -7.400	  0.161	 -0.079	 -0.151	 32.800	 98.983	  1.161
54314	 -0.241	 -0.248	  0.301	  0.266	 -1.100	 -7.805	  0.221	  0.013	 -0.666	 32.800	 98.971	  2.243
54364	 -0.239	 -0.249	  0.309	 -0.315	 -0.734	 -8.309	  0.015	 -0.291	 -0.425	 32.800	 98.983	  1.161
54414	 -0.233	 -0.253	  0.314	 -0.584	 -0.365	 -9.271	 -0.188	 -0.193	 -0.102	 32.800	 98.994	  0.169
54464	 -0.231	 -0.255	  0.315	 -0.241	 -0.388	 -9.210	 -0.251	  0.214	 -0.458	 32.800	 98.983	  1.161
54514	 -0.235	 -0.258	  0.308	 -1.017	  0.368	 -11.137	 -0.070	  0.582	 -0.423	 32.800	 98.990	  0.530
54564	 -0.248	 -0.254	  0.308	 -0.863	 -0.044	 -10.009	  0.255	  0.290	  0.145	 32.800	 98.998	 -0.192
54614	 -0.241	 -0.233	  0.310	  0.062	  0.054	 -12.087	  0.332	 -0.686	  0.281	 32.800	 98.994	  0.169
54664	 -0.238	 -0.229	  0.318	 -0.093	 -0.042	 -10.855	  0.199	 -0.295	  0.572	 32.800	 98.983	  1.161
54714	 -0.233	 -0.219	  0.329	 -0.652	 -0.010	 -10.017	 -0.017	 -0.518	  0.888	 32.900	 98.987	  0.801
