Time	 MagX	 MagY	 MagZ	 AccelX	 AccelY	 AccelZ	 Yaw	 Pitch	 Roll	 Temperature	 Pressure	 Altitude
5336	 -0.291	 -0.479	  0.416	  0.138	  0.053	 -9.758	 -0.004	  0.002	  0.001	 32.100	 99.966	 -99999.000
5386	 -0.289	 -0.483	  0.421	  0.101	  0.075	 -9.773	 -0.003	  0.001	  0.001	 32.100	 99.951	 -99999.000
5436	 -0.291	 -0.483	  0.420	  0.104	  0.025	 -9.754	 -0.003	  0.003	  0.000	 32.100	 99.951	 -99999.000
5486	 -0.291	 -0.481	  0.420	  0.108	  0.052	 -9.740	 -0.003	  0.002	  0.000	 32.100	 99.973	 -99999.000
5535	 -0.292	 -0.481	  0.416	  0.101	  0.067	 -9.787	 -0.003	  0.001	  0.000	 32.100	 99.962	 -99999.000
5585	 -0.289	 -0.482	  0.417	  0.129	  0.057	 -9.776	 -0.003	  0.003	 -0.001	 32.100	 99.951	 -99999.000
5635	 -0.289	 -0.482	  0.416	  0.122	  0.040	 -9.804	 -0.002	  0.003	  0.003	 32.100	 99.955	 -99999.000
5686	 -0.287	 -0.479	  0.418	  0.130	  0.044	 -9.777	 -0.003	  0.002	  0.001	 32.100	 99.955	 -99999.000
5735	 -0.292	 -0.479	  0.418	  0.106	  0.048	 -9.784	 -0.003	  0.002	  0.000	 32.100	 99.966	 -99999.000
5785	 -0.291	 -0.479	  0.416	  0.105	  0.051	 -9.758	 -0.002	  0.003	  0.001	 32.100	 99.962	 -99999.000
5835	 -0.292	 -0.483	  0.422	  0.128	  0.037	 -9.798	 -0.003	  0.002	  0.000	 32.100	 99.955	 -99999.000
5885	 -0.292	 -0.483	  0.419	  0.115	  0.048	 -9.789	 -0.002	  0.003	 -0.001	 32.100	 99.951	 -99999.000
5935	 -0.292	 -0.483	  0.416	  0.139	  0.056	 -9.788	 -0.002	  0.003	  0.001	 32.100	 99.962	 -99999.000
5985	 -0.290	 -0.487	  0.414	  0.126	  0.050	 -9.781	 -0.003	  0.003	  0.000	 32.100	 99.951	 -99999.000
6035	 -0.290	 -0.481	  0.417	  0.136	  0.045	 -9.734	 -0.003	  0.002	  0.000	 32.100	 99.951	 -99999.000
6085	 -0.290	 -0.481	  0.415	  0.129	  0.052	 -9.776	 -0.003	  0.004	  0.001	 32.100	 99.955	 -99999.000
6135	 -0.294	 -0.485	  0.413	  0.100	  0.040	 -9.772	 -0.002	  0.003	  0.001	 32.100	 99.966	 -99999.000
6185	 -0.294	 -0.481	  0.414	  0.111	  0.043	 -9.768	 -0.003	  0.002	  0.001	 32.100	 99.951	 -99999.000
6235	 -0.291	 -0.485	  0.422	  0.139	  0.062	 -9.768	 -0.002	  0.001	  0.001	 32.100	 99.955	 -99999.000
6285	 -0.290	 -0.480	  0.413	  0.131	  0.062	 -9.755	 -0.003	  0.002	  0.001	 32.100	 99.966	 -99999.000
6335	 -0.291	 -0.485	  0.417	  0.127	  0.047	 -9.813	 -0.002	  0.002	  0.001	 32.100	 99.955	 -99999.000
6385	 -0.291	 -0.481	  0.417	  0.098	  0.043	 -9.778	 -0.002	  0.003	  0.001	 32.100	 99.951	 -99999.000
6435	 -0.292	 -0.484	  0.416	  0.091	  0.057	 -9.758	 -0.003	  0.002	  0.000	 32.100	 99.951	 -99999.000
6485	 -0.294	 -0.484	  0.409	  0.132	  0.076	 -9.796	 -0.003	  0.002	  0.000	 32.100	 99.966	 -99999.000
6535	 -0.290	 -0.483	  0.417	  0.133	  0.055	 -9.757	 -0.002	  0.001	  0.000	 32.100	 99.951	 -99999.000
6585	 -0.290	 -0.482	  0.419	  0.153	  0.052	 -9.776	 -0.003	  0.002	 -0.001	 32.100	 99.951	 -99999.000
6635	 -0.292	 -0.483	  0.416	  0.102	  0.049	 -9.759	 -0.003	  0.003	  0.001	 32.100	 99.955	 -99999.000
6685	 -0.290	 -0.479	  0.421	  0.127	  0.056	 -9.799	 -0.004	  0.003	  0.001	 32.100	 99.966	 -99999.000
6735	 -0.292	 -0.478	  0.420	  0.115	  0.069	 -9.775	 -0.003	  0.003	  0.001	 32.100	 99.951	 -99999.000
6785	 -0.290	 -0.481	  0.419	  0.139	  0.050	 -9.765	 -0.001	  0.004	  0.000	 32.100	 99.962	 -99999.000
6835	 -0.292	 -0.483	  0.417	  0.115	  0.041	 -9.786	 -0.004	  0.002	  0.001	 32.100	 99.962	 -99999.000
6885	 -0.291	 -0.482	  0.419	  0.120	  0.045	 -9.783	 -0.003	  0.002	  0.000	 32.100	 99.962	 -99999.000
6935	 -0.289	 -0.482	  0.419	  0.115	  0.032	 -9.753	 -0.002	  0.002	  0.001	 32.100	 99.940	 -99999.000
6985	 -0.290	 -0.481	  0.414	  0.135	  0.063	 -9.776	 -0.003	  0.002	  0.000	 32.100	 99.962	 -99999.000
7035	 -0.292	 -0.482	  0.417	  0.102	  0.045	 -9.756	 -0.003	  0.002	  0.001	 32.100	 99.962	 -99999.000
7085	 -0.290	 -0.475	  0.418	  0.132	  0.027	 -9.757	 -0.004	  0.001	 -0.000	 32.100	 99.962	 -99999.000
7135	 -0.291	 -0.479	  0.420	  0.141	  0.049	 -9.733	 -0.003	  0.001	  0.000	 32.100	 99.966	 -99999.000
7185	 -0.292	 -0.482	  0.415	  0.129	  0.051	 -9.739	 -0.003	  0.003	  0.000	 32.100	 99.966	 -99999.000
7235	 -0.292	 -0.486	  0.417	  0.118	  0.040	 -9.762	 -0.002	  0.003	  0.000	 32.100	 99.955	 -99999.000
7285	 -0.290	 -0.475	  0.420	  0.123	  0.040	 -9.770	 -0.002	  0.001	  0.001	 32.100	 99.951	 -99999.000
7335	 -0.289	 -0.482	  0.416	  0.125	  0.031	 -9.794	 -0.002	  0.001	  0.001	 32.100	 99.962	 -99999.000
7385	 -0.291	 -0.486	  0.417	  0.120	  0.047	 -9.763	 -0.003	  0.001	  0.001	 32.100	 99.962	 -99999.000
7435	 -0.291	 -0.483	  0.417	  0.099	  0.056	 -9.773	 -0.002	  0.003	 -0.001	 32.100	 99.955	 -99999.000
7485	 -0.292	 -0.483	  0.417	  0.107	  0.059	 -9.788	 -0.004	  0.002	  0.002	 32.100	 99.966	 -99999.000
7535	 -0.290	 -0.478	  0.415	  0.125	  0.027	 -9.769	 -0.002	  0.003	  0.000	 32.100	 99.966	 -99999.000
7585	 -0.290	 -0.486	  0.423	  0.144	  0.067	 -9.774	 -0.003	  0.003	  0.001	 32.100	 99.962	 -99999.000
7635	 -0.289	 -0.483	  0.417	  0.125	  0.047	 -9.783	 -0.003	  0.001	  0.001	 32.100	 99.966	 -99999.000
7685	 -0.290	 -0.481	  0.420	  0.110	  0.071	 -9.803	 -0.003	  0.002	  0.001	 32.100	 99.966	 -99999.000
7735	 -0.291	 -0.482	  0.417	  0.124	  0.057	 -9.762	 -0.003	  0.002	  0.001	 32.100	 99.962	 -99999.000
7785	 -0.291	 -0.482	  0.416	  0.125	  0.059	 -9.756	 -0.003	  0.002	  0.001	 32.100	 99.951	 -99999.000
7835	 -0.290	 -0.483	  0.417	  0.118	  0.057	 -9.790	 -0.002	  0.002	  0.001	 32.100	 99.962	 -99999.000
7885	 -0.292	 -0.480	  0.415	  0.120	  0.059	 -9.799	 -0.003	  0.002	  0.001	 32.100	 99.966	 -99999.000
7935	 -0.290	 -0.483	  0.419	  0.152	  0.056	 -9.766	 -0.004	  0.001	  0.001	 32.100	 99.962	 -99999.000
7985	 -0.292	 -0.482	  0.417	  0.113	  0.056	 -9.767	 -0.002	  0.002	 -0.000	 32.100	 99.955	 -99999.000
8035	 -0.288	 -0.483	  0.421	  0.104	  0.028	 -9.770	 -0.002	  0.002	  0.001	 32.100	 99.962	 -99999.000
8085	 -0.292	 -0.486	  0.417	  0.110	  0.048	 -9.775	 -0.003	  0.002	  0.000	 32.100	 99.955	 -99999.000
8135	 -0.292	 -0.477	  0.417	  0.124	  0.037	 -9.759	 -0.004	  0.002	  0.001	 32.100	 99.966	 -99999.000
8185	 -0.292	 -0.484	  0.419	  0.110	  0.016	 -9.757	 -0.003	  0.001	  0.001	 32.100	 99.951	 -99999.000
8235	 -0.291	 -0.484	  0.416	  0.130	  0.042	 -9.778	 -0.002	  0.003	  0.000	 32.100	 99.955	 -99999.000
8285	 -0.291	 -0.483	  0.420	  0.108	  0.041	 -9.788	 -0.002	  0.000	 -0.000	 32.100	 99.966	 -99999.000
8335	 -0.292	 -0.484	  0.416	  0.112	  0.054	 -9.775	 -0.003	  0.003	  0.002	 32.100	 99.951	 -99999.000
8385	 -0.292	 -0.481	  0.410	  0.123	  0.052	 -9.748	 -0.003	  0.002	  0.001	 32.100	 99.962	 -99999.000
8435	 -0.293	 -0.484	  0.420	  0.122	  0.044	 -9.778	 -0.003	  0.003	  0.001	 32.100	 99.966	 -99999.000
8485	 -0.290	 -0.482	  0.414	  0.136	  0.038	 -9.768	 -0.003	  0.002	  0.000	 32.100	 99.955	 -99999.000
8535	 -0.289	 -0.477	  0.419	  0.129	  0.060	 -9.777	 -0.003	  0.002	 -0.000	 32.100	 99.966	 -99999.000
8585	 -0.292	 -0.483	  0.414	  0.110	  0.034	 -9.752	 -0.002	  0.003	  0.001	 32.100	 99.951	 -99999.000
8635	 -0.292	 -0.475	  0.418	  0.113	  0.050	 -9.759	 -0.003	  0.002	  0.000	 32.100	 99.962	 -99999.000
8685	 -0.290	 -0.482	  0.419	  0.125	  0.051	 -9.782	 -0.002	  0.002	  0.000	 32.100	 99.955	 -99999.000
8735	 -0.291	 -0.482	  0.414	  0.137	  0.041	 -9.764	 -0.004	  0.003	  0.002	 32.100	 99.966	 -99999.000
8785	 -0.291	 -0.481	  0.420	  0.106	  0.041	 -9.777	 -0.002	  0.002	  0.000	 32.100	 99.951	 -99999.000
8835	 -0.291	 -0.484	  0.419	  0.127	  0.029	 -9.770	 -0.002	  0.002	  0.001	 32.100	 99.951	 -99999.000
8885	 -0.291	 -0.483	  0.422	  0.116	  0.060	 -9.758	 -0.003	  0.003	  0.001	 32.100	 99.955	 -99999.000
8935	 -0.292	 -0.480	  0.416	  0.128	  0.037	 -9.770	 -0.003	  0.004	  0.001	 32.100	 99.962	 -99999.000
8985	 -0.291	 -0.485	  0.413	  0.121	  0.068	 -9.786	 -0.003	  0.002	  0.002	 32.100	 99.973	 -99999.000
9035	 -0.292	 -0.479	  0.417	  0.128	  0.051	 -9.755	 -0.003	  0.002	  0.001	 32.100	 99.966	 -99999.000
9085	 -0.291	 -0.480	  0.420	  0.126	  0.060	 -9.764	 -0.003	  0.002	  0.001	 32.100	 99.966	 -99999.000
9135	 -0.291	 -0.480	  0.417	  0.121	  0.059	 -9.760	 -0.001	  0.002	  0.001	 32.100	 99.978	 -99999.000
9185	 -0.291	 -0.482	  0.419	  0.117	  0.049	 -9.779	 -0.003	  0.002	  0.002	 32.100	 99.951	 -99999.000
9235	 -0.290	 -0.483	  0.421	  0.118	  0.047	 -9.775	 -0.003	  0.003	  0.001	 32.100	 99.951	 -99999.000
9285	 -0.292	 -0.482	  0.413	  0.094	  0.037	 -9.806	 -0.003	  0.004	  0.001	 32.100	 99.962	 -99999.000
9335	 -0.291	 -0.482	  0.419	  0.096	  0.049	 -9.759	 -0.003	  0.002	  0.000	 32.100	 99.951	 -99999.000
9385	 -0.291	 -0.483	  0.412	  0.140	  0.043	 -9.741	 -0.002	  0.001	  0.002	 32.100	 99.962	 -99999.000
9435	 -0.290	 -0.481	  0.415	  0.117	  0.066	 -9.750	 -0.002	  0.002	  0.001	 32.100	 99.966	 -99999.000
9485	 -0.288	 -0.482	  0.417	  0.137	  0.028	 -9.795	 -0.003	  0.002	  0.002	 32.100	 99.962	 -99999.000
9535	 -0.291	 -0.481	  0.415	  0.107	  0.026	 -9.751	 -0.004	  0.003	  0.002	 32.100	 99.962	 -99999.000
9586	 -0.291	 -0.484	  0.414	  0.129	  0.028	 -9.743	 -0.003	  0.000	  0.000	 32.100	 99.955	 -99999.000
9635	 -0.291	 -0.483	  0.417	  0.131	  0.033	 -9.777	 -0.002	  0.002	  0.000	 32.100	 99.966	 -99999.000
9685	 -0.292	 -0.479	  0.422	  0.127	  0.048	 -9.792	 -0.003	  0.003	  0.001	 32.100	 99.962	 -99999.000
9735	 -0.290	 -0.483	  0.417	  0.133	  0.064	 -9.774	 -0.003	  0.002	  0.001	 32.100	 99.951	 -99999.000
9785	 -0.290	 -0.482	  0.420	  0.112	  0.030	 -9.768	 -0.003	  0.002	  0.000	 32.100	 99.962	 -99999.000
9836	 -0.291	 -0.481	  0.415	  0.103	  0.046	 -9.765	 -0.002	  0.002	  0.000	 32.100	 99.966	 -99999.000
9885	 -0.291	 -0.481	  0.417	  0.123	  0.052	 -9.768	 -0.003	  0.002	  0.000	 32.100	 99.962	 -99999.000
9936	 -0.290	 -0.487	  0.420	  0.135	  0.049	 -9.758	 -0.003	  0.002	  0.000	 32.100	 99.955	 -99999.000
9985	 -0.292	 -0.483	  0.410	  0.101	  0.056	 -9.780	 -0.004	  0.002	  0.001	 32.100	 99.966	 -99999.000
10036	 -0.291	 -0.484	  0.417	  0.148	  0.058	 -9.761	 -0.004	  0.002	  0.001	 32.100	 99.955	 -99999.000
10086	 -0.291	 -0.484	  0.416	  0.126	  0.045	 -9.727	 -0.003	  0.002	  0.001	 32.100	 99.955	 -99999.000
10136	 -0.289	 -0.477	  0.419	  0.126	  0.052	 -9.790	 -0.002	  0.003	  0.001	 32.100	 99.966	 -99999.000
10186	 -0.292	 -0.485	  0.420	  0.116	  0.069	 -9.764	 -0.002	  0.002	  0.000	 32.100	 99.955	 -99999.000
10236	 -0.289	 -0.482	  0.419	  0.118	  0.037	 -9.755	 -0.003	  0.003	  0.001	 32.100	 99.962	 -99999.000
10286	 -0.290	 -0.483	  0.417	  0.097	  0.036	 -9.753	 -0.004	  0.003	  0.001	 32.100	 99.951	 -99999.000
10335	 -0.292	 -0.479	  0.416	  0.148	  0.065	 -9.742	 -0.003	  0.003	  0.001	 32.100	 99.951	 -99999.000
10386	 -0.292	 -0.481	  0.421	  0.106	  0.061	 -9.776	 -0.004	  0.002	  0.001	 32.100	 99.966	 -99999.000
10436	 -0.292	 -0.481	  0.415	  0.120	  0.044	 -9.813	 -0.003	  0.002	  0.001	 32.100	 99.962	 -99999.000
10486	 -0.291	 -0.482	  0.420	  0.128	  0.046	 -9.775	 -0.003	  0.002	  0.001	 32.100	 99.940	 -99999.000
10536	 -0.290	 -0.480	  0.417	  0.122	  0.023	 -9.758	 -0.003	  0.002	  0.001	 32.100	 99.955	 -99999.000
10586	 -0.292	 -0.481	  0.414	  0.126	  0.056	 -9.750	 -0.003	  0.002	  0.001	 32.100	 99.955	 -99999.000
10636	 -0.289	 -0.485	  0.417	  0.131	  0.054	 -9.776	 -0.003	  0.002	  0.001	 32.100	 99.951	 -99999.000
10686	 -0.291	 -0.481	  0.416	  0.110	  0.054	 -9.744	 -0.002	  0.002	  0.002	 32.100	 99.973	 -99999.000
10736	 -0.292	 -0.475	  0.417	  0.117	  0.054	 -9.761	 -0.003	  0.002	  0.001	 32.100	 99.955	 -99999.000
10786	 -0.291	 -0.483	  0.416	  0.118	  0.046	 -9.782	 -0.003	  0.002	  0.000	 32.100	 99.951	 -99999.000
10836	 -0.291	 -0.481	  0.416	  0.127	  0.035	 -9.793	 -0.002	  0.002	  0.001	 32.100	 99.962	 -99999.000
10886	 -0.291	 -0.482	  0.414	  0.106	  0.062	 -9.775	 -0.002	  0.003	  0.000	 32.100	 99.951	 -99999.000
10936	 -0.291	 -0.482	  0.419	  0.134	  0.056	 -9.739	 -0.002	  0.002	  0.002	 32.100	 99.951	 -99999.000
10986	 -0.291	 -0.484	  0.416	  0.111	  0.061	 -9.774	 -0.003	  0.003	  0.000	 32.100	 99.966	 -99999.000
11036	 -0.292	 -0.482	  0.417	  0.134	  0.048	 -9.797	 -0.003	  0.002	  0.001	 32.100	 99.955	 -99999.000
11086	 -0.291	 -0.485	  0.419	  0.123	  0.042	 -9.751	 -0.002	  0.003	  0.000	 32.100	 99.962	 -99999.000
11136	 -0.288	 -0.482	  0.417	  0.145	  0.052	 -9.812	 -0.003	  0.002	  0.002	 32.100	 99.971	 -99999.000
11186	 -0.289	 -0.480	  0.419	  0.118	  0.058	 -9.781	 -0.003	  0.002	  0.001	 32.100	 99.951	 -99999.000
11236	 -0.292	 -0.484	  0.415	  0.133	  0.029	 -9.764	 -0.003	  0.002	  0.000	 32.100	 99.966	 -99999.000
11286	 -0.290	 -0.478	  0.419	  0.140	  0.047	 -9.751	 -0.003	  0.002	  0.001	 32.100	 99.966	 -99999.000
13586	 -0.293	 -0.485	  0.414	  0.127	  0.041	 -9.802	 -0.003	  0.003	 -0.000	 32.100	 99.962	 -0.250
13636	 -0.290	 -0.483	  0.417	  0.134	  0.043	 -9.726	 -0.002	  0.003	 -0.000	 32.100	 99.951	  0.737
13685	 -0.291	 -0.482	  0.412	  0.137	  0.102	 -9.784	 -0.004	  0.003	  0.001	 32.100	 99.962	 -0.250
13735	 -0.290	 -0.483	  0.417	  0.125	  0.033	 -9.737	 -0.002	  0.002	  0.001	 32.100	 99.951	  0.737
13785	 -0.289	 -0.480	  0.421	  0.102	  0.057	 -9.778	 -0.003	  0.003	  0.000	 32.100	 99.951	  0.737
13835	 -0.290	 -0.483	  0.417	  0.168	  0.052	 -9.754	 -0.003	  0.002	  0.002	 32.100	 99.951	  0.737
13885	 -0.290	 -0.481	  0.420	  0.124	  0.044	 -9.752	 -0.003	  0.002	  0.002	 32.100	 99.951	  0.737
13935	 -0.290	 -0.479	  0.416	  0.126	  0.077	 -9.729	 -0.003	  0.001	  0.001	 32.100	 99.962	 -0.250
13985	 -0.293	 -0.484	  0.417	  0.132	  0.051	 -9.774	 -0.004	  0.001	  0.001	 32.100	 99.973	 -1.237
14035	 -0.292	 -0.484	  0.414	  0.123	  0.025	 -9.799	 -0.003	  0.002	  0.001	 32.100	 99.951	  0.737
14085	 -0.288	 -0.478	  0.419	  0.158	  0.059	 -9.742	 -0.002	  0.002	  0.001	 32.100	 99.962	 -0.250
14136	 -0.291	 -0.483	  0.414	  0.102	  0.028	 -9.758	 -0.002	  0.002	  0.001	 32.100	 99.951	  0.737
14185	 -0.292	 -0.477	  0.418	  0.114	  0.033	 -9.766	 -0.003	  0.002	  0.001	 32.100	 99.951	  0.737
14235	 -0.288	 -0.482	  0.416	  2.340	  0.038	 -9.779	  0.013	 -0.001	 -0.387	 32.100	 99.951	  0.737
14285	 -0.287	 -0.485	  0.413	  0.207	  0.003	 -9.697	 -0.012	  0.064	 -0.017	 32.100	 99.966	 -0.609
14335	 -0.271	 -0.492	  0.412	  1.308	  0.333	 -10.105	  0.021	 -0.046	 -0.940	 32.100	 99.951	  0.737
14385	 -0.249	 -0.501	  0.405	 -2.563	 -0.543	 -9.883	 -0.001	 -0.004	 -0.018	 32.100	 99.962	 -0.250
14435	 -0.251	 -0.496	  0.400	  0.400	 -0.113	 -9.699	  0.003	  0.013	 -0.034	 32.100	 99.962	 -0.250
14485	 -0.249	 -0.500	  0.403	  0.304	  0.217	 -9.691	  0.000	 -0.009	 -0.135	 32.100	 99.962	 -0.250
14535	 -0.247	 -0.500	  0.404	 -0.072	  0.027	 -9.829	 -0.003	 -0.007	 -0.022	 32.100	 99.951	  0.737
14585	 -0.246	 -0.503	  0.402	  0.120	  0.040	 -9.770	 -0.003	 -0.005	  0.002	 32.100	 99.951	  0.737
14635	 -0.245	 -0.498	  0.403	  0.096	  0.044	 -9.791	 -0.003	  0.007	  0.001	 32.100	 99.951	  0.737
14685	 -0.246	 -0.505	  0.403	  0.140	  0.098	 -9.711	 -0.007	  0.003	  0.095	 32.100	 99.951	  0.737
14735	 -0.248	 -0.503	  0.400	  0.102	  0.057	 -9.807	 -0.001	  0.004	 -0.002	 32.100	 99.951	  0.737
14785	 -0.241	 -0.505	  0.402	 -0.225	 -0.412	 -9.952	  0.000	  0.039	 -0.409	 32.100	 99.955	  0.378
14836	 -0.227	 -0.510	  0.402	  0.001	  0.255	 -9.446	  0.295	 -0.250	 -0.742	 32.100	 99.962	 -0.250
14885	 -0.204	 -0.509	  0.413	  0.769	  0.237	 -10.055	  0.355	 -0.484	 -0.134	 32.100	 99.951	  0.737
14935	 -0.207	 -0.492	  0.425	  1.128	 -0.321	 -9.465	  0.482	 -0.489	  0.571	 32.100	 99.962	 -0.250
14985	 -0.205	 -0.473	  0.449	 -2.211	  0.122	 -10.927	  0.991	 -0.678	  0.696	 32.100	 99.962	 -0.250
15035	 -0.195	 -0.458	  0.489	 -4.158	 -1.459	 -8.613	  0.582	 -1.371	  0.650	 32.100	 99.962	 -0.250
15085	 -0.201	 -0.450	  0.520	 -0.824	 -5.159	 -12.651	  0.201	  0.140	  0.563	 32.100	 99.955	  0.378
15135	 -0.149	 -0.434	  0.522	  5.801	 -11.270	 -12.953	 -1.397	 -1.108	 -1.333	 32.100	 99.955	  0.378
15186	 -0.055	 -0.479	  0.428	  3.893	 -7.109	 -14.927	 -3.783	  1.139	 -2.521	 32.100	 99.962	 -0.250
15235	 -0.013	 -0.547	  0.332	 -8.347	  7.229	 -0.739	 -2.597	  1.249	 -2.692	 32.100	 99.962	 -0.250
15286	 -0.031	 -0.527	  0.353	 -10.913	  8.475	 -5.707	  2.941	  1.534	  0.277	 32.100	 99.951	  0.737
15335	 -0.112	 -0.418	  0.427	 -11.797	  6.636	 -11.483	  5.471	  4.601	  1.530	 32.100	 99.962	 -0.250
15386	 -0.230	 -0.295	  0.457	 -2.061	  2.923	 -11.733	  1.397	  3.225	  2.373	 32.100	 99.955	  0.378
15435	 -0.310	 -0.267	  0.418	  6.674	 -7.033	 -3.068	 -1.911	  1.537	  2.571	 32.100	 99.951	  0.737
15485	 -0.324	 -0.299	  0.391	 12.130	 -13.950	 -7.821	 -2.559	 -0.484	  1.493	 32.100	 99.962	 -0.250
15536	 -0.302	 -0.365	  0.345	 10.399	 -13.529	 -4.400	 -3.957	 -0.820	 -1.202	 32.100	 99.951	  0.737
15586	 -0.241	 -0.445	  0.298	  3.181	 -4.404	 -7.128	 -2.643	 -1.713	 -2.232	 32.100	 99.940	  1.723
15636	 -0.171	 -0.506	  0.267	 -2.093	  2.967	 -13.669	 -3.052	 -1.308	 -2.132	 32.100	 99.951	  0.737
15686	 -0.156	 -0.559	  0.196	 -5.846	  8.085	 -8.089	 -2.897	  0.510	 -0.799	 32.100	 99.962	 -0.250
15736	 -0.164	 -0.573	  0.169	 -7.413	 13.385	 -3.867	  0.032	  0.868	  0.812	 32.100	 99.951	  0.737
15786	 -0.198	 -0.544	  0.177	 -5.004	  8.584	 -0.367	  1.575	  1.102	  1.693	 32.100	 99.962	 -0.250
15836	 -0.233	 -0.495	  0.218	  0.584	  2.584	  1.401	  2.009	 -0.924	  2.345	 32.100	 99.966	 -0.609
15886	 -0.242	 -0.430	  0.307	  2.795	 -3.416	 -0.241	  4.258	 -3.336	  2.190	 32.100	 99.940	  1.723
15936	 -0.189	 -0.338	  0.424	  5.852	 -12.964	 -15.994	  2.522	 -4.510	  0.578	 32.100	 99.951	  0.737
15986	 -0.095	 -0.371	  0.461	 -0.750	 -9.451	 -22.858	 -2.934	 -4.033	 -0.401	 32.100	 99.951	  0.737
16036	 -0.031	 -0.460	  0.392	 -3.828	 -1.083	 -19.099	 -4.761	 -1.750	 -0.413	 32.100	 99.962	 -0.250
16086	 -0.006	 -0.558	  0.266	 -6.082	  3.739	 -13.830	 -6.505	  0.863	 -0.981	 32.100	 99.962	 -0.250
16136	 -0.024	 -0.622	  0.101	 -12.022	  7.707	 -10.373	 -5.507	  4.683	 -0.571	 32.100	 99.951	  0.737
16186	 -0.075	 -0.632	 -0.004	 -18.919	 12.734	  0.633	 -2.048	  7.800	  2.399	 32.100	 99.951	  0.737
16236	 -0.186	 -0.594	 -0.052	 -9.346	  1.087	  7.679	  0.113	  5.282	  4.928	 32.100	 99.951	  0.737
16286	 -0.280	 -0.535	 -0.052	  1.243	  2.102	  8.998	  2.362	  0.581	  4.985	 32.100	 99.951	  0.737
16336	 -0.368	 -0.459	  0.045	  3.981	 -4.044	  4.008	  4.692	 -2.601	  4.421	 32.100	 99.940	  1.723
16386	 -0.410	 -0.365	  0.185	  4.769	 -8.833	 -9.183	  2.951	 -4.901	  3.592	 32.100	 99.951	  0.737
16436	 -0.387	 -0.292	  0.332	  5.486	 -8.735	 -11.096	  0.742	 -6.390	  1.939	 32.100	 99.951	  0.737
16486	 -0.265	 -0.310	  0.452	 -1.801	 -6.120	 -26.099	 -3.049	 -5.971	  0.047	 32.100	 99.962	 -0.250
16536	 -0.200	 -0.411	  0.411	 -3.615	  3.805	 -16.264	 -4.540	  0.221	 -0.185	 32.100	 99.951	  0.737
16586	 -0.216	 -0.461	  0.331	 -0.637	  4.154	 -4.089	 -0.371	  2.188	 -0.893	 32.100	 99.951	  0.737
16636	 -0.229	 -0.464	  0.322	 -3.126	  3.419	 -5.840	  0.915	  1.017	 -0.883	 32.100	 99.951	  0.737
16686	 -0.238	 -0.449	  0.326	 -3.312	  4.425	 -6.712	  0.704	  0.770	 -0.363	 32.100	 99.951	  0.737
16736	 -0.250	 -0.435	  0.333	 -1.470	  4.016	 -8.913	  1.049	  0.207	  0.064	 32.100	 99.940	  1.723
16786	 -0.265	 -0.417	  0.356	 -0.604	  2.175	 -9.403	  1.126	  0.287	  0.158	 32.100	 99.951	  0.737
16836	 -0.280	 -0.405	  0.372	 -0.268	  1.295	 -12.118	  0.351	  0.437	  0.030	 32.100	 99.955	  0.378
16886	 -0.299	 -0.399	  0.364	  0.955	  0.351	 -9.457	  0.239	  0.811	  0.064	 32.100	 99.962	 -0.250
16936	 -0.318	 -0.385	  0.365	  1.188	 -0.136	 -8.745	  0.432	  0.256	  0.131	 32.100	 99.951	  0.737
16986	 -0.327	 -0.391	  0.369	  0.878	  0.450	 -10.473	 -0.222	 -0.020	 -0.179	 32.100	 99.962	 -0.250
17036	 -0.333	 -0.400	  0.368	  0.769	  1.017	 -10.028	 -0.615	  0.367	 -0.037	 32.100	 99.951	  0.737
17086	 -0.344	 -0.410	  0.356	  1.059	  0.388	 -9.279	  0.386	  0.420	 -0.037	 32.100	 99.951	  0.737
17136	 -0.361	 -0.395	  0.360	  1.454	  1.368	 -11.808	  0.243	  0.514	  0.218	 32.100	 99.962	 -0.250
17186	 -0.376	 -0.404	  0.348	  1.948	 -0.049	 -9.475	 -0.724	  0.690	  0.166	 32.100	 99.951	  0.737
17236	 -0.394	 -0.394	  0.339	  1.625	  0.264	 -7.259	  0.234	  0.106	  0.361	 32.100	 99.951	  0.737
17286	 -0.393	 -0.385	  0.349	  1.647	  1.256	 -9.219	  0.356	 -0.757	 -0.227	 32.100	 99.951	  0.737
17336	 -0.385	 -0.394	  0.348	  1.478	  0.946	 -10.714	 -0.331	 -0.048	 -0.364	 32.100	 99.962	 -0.250
17386	 -0.382	 -0.400	  0.351	  1.412	  0.362	 -10.310	 -0.893	  0.472	  0.070	 32.100	 99.962	 -0.250
17436	 -0.389	 -0.424	  0.327	  1.484	  1.418	 -6.709	 -0.092	  0.347	 -0.283	 32.100	 99.951	  0.737
17486	 -0.387	 -0.407	  0.343	  0.570	  0.584	 -8.742	  0.895	 -1.122	 -0.378	 32.100	 99.951	  0.737
17536	 -0.375	 -0.400	  0.363	 -1.864	  0.637	 -26.961	 -0.398	  0.433	  0.275	 32.100	 99.951	  0.737
17586	 -0.386	 -0.391	  0.359	  1.328	  1.300	 -9.884	  0.208	  0.119	  0.015	 32.100	 99.955	  0.378
17636	 -0.395	 -0.383	  0.361	  1.516	  0.420	 -9.829	  0.300	  0.139	  0.128	 32.100	 99.940	  1.723
17686	 -0.398	 -0.374	  0.364	  1.780	  0.820	 -9.120	  0.060	 -0.036	  0.042	 32.100	 99.951	  0.737
17736	 -0.398	 -0.377	  0.362	  1.193	  0.416	 -9.660	  0.083	 -0.070	  0.031	 32.100	 99.951	  0.737
17786	 -0.399	 -0.371	  0.369	  1.564	  0.640	 -9.742	  0.143	 -0.025	  0.061	 32.100	 99.951	  0.737
17836	 -0.400	 -0.367	  0.366	  1.286	  0.073	 -9.701	  0.062	  0.017	  0.037	 32.100	 99.951	  0.737
17886	 -0.404	 -0.370	  0.371	  1.297	  0.243	 -9.702	 -0.018	 -0.005	 -0.004	 32.100	 99.940	  1.723
17936	 -0.403	 -0.363	  0.365	  1.196	  0.229	 -9.672	  0.014	  0.010	  0.004	 32.100	 99.962	 -0.250
17986	 -0.401	 -0.357	  0.370	  1.276	  0.227	 -9.670	 -0.011	 -0.002	 -0.000	 32.100	 99.962	 -0.250
18036	 -0.403	 -0.367	  0.368	  1.207	  0.236	 -9.700	  0.003	  0.004	  0.003	 32.100	 99.962	 -0.250
18086	 -0.401	 -0.366	  0.373	  1.267	  0.225	 -9.654	 -0.003	  0.002	  0.001	 32.100	 99.951	  0.737
18136	 -0.401	 -0.368	  0.370	  1.362	  0.064	 -10.251	 -0.004	 -0.006	  0.010	 32.100	 99.951	  0.737
18186	 -0.402	 -0.366	  0.370	  1.295	  0.295	 -9.752	 -0.021	 -0.007	 -0.004	 32.100	 99.951	  0.737
18236	 -0.402	 -0.365	  0.370	  1.266	  0.133	 -9.792	  0.008	  0.002	  0.004	 32.100	 99.951	  0.737
18286	 -0.403	 -0.368	  0.373	  1.180	  0.293	 -9.502	 -0.003	  0.005	 -0.003	 32.100	 99.951	  0.737
18336	 -0.403	 -0.365	  0.372	  1.253	  0.207	 -9.707	 -0.009	 -0.001	  0.000	 32.100	 99.951	  0.737
18386	 -0.402	 -0.365	  0.369	  1.235	  0.207	 -9.655	  0.002	  0.002	  0.003	 32.100	 99.951	  0.737
18436	 -0.401	 -0.368	  0.371	  1.236	  0.246	 -9.681	 -0.008	  0.001	 -0.002	 32.100	 99.951	  0.737
18486	 -0.403	 -0.365	  0.371	  1.257	  0.170	 -9.680	  0.006	  0.005	  0.003	 32.100	 99.951	  0.737
18536	 -0.402	 -0.363	  0.371	  1.235	  0.272	 -9.641	 -0.010	 -0.001	 -0.001	 32.100	 99.951	  0.737
18586	 -0.402	 -0.367	  0.372	  1.251	  0.158	 -9.691	  0.004	  0.005	  0.002	 32.100	 99.951	  0.737
18636	 -0.401	 -0.364	  0.371	  1.245	  0.233	 -9.659	 -0.005	  0.002	  0.001	 32.100	 99.951	  0.737
18686	 -0.403	 -0.364	  0.371	  1.241	  0.221	 -9.663	 -0.002	  0.002	  0.001	 32.100	 99.962	 -0.250
18736	 -0.402	 -0.362	  0.372	  1.267	  0.222	 -9.672	 -0.001	  0.002	  0.001	 32.100	 99.940	  1.723
18786	 -0.402	 -0.366	  0.367	  1.234	  0.237	 -9.674	 -0.005	  0.001	  0.000	 32.100	 99.962	 -0.250
18836	 -0.401	 -0.366	  0.371	  1.263	  0.193	 -9.659	 -0.001	  0.002	 -0.000	 32.100	 99.947	  1.096
18885	 -0.400	 -0.362	  0.372	  1.240	  0.231	 -9.685	 -0.004	  0.001	  0.000	 32.100	 99.951	  0.737
18935	 -0.403	 -0.362	  0.370	  1.226	  0.230	 -9.706	 -0.001	  0.003	  0.001	 32.100	 99.951	  0.737
18985	 -0.403	 -0.367	  0.364	  1.244	  0.231	 -9.688	 -0.002	  0.004	 -0.000	 32.100	 99.951	  0.737
19035	 -0.401	 -0.366	  0.372	  1.252	  0.241	 -9.697	  0.000	  0.003	  0.000	 32.100	 99.951	  0.737
19085	 -0.400	 -0.367	  0.372	  1.254	  0.242	 -9.691	 -0.006	 -0.001	  0.000	 32.100	 99.951	  0.737
19135	 -0.400	 -0.364	  0.371	  1.239	  0.220	 -9.681	 -0.002	  0.003	  0.001	 32.100	 99.955	  0.378
19185	 -0.400	 -0.368	  0.371	  1.242	  0.227	 -9.685	 -0.003	  0.001	 -0.000	 32.100	 99.951	  0.737
19235	 -0.402	 -0.362	  0.373	  1.254	  0.225	 -9.701	 -0.003	  0.002	  0.001	 32.100	 99.951	  0.737
19285	 -0.403	 -0.364	  0.367	  1.253	  0.212	 -9.699	 -0.002	  0.001	 -0.000	 32.100	 99.951	  0.737
19335	 -0.402	 -0.364	  0.370	  1.227	  0.220	 -9.700	 -0.003	  0.002	  0.000	 32.100	 99.962	 -0.250
19385	 -0.403	 -0.365	  0.366	  1.255	  0.229	 -9.687	 -0.003	  0.002	  0.002	 32.100	 99.951	  0.737
19435	 -0.400	 -0.368	  0.370	  1.229	  0.244	 -9.705	 -0.003	  0.001	 -0.000	 32.100	 99.951	  0.737
19485	 -0.402	 -0.365	  0.370	  1.229	  0.214	 -9.714	 -0.003	  0.004	  0.000	 32.100	 99.951	  0.737
19535	 -0.399	 -0.366	  0.371	  1.247	  0.227	 -9.700	 -0.004	  0.002	  0.000	 32.100	 99.958	  0.109
19585	 -0.403	 -0.366	  0.373	  1.251	  0.180	 -9.670	 -0.009	 -0.001	  0.000	 32.100	 99.951	  0.737
19635	 -0.403	 -0.366	  0.370	  1.261	  0.226	 -9.666	  0.004	  0.004	  0.003	 32.100	 99.944	  1.365
19685	 -0.403	 -0.366	  0.372	  1.227	  0.276	 -9.697	 -0.008	  0.000	 -0.001	 32.100	 99.955	  0.378
19735	 -0.401	 -0.366	  0.369	  1.258	  0.181	 -9.679	 -0.002	  0.002	  0.001	 32.100	 99.955	  0.378
19785	 -0.402	 -0.368	  0.372	  1.229	  0.258	 -9.708	 -0.000	  0.003	  0.001	 32.100	 99.951	  0.737
19835	 -0.401	 -0.356	  0.373	  1.246	  0.244	 -9.682	 -0.005	 -0.000	  0.001	 32.100	 99.962	 -0.250
19885	 -0.400	 -0.363	  0.370	  1.252	  0.206	 -9.721	  0.001	  0.004	  0.001	 32.100	 99.951	  0.737
19935	 -0.402	 -0.362	  0.371	  1.249	  0.223	 -9.713	 -0.006	  0.000	  0.000	 32.100	 99.951	  0.737
19985	 -0.401	 -0.365	  0.370	  1.232	  0.204	 -9.686	 -0.001	  0.003	  0.001	 32.100	 99.951	  0.737
20035	 -0.402	 -0.365	  0.372	  1.270	  0.243	 -9.675	 -0.003	  0.002	  0.001	 32.100	 99.951	  0.737
20085	 -0.403	 -0.362	  0.368	  1.220	  0.241	 -9.644	 -0.003	  0.003	  0.000	 32.100	 99.935	  2.173
20135	 -0.402	 -0.363	  0.371	  1.249	  0.247	 -9.647	 -0.001	  0.001	 -0.001	 32.100	 99.947	  1.096
20185	 -0.403	 -0.365	  0.368	  1.221	  0.227	 -9.672	 -0.003	  0.001	  0.002	 32.100	 99.951	  0.737
20235	 -0.403	 -0.366	  0.361	  1.276	  0.225	 -9.578	 -0.000	  0.003	  0.000	 32.100	 99.940	  1.723
20285	 -0.402	 -0.367	  0.371	  1.248	  0.244	 -9.679	 -0.005	  0.001	  0.002	 32.100	 99.951	  0.737
20335	 -0.402	 -0.366	  0.372	  1.229	  0.223	 -9.701	 -0.002	  0.003	  0.001	 32.100	 99.951	  0.737
20385	 -0.402	 -0.367	  0.375	  1.264	  0.216	 -9.696	 -0.003	  0.003	 -0.001	 32.100	 99.951	  0.737
20435	 -0.402	 -0.362	  0.368	  1.232	  0.222	 -9.692	 -0.002	  0.004	  0.001	 32.100	 99.951	  0.737
20485	 -0.400	 -0.357	  0.371	  1.281	  0.228	 -9.700	 -0.004	  0.001	 -0.000	 32.100	 99.962	 -0.250
20535	 -0.402	 -0.359	  0.368	  1.249	  0.217	 -9.650	 -0.001	  0.002	  0.002	 32.100	 99.951	  0.737
20585	 -0.401	 -0.365	  0.372	  1.233	  0.203	 -9.712	 -0.004	  0.002	  0.001	 32.100	 99.951	  0.737
20635	 -0.402	 -0.365	  0.371	  1.244	  0.205	 -9.696	 -0.005	  0.002	  0.000	 32.100	 99.951	  0.737
20685	 -0.400	 -0.363	  0.372	  1.220	  0.230	 -9.697	 -0.001	  0.002	  0.002	 32.100	 99.935	  2.173
20736	 -0.402	 -0.368	  0.370	  1.240	  0.218	 -9.676	 -0.004	  0.002	 -0.001	 32.100	 99.947	  1.096
20785	 -0.400	 -0.365	  0.371	  1.232	  0.215	 -9.686	 -0.002	  0.003	  0.001	 32.100	 99.951	  0.737
20835	 -0.402	 -0.364	  0.373	  1.252	  0.220	 -9.619	 -0.004	  0.002	 -0.001	 32.100	 99.947	  1.096
