Time	 MagX	 MagY	 MagZ	 AccelX	 AccelY	 AccelZ	 Yaw	 Pitch	 Roll	 Temperature	 Pressure	 Altitude
18333	 -0.196	 -0.468	  0.374	  0.079	  0.072	 -9.777	 -0.004	  0.002	  0.001	 31.200	 99.954	 -99999.000

18383	 -0.201	 -0.479	  0.375	  0.100	  0.060	 -9.797	 -0.003	  0.001	  0.001	 31.200	 99.966	 -99999.000

18433	 -0.200	 -0.479	  0.381	  0.092	  0.046	 -9.767	 -0.003	  0.003	  0.001	 31.200	 99.954	 -99999.000

18483	 -0.199	 -0.479	  0.379	  0.074	  0.075	 -9.733	 -0.003	  0.001	  0.001	 31.200	 99.954	 -99999.000

18533	 -0.200	 -0.477	  0.372	  0.089	  0.049	 -9.760	 -0.005	  0.002	  0.001	 31.200	 99.954	 -99999.000

18583	 -0.199	 -0.479	  0.381	  0.101	  0.076	 -9.731	 -0.004	  0.002	  0.000	 31.200	 99.943	 -99999.000

18633	 -0.199	 -0.479	  0.383	  0.065	  0.040	 -9.754	 -0.004	  0.002	  0.001	 31.200	 99.954	 -99999.000

18683	 -0.199	 -0.479	  0.381	  0.092	  0.060	 -9.775	 -0.003	  0.002	  0.000	 31.200	 99.959	 -99999.000

18733	 -0.199	 -0.483	  0.378	  0.107	  0.045	 -9.753	 -0.003	  0.003	 -0.000	 31.200	 99.943	 -99999.000

18783	 -0.197	 -0.475	  0.375	  0.087	  0.058	 -9.777	 -0.003	  0.002	  0.002	 31.200	 99.943	 -99999.000

18833	 -0.199	 -0.479	  0.380	  0.106	  0.065	 -9.757	 -0.002	  0.002	 -0.000	 31.200	 99.959	 -99999.000

18883	 -0.195	 -0.477	  0.379	  0.085	  0.038	 -9.718	 -0.002	  0.001	  0.000	 31.200	 99.954	 -99999.000

18933	 -0.197	 -0.482	  0.374	  0.090	  0.084	 -9.757	 -0.003	  0.003	  0.001	 31.200	 99.954	 -99999.000

18983	 -0.198	 -0.479	  0.381	  0.093	  0.061	 -9.743	 -0.003	  0.003	  0.001	 31.200	 99.954	 -99999.000

19032	 -0.198	 -0.481	  0.379	  0.094	  0.090	 -9.748	 -0.005	  0.003	  0.003	 31.200	 99.954	 -99999.000

19082	 -0.199	 -0.479	  0.380	  0.086	  0.050	 -9.755	 -0.004	  0.002	  0.001	 31.200	 99.943	 -99999.000

19132	 -0.200	 -0.479	  0.383	  0.099	  0.070	 -9.745	 -0.003	  0.001	  0.000	 31.200	 99.943	 -99999.000

19182	 -0.200	 -0.481	  0.379	  0.087	  0.053	 -9.751	 -0.004	  0.002	  0.002	 31.200	 99.954	 -99999.000

19232	 -0.199	 -0.481	  0.380	  0.118	  0.068	 -9.749	 -0.004	  0.002	  0.000	 31.200	 99.943	 -99999.000

19282	 -0.197	 -0.482	  0.379	  0.091	  0.043	 -9.738	 -0.004	  0.001	 -0.000	 31.200	 99.954	 -99999.000

19332	 -0.198	 -0.479	  0.378	  0.081	  0.066	 -9.754	 -0.003	  0.003	  0.002	 31.200	 99.959	 -99999.000

19382	 -0.199	 -0.479	  0.379	  0.092	  0.081	 -9.768	 -0.004	  0.002	  0.001	 31.200	 99.947	 -99999.000

19433	 -0.200	 -0.467	  0.373	  0.109	  0.072	 -9.770	 -0.004	  0.002	 -0.000	 31.200	 99.970	 -99999.000

19482	 -0.198	 -0.477	  0.380	  0.102	  0.067	 -9.770	 -0.004	  0.004	  0.002	 31.200	 99.954	 -99999.000

19532	 -0.198	 -0.481	  0.381	  0.087	  0.073	 -9.725	 -0.003	  0.003	  0.001	 31.200	 99.947	 -99999.000

19582	 -0.197	 -0.478	  0.374	  0.102	  0.072	 -9.762	 -0.003	  0.001	 -0.000	 31.200	 99.943	 -99999.000

19632	 -0.198	 -0.477	  0.380	  0.095	  0.044	 -9.760	 -0.003	  0.002	  0.002	 31.200	 99.954	 -99999.000

19682	 -0.198	 -0.479	  0.372	  0.088	  0.079	 -9.740	 -0.003	  0.004	  0.000	 31.200	 99.947	 -99999.000

19732	 -0.198	 -0.479	  0.379	  0.097	  0.074	 -9.730	 -0.004	  0.002	  0.001	 31.200	 99.959	 -99999.000

19782	 -0.198	 -0.475	  0.375	  0.103	  0.037	 -9.738	 -0.004	  0.002	  0.001	 31.200	 99.943	 -99999.000

19832	 -0.198	 -0.479	  0.381	  0.100	  0.059	 -9.771	 -0.004	  0.002	  0.000	 31.200	 99.947	 -99999.000

19882	 -0.198	 -0.479	  0.377	  0.097	  0.056	 -9.761	 -0.004	  0.003	  0.001	 31.200	 99.966	 -99999.000

19932	 -0.196	 -0.480	  0.381	  0.100	  0.076	 -9.721	 -0.005	  0.002	 -0.000	 31.200	 99.947	 -99999.000

19982	 -0.198	 -0.479	  0.379	  0.093	  0.076	 -9.754	 -0.005	  0.003	  0.001	 31.200	 99.943	 -99999.000

20032	 -0.197	 -0.469	  0.379	  0.108	  0.058	 -9.753	 -0.003	  0.002	 -0.000	 31.200	 99.943	 -99999.000

20082	 -0.198	 -0.479	  0.381	  0.110	  0.080	 -9.780	 -0.003	  0.002	  0.001	 31.200	 99.970	 -99999.000

20132	 -0.197	 -0.480	  0.378	  0.068	  0.076	 -9.774	 -0.004	  0.001	  0.002	 31.200	 99.947	 -99999.000

20182	 -0.197	 -0.479	  0.379	  0.093	  0.087	 -9.762	 -0.003	  0.001	  0.001	 31.200	 99.959	 -99999.000

20232	 -0.197	 -0.480	  0.380	  0.105	  0.040	 -9.739	 -0.005	  0.002	 -0.000	 31.200	 99.943	 -99999.000

20282	 -0.198	 -0.481	  0.379	  0.094	  0.063	 -9.758	 -0.003	  0.001	  0.001	 31.200	 99.959	 -99999.000

20332	 -0.197	 -0.483	  0.377	  0.112	  0.053	 -9.731	 -0.004	  0.002	  0.001	 31.200	 99.943	 -99999.000

20382	 -0.198	 -0.483	  0.379	  0.096	  0.066	 -9.769	 -0.004	  0.003	  0.002	 31.200	 99.943	 -99999.000

20432	 -0.197	 -0.482	  0.378	  0.093	  0.051	 -9.730	 -0.003	  0.003	  0.001	 31.200	 99.943	 -99999.000

20482	 -0.199	 -0.479	  0.381	  0.100	  0.056	 -9.756	 -0.002	  0.003	  0.000	 31.200	 99.943	 -99999.000

20532	 -0.200	 -0.481	  0.382	  0.084	  0.063	 -9.758	 -0.003	  0.001	  0.001	 31.200	 99.959	 -99999.000

20582	 -0.200	 -0.469	  0.379	  0.083	  0.048	 -9.787	 -0.005	  0.002	  0.001	 31.200	 99.943	 -99999.000

20632	 -0.198	 -0.481	  0.378	  0.084	  0.080	 -9.772	 -0.004	  0.001	  0.001	 31.200	 99.947	 -99999.000

20682	 -0.198	 -0.481	  0.381	  0.113	  0.055	 -9.756	 -0.003	  0.002	  0.001	 31.200	 99.954	 -99999.000

20732	 -0.196	 -0.479	  0.384	  0.103	  0.071	 -9.749	 -0.005	  0.002	 -0.000	 31.200	 99.954	 -99999.000

20782	 -0.197	 -0.480	  0.375	  0.107	  0.063	 -9.756	 -0.004	  0.001	  0.001	 31.200	 99.947	 -99999.000

20832	 -0.196	 -0.479	  0.379	  0.092	  0.063	 -9.765	 -0.003	  0.002	  0.002	 31.200	 99.943	 -99999.000

20882	 -0.197	 -0.475	  0.381	  0.096	  0.066	 -9.728	 -0.005	  0.002	  0.000	 31.200	 99.947	 -99999.000

20932	 -0.197	 -0.479	  0.379	  0.106	  0.068	 -9.747	 -0.004	  0.003	  0.001	 31.200	 99.947	 -99999.000

20982	 -0.197	 -0.478	  0.374	  0.099	  0.071	 -9.723	 -0.005	  0.002	  0.001	 31.200	 99.947	 -99999.000

21032	 -0.197	 -0.479	  0.377	  0.101	  0.061	 -9.748	 -0.003	  0.003	  0.001	 31.200	 99.943	 -99999.000

21082	 -0.200	 -0.479	  0.380	  0.099	  0.084	 -9.743	 -0.003	  0.003	  0.001	 31.200	 99.943	 -99999.000

21132	 -0.199	 -0.479	  0.384	  0.113	  0.061	 -9.747	 -0.003	  0.003	  0.000	 31.200	 99.959	 -99999.000

21182	 -0.197	 -0.478	  0.379	  0.090	  0.063	 -9.761	 -0.004	  0.002	  0.001	 31.200	 99.954	 -99999.000

21232	 -0.197	 -0.477	  0.382	  0.098	  0.043	 -9.744	 -0.003	  0.002	  0.001	 31.200	 99.959	 -99999.000

21282	 -0.197	 -0.475	  0.380	  0.105	  0.066	 -9.734	 -0.003	  0.003	  0.001	 31.200	 99.959	 -99999.000

21332	 -0.199	 -0.479	  0.379	  0.082	  0.074	 -9.772	 -0.003	  0.001	  0.001	 31.200	 99.959	 -99999.000

21382	 -0.197	 -0.478	  0.380	  0.087	  0.066	 -9.748	 -0.003	  0.003	  0.001	 31.200	 99.959	 -99999.000

21432	 -0.196	 -0.472	  0.377	  0.120	  0.059	 -9.744	 -0.003	  0.004	  0.001	 31.200	 99.947	 -99999.000

21482	 -0.199	 -0.481	  0.377	  0.100	  0.043	 -9.775	 -0.003	  0.002	  0.000	 31.200	 99.947	 -99999.000

21532	 -0.198	 -0.477	  0.379	  0.101	  0.079	 -9.774	 -0.004	  0.002	  0.001	 31.200	 99.947	 -99999.000

21582	 -0.197	 -0.475	  0.377	  0.116	  0.065	 -9.755	 -0.003	  0.003	  0.002	 31.200	 99.947	 -99999.000

21632	 -0.199	 -0.475	  0.377	  0.098	  0.065	 -9.792	 -0.003	  0.003	  0.001	 31.200	 99.947	 -99999.000

21682	 -0.195	 -0.480	  0.381	  0.103	  0.075	 -9.759	 -0.003	  0.002	 -0.000	 31.200	 99.943	 -99999.000

21732	 -0.200	 -0.479	  0.379	  0.089	  0.042	 -9.754	 -0.003	  0.003	  0.002	 31.200	 99.947	 -99999.000

21782	 -0.199	 -0.479	  0.382	  0.098	  0.054	 -9.771	 -0.003	  0.002	  0.001	 31.200	 99.959	 -99999.000

21832	 -0.195	 -0.481	  0.379	  0.088	  0.056	 -9.766	 -0.003	  0.003	  0.001	 31.200	 99.947	 -99999.000

21882	 -0.197	 -0.466	  0.377	  0.092	  0.048	 -9.755	 -0.003	  0.002	  0.001	 31.200	 99.947	 -99999.000

21932	 -0.196	 -0.479	  0.379	  0.111	  0.051	 -9.763	 -0.004	  0.002	  0.001	 31.200	 99.947	 -99999.000

21982	 -0.199	 -0.477	  0.378	  0.092	  0.057	 -9.766	 -0.004	  0.002	  0.002	 31.200	 99.943	 -99999.000

22032	 -0.199	 -0.475	  0.382	  0.118	  0.065	 -9.754	 -0.004	  0.002	  0.001	 31.200	 99.959	 -99999.000

22082	 -0.197	 -0.480	  0.378	  0.096	  0.053	 -9.754	 -0.004	  0.001	  0.000	 31.200	 99.959	 -99999.000

22132	 -0.200	 -0.480	  0.372	  0.075	  0.073	 -9.764	 -0.003	  0.002	  0.001	 31.200	 99.947	 -99999.000

22182	 -0.197	 -0.479	  0.379	  0.095	  0.043	 -9.758	 -0.004	  0.002	  0.001	 31.200	 99.947	 -99999.000

22232	 -0.198	 -0.485	  0.382	  0.096	  0.047	 -9.746	 -0.004	  0.002	  0.001	 31.200	 99.936	 -99999.000

22282	 -0.199	 -0.481	  0.381	  0.102	  0.077	 -9.794	 -0.004	  0.001	  0.001	 31.200	 99.947	 -99999.000

22332	 -0.196	 -0.479	  0.379	  0.082	  0.051	 -9.754	 -0.003	  0.002	  0.002	 31.200	 99.947	 -99999.000

22382	 -0.198	 -0.477	  0.382	  0.070	  0.076	 -9.752	 -0.003	  0.001	  0.001	 31.200	 99.959	 -99999.000

22432	 -0.195	 -0.475	  0.381	  0.100	  0.044	 -9.749	 -0.003	  0.002	  0.000	 31.200	 99.947	 -99999.000

22482	 -0.197	 -0.477	  0.377	  0.101	  0.044	 -9.757	 -0.003	  0.002	  0.001	 31.200	 99.947	 -99999.000

22532	 -0.197	 -0.480	  0.378	  0.105	  0.062	 -9.748	 -0.003	  0.002	  0.000	 31.200	 99.947	 -99999.000

22582	 -0.197	 -0.479	  0.382	  0.094	  0.053	 -9.759	 -0.004	  0.002	  0.000	 31.200	 99.947	 -99999.000

22632	 -0.196	 -0.478	  0.384	  0.098	  0.063	 -9.737	 -0.003	  0.003	  0.001	 31.200	 99.947	 -99999.000

22682	 -0.198	 -0.477	  0.379	  0.106	  0.076	 -9.744	 -0.004	  0.003	  0.000	 31.200	 99.959	 -99999.000

22732	 -0.195	 -0.472	  0.381	  0.091	  0.074	 -9.722	 -0.003	  0.002	  0.001	 31.200	 99.943	 -99999.000

22782	 -0.195	 -0.479	  0.380	  0.081	  0.076	 -9.762	 -0.003	  0.002	  0.001	 31.200	 99.947	 -99999.000

22832	 -0.200	 -0.477	  0.382	  0.076	  0.030	 -9.744	 -0.004	  0.002	  0.001	 31.200	 99.947	 -99999.000

22883	 -0.197	 -0.478	  0.379	  0.081	  0.056	 -9.770	 -0.003	  0.002	  0.001	 31.200	 99.947	 -99999.000

22932	 -0.196	 -0.478	  0.382	  0.087	  0.042	 -9.820	 -0.003	  0.001	 -0.000	 31.200	 99.959	 -99999.000

22983	 -0.198	 -0.480	  0.378	  0.081	  0.074	 -9.770	 -0.005	  0.002	  0.002	 31.200	 99.959	 -99999.000

23032	 -0.198	 -0.481	  0.382	  0.086	  0.057	 -9.753	 -0.004	  0.002	 -0.001	 31.200	 99.951	 -99999.000

23082	 -0.197	 -0.475	  0.381	  0.098	  0.072	 -9.783	 -0.004	  0.002	  0.001	 31.200	 99.963	 -99999.000

23133	 -0.195	 -0.477	  0.382	  0.094	  0.056	 -9.745	 -0.003	  0.002	  0.001	 31.200	 99.947	 -99999.000

23183	 -0.197	 -0.477	  0.378	  0.072	  0.058	 -9.733	 -0.004	  0.003	  0.001	 31.200	 99.947	 -99999.000

23233	 -0.198	 -0.479	  0.380	  0.106	  0.060	 -9.746	 -0.004	  0.001	  0.001	 31.200	 99.947	 -99999.000

23283	 -0.196	 -0.480	  0.385	  0.079	  0.071	 -9.787	 -0.002	  0.002	  0.001	 31.200	 99.947	 -99999.000

23333	 -0.198	 -0.472	  0.377	  0.127	  0.061	 -9.760	 -0.003	  0.002	  0.001	 31.200	 99.947	 -99999.000

23383	 -0.198	 -0.481	  0.383	  0.097	  0.063	 -9.771	 -0.002	  0.002	  0.000	 31.200	 99.959	 -99999.000

23433	 -0.196	 -0.470	  0.377	  0.096	  0.054	 -9.785	 -0.003	  0.003	  0.000	 31.200	 99.936	 -99999.000

23483	 -0.197	 -0.475	  0.381	  0.101	  0.046	 -9.751	 -0.004	  0.002	 -0.000	 31.200	 99.970	 -99999.000

23533	 -0.198	 -0.474	  0.378	  0.098	  0.059	 -9.747	 -0.003	  0.003	  0.001	 31.200	 99.947	 -99999.000

23583	 -0.199	 -0.478	  0.373	  0.112	  0.068	 -9.744	 -0.003	  0.002	  0.001	 31.200	 99.959	 -99999.000

23633	 -0.197	 -0.478	  0.380	  0.094	  0.051	 -9.723	 -0.004	  0.002	  0.000	 31.200	 99.947	 -99999.000

23683	 -0.199	 -0.472	  0.380	  0.082	  0.068	 -9.770	 -0.004	  0.003	  0.000	 31.200	 99.947	 -99999.000

23733	 -0.197	 -0.476	  0.371	  0.079	  0.064	 -9.746	 -0.004	  0.002	  0.000	 31.200	 99.951	 -99999.000

23783	 -0.199	 -0.477	  0.383	  0.097	  0.068	 -9.745	 -0.004	  0.004	  0.000	 31.200	 99.947	 -99999.000

23833	 -0.199	 -0.477	  0.381	  0.096	  0.036	 -9.780	 -0.004	  0.003	  0.001	 31.200	 99.947	 -99999.000

23883	 -0.198	 -0.478	  0.378	  0.088	  0.053	 -9.745	 -0.003	  0.001	 -0.000	 31.200	 99.959	 -99999.000

23933	 -0.199	 -0.477	  0.378	  0.094	  0.068	 -9.729	 -0.003	  0.002	  0.000	 31.200	 99.959	 -99999.000

23983	 -0.197	 -0.479	  0.381	  0.087	  0.071	 -9.710	 -0.004	  0.003	  0.001	 31.200	 99.959	 -99999.000

24033	 -0.198	 -0.477	  0.383	  0.096	  0.072	 -9.751	 -0.003	  0.003	 -0.000	 31.200	 99.947	 -99999.000

24083	 -0.199	 -0.479	  0.381	  0.113	  0.077	 -9.749	 -0.003	  0.002	 -0.000	 31.200	 99.959	 -99999.000

24133	 -0.199	 -0.475	  0.381	  0.100	  0.061	 -9.770	 -0.005	  0.002	  0.001	 31.200	 99.959	 -99999.000

24183	 -0.197	 -0.477	  0.380	  0.097	  0.052	 -9.758	 -0.003	  0.003	  0.000	 31.200	 99.947	 -99999.000

24233	 -0.200	 -0.477	  0.378	  0.111	  0.044	 -9.759	 -0.003	  0.002	  0.001	 31.200	 99.947	 -99999.000

24283	 -0.199	 -0.479	  0.380	  0.103	  0.048	 -9.769	 -0.004	  0.002	 -0.000	 31.200	 99.947	 -99999.000

28358	 -0.200	 -0.481	  0.383	  0.102	  0.069	 -9.791	 -0.003	  0.003	  0.001	 31.200	 99.951	 -0.054

28408	 -0.197	 -0.474	  0.380	  0.089	  0.082	 -9.757	 -0.005	  0.002	  0.001	 31.200	 99.951	 -0.054

28458	 -0.200	 -0.480	  0.381	  0.092	  0.051	 -9.732	 -0.003	  0.003	  0.001	 31.200	 99.951	 -0.054

28508	 -0.197	 -0.479	  0.382	  0.105	  0.090	 -9.743	 -0.004	  0.003	  0.001	 31.200	 99.940	  0.931

28558	 -0.198	 -0.478	  0.379	  0.087	  0.043	 -9.754	 -0.004	  0.001	 -0.000	 31.200	 99.963	 -1.129

28608	 -0.198	 -0.483	  0.383	  0.110	  0.054	 -9.755	 -0.003	  0.002	  0.000	 31.200	 99.959	 -0.770

28658	 -0.198	 -0.479	  0.377	  0.093	  0.067	 -9.759	 -0.002	  0.003	  0.001	 31.200	 99.947	  0.304

28708	 -0.198	 -0.479	  0.379	  0.113	  0.058	 -9.744	 -0.003	  0.002	  0.001	 31.200	 99.951	 -0.054

28758	 -0.198	 -0.479	  0.380	  0.090	  0.065	 -9.755	 -0.003	  0.002	  0.000	 31.200	 99.963	 -1.129

28808	 -0.197	 -0.479	  0.379	  0.109	  0.056	 -9.739	 -0.002	  0.001	  0.000	 31.200	 99.940	  0.931

28858	 -0.198	 -0.462	  0.379	  0.092	  0.073	 -9.759	 -0.004	  0.004	  0.001	 31.200	 99.951	 -0.054

28908	 -0.201	 -0.477	  0.382	  0.086	  0.055	 -9.747	 -0.004	  0.001	  0.002	 31.200	 99.951	 -0.054

28958	 -0.201	 -0.479	  0.380	  0.086	  0.057	 -9.770	 -0.003	  0.002	  0.001	 31.200	 99.947	  0.304

29008	 -0.199	 -0.480	  0.381	  0.074	  0.070	 -9.763	 -0.003	  0.002	  0.001	 31.200	 99.951	 -0.054

29058	 -0.197	 -0.478	  0.379	  0.101	  0.052	 -9.774	 -0.004	  0.000	 -0.000	 31.200	 99.963	 -1.129

29108	 -0.199	 -0.475	  0.380	  0.111	  0.061	 -9.747	 -0.004	  0.001	 -0.000	 31.200	 99.947	  0.304

29158	 -0.199	 -0.481	  0.380	  0.106	  0.023	 -9.759	 -0.004	  0.004	  0.000	 31.200	 99.963	 -1.129

29208	 -0.199	 -0.474	  0.380	  0.111	  0.052	 -9.749	 -0.003	  0.003	  0.001	 31.200	 99.951	 -0.054

29258	 -0.200	 -0.484	  0.386	  0.097	  0.076	 -9.783	 -0.003	  0.002	  0.000	 31.200	 99.951	 -0.054

29308	 -0.200	 -0.475	  0.373	  0.087	  0.043	 -9.764	 -0.004	  0.002	  0.001	 31.200	 99.951	 -0.054

29358	 -0.198	 -0.475	  0.380	  0.078	  0.060	 -9.771	 -0.003	  0.002	  0.001	 31.200	 99.963	 -1.129

29408	 -0.197	 -0.465	  0.375	  0.106	  0.082	 -9.793	 -0.003	  0.002	  0.001	 31.200	 99.947	  0.304

29458	 -0.199	 -0.480	  0.378	  0.102	  0.073	 -9.756	 -0.005	  0.002	  0.001	 31.200	 99.951	 -0.054

29508	 -0.198	 -0.475	  0.381	  0.063	  0.071	 -9.755	 -0.003	  0.002	  0.000	 31.200	 99.951	 -0.054

29558	 -0.200	 -0.481	  0.381	  0.085	  0.060	 -9.762	 -0.006	  0.003	  0.001	 31.200	 99.951	 -0.054

29608	 -0.199	 -0.481	  0.380	  0.095	  0.044	 -9.758	 -0.004	  0.002	  0.001	 31.200	 99.963	 -1.129

29658	 -0.198	 -0.480	  0.379	  0.084	  0.055	 -9.717	 -0.003	  0.003	  0.001	 31.200	 99.963	 -1.129

29708	 -0.200	 -0.475	  0.380	  0.095	  0.043	 -9.731	 -0.003	  0.003	  0.000	 31.200	 99.951	 -0.054

29758	 -0.198	 -0.481	  0.379	  0.092	  0.051	 -9.781	 -0.003	  0.001	  0.001	 31.200	 99.963	 -1.129

29808	 -0.199	 -0.477	  0.381	  0.087	  0.050	 -9.781	 -0.004	  0.004	  0.002	 31.200	 99.963	 -1.129

29858	 -0.203	 -0.479	  0.374	  0.107	  0.057	 -9.776	 -0.003	  0.003	  0.001	 31.200	 99.951	 -0.054

29908	 -0.201	 -0.479	  0.373	  0.095	  0.063	 -9.786	 -0.004	  0.001	  0.000	 31.200	 99.951	 -0.054

29958	 -0.199	 -0.480	  0.377	  0.085	  0.069	 -9.763	 -0.003	  0.002	  0.001	 31.200	 99.951	 -0.054

30008	 -0.200	 -0.482	  0.383	  0.088	  0.039	 -9.778	 -0.003	  0.004	  0.000	 31.200	 99.956	 -0.503

30058	 -0.198	 -0.466	  0.379	  0.099	  0.064	 -9.740	 -0.003	  0.003	  0.002	 31.200	 99.951	 -0.054

30108	 -0.202	 -0.477	  0.380	  0.082	  0.048	 -9.758	 -0.003	  0.002	  0.001	 31.200	 99.951	 -0.054

30158	 -0.199	 -0.478	  0.379	  0.096	  0.048	 -9.733	 -0.003	  0.002	  0.001	 31.200	 99.951	 -0.054

30208	 -0.198	 -0.475	  0.375	  0.078	  0.074	 -9.725	 -0.003	  0.001	  0.001	 31.200	 99.951	 -0.054

30258	 -0.200	 -0.482	  0.378	  0.081	  0.045	 -9.735	 -0.004	  0.003	  0.000	 31.200	 99.951	 -0.054

30308	 -0.200	 -0.480	  0.377	  0.097	  0.069	 -9.745	 -0.004	  0.003	  0.001	 31.200	 99.940	  0.931

30358	 -0.196	 -0.472	  0.374	  0.123	  0.077	 -9.735	 -0.004	  0.001	  0.001	 31.200	 99.951	 -0.054

30408	 -0.199	 -0.477	  0.381	  0.099	  0.052	 -9.762	 -0.004	  0.002	  0.002	 31.200	 99.963	 -1.129

30458	 -0.199	 -0.477	  0.383	  0.116	  0.045	 -9.753	 -0.004	  0.003	 -0.000	 31.200	 99.940	  0.931

30508	 -0.199	 -0.481	  0.380	  0.092	  0.039	 -9.758	 -0.003	  0.002	  0.001	 31.200	 99.956	 -0.503

30558	 -0.197	 -0.480	  0.379	  0.098	  0.051	 -9.745	 -0.004	  0.003	  0.002	 31.200	 99.951	 -0.054

30608	 -0.198	 -0.463	  0.381	  0.099	  0.035	 -9.781	 -0.003	  0.001	  0.000	 31.200	 99.963	 -1.129

30658	 -0.198	 -0.475	  0.377	  0.100	  0.080	 -9.756	 -0.004	  0.003	  0.002	 31.200	 99.974	 -2.114

30708	 -0.201	 -0.475	  0.382	  0.089	  0.035	 -9.769	 -0.003	  0.002	  0.000	 31.200	 99.963	 -1.129

30758	 -0.201	 -0.473	  0.382	  0.098	  0.052	 -9.775	 -0.003	  0.003	  0.000	 31.200	 99.951	 -0.054

30808	 -0.201	 -0.479	  0.375	  0.106	  0.062	 -9.745	 -0.003	  0.003	 -0.000	 31.200	 99.944	  0.572

30858	 -0.199	 -0.475	  0.380	  0.115	  0.049	 -9.771	 -0.003	  0.002	  0.001	 31.200	 99.951	 -0.054

30908	 -0.200	 -0.478	  0.375	  0.094	  0.050	 -9.772	 -0.003	  0.002	  0.001	 31.200	 99.967	 -1.487

30958	 -0.201	 -0.475	  0.373	  0.095	  0.051	 -9.767	 -0.003	  0.002	  0.001	 31.200	 99.967	 -1.487

31008	 -0.200	 -0.477	  0.380	  0.086	  0.067	 -9.726	 -0.004	  0.001	  0.001	 31.200	 99.963	 -1.129

31058	 -0.199	 -0.477	  0.386	  0.102	  0.067	 -9.749	 -0.003	  0.002	  0.001	 31.200	 99.951	 -0.054

31108	 -0.198	 -0.474	  0.379	  0.076	  0.053	 -9.771	 -0.004	  0.003	  0.001	 31.200	 99.951	 -0.054

31158	 -0.198	 -0.475	  0.381	  0.082	  0.047	 -9.764	 -0.003	  0.002	  0.001	 31.200	 99.951	 -0.054

31208	 -0.200	 -0.461	  0.377	  0.086	  0.069	 -9.755	 -0.002	  0.003	  0.001	 31.200	 99.951	 -0.054

31258	 -0.199	 -0.480	  0.382	  0.103	  0.066	 -9.755	 -0.004	  0.003	  0.000	 31.200	 99.956	 -0.503

31308	 -0.199	 -0.472	  0.381	  0.100	  0.057	 -9.763	 -0.003	  0.001	  0.002	 31.200	 99.956	 -0.503

31358	 -0.199	 -0.477	  0.387	  0.097	  0.050	 -9.747	 -0.003	  0.003	  0.001	 31.200	 99.951	 -0.054

31407	 -0.200	 -0.475	  0.381	  0.078	  0.052	 -9.734	 -0.005	  0.002	 -0.000	 31.200	 99.956	 -0.503

31457	 -0.201	 -0.469	  0.382	  0.088	  0.053	 -9.784	 -0.004	  0.001	  0.001	 31.200	 99.956	 -0.503

31507	 -0.200	 -0.475	  0.381	  0.102	  0.056	 -9.795	 -0.004	  0.002	  0.001	 31.200	 99.963	 -1.129

31558	 -0.201	 -0.477	  0.382	  0.116	  0.050	 -9.766	 -0.004	  0.002	  0.002	 31.200	 99.940	  0.931

31607	 -0.199	 -0.475	  0.382	  0.097	  0.068	 -9.772	 -0.004	  0.002	  0.001	 31.200	 99.951	 -0.054

31658	 -0.201	 -0.477	  0.384	  0.097	  0.065	 -9.765	 -0.004	  0.003	  0.001	 31.200	 99.951	 -0.054

31708	 -0.200	 -0.475	  0.386	  0.082	  0.063	 -9.757	 -0.004	  0.002	  0.001	 31.200	 99.963	 -1.129

31757	 -0.202	 -0.465	  0.375	  0.105	  0.053	 -9.742	 -0.004	  0.004	  0.001	 31.200	 99.951	 -0.054

31807	 -0.201	 -0.477	  0.383	  0.085	  0.067	 -9.772	 -0.004	  0.003	  0.000	 31.200	 99.956	 -0.503

31857	 -0.199	 -0.475	  0.382	  0.107	  0.058	 -9.705	 -0.004	  0.001	  0.000	 31.200	 99.959	 -0.770

31907	 -0.201	 -0.475	  0.383	  0.105	  0.058	 -9.765	 -0.004	  0.004	  0.001	 31.200	 99.963	 -1.129

31957	 -0.202	 -0.475	  0.388	  0.081	  0.060	 -9.771	 -0.003	  0.002	  0.002	 31.200	 99.951	 -0.054

32007	 -0.202	 -0.477	  0.380	  0.081	  0.079	 -9.770	 -0.004	  0.003	  0.001	 31.200	 99.963	 -1.129

32057	 -0.201	 -0.469	  0.380	  0.094	  0.070	 -9.791	 -0.004	  0.001	  0.002	 31.200	 99.951	 -0.054

32107	 -0.201	 -0.475	  0.382	  0.095	  0.053	 -9.752	 -0.004	  0.003	  0.000	 31.200	 99.956	 -0.503

32157	 -0.200	 -0.475	  0.382	  0.093	  0.054	 -9.749	 -0.004	  0.003	  0.000	 31.200	 99.956	 -0.503

32207	 -0.202	 -0.477	  0.382	  0.093	  0.072	 -9.776	 -0.004	  0.002	  0.002	 31.200	 99.956	 -0.503

32257	 -0.202	 -0.472	  0.379	  0.096	  0.034	 -9.769	 -0.003	  0.003	  0.001	 31.200	 99.951	 -0.054

32307	 -0.199	 -0.475	  0.381	  0.094	  0.062	 -9.772	 -0.003	  0.002	  0.001	 31.200	 99.951	 -0.054

32357	 -0.203	 -0.476	  0.383	  0.088	  0.031	 -9.765	 -0.003	  0.002	  0.000	 31.200	 99.951	 -0.054

32407	 -0.202	 -0.479	  0.382	  0.097	  0.042	 -9.754	 -0.003	  0.002	 -0.000	 31.200	 99.963	 -1.129

32457	 -0.202	 -0.465	  0.382	  0.091	  0.059	 -9.724	 -0.005	  0.001	  0.000	 31.200	 99.940	  0.931

32507	 -0.199	 -0.478	  0.381	  0.088	  0.066	 -9.775	 -0.004	  0.003	  0.000	 31.200	 99.940	  0.931

32557	 -0.199	 -0.475	  0.382	  0.102	  0.056	 -9.749	 -0.003	  0.003	  0.001	 31.200	 99.956	 -0.503

32607	 -0.201	 -0.475	  0.386	  0.032	  0.032	 -9.868	 -0.005	  0.008	  0.002	 31.200	 99.956	 -0.503

32657	 -0.200	 -0.474	  0.384	  0.088	  0.059	 -9.784	 -0.003	  0.003	  0.001	 31.200	 99.944	  0.572

32707	 -0.203	 -0.470	  0.376	  0.106	  0.040	 -9.738	 -0.005	  0.003	  0.000	 31.200	 99.967	 -1.487

32757	 -0.202	 -0.475	  0.383	  0.056	  0.002	 -9.853	 -0.015	  0.029	  0.006	 31.200	 99.956	 -0.503

32807	 -0.202	 -0.463	  0.383	  0.085	 -0.054	 -9.749	 -0.002	 -0.012	  0.152	 31.200	 99.956	 -0.503

32857	 -0.207	 -0.475	  0.384	  0.116	 -0.349	 -9.795	 -0.002	  0.001	  0.111	 31.200	 99.967	 -1.487

32907	 -0.205	 -0.472	  0.380	 -0.079	  0.092	 -9.838	 -0.016	 -0.008	 -0.012	 31.200	 99.956	 -0.503

32957	 -0.215	 -0.471	  0.375	 -0.799	 -0.577	 -9.249	  0.015	  0.002	  0.442	 31.200	 99.956	 -0.503

33007	 -0.224	 -0.465	  0.379	  2.474	  0.185	 -7.951	 -0.025	  0.066	  0.004	 31.200	 99.956	 -0.503

33057	 -0.223	 -0.469	  0.382	 -0.507	  0.008	 -9.701	 -0.030	 -0.100	  0.083	 31.200	 99.951	 -0.054

33107	 -0.223	 -0.468	  0.382	 -0.334	  0.210	 -10.877	 -0.257	 -0.388	  0.016	 31.200	 99.956	 -0.503

33158	 -0.209	 -0.482	  0.376	 -2.990	 -0.405	 -18.637	 -0.726	 -0.663	  0.391	 31.200	 99.956	 -0.503

33207	 -0.228	 -0.487	  0.356	 -0.499	  2.982	 -6.555	 -0.962	  1.892	  0.904	 31.200	 99.956	 -0.503

33258	 -0.275	 -0.479	  0.335	  5.127	 -0.312	  6.069	  0.119	  2.057	  0.487	 31.200	 99.956	 -0.503

33307	 -0.268	 -0.464	  0.368	 -7.488	  1.693	 -23.140	  2.161	 -3.929	 -0.194	 31.200	 99.956	 -0.503

33358	 -0.244	 -0.424	  0.409	  2.508	  1.159	 -12.069	  0.518	  3.672	  0.980	 31.200	 99.944	  0.572

33407	 -0.353	 -0.396	  0.371	  1.435	 -0.437	  9.977	  0.780	 -1.216	  0.972	 31.200	 99.944	  0.572

33458	 -0.276	 -0.339	  0.465	 -1.534	 -2.723	 -29.538	  2.299	 -1.431	 -0.465	 31.200	 99.956	 -0.503

33508	 -0.350	 -0.315	  0.430	  0.887	  1.478	  9.283	 -0.863	  1.344	  0.464	 31.200	 99.956	 -0.503

33558	 -0.294	 -0.311	  0.471	 -2.512	 -7.586	 -33.454	  0.632	 -1.144	  0.010	 31.200	 99.940	  0.931

33608	 -0.377	 -0.296	  0.429	  8.305	  2.729	 16.963	 -1.121	  2.790	  0.545	 31.200	 99.944	  0.572

33658	 -0.329	 -0.308	  0.475	 -0.578	 -11.262	 -37.733	  0.841	 -3.007	 -0.805	 31.200	 99.967	 -1.487

33708	 -0.393	 -0.282	  0.432	  7.582	  3.462	 13.536	 -1.702	  4.135	  1.241	 31.200	 99.944	  0.572

33758	 -0.353	 -0.343	  0.444	 -3.215	 -7.227	 -34.237	 -1.250	 -4.031	 -0.778	 31.200	 99.956	 -0.503

33808	 -0.384	 -0.339	  0.402	  5.708	  0.114	  8.790	 -0.131	  3.970	 -0.018	 31.200	 99.944	  0.572

33858	 -0.365	 -0.402	  0.395	  1.152	 -3.410	 -23.554	 -1.580	 -3.002	 -0.738	 31.200	 99.956	 -0.503

33908	 -0.376	 -0.358	  0.404	 -0.299	  1.037	 -4.401	  2.304	  2.488	  0.393	 31.200	 99.944	  0.572

33958	 -0.380	 -0.374	  0.406	 -2.115	 -0.649	 -16.276	 -0.464	 -1.861	 -0.394	 31.200	 99.956	 -0.503

34008	 -0.394	 -0.322	  0.410	  6.028	 -0.606	 -6.325	  1.081	  2.867	  0.502	 31.200	 99.956	 -0.503

34058	 -0.405	 -0.350	  0.401	 -4.143	  1.392	 -2.160	  0.191	 -3.555	 -0.439	 31.200	 99.944	  0.572

34108	 -0.368	 -0.324	  0.450	  3.042	 -3.726	 -21.256	  0.571	  2.199	  0.030	 31.200	 99.956	 -0.503

34158	 -0.395	 -0.325	  0.424	 -3.670	  4.964	  2.094	  0.332	 -1.282	 -0.056	 31.200	 99.944	  0.572

34208	 -0.370	 -0.353	  0.435	  0.736	 -1.207	 -13.180	 -1.517	 -0.671	 -0.164	 31.200	 99.956	 -0.503

34258	 -0.376	 -0.358	  0.421	  1.849	 -0.670	 -8.750	 -0.771	 -0.209	 -0.134	 31.200	 99.956	 -0.503

34308	 -0.367	 -0.401	  0.417	 -0.306	 -1.479	 -13.462	 -0.907	 -0.335	 -0.217	 31.200	 99.956	 -0.503

34358	 -0.364	 -0.415	  0.396	 -0.521	 -1.957	 -10.424	  0.141	  0.449	 -0.102	 31.200	 99.967	 -1.487

34408	 -0.366	 -0.421	  0.398	  0.573	  0.295	 -8.207	  0.021	 -0.317	 -0.121	 31.200	 99.956	 -0.503

34458	 -0.354	 -0.417	  0.402	  1.235	 -0.155	 -11.704	  0.011	 -0.187	 -0.098	 31.200	 99.956	 -0.503

34508	 -0.350	 -0.423	  0.408	  0.591	  0.163	 -10.312	  0.076	 -0.134	 -0.205	 31.200	 99.967	 -1.487

34558	 -0.338	 -0.430	  0.402	 -0.238	  0.347	 -9.587	  0.172	 -0.103	 -0.380	 31.200	 99.951	 -0.054

34608	 -0.331	 -0.428	  0.406	 -0.532	  0.044	 -9.734	  0.022	  0.017	 -0.204	 31.200	 99.956	 -0.503

34658	 -0.333	 -0.429	  0.404	 -0.247	 -0.037	 -8.939	 -0.054	  0.056	  0.007	 31.200	 99.956	 -0.503

34708	 -0.332	 -0.434	  0.402	  0.075	 -0.090	 -10.027	 -0.071	  0.001	  0.009	 31.200	 99.944	  0.572

34758	 -0.331	 -0.429	  0.408	 -0.188	 -0.326	 -10.971	  0.034	 -0.009	  0.011	 31.200	 99.956	 -0.503

34808	 -0.332	 -0.429	  0.405	  0.186	  0.011	 -9.751	 -0.026	  0.011	  0.000	 31.300	 99.956	 -0.503

34858	 -0.330	 -0.430	  0.406	  0.172	  0.003	 -9.710	 -0.007	  0.003	  0.001	 31.200	 99.956	 -0.503

34908	 -0.329	 -0.432	  0.403	  0.172	  0.005	 -9.766	 -0.004	  0.001	  0.001	 31.200	 99.956	 -0.503

34958	 -0.329	 -0.432	  0.406	  0.172	 -0.045	 -9.737	 -0.005	  0.002	 -0.000	 31.200	 99.956	 -0.503

35008	 -0.332	 -0.434	  0.403	  0.142	  0.020	 -9.733	 -0.005	  0.001	  0.001	 31.200	 99.956	 -0.503

35058	 -0.329	 -0.431	  0.403	  0.180	  0.005	 -9.768	 -0.005	  0.002	  0.001	 31.200	 99.944	  0.572

35108	 -0.328	 -0.433	  0.400	  0.152	  0.008	 -9.756	 -0.005	  0.002	  0.001	 31.200	 99.944	  0.572

35158	 -0.330	 -0.433	  0.408	  0.181	  0.003	 -9.771	 -0.003	  0.002	  0.000	 31.300	 99.960	 -0.860

35208	 -0.330	 -0.427	  0.407	  0.172	  0.012	 -9.760	 -0.004	  0.002	  0.001	 31.200	 99.967	 -1.487

35258	 -0.330	 -0.430	  0.406	  0.171	  0.005	 -9.751	 -0.004	  0.001	  0.002	 31.200	 99.956	 -0.503

35308	 -0.329	 -0.432	  0.407	  0.169	 -0.015	 -9.742	 -0.005	  0.001	 -0.000	 31.200	 99.956	 -0.503

35358	 -0.331	 -0.433	  0.406	  0.162	 -0.001	 -9.773	 -0.004	  0.001	  0.001	 31.200	 99.944	  0.572

35408	 -0.329	 -0.428	  0.398	  0.146	  0.014	 -9.745	 -0.004	  0.001	  0.001	 31.200	 99.956	 -0.503

35458	 -0.330	 -0.423	  0.402	  0.174	  0.018	 -9.773	 -0.004	  0.002	  0.000	 31.200	 99.956	 -0.503

35508	 -0.332	 -0.433	  0.403	  0.169	 -0.009	 -9.732	 -0.003	  0.002	 -0.000	 31.200	 99.956	 -0.503

35558	 -0.329	 -0.433	  0.405	  0.167	 -0.009	 -9.776	 -0.004	  0.002	  0.001	 31.200	 99.956	 -0.503

35608	 -0.331	 -0.433	  0.407	  0.151	  0.009	 -9.723	 -0.004	  0.002	  0.000	 31.200	 99.967	 -1.487

35658	 -0.328	 -0.428	  0.403	  0.169	  0.004	 -9.754	 -0.004	  0.002	  0.001	 31.200	 99.956	 -0.503

35708	 -0.331	 -0.431	  0.408	  0.159	  0.008	 -9.709	 -0.003	  0.002	  0.001	 31.200	 99.956	 -0.503

35758	 -0.332	 -0.432	  0.406	  0.171	  0.001	 -9.752	 -0.004	  0.002	  0.001	 31.200	 99.967	 -1.487

35808	 -0.328	 -0.430	  0.407	  0.158	 -0.017	 -9.743	 -0.004	  0.003	  0.000	 31.200	 99.944	  0.572

35858	 -0.328	 -0.432	  0.407	  0.171	  0.001	 -9.756	 -0.004	  0.001	  0.001	 31.200	 99.956	 -0.503

35908	 -0.331	 -0.432	  0.407	  0.137	  0.005	 -9.741	 -0.004	  0.002	  0.001	 31.200	 99.956	 -0.503

35958	 -0.330	 -0.434	  0.406	  0.157	  0.007	 -9.788	 -0.004	  0.002	 -0.000	 31.300	 99.960	 -0.860

36008	 -0.330	 -0.432	  0.406	  0.167	  0.011	 -9.733	 -0.004	  0.003	  0.001	 31.200	 99.967	 -1.487

36058	 -0.332	 -0.432	  0.407	  0.158	 -0.001	 -9.751	 -0.004	  0.001	  0.001	 31.200	 99.956	 -0.503

36108	 -0.332	 -0.432	  0.399	  0.169	 -0.012	 -9.743	 -0.004	  0.002	  0.001	 31.200	 99.944	  0.572

36158	 -0.329	 -0.432	  0.403	  0.202	  0.026	 -9.766	 -0.005	  0.001	  0.001	 31.200	 99.956	 -0.503

36208	 -0.328	 -0.430	  0.401	  0.175	 -0.001	 -9.752	 -0.004	  0.002	  0.000	 31.200	 99.944	  0.572

36258	 -0.329	 -0.435	  0.406	  0.146	  0.007	 -9.787	 -0.004	  0.003	  0.001	 31.300	 99.960	 -0.860

36308	 -0.329	 -0.432	  0.408	  0.175	  0.013	 -9.745	 -0.004	  0.002	  0.001	 31.300	 99.967	 -1.487

36358	 -0.329	 -0.427	  0.406	  0.150	 -0.013	 -9.732	 -0.003	  0.002	 -0.001	 31.200	 99.956	 -0.503

36408	 -0.330	 -0.428	  0.398	  0.186	 -0.011	 -9.736	 -0.003	  0.001	  0.001	 31.200	 99.944	  0.572

36458	 -0.330	 -0.432	  0.405	  0.177	 -0.001	 -9.719	 -0.004	  0.001	  0.001	 31.200	 99.956	 -0.503

36508	 -0.331	 -0.434	  0.409	  0.163	  0.003	 -9.732	 -0.004	  0.001	  0.001	 31.200	 99.956	 -0.503

36558	 -0.330	 -0.430	  0.402	  0.171	 -0.007	 -9.743	 -0.004	  0.002	 -0.000	 31.200	 99.944	  0.572

36608	 -0.331	 -0.419	  0.406	  0.159	 -0.006	 -9.763	 -0.003	  0.002	  0.001	 31.200	 99.944	  0.572

36658	 -0.330	 -0.431	  0.402	  0.155	  0.005	 -9.723	 -0.004	  0.003	  0.001	 31.200	 99.956	 -0.503

36708	 -0.330	 -0.433	  0.407	  0.186	  0.005	 -9.703	 -0.002	  0.001	  0.000	 31.200	 99.956	 -0.503

36758	 -0.331	 -0.432	  0.407	  0.181	 -0.001	 -9.709	 -0.004	  0.003	  0.001	 31.200	 99.944	  0.572

36808	 -0.329	 -0.421	  0.405	  0.174	  0.010	 -9.770	 -0.003	  0.003	  0.002	 31.200	 99.960	 -0.860

36858	 -0.331	 -0.429	  0.399	  0.166	  0.006	 -9.783	 -0.003	  0.003	  0.000	 31.200	 99.956	 -0.503

36908	 -0.335	 -0.435	  0.407	  0.164	  0.007	 -9.762	 -0.004	  0.002	  0.000	 31.200	 99.944	  0.572

36958	 -0.330	 -0.431	  0.408	  0.172	 -0.008	 -9.735	 -0.004	  0.002	  0.001	 31.300	 99.949	  0.125

37008	 -0.331	 -0.430	  0.408	  0.172	  0.013	 -9.768	 -0.003	  0.003	  0.001	 31.200	 99.956	 -0.503

37058	 -0.332	 -0.435	  0.407	  0.159	 -0.002	 -9.760	 -0.002	  0.002	  0.001	 31.300	 99.960	 -0.860

37108	 -0.330	 -0.432	  0.408	  0.151	  0.010	 -9.775	 -0.003	  0.002	  0.001	 31.300	 99.956	 -0.503

37158	 -0.330	 -0.435	  0.407	  0.164	  0.014	 -9.766	 -0.004	  0.001	 -0.000	 31.200	 99.944	  0.572

37208	 -0.333	 -0.431	  0.405	  0.184	  0.014	 -9.750	 -0.003	  0.003	  0.002	 31.200	 99.944	  0.572

37258	 -0.331	 -0.433	  0.406	  0.155	 -0.006	 -9.766	 -0.004	  0.002	  0.001	 31.200	 99.956	 -0.503

37308	 -0.332	 -0.434	  0.408	  0.194	  0.024	 -9.756	 -0.003	  0.002	  0.000	 31.300	 99.944	  0.572

37358	 -0.333	 -0.433	  0.406	  0.142	  0.002	 -9.764	 -0.004	  0.003	  0.001	 31.200	 99.967	 -1.487

37408	 -0.332	 -0.430	  0.408	  0.148	  0.008	 -9.758	 -0.004	  0.002	  0.000	 31.300	 99.956	 -0.503

37458	 -0.330	 -0.430	  0.407	  0.174	 -0.004	 -9.764	 -0.003	  0.002	  0.002	 31.300	 99.960	 -0.860

37508	 -0.331	 -0.416	  0.408	  0.162	  0.011	 -9.753	 -0.004	  0.003	  0.000	 31.300	 99.944	  0.572

37558	 -0.332	 -0.429	  0.407	  0.165	  0.009	 -9.772	 -0.004	  0.003	  0.001	 31.200	 99.956	 -0.503

37608	 -0.330	 -0.434	  0.409	  0.157	  0.015	 -9.768	 -0.004	  0.001	  0.002	 31.300	 99.956	 -0.503

37658	 -0.331	 -0.432	  0.407	  0.159	  0.013	 -9.732	 -0.003	  0.001	  0.001	 31.300	 99.971	 -1.845

37708	 -0.330	 -0.431	  0.406	  0.175	  0.016	 -9.751	 -0.002	  0.002	  0.001	 31.300	 99.960	 -0.860

37758	 -0.331	 -0.434	  0.405	  0.168	  0.026	 -9.773	 -0.004	  0.002	  0.002	 31.200	 99.944	  0.572

37808	 -0.331	 -0.433	  0.398	  0.156	  0.011	 -9.794	 -0.003	  0.002	  0.001	 31.200	 99.944	  0.572

37858	 -0.332	 -0.432	  0.409	  0.142	  0.018	 -9.766	 -0.004	  0.001	  0.001	 31.200	 99.956	 -0.503

37908	 -0.333	 -0.429	  0.408	  0.160	 -0.024	 -9.773	 -0.004	  0.002	  0.000	 31.200	 99.956	 -0.503

37958	 -0.330	 -0.433	  0.403	  0.189	  0.019	 -9.761	 -0.003	  0.003	  0.000	 31.200	 99.956	 -0.503

38008	 -0.331	 -0.428	  0.408	  0.145	  0.013	 -9.754	 -0.002	  0.001	  0.001	 31.300	 99.971	 -1.845

38058	 -0.332	 -0.434	  0.408	  0.192	  0.013	 -9.710	 -0.004	  0.001	  0.001	 31.300	 99.960	 -0.860

38108	 -0.332	 -0.432	  0.407	  0.159	  0.000	 -9.776	 -0.003	  0.003	  0.001	 31.300	 99.960	 -0.860

38158	 -0.331	 -0.431	  0.399	  0.153	  0.000	 -9.773	 -0.003	  0.003	  0.001	 31.200	 99.944	  0.572

38208	 -0.330	 -0.438	  0.409	  0.149	  0.008	 -9.744	 -0.002	  0.003	  0.001	 31.200	 99.971	 -1.845

38258	 -0.330	 -0.427	  0.406	  0.150	  0.001	 -9.753	 -0.004	  0.002	  0.001	 31.200	 99.967	 -1.487

38308	 -0.331	 -0.438	  0.409	  0.166	 -0.001	 -9.751	 -0.003	  0.004	 -0.000	 31.200	 99.949	  0.125

38358	 -0.331	 -0.428	  0.405	  0.150	  0.007	 -9.787	 -0.003	  0.003	  0.001	 31.300	 99.960	 -0.860

38408	 -0.332	 -0.436	  0.407	  0.158	  0.021	 -9.736	 -0.003	  0.000	 -0.000	 31.300	 99.960	 -0.860

38458	 -0.330	 -0.435	  0.407	  0.162	  0.006	 -9.749	 -0.003	  0.002	  0.001	 31.300	 99.960	 -0.860

38508	 -0.330	 -0.430	  0.394	  0.168	 -0.007	 -9.749	 -0.004	  0.003	 -0.000	 31.200	 99.956	 -0.503

38558	 -0.330	 -0.435	  0.408	  0.192	  0.014	 -9.768	 -0.004	  0.002	  0.001	 31.200	 99.944	  0.572

38608	 -0.330	 -0.437	  0.406	  0.155	 -0.005	 -9.791	 -0.004	  0.003	  0.002	 31.300	 99.960	 -0.860

38658	 -0.331	 -0.433	  0.406	  0.180	 -0.014	 -9.749	 -0.003	  0.002	  0.002	 31.300	 99.949	  0.125

38709	 -0.329	 -0.438	  0.405	  0.160	  0.000	 -9.753	 -0.004	  0.002	  0.000	 31.200	 99.956	 -0.503

38758	 -0.328	 -0.435	  0.403	  0.152	  0.002	 -9.794	 -0.002	  0.002	 -0.000	 31.300	 99.960	 -0.860

38809	 -0.328	 -0.435	  0.404	  0.155	  0.013	 -9.742	 -0.003	  0.002	  0.001	 31.200	 99.944	  0.572

38859	 -0.330	 -0.440	  0.404	  0.144	  0.005	 -9.771	 -0.005	  0.001	 -0.000	 31.300	 99.944	  0.572

38909	 -0.329	 -0.437	  0.404	  0.163	  0.007	 -9.793	 -0.004	  0.003	  0.001	 31.300	 99.944	  0.572

38959	 -0.329	 -0.433	  0.400	  0.171	  0.021	 -9.770	 -0.003	  0.002	  0.001	 31.300	 99.960	 -0.860

39009	 -0.328	 -0.435	  0.405	  0.166	 -0.010	 -9.763	 -0.004	  0.002	  0.002	 31.300	 99.956	 -0.503

39059	 -0.327	 -0.418	  0.409	  0.162	  0.019	 -9.789	 -0.003	  0.003	  0.000	 31.200	 99.956	 -0.503

39109	 -0.328	 -0.431	  0.406	  0.154	 -0.005	 -9.771	 -0.004	  0.001	  0.000	 31.200	 99.960	 -0.860

39158	 -0.328	 -0.439	  0.400	  0.163	  0.001	 -9.739	 -0.004	  0.001	 -0.000	 31.300	 99.949	  0.125

39208	 -0.330	 -0.431	  0.406	  0.152	  0.021	 -9.782	 -0.005	  0.001	  0.000	 31.300	 99.949	  0.125

39258	 -0.329	 -0.435	  0.402	  0.164	  0.020	 -9.769	 -0.004	  0.002	  0.001	 31.300	 99.960	 -0.860

39308	 -0.328	 -0.439	  0.394	  0.144	  0.013	 -9.767	 -0.004	  0.003	  0.001	 31.200	 99.960	 -0.860

39358	 -0.327	 -0.439	  0.403	  0.140	  0.015	 -9.763	 -0.003	  0.003	 -0.000	 31.300	 99.949	  0.125

39408	 -0.328	 -0.438	  0.406	  0.157	  0.020	 -9.787	 -0.003	  0.002	  0.000	 31.300	 99.949	  0.125

39458	 -0.330	 -0.438	  0.406	  0.142	 -0.007	 -9.730	 -0.003	  0.003	  0.000	 31.300	 99.960	 -0.860

39508	 -0.327	 -0.439	  0.404	  0.160	  0.012	 -9.735	 -0.004	  0.002	  0.001	 31.200	 99.949	  0.125

39558	 -0.328	 -0.439	  0.403	  0.173	 -0.003	 -9.777	 -0.004	  0.001	  0.000	 31.300	 99.960	 -0.860

39608	 -0.327	 -0.437	  0.405	  0.132	  0.006	 -9.768	 -0.004	  0.002	 -0.000	 31.300	 99.949	  0.125

39658	 -0.328	 -0.435	  0.404	  0.156	 -0.003	 -9.753	 -0.004	  0.002	  0.002	 31.300	 99.960	 -0.860

39708	 -0.327	 -0.437	  0.400	  0.181	  0.023	 -9.748	 -0.003	  0.002	  0.001	 31.300	 99.960	 -0.860

39758	 -0.330	 -0.438	  0.406	  0.144	 -0.004	 -9.762	 -0.004	  0.002	  0.001	 31.300	 99.960	 -0.860

39808	 -0.326	 -0.437	  0.401	  0.160	  0.018	 -9.761	 -0.004	  0.003	  0.001	 31.300	 99.960	 -0.860

39858	 -0.326	 -0.437	  0.400	  0.175	  0.003	 -9.768	 -0.003	  0.002	  0.001	 31.300	 99.949	  0.125

39908	 -0.326	 -0.439	  0.401	  0.159	  0.015	 -9.760	 -0.005	  0.002	  0.000	 31.300	 99.949	  0.125

39958	 -0.330	 -0.438	  0.404	  0.155	  0.036	 -9.748	 -0.003	  0.001	 -0.001	 31.300	 99.960	 -0.860

40008	 -0.326	 -0.422	  0.399	  0.153	 -0.008	 -9.772	 -0.004	  0.003	 -0.000	 31.200	 99.956	 -0.503

40058	 -0.327	 -0.436	  0.395	  0.152	 -0.000	 -9.733	 -0.005	  0.001	  0.001	 31.300	 99.960	 -0.860

40108	 -0.327	 -0.439	  0.401	  0.172	  0.024	 -9.733	 -0.004	  0.004	  0.000	 31.300	 99.971	 -1.845

40158	 -0.330	 -0.426	  0.394	  0.176	  0.015	 -9.754	 -0.003	  0.003	  0.000	 31.300	 99.949	  0.125

40208	 -0.327	 -0.435	  0.404	  0.166	  0.008	 -9.796	 -0.002	  0.001	  0.000	 31.300	 99.944	  0.572

40258	 -0.327	 -0.436	  0.406	  0.168	  0.012	 -9.737	 -0.004	  0.002	  0.001	 31.200	 99.956	 -0.503

40308	 -0.325	 -0.441	  0.402	  0.158	  0.008	 -9.773	 -0.003	  0.002	  0.000	 31.200	 99.960	 -0.860

40358	 -0.326	 -0.435	  0.401	  0.158	  0.018	 -9.786	 -0.003	  0.002	  0.002	 31.300	 99.971	 -1.845

40408	 -0.328	 -0.437	  0.406	  0.146	  0.011	 -9.750	 -0.004	  0.002	  0.002	 31.300	 99.960	 -0.860

40458	 -0.327	 -0.435	  0.397	  0.146	 -0.006	 -9.789	 -0.003	  0.002	 -0.000	 31.300	 99.960	 -0.860

40508	 -0.325	 -0.435	  0.403	  0.166	  0.011	 -9.734	 -0.003	  0.002	  0.000	 31.300	 99.960	 -0.860

40558	 -0.327	 -0.436	  0.404	  0.148	  0.025	 -9.773	 -0.003	  0.002	 -0.000	 31.300	 99.960	 -0.860

40608	 -0.327	 -0.435	  0.400	  0.160	  0.026	 -9.757	 -0.002	  0.002	  0.000	 31.300	 99.960	 -0.860

40658	 -0.326	 -0.440	  0.407	  0.144	  0.006	 -9.772	 -0.004	  0.004	  0.002	 31.300	 99.960	 -0.860

40708	 -0.326	 -0.439	  0.404	  0.134	  0.007	 -9.762	 -0.003	  0.002	  0.000	 31.300	 99.960	 -0.860

40758	 -0.327	 -0.436	  0.405	  0.163	  0.009	 -9.777	 -0.004	  0.002	  0.001	 31.300	 99.960	 -0.860

40808	 -0.324	 -0.436	  0.408	  0.175	  0.009	 -9.748	 -0.003	  0.002	  0.002	 31.300	 99.971	 -1.845

40858	 -0.326	 -0.438	  0.404	  0.162	  0.018	 -9.750	 -0.005	  0.002	  0.001	 31.300	 99.960	 -0.860

40908	 -0.325	 -0.433	  0.401	  0.173	  0.016	 -9.748	 -0.003	  0.002	  0.000	 31.300	 99.960	 -0.860

40958	 -0.330	 -0.441	  0.397	  0.165	  0.031	 -9.739	 -0.004	  0.004	  0.001	 31.300	 99.960	 -0.860

41008	 -0.327	 -0.437	  0.401	  0.174	 -0.014	 -9.707	 -0.004	  0.002	  0.001	 31.300	 99.960	 -0.860

41058	 -0.328	 -0.435	  0.403	  0.168	  0.009	 -9.747	 -0.003	  0.002	  0.000	 31.300	 99.971	 -1.845

41108	 -0.325	 -0.439	  0.404	  0.151	 -0.005	 -9.772	 -0.003	  0.002	  0.001	 31.300	 99.971	 -1.845

41158	 -0.328	 -0.440	  0.400	  0.162	 -0.015	 -9.736	 -0.002	  0.001	  0.000	 31.300	 99.949	  0.125

41208	 -0.327	 -0.440	  0.404	  0.179	 -0.009	 -9.756	 -0.004	  0.002	  0.000	 31.300	 99.949	  0.125

41258	 -0.327	 -0.438	  0.401	  0.168	  0.009	 -9.766	 -0.004	  0.002	  0.000	 31.300	 99.949	  0.125

41308	 -0.328	 -0.438	  0.404	  0.164	  0.002	 -9.771	 -0.003	  0.002	  0.001	 31.300	 99.975	 -2.203

41358	 -0.329	 -0.437	  0.399	  0.178	  0.027	 -9.744	 -0.003	  0.003	  0.000	 31.300	 99.960	 -0.860

41408	 -0.326	 -0.438	  0.405	  0.153	  0.003	 -9.727	 -0.003	  0.002	 -0.000	 31.300	 99.960	 -0.860

41458	 -0.327	 -0.422	  0.398	  0.141	  0.001	 -9.768	 -0.004	  0.002	  0.001	 31.300	 99.960	 -0.860

41508	 -0.326	 -0.439	  0.404	  0.157	 -0.007	 -9.755	 -0.004	  0.001	  0.001	 31.300	 99.971	 -1.845

41558	 -0.328	 -0.439	  0.400	  0.150	  0.011	 -9.740	 -0.004	  0.003	  0.001	 31.300	 99.960	 -0.860

41608	 -0.329	 -0.433	  0.402	  0.157	  0.020	 -9.744	 -0.004	  0.002	  0.000	 31.300	 99.949	  0.125

41658	 -0.327	 -0.440	  0.405	  0.124	  0.013	 -9.747	 -0.003	  0.003	  0.000	 31.300	 99.960	 -0.860

41708	 -0.328	 -0.437	  0.404	  0.164	 -0.003	 -9.728	 -0.004	  0.003	  0.000	 31.300	 99.960	 -0.860

41758	 -0.328	 -0.436	  0.404	  0.161	  0.009	 -9.749	 -0.003	  0.002	  0.001	 31.300	 99.960	 -0.860

41808	 -0.328	 -0.438	  0.404	  0.150	  0.006	 -9.775	 -0.004	  0.003	  0.000	 31.300	 99.960	 -0.860

41858	 -0.327	 -0.435	  0.406	  0.163	  0.003	 -9.752	 -0.004	  0.002	  0.001	 31.300	 99.960	 -0.860

41908	 -0.327	 -0.435	  0.404	  0.152	  0.017	 -9.751	 -0.003	  0.001	  0.000	 31.300	 99.960	 -0.860

