Time	 MagX	 MagY	 MagZ	 AccelX	 AccelY	 AccelZ	 Yaw	 Pitch	 Roll	 Temperature	 Pressure	 Altitude
5332	 -0.429	 -0.331	  0.442	  0.159	  0.052	 -9.749	 -0.004	  0.003	  0.001	 31.800	 99.981	 -99999.000
5381	 -0.428	 -0.330	  0.437	  0.181	  0.030	 -9.776	 -0.004	  0.003	  0.001	 31.800	 99.985	 -99999.000
5431	 -0.430	 -0.332	  0.441	  0.167	  0.042	 -9.743	 -0.003	  0.002	  0.001	 31.800	 99.970	 -99999.000
5481	 -0.428	 -0.321	  0.438	  0.143	  0.046	 -9.779	 -0.004	  0.004	  0.002	 31.800	 99.985	 -99999.000
5531	 -0.431	 -0.330	  0.431	  0.156	  0.039	 -9.777	 -0.004	  0.002	  0.001	 31.800	 99.981	 -99999.000
5581	 -0.430	 -0.333	  0.440	  0.160	  0.025	 -9.751	 -0.004	  0.002	  0.000	 31.800	 99.974	 -99999.000
5631	 -0.430	 -0.333	  0.440	  0.146	  0.028	 -9.742	 -0.002	  0.002	 -0.000	 31.800	 99.985	 -99999.000
5681	 -0.429	 -0.331	  0.439	  0.154	  0.054	 -9.765	 -0.004	  0.003	  0.001	 31.800	 99.970	 -99999.000
5731	 -0.429	 -0.332	  0.439	  0.140	  0.035	 -9.751	 -0.004	  0.001	  0.002	 31.800	 99.970	 -99999.000
5781	 -0.430	 -0.332	  0.440	  0.129	  0.031	 -9.763	 -0.003	  0.002	  0.001	 31.800	 99.963	 -99999.000
5831	 -0.429	 -0.334	  0.436	  0.161	  0.033	 -9.770	 -0.004	  0.001	  0.001	 31.800	 99.981	 -99999.000
5881	 -0.430	 -0.329	  0.440	  0.156	  0.026	 -9.769	 -0.004	  0.002	  0.001	 31.800	 99.974	 -99999.000
5931	 -0.428	 -0.330	  0.437	  0.166	  0.031	 -9.758	 -0.003	  0.001	  0.001	 31.800	 99.970	 -99999.000
5981	 -0.429	 -0.332	  0.438	  0.152	  0.051	 -9.757	 -0.004	  0.003	  0.001	 31.800	 99.970	 -99999.000
6031	 -0.430	 -0.327	  0.435	  0.174	  0.051	 -9.782	 -0.005	  0.002	  0.001	 31.800	 99.970	 -99999.000
6081	 -0.430	 -0.330	  0.440	  0.170	  0.057	 -9.732	 -0.004	  0.003	 -0.001	 31.800	 99.985	 -99999.000
6131	 -0.430	 -0.332	  0.433	  0.153	  0.027	 -9.755	 -0.004	  0.002	  0.000	 31.800	 99.970	 -99999.000
6181	 -0.427	 -0.333	  0.438	  0.159	  0.030	 -9.759	 -0.004	  0.003	  0.002	 31.800	 99.981	 -99999.000
6231	 -0.430	 -0.331	  0.440	  0.164	  0.062	 -9.740	 -0.004	  0.002	  0.000	 31.800	 99.970	 -99999.000
6281	 -0.428	 -0.331	  0.439	  0.156	  0.013	 -9.734	 -0.003	  0.002	  0.001	 31.800	 99.974	 -99999.000
6331	 -0.431	 -0.333	  0.433	  0.170	  0.060	 -9.773	 -0.004	  0.002	 -0.000	 31.800	 99.985	 -99999.000
6381	 -0.432	 -0.332	  0.440	  0.182	  0.020	 -9.758	 -0.003	  0.002	  0.001	 31.800	 99.974	 -99999.000
6431	 -0.428	 -0.332	  0.439	  0.165	  0.026	 -9.756	 -0.004	  0.002	  0.000	 31.800	 99.974	 -99999.000
6481	 -0.430	 -0.326	  0.431	  0.182	  0.029	 -9.746	 -0.003	  0.003	  0.001	 31.800	 99.974	 -99999.000
6531	 -0.427	 -0.329	  0.438	  0.142	  0.041	 -9.756	 -0.005	  0.003	  0.001	 31.800	 99.970	 -99999.000
6581	 -0.429	 -0.328	  0.440	  0.149	  0.046	 -9.785	 -0.004	  0.002	  0.000	 31.800	 99.970	 -99999.000
6631	 -0.427	 -0.328	  0.438	  0.150	  0.035	 -9.711	 -0.004	  0.003	  0.000	 31.800	 99.970	 -99999.000
6681	 -0.430	 -0.315	  0.440	  0.158	  0.033	 -9.767	 -0.004	  0.001	  0.002	 31.800	 99.970	 -99999.000
6731	 -0.429	 -0.327	  0.438	  0.164	  0.053	 -9.784	 -0.002	  0.002	  0.002	 31.800	 99.970	 -99999.000
6781	 -0.429	 -0.331	  0.436	  0.148	  0.043	 -9.772	 -0.003	  0.003	  0.001	 31.800	 99.970	 -99999.000
6831	 -0.431	 -0.332	  0.439	  0.157	  0.042	 -9.709	 -0.004	  0.003	  0.001	 31.800	 99.974	 -99999.000
6881	 -0.429	 -0.334	  0.437	  0.150	  0.048	 -9.743	 -0.004	  0.002	  0.000	 31.800	 99.974	 -99999.000
6931	 -0.431	 -0.335	  0.439	  0.173	  0.040	 -9.776	 -0.004	  0.003	  0.001	 31.800	 99.970	 -99999.000
6981	 -0.431	 -0.329	  0.440	  0.169	  0.033	 -9.764	 -0.004	  0.003	  0.001	 31.800	 99.970	 -99999.000
7031	 -0.429	 -0.329	  0.438	  0.154	  0.031	 -9.747	 -0.005	  0.002	 -0.000	 31.800	 99.970	 -99999.000
7081	 -0.427	 -0.331	  0.442	  0.153	  0.046	 -9.733	 -0.004	  0.003	  0.001	 31.800	 99.974	 -99999.000
7131	 -0.430	 -0.332	  0.437	  0.138	  0.050	 -9.755	 -0.004	  0.003	  0.000	 31.800	 99.981	 -99999.000
7181	 -0.432	 -0.334	  0.433	  0.153	  0.048	 -9.748	 -0.004	  0.002	  0.001	 31.800	 99.981	 -99999.000
7231	 -0.429	 -0.327	  0.439	  0.158	  0.026	 -9.778	 -0.004	  0.001	  0.001	 31.800	 99.981	 -99999.000
7281	 -0.430	 -0.318	  0.432	  0.168	  0.047	 -9.746	 -0.003	  0.003	  0.001	 31.800	 99.981	 -99999.000
7331	 -0.428	 -0.333	  0.432	  0.161	  0.031	 -9.733	 -0.004	  0.002	 -0.000	 31.800	 99.974	 -99999.000
7381	 -0.430	 -0.337	  0.439	  0.150	  0.041	 -9.759	 -0.003	  0.002	  0.001	 31.800	 99.981	 -99999.000
7431	 -0.428	 -0.330	  0.438	  0.159	  0.057	 -9.731	 -0.004	  0.003	  0.001	 31.800	 99.970	 -99999.000
7481	 -0.430	 -0.332	  0.441	  0.167	  0.021	 -9.764	 -0.004	  0.001	  0.001	 31.800	 99.970	 -99999.000
7531	 -0.431	 -0.331	  0.441	  0.155	  0.027	 -9.715	 -0.005	  0.004	  0.000	 31.800	 99.970	 -99999.000
7581	 -0.430	 -0.333	  0.441	  0.150	  0.029	 -9.760	 -0.002	  0.001	  0.000	 31.800	 99.970	 -99999.000
7631	 -0.431	 -0.330	  0.437	  0.163	  0.039	 -9.759	 -0.003	  0.002	  0.000	 31.800	 99.985	 -99999.000
7681	 -0.430	 -0.335	  0.440	  0.160	  0.026	 -9.765	 -0.003	  0.002	 -0.000	 31.800	 99.974	 -99999.000
7731	 -0.427	 -0.335	  0.440	  0.172	  0.036	 -9.754	 -0.003	  0.003	  0.001	 31.800	 99.974	 -99999.000
7781	 -0.431	 -0.325	  0.438	  0.161	  0.044	 -9.752	 -0.004	  0.002	 -0.000	 31.800	 99.981	 -99999.000
7831	 -0.431	 -0.331	  0.437	  0.171	  0.018	 -9.733	 -0.003	  0.002	  0.001	 31.800	 99.985	 -99999.000
7881	 -0.430	 -0.330	  0.437	  0.163	  0.020	 -9.772	 -0.003	  0.001	  0.001	 31.800	 99.974	 -99999.000
7931	 -0.427	 -0.331	  0.445	  0.151	  0.030	 -9.772	 -0.004	  0.002	  0.002	 31.800	 99.970	 -99999.000
7981	 -0.427	 -0.320	  0.432	  0.174	  0.011	 -9.761	 -0.004	  0.002	  0.001	 31.800	 99.974	 -99999.000
8031	 -0.429	 -0.334	  0.438	  0.141	  0.049	 -9.755	 -0.003	  0.003	  0.001	 31.800	 99.970	 -99999.000
8081	 -0.430	 -0.333	  0.439	  0.179	  0.027	 -9.753	 -0.004	  0.002	  0.002	 31.800	 99.985	 -99999.000
8131	 -0.428	 -0.331	  0.439	  0.144	  0.038	 -9.725	 -0.003	  0.001	  0.000	 31.800	 99.985	 -99999.000
8181	 -0.428	 -0.332	  0.438	  0.162	  0.017	 -9.747	 -0.004	  0.001	  0.000	 31.800	 99.970	 -99999.000
8230	 -0.430	 -0.318	  0.440	  0.172	  0.052	 -9.792	 -0.004	  0.002	  0.002	 31.800	 99.970	 -99999.000
8280	 -0.431	 -0.334	  0.440	  0.147	  0.048	 -9.770	 -0.003	  0.002	  0.001	 31.800	 99.974	 -99999.000
8331	 -0.430	 -0.332	  0.437	  0.156	  0.050	 -9.780	 -0.003	  0.002	  0.001	 31.800	 99.981	 -99999.000
8381	 -0.430	 -0.333	  0.439	  0.166	  0.048	 -9.759	 -0.004	  0.003	  0.001	 31.800	 99.970	 -99999.000
8431	 -0.430	 -0.327	  0.432	  0.147	  0.023	 -9.737	 -0.004	  0.003	  0.001	 31.800	 99.974	 -99999.000
8480	 -0.429	 -0.328	  0.436	  0.159	  0.036	 -9.748	 -0.004	  0.002	  0.001	 31.800	 99.974	 -99999.000
8531	 -0.434	 -0.326	  0.438	  0.151	  0.041	 -9.769	 -0.003	  0.003	  0.001	 31.800	 99.974	 -99999.000
8580	 -0.428	 -0.333	  0.443	  0.178	  0.038	 -9.751	 -0.004	  0.001	 -0.000	 31.800	 99.981	 -99999.000
8630	 -0.430	 -0.329	  0.437	  0.167	  0.026	 -9.738	 -0.005	  0.002	 -0.000	 31.800	 99.981	 -99999.000
8680	 -0.430	 -0.332	  0.437	  0.141	  0.039	 -9.764	 -0.003	  0.002	  0.000	 31.800	 99.981	 -99999.000
8730	 -0.427	 -0.329	  0.438	  0.159	  0.038	 -9.703	 -0.001	  0.002	  0.001	 31.800	 99.981	 -99999.000
8780	 -0.429	 -0.334	  0.441	  0.167	  0.043	 -9.697	 -0.003	  0.003	  0.001	 31.800	 99.974	 -99999.000
8830	 -0.430	 -0.331	  0.440	  0.147	  0.043	 -9.765	 -0.002	  0.003	  0.000	 31.800	 99.985	 -99999.000
8880	 -0.428	 -0.320	  0.432	  0.156	  0.053	 -9.776	 -0.004	  0.003	  0.001	 31.800	 99.974	 -99999.000
8930	 -0.428	 -0.321	  0.440	  0.172	  0.041	 -9.773	 -0.003	  0.003	  0.000	 31.800	 99.970	 -99999.000
8980	 -0.431	 -0.330	  0.438	  0.163	  0.050	 -9.743	 -0.003	  0.002	  0.001	 31.800	 99.974	 -99999.000
9030	 -0.430	 -0.334	  0.440	  0.140	  0.025	 -9.766	 -0.004	  0.003	  0.001	 31.800	 99.970	 -99999.000
9080	 -0.428	 -0.331	  0.438	  0.163	  0.042	 -9.785	 -0.004	  0.002	  0.001	 31.800	 99.970	 -99999.000
9130	 -0.430	 -0.333	  0.441	  0.155	  0.022	 -9.749	 -0.004	  0.003	  0.001	 31.800	 99.970	 -99999.000
9180	 -0.429	 -0.329	  0.438	  0.162	  0.038	 -9.765	 -0.003	  0.002	  0.001	 31.800	 99.974	 -99999.000
9230	 -0.431	 -0.332	  0.432	  0.169	  0.017	 -9.757	 -0.004	  0.002	  0.000	 31.800	 99.974	 -99999.000
9280	 -0.428	 -0.332	  0.438	  0.169	  0.043	 -9.806	 -0.003	  0.001	  0.000	 31.800	 99.974	 -99999.000
9330	 -0.430	 -0.325	  0.433	  0.154	  0.037	 -9.761	 -0.004	  0.002	  0.001	 31.800	 99.970	 -99999.000
9380	 -0.429	 -0.330	  0.436	  0.163	  0.033	 -9.785	 -0.004	  0.003	 -0.001	 31.800	 99.985	 -99999.000
9430	 -0.430	 -0.320	  0.432	  0.167	  0.050	 -9.725	 -0.004	  0.003	  0.001	 31.800	 99.974	 -99999.000
9480	 -0.427	 -0.332	  0.439	  0.152	  0.038	 -9.763	 -0.003	  0.002	  0.001	 31.800	 99.970	 -99999.000
9530	 -0.429	 -0.333	  0.440	  0.153	  0.032	 -9.744	 -0.004	  0.002	  0.002	 31.800	 99.970	 -99999.000
9580	 -0.428	 -0.332	  0.445	  0.166	  0.042	 -9.754	 -0.003	  0.003	  0.000	 31.800	 99.959	 -99999.000
9631	 -0.429	 -0.334	  0.430	  0.152	  0.009	 -9.769	 -0.002	  0.002	  0.001	 31.800	 99.985	 -99999.000
9680	 -0.433	 -0.331	  0.439	  0.151	  0.071	 -9.770	 -0.003	  0.001	  0.000	 31.800	 99.974	 -99999.000
9730	 -0.427	 -0.331	  0.436	  0.149	  0.037	 -9.742	 -0.003	  0.002	  0.001	 31.800	 99.970	 -99999.000
9780	 -0.429	 -0.335	  0.444	  0.152	  0.036	 -9.780	 -0.004	  0.001	  0.000	 31.800	 99.970	 -99999.000
9830	 -0.429	 -0.329	  0.437	  0.157	  0.037	 -9.752	 -0.003	  0.002	 -0.000	 31.800	 99.985	 -99999.000
9880	 -0.431	 -0.336	  0.439	  0.177	  0.055	 -9.767	 -0.004	  0.001	 -0.000	 31.800	 99.981	 -99999.000
9930	 -0.428	 -0.331	  0.440	  0.151	  0.040	 -9.768	 -0.003	  0.002	  0.001	 31.800	 99.974	 -99999.000
9980	 -0.429	 -0.335	  0.438	  0.186	  0.030	 -9.757	 -0.005	  0.002	  0.000	 31.800	 99.970	 -99999.000
10030	 -0.429	 -0.331	  0.439	  0.173	  0.024	 -9.760	 -0.003	  0.002	  0.002	 31.800	 99.981	 -99999.000
10080	 -0.431	 -0.330	  0.444	  0.162	  0.039	 -9.774	 -0.003	  0.002	  0.001	 31.800	 99.970	 -99999.000
10130	 -0.428	 -0.332	  0.440	  0.179	  0.043	 -9.761	 -0.004	  0.003	  0.001	 31.800	 99.985	 -99999.000
10180	 -0.430	 -0.334	  0.439	  0.165	  0.034	 -9.753	 -0.002	  0.002	  0.001	 31.800	 99.985	 -99999.000
10230	 -0.429	 -0.333	  0.442	  0.162	  0.019	 -9.741	 -0.003	  0.003	  0.001	 31.800	 99.974	 -99999.000
10281	 -0.430	 -0.331	  0.439	  0.167	  0.035	 -9.772	 -0.004	  0.002	 -0.000	 31.800	 99.974	 -99999.000
10330	 -0.428	 -0.329	  0.440	  0.145	  0.025	 -9.781	 -0.003	  0.002	  0.001	 31.800	 99.974	 -99999.000
10381	 -0.431	 -0.327	  0.434	  0.160	  0.052	 -9.759	 -0.004	  0.002	  0.001	 31.800	 99.974	 -99999.000
10430	 -0.428	 -0.331	  0.440	  0.172	  0.033	 -9.780	 -0.003	  0.002	  0.001	 31.800	 99.974	 -99999.000
10480	 -0.430	 -0.321	  0.436	  0.160	  0.022	 -9.732	 -0.003	  0.002	  0.002	 31.800	 99.970	 -99999.000
10530	 -0.430	 -0.332	  0.440	  0.170	  0.032	 -9.761	 -0.004	  0.002	  0.001	 31.800	 99.974	 -99999.000
10581	 -0.430	 -0.325	  0.440	  0.165	  0.010	 -9.723	 -0.004	  0.003	  0.001	 31.800	 99.970	 -99999.000
10631	 -0.430	 -0.333	  0.439	  0.148	  0.034	 -9.802	 -0.003	  0.003	  0.000	 31.800	 99.970	 -99999.000
10681	 -0.429	 -0.332	  0.441	  0.159	  0.022	 -9.763	 -0.003	  0.002	  0.001	 31.800	 99.970	 -99999.000
10731	 -0.429	 -0.331	  0.441	  0.148	  0.055	 -9.746	 -0.003	  0.003	  0.001	 31.800	 99.974	 -99999.000
10781	 -0.430	 -0.333	  0.441	  0.165	  0.036	 -9.752	 -0.004	  0.001	  0.000	 31.800	 99.985	 -99999.000
10831	 -0.430	 -0.332	  0.437	  0.154	  0.043	 -9.747	 -0.004	  0.002	  0.001	 31.800	 99.974	 -99999.000
10881	 -0.430	 -0.335	  0.446	  0.177	  0.016	 -9.774	 -0.003	  0.001	  0.000	 31.800	 99.974	 -99999.000
10931	 -0.432	 -0.330	  0.437	  0.155	  0.038	 -9.753	 -0.003	  0.002	 -0.000	 31.800	 99.974	 -99999.000
10981	 -0.429	 -0.333	  0.439	  0.132	  0.038	 -9.740	 -0.004	  0.002	  0.002	 31.800	 99.963	 -99999.000
11031	 -0.429	 -0.329	  0.437	  0.164	  0.044	 -9.735	 -0.004	  0.002	 -0.000	 31.800	 99.974	 -99999.000
11081	 -0.430	 -0.333	  0.436	  0.146	  0.044	 -9.760	 -0.003	  0.003	 -0.000	 31.800	 99.985	 -99999.000
11131	 -0.429	 -0.331	  0.441	  0.154	  0.031	 -9.766	 -0.004	  0.002	 -0.000	 31.800	 99.974	 -99999.000
11181	 -0.430	 -0.335	  0.440	  0.186	  0.031	 -9.749	 -0.002	  0.002	  0.000	 31.800	 99.970	 -99999.000
11231	 -0.428	 -0.331	  0.438	  0.168	  0.048	 -9.784	 -0.004	  0.003	  0.001	 31.800	 99.970	 -99999.000
11281	 -0.429	 -0.333	  0.439	  0.161	  0.032	 -9.735	 -0.004	  0.003	  0.001	 31.800	 99.959	 -99999.000
22357	 -0.431	 -0.328	  0.439	  0.137	  0.042	 -9.740	 -0.004	  0.003	  0.001	 31.800	 99.985	 -0.947
22406	 -0.430	 -0.330	  0.438	  0.160	  0.039	 -9.766	 -0.004	  0.001	 -0.000	 31.800	 99.985	 -0.947
22456	 -0.431	 -0.333	  0.436	  0.155	  0.048	 -9.775	 -0.003	  0.002	  0.001	 31.800	 99.974	  0.040
22506	 -0.431	 -0.333	  0.440	  0.165	  0.028	 -9.776	 -0.003	  0.002	  0.000	 31.800	 99.985	 -0.947
22556	 -0.429	 -0.331	  0.437	  0.164	  0.019	 -9.746	 -0.004	  0.002	 -0.000	 31.800	 99.990	 -1.395
22606	 -0.431	 -0.321	  0.441	  0.168	  0.040	 -9.745	 -0.004	  0.002	  0.001	 31.800	 99.990	 -1.395
22656	 -0.430	 -0.329	  0.438	  0.186	  0.047	 -9.747	 -0.003	  0.002	  0.002	 31.800	 99.974	  0.040
22706	 -0.431	 -0.329	  0.438	  0.147	  0.030	 -9.742	 -0.004	  0.004	  0.000	 31.800	 99.990	 -1.395
22756	 -0.428	 -0.330	  0.438	  0.149	  0.058	 -9.767	 -0.003	  0.003	  0.001	 31.800	 99.985	 -0.947
22806	 -0.430	 -0.333	  0.440	  0.163	  0.050	 -9.737	 -0.005	  0.002	 -0.000	 31.800	 99.985	 -0.947
22856	 -0.427	 -0.330	  0.440	  0.166	  0.031	 -9.775	 -0.004	  0.002	  0.000	 31.800	 99.985	 -0.947
22906	 -0.429	 -0.332	  0.439	  0.151	  0.018	 -9.727	 -0.004	  0.002	  0.000	 31.800	 99.990	 -1.395
22956	 -0.429	 -0.327	  0.432	  0.134	  0.035	 -9.764	 -0.004	  0.002	 -0.000	 31.800	 99.990	 -1.395
23006	 -0.431	 -0.328	  0.442	  0.171	  0.039	 -9.735	 -0.003	  0.003	  0.001	 31.800	 99.985	 -0.947
23056	 -0.429	 -0.332	  0.444	  0.167	  0.037	 -9.771	 -0.004	  0.002	  0.001	 31.800	 99.990	 -1.395
23106	 -0.433	 -0.328	  0.437	  0.145	  0.042	 -9.746	 -0.004	  0.003	  0.001	 31.800	 99.985	 -0.947
23156	 -0.429	 -0.333	  0.438	  0.164	  0.026	 -9.752	 -0.003	  0.002	  0.001	 31.800	 99.985	 -0.947
23206	 -0.430	 -0.331	  0.439	  0.185	  0.031	 -9.781	 -0.003	  0.001	  0.001	 31.800	 99.985	 -0.947
23256	 -0.427	 -0.333	  0.442	  0.142	  0.033	 -9.758	 -0.003	  0.002	  0.001	 31.800	 99.985	 -0.947
23306	 -0.428	 -0.331	  0.430	  0.158	  0.043	 -9.758	 -0.003	  0.003	  0.000	 31.800	 99.985	 -0.947
23356	 -0.429	 -0.331	  0.435	  1.069	 -2.046	 -9.192	 -0.003	  0.011	  0.046	 31.800	 99.985	 -0.947
23406	 -0.413	 -0.344	  0.424	 -1.751	  3.088	 -8.420	 -0.007	  0.016	 -0.645	 31.800	 99.985	 -0.947
23456	 -0.409	 -0.348	  0.406	 -2.678	  2.701	 -9.564	 -0.084	 -0.026	  0.593	 31.800	 99.990	 -1.395
23506	 -0.409	 -0.340	  0.424	 -3.076	  0.433	 -19.799	 -1.318	 -1.429	  1.258	 31.800	 99.985	 -0.947
23556	 -0.402	 -0.398	  0.383	  1.132	 -4.042	 -4.462	 -3.280	  4.965	  1.804	 31.800	 99.978	 -0.319
23606	 -0.487	 -0.406	  0.310	  3.155	  4.714	  6.477	  3.750	 -1.688	 -1.188	 31.800	 99.985	 -0.947
23656	 -0.403	 -0.365	  0.444	  0.294	 -0.453	 -29.967	 -0.855	  0.985	  0.375	 31.800	 99.978	 -0.319
23706	 -0.471	 -0.350	  0.398	  1.501	  3.677	  2.428	  2.120	 -0.817	  0.705	 31.800	 99.990	 -1.395
23756	 -0.456	 -0.318	  0.431	  4.536	 -2.967	 -15.315	 -2.083	  3.478	  1.732	 31.800	 99.974	  0.040
23806	 -0.495	 -0.324	  0.387	 -0.008	  1.481	 -4.982	  1.720	 -2.652	 -0.547	 31.800	 99.974	  0.040
23856	 -0.459	 -0.336	  0.412	  3.661	 -1.745	 -11.720	 -2.743	  2.863	  1.218	 31.800	 99.978	 -0.319
23906	 -0.483	 -0.350	  0.370	 -0.324	  4.244	 -2.699	  1.808	 -2.062	 -1.153	 31.800	 99.978	 -0.319
23956	 -0.464	 -0.343	  0.403	  2.190	  0.174	 -13.943	 -0.596	  1.465	  0.357	 31.800	 99.978	 -0.319
24006	 -0.484	 -0.335	  0.376	  3.643	  0.576	 -4.619	  1.248	 -0.260	 -0.536	 31.800	 99.978	 -0.319
24056	 -0.481	 -0.310	  0.386	  1.308	  0.150	 -9.732	  1.601	  0.007	 -0.801	 31.800	 99.974	  0.040
24106	 -0.483	 -0.303	  0.398	  0.727	 -0.436	 -14.338	 -0.604	 -0.219	 -0.148	 31.800	 99.985	 -0.947
24156	 -0.488	 -0.324	  0.375	  2.239	  0.610	 -6.254	 -0.918	  0.403	 -0.032	 31.800	 99.990	 -1.395
24206	 -0.486	 -0.340	  0.371	  1.787	  0.853	 -9.522	 -0.134	 -0.792	 -0.529	 31.800	 99.990	 -1.395
24256	 -0.468	 -0.340	  0.389	  0.763	 -0.206	 -11.351	  0.063	 -0.916	  0.157	 31.800	 99.985	 -0.947
24306	 -0.468	 -0.335	  0.394	  1.552	  0.371	 -9.323	  0.193	 -0.012	  0.058	 31.800	 99.974	  0.040
24356	 -0.467	 -0.331	  0.390	  1.272	  0.549	 -10.088	  0.035	 -0.403	  0.256	 31.800	 99.974	  0.040
24406	 -0.458	 -0.315	  0.408	  0.297	  0.408	 -9.110	 -0.017	 -0.703	  0.131	 31.800	 99.974	  0.040
24456	 -0.448	 -0.316	  0.422	  0.582	  0.505	 -11.265	  0.265	 -0.400	  0.074	 31.800	 99.985	 -0.947
24506	 -0.449	 -0.312	  0.423	  0.309	  0.290	 -9.355	  0.139	  0.080	 -0.039	 31.800	 99.974	  0.040
24556	 -0.451	 -0.309	  0.424	  0.385	  0.243	 -9.653	  0.180	  0.029	 -0.024	 31.800	 99.985	 -0.947
24606	 -0.452	 -0.304	  0.424	  0.653	  0.209	 -9.885	  0.151	 -0.126	 -0.009	 31.800	 99.990	 -1.395
24656	 -0.448	 -0.288	  0.435	  0.352	  0.030	 -10.010	  0.091	 -0.229	 -0.088	 31.800	 99.974	  0.040
24706	 -0.447	 -0.302	  0.437	  0.445	  0.032	 -9.816	 -0.010	  0.032	 -0.076	 31.800	 99.974	  0.040
24756	 -0.443	 -0.302	  0.433	  0.188	 -0.070	 -9.815	  0.010	 -0.062	 -0.016	 31.800	 99.978	 -0.319
24806	 -0.441	 -0.290	  0.438	  0.278	  0.127	 -9.796	 -0.018	  0.051	  0.028	 31.800	 99.978	 -0.319
24856	 -0.446	 -0.298	  0.433	  0.323	  0.098	 -9.697	  0.001	  0.005	  0.009	 31.800	 99.974	  0.040
24906	 -0.445	 -0.302	  0.435	  0.325	  0.048	 -9.732	  0.001	  0.002	  0.006	 31.800	 99.978	 -0.319
24956	 -0.446	 -0.304	  0.437	  0.232	  0.062	 -9.800	 -0.003	 -0.007	  0.006	 31.800	 99.974	  0.040
25006	 -0.446	 -0.290	  0.431	  0.307	  0.091	 -9.726	 -0.006	 -0.002	  0.010	 31.800	 99.985	 -0.947
25056	 -0.445	 -0.300	  0.435	  0.232	  0.133	 -9.758	 -0.012	  0.003	  0.018	 31.800	 99.974	  0.040
25106	 -0.445	 -0.296	  0.436	  0.308	  0.011	 -9.759	 -0.012	  0.024	  0.010	 31.800	 99.978	 -0.319
25156	 -0.447	 -0.289	  0.428	  0.300	  0.090	 -9.733	 -0.011	  0.000	  0.030	 31.800	 99.974	  0.040
25206	 -0.448	 -0.298	  0.433	  0.373	  0.042	 -9.752	 -0.005	 -0.009	  0.011	 31.800	 99.974	  0.040
25256	 -0.449	 -0.301	  0.440	  0.339	  0.046	 -9.762	 -0.006	  0.008	  0.008	 31.800	 99.978	 -0.319
25306	 -0.449	 -0.299	  0.435	  0.286	  0.081	 -9.762	 -0.010	  0.018	  0.011	 31.800	 99.974	  0.040
25356	 -0.449	 -0.297	  0.433	  0.323	  0.072	 -9.776	 -0.007	  0.011	  0.009	 31.800	 99.967	  0.667
25406	 -0.447	 -0.299	  0.435	  0.356	  0.056	 -9.737	 -0.003	 -0.002	  0.001	 31.800	 99.974	  0.040
25456	 -0.446	 -0.302	  0.435	  0.296	  0.082	 -9.732	 -0.003	  0.005	  0.002	 31.800	 99.974	  0.040
25506	 -0.449	 -0.300	  0.434	  0.355	  0.052	 -9.728	 -0.008	 -0.006	  0.012	 31.800	 99.974	  0.040
25557	 -0.448	 -0.300	  0.436	  0.345	  0.084	 -9.675	 -0.005	 -0.003	  0.002	 31.800	 99.978	 -0.319
25606	 -0.446	 -0.301	  0.437	  0.312	  0.070	 -9.782	 -0.004	 -0.008	  0.015	 31.800	 99.978	 -0.319
25656	 -0.449	 -0.299	  0.438	  0.334	  0.072	 -9.726	 -0.004	 -0.000	  0.008	 31.800	 99.985	 -0.947
25706	 -0.447	 -0.298	  0.435	  0.297	  0.060	 -9.718	 -0.003	  0.001	  0.003	 31.800	 99.974	  0.040
25756	 -0.448	 -0.298	  0.437	  0.296	  0.111	 -9.720	 -0.005	  0.001	  0.003	 31.800	 99.963	  1.026
25806	 -0.447	 -0.298	  0.437	  0.314	  0.085	 -9.726	 -0.001	 -0.002	  0.000	 31.800	 99.990	 -1.395
25856	 -0.448	 -0.297	  0.436	  0.297	  0.093	 -9.722	 -0.002	  0.001	 -0.000	 31.800	 99.974	  0.040
25907	 -0.446	 -0.298	  0.436	  0.322	  0.078	 -9.750	 -0.005	  0.002	  0.003	 31.800	 99.974	  0.040
25956	 -0.449	 -0.302	  0.438	  0.302	  0.079	 -9.722	 -0.005	  0.002	  0.003	 31.800	 99.967	  0.667
26007	 -0.449	 -0.296	  0.437	  0.302	  0.081	 -9.708	 -0.002	  0.001	  0.003	 31.800	 99.974	  0.040
26057	 -0.446	 -0.296	  0.438	  0.297	  0.076	 -9.727	 -0.003	  0.000	  0.001	 31.800	 99.978	 -0.319
26107	 -0.448	 -0.297	  0.437	  0.309	  0.077	 -9.743	 -0.003	 -0.001	  0.005	 31.800	 99.963	  1.026
26156	 -0.449	 -0.302	  0.436	  0.274	  0.071	 -9.766	 -0.004	  0.005	  0.002	 31.800	 99.978	 -0.319
26206	 -0.449	 -0.299	  0.434	  0.289	  0.075	 -9.728	 -0.004	  0.001	  0.003	 31.800	 99.978	 -0.319
26257	 -0.448	 -0.299	  0.439	  0.307	  0.075	 -9.741	 -0.004	  0.000	  0.005	 31.800	 99.974	  0.040
26307	 -0.447	 -0.299	  0.436	  0.280	  0.060	 -9.770	 -0.003	  0.003	 -0.000	 31.800	 99.978	 -0.319
26357	 -0.448	 -0.298	  0.436	  0.314	  0.090	 -9.749	 -0.003	  0.002	  0.006	 31.800	 99.985	 -0.947
26407	 -0.450	 -0.296	  0.435	  0.268	  0.098	 -9.791	 -0.003	  0.002	  0.002	 31.800	 99.978	 -0.319
26457	 -0.452	 -0.297	  0.435	  0.307	  0.084	 -9.733	 -0.002	 -0.001	  0.002	 31.800	 99.978	 -0.319
26507	 -0.448	 -0.297	  0.431	  0.318	  0.057	 -9.739	 -0.004	  0.006	  0.002	 31.800	 99.990	 -1.395
26557	 -0.447	 -0.297	  0.435	  0.301	  0.089	 -9.752	 -0.001	  0.002	 -0.002	 31.800	 99.974	  0.040
26607	 -0.447	 -0.300	  0.438	  0.286	  0.088	 -9.768	 -0.003	  0.003	 -0.000	 31.800	 99.978	 -0.319
26656	 -0.450	 -0.295	  0.429	  0.318	  0.047	 -9.739	 -0.000	  0.001	 -0.008	 31.800	 99.978	 -0.319
26706	 -0.448	 -0.297	  0.433	  0.287	  0.063	 -9.780	  0.003	 -0.001	 -0.008	 31.800	 99.974	  0.040
26756	 -0.447	 -0.286	  0.428	  0.274	  0.081	 -9.754	 -0.001	 -0.001	  0.001	 31.800	 99.978	 -0.319
26806	 -0.449	 -0.293	  0.433	  0.321	  0.061	 -9.767	 -0.003	  0.004	  0.004	 31.800	 99.974	  0.040
26857	 -0.448	 -0.299	  0.438	  0.302	  0.069	 -9.780	 -0.002	 -0.001	  0.002	 31.800	 99.978	 -0.319
26907	 -0.447	 -0.296	  0.440	  0.299	  0.062	 -9.753	 -0.002	 -0.002	 -0.004	 31.800	 99.978	 -0.319
26957	 -0.450	 -0.298	  0.431	  0.280	  0.053	 -9.782	 -0.005	  0.006	 -0.002	 31.800	 99.985	 -0.947
27007	 -0.449	 -0.296	  0.432	  0.280	  0.063	 -9.757	 -0.004	  0.006	  0.007	 31.800	 99.974	  0.040
27057	 -0.450	 -0.299	  0.440	  0.309	  0.064	 -9.705	 -0.002	 -0.002	 -0.002	 31.800	 99.963	  1.026
27107	 -0.449	 -0.298	  0.433	  0.262	  0.074	 -9.769	 -0.003	 -0.001	 -0.003	 31.800	 99.974	  0.040
27157	 -0.447	 -0.296	  0.432	  0.308	  0.072	 -9.775	 -0.004	  0.002	 -0.000	 31.800	 99.967	  0.667
27207	 -0.450	 -0.297	  0.434	  0.294	  0.088	 -9.748	 -0.004	  0.003	  0.004	 31.800	 99.974	  0.040
27257	 -0.446	 -0.299	  0.436	  0.282	  0.086	 -9.770	 -0.004	 -0.001	  0.003	 31.800	 99.985	 -0.947
27307	 -0.449	 -0.300	  0.438	  0.311	  0.084	 -9.731	 -0.004	  0.002	  0.000	 31.800	 99.978	 -0.319
27357	 -0.448	 -0.295	  0.437	  0.305	  0.050	 -9.754	 -0.003	  0.003	  0.003	 31.800	 99.990	 -1.395
27407	 -0.451	 -0.295	  0.433	  0.314	  0.094	 -9.800	 -0.004	  0.005	  0.001	 31.800	 99.974	  0.040
27457	 -0.448	 -0.298	  0.436	  0.275	  0.072	 -9.763	 -0.003	  0.005	  0.001	 31.800	 99.978	 -0.319
27507	 -0.447	 -0.298	  0.427	  0.278	  0.083	 -9.758	 -0.004	  0.002	  0.001	 31.800	 99.985	 -0.947
27557	 -0.447	 -0.296	  0.435	  0.298	  0.074	 -9.777	 -0.002	  0.001	  0.001	 31.800	 99.967	  0.667
27607	 -0.448	 -0.294	  0.441	  0.276	  0.070	 -9.784	 -0.003	 -0.002	  0.000	 31.800	 99.974	  0.040
27657	 -0.448	 -0.300	  0.435	  0.311	  0.072	 -9.739	 -0.004	  0.004	  0.001	 31.800	 99.978	 -0.319
27707	 -0.449	 -0.301	  0.438	  0.291	  0.066	 -9.765	 -0.004	  0.004	  0.001	 31.800	 99.978	 -0.319
27757	 -0.450	 -0.297	  0.433	  0.279	  0.056	 -9.751	 -0.004	  0.003	 -0.001	 31.800	 99.974	  0.040
27807	 -0.446	 -0.300	  0.433	  0.300	  0.077	 -9.780	 -0.004	  0.005	  0.002	 31.800	 99.978	 -0.319
27857	 -0.449	 -0.297	  0.437	  0.305	  0.066	 -9.752	 -0.003	  0.002	  0.005	 31.800	 99.974	  0.040
27907	 -0.447	 -0.299	  0.439	  0.290	  0.081	 -9.738	 -0.003	  0.002	  0.001	 31.800	 99.967	  0.667
27957	 -0.448	 -0.297	  0.436	  0.286	  0.058	 -9.736	 -0.003	  0.002	 -0.001	 31.800	 99.978	 -0.319
28007	 -0.449	 -0.288	  0.432	  0.299	  0.058	 -9.769	 -0.005	 -0.001	  0.001	 31.800	 99.978	 -0.319
28057	 -0.447	 -0.297	  0.436	  0.296	  0.065	 -9.728	 -0.003	  0.002	  0.000	 31.800	 99.974	  0.040
28107	 -0.446	 -0.286	  0.433	  0.316	  0.052	 -9.762	 -0.004	  0.002	  0.002	 31.800	 99.978	 -0.319
28157	 -0.449	 -0.300	  0.434	  0.293	  0.077	 -9.755	 -0.004	  0.003	  0.000	 31.800	 99.990	 -1.395
28207	 -0.450	 -0.296	  0.430	  0.297	  0.062	 -9.760	 -0.004	  0.003	  0.001	 31.800	 99.978	 -0.319
28257	 -0.448	 -0.298	  0.437	  0.271	  0.061	 -9.767	 -0.003	  0.002	  0.003	 31.800	 99.978	 -0.319
28307	 -0.448	 -0.296	  0.437	  0.298	  0.078	 -9.734	 -0.003	 -0.001	  0.000	 31.800	 99.978	 -0.319
33332	 -0.436	 -0.306	  0.440	  0.156	  0.063	 -9.745	 -0.003	  0.002	  0.002	 31.800	 99.978	 -0.137
33382	 -0.437	 -0.303	  0.442	  0.157	  0.049	 -9.779	 -0.005	  0.003	 -0.000	 31.800	 99.978	 -0.137
33432	 -0.437	 -0.304	  0.436	  0.174	  0.061	 -9.736	 -0.002	  0.003	  0.001	 31.800	 99.990	 -1.214
33482	 -0.437	 -0.304	  0.440	  0.153	  0.034	 -9.781	 -0.004	  0.003	  0.000	 31.800	 99.978	 -0.137
33532	 -0.436	 -0.307	  0.441	  0.145	  0.057	 -9.760	 -0.002	  0.003	  0.001	 31.800	 99.978	 -0.137
33582	 -0.438	 -0.309	  0.438	  0.167	  0.030	 -9.751	 -0.003	  0.003	  0.002	 31.800	 99.990	 -1.214
33631	 -0.435	 -0.305	  0.444	  0.134	  0.044	 -9.742	 -0.003	  0.002	 -0.000	 31.800	 99.985	 -0.766
33681	 -0.436	 -0.302	  0.440	  0.147	  0.064	 -9.768	 -0.004	  0.002	 -0.000	 31.800	 99.978	 -0.137
33731	 -0.436	 -0.305	  0.438	  0.156	  0.044	 -9.772	 -0.003	  0.002	  0.001	 31.800	 99.978	 -0.137
33781	 -0.435	 -0.295	  0.441	  0.162	  0.062	 -9.752	 -0.004	  0.002	  0.001	 31.800	 99.978	 -0.137
33831	 -0.438	 -0.303	  0.441	  0.151	  0.063	 -9.784	 -0.002	  0.003	  0.002	 31.800	 99.967	  0.850
33881	 -0.434	 -0.304	  0.445	  0.183	  0.034	 -9.760	 -0.004	  0.003	  0.000	 31.800	 99.978	 -0.137
33931	 -0.437	 -0.304	  0.437	  0.151	  0.050	 -9.736	 -0.004	  0.003	  0.001	 31.800	 99.978	 -0.137
33981	 -0.439	 -0.305	  0.440	  0.154	  0.034	 -9.773	 -0.003	  0.002	  0.001	 31.800	 99.978	 -0.137
34031	 -0.437	 -0.302	  0.435	  0.148	  0.040	 -9.742	 -0.003	  0.001	 -0.001	 31.800	 99.978	 -0.137
34081	 -0.438	 -0.303	  0.443	  0.151	  0.064	 -9.731	 -0.003	  0.002	  0.001	 31.800	 99.978	 -0.137
34131	 -0.435	 -0.300	  0.443	  0.148	  0.030	 -9.744	 -0.003	  0.004	 -0.001	 31.800	 99.978	 -0.137
34181	 -0.438	 -0.305	  0.444	  0.174	  0.045	 -9.725	 -0.004	  0.002	  0.001	 31.800	 99.978	 -0.137
34231	 -0.435	 -0.306	  0.443	  0.165	  0.024	 -9.760	 -0.003	  0.001	  0.001	 31.800	 99.978	 -0.137
34281	 -0.438	 -0.302	  0.444	  0.163	  0.062	 -9.748	 -0.003	  0.002	  0.001	 31.800	 99.990	 -1.214
34331	 -0.435	 -0.303	  0.443	  0.159	  0.030	 -9.780	 -0.003	  0.001	 -0.001	 31.800	 99.990	 -1.214
34381	 -0.437	 -0.303	  0.442	  0.153	  0.039	 -9.789	 -0.006	  0.002	  0.000	 31.800	 99.978	 -0.137
34431	 -0.433	 -0.306	  0.442	  0.148	  0.051	 -9.714	 -0.003	  0.002	  0.001	 31.800	 99.978	 -0.137
34481	 -0.435	 -0.302	  0.438	  0.156	  0.048	 -9.738	 -0.004	  0.002	  0.000	 31.800	 99.978	 -0.137
34531	 -0.438	 -0.294	  0.434	  0.157	  0.047	 -9.739	 -0.004	  0.002	 -0.000	 31.900	 99.978	 -0.137
34581	 -0.434	 -0.298	  0.435	  0.164	  0.064	 -9.736	 -0.012	 -0.001	 -0.003	 31.800	 99.990	 -1.214
34631	 -0.431	 -0.312	  0.439	  1.630	 -0.230	 -9.837	 -0.061	 -0.007	 -0.323	 31.900	 99.978	 -0.137
34681	 -0.423	 -0.321	  0.424	 -2.192	 -0.026	 -10.078	 -0.081	 -0.072	  0.279	 31.900	 99.983	 -0.586
34731	 -0.398	 -0.312	  0.443	 -2.614	 -0.765	 -18.777	  0.001	 -2.366	  0.429	 31.800	 99.978	 -0.137
34781	 -0.377	 -0.351	  0.434	  2.562	 -1.643	 -15.582	 -2.234	  5.721	  2.269	 31.800	 99.990	 -1.214
34831	 -0.536	 -0.312	  0.303	  1.374	  5.722	 14.755	  5.568	  2.530	  0.383	 31.900	 99.983	 -0.586
34881	 -0.469	 -0.206	  0.449	 -3.860	 -4.493	 -33.006	  1.684	 -2.850	  0.306	 31.800	 99.978	 -0.137
34931	 -0.538	 -0.162	  0.371	  0.301	 -4.251	  6.240	 -0.102	  3.279	  1.949	 31.900	 99.978	 -0.137
34981	 -0.513	 -0.128	  0.410	 -2.668	 -1.018	 -25.967	 -0.016	 -1.680	  0.262	 31.800	 99.974	  0.222
35031	 -0.534	 -0.189	  0.352	  9.855	 -6.046	 14.465	 -2.880	  4.237	  1.022	 31.800	 99.978	 -0.137
35081	 -0.552	 -0.146	  0.374	 -3.683	 -2.725	 -19.870	  4.527	 -5.066	 -1.830	 31.900	 99.983	 -0.586
35131	 -0.548	 -0.145	  0.376	  4.266	 -5.106	 -7.309	 -3.115	  4.180	  1.139	 31.800	 99.990	 -1.214
35181	 -0.571	 -0.165	  0.360	  0.301	 -0.501	 -13.835	  1.348	 -2.813	 -0.372	 31.800	 99.978	 -0.137
35231	 -0.544	 -0.182	  0.376	  7.881	 -4.577	 -15.262	 -2.431	  1.712	  0.880	 31.800	 99.978	 -0.137
35281	 -0.563	 -0.203	  0.335	  3.746	 -1.073	  1.096	  0.836	  1.739	 -0.290	 31.800	 99.974	  0.222
35331	 -0.566	 -0.194	  0.346	  2.712	 -2.069	 -5.947	  0.068	 -2.406	 -0.432	 31.800	 99.978	 -0.137
35381	 -0.536	 -0.207	  0.393	  1.577	 -0.732	 -10.486	 -0.832	 -1.870	 -0.639	 31.800	 99.978	 -0.137
35431	 -0.522	 -0.200	  0.417	  2.119	 -1.547	 -9.285	  0.731	 -0.853	 -0.071	 31.900	 99.983	 -0.586
35481	 -0.521	 -0.191	  0.423	  0.679	 -1.815	 -11.631	 -0.927	 -0.646	 -0.180	 31.800	 99.978	 -0.137
35531	 -0.513	 -0.219	  0.424	  1.483	 -0.411	 -9.161	 -0.762	 -0.364	 -0.528	 31.800	 99.978	 -0.137
35581	 -0.502	 -0.247	  0.422	  0.478	 -0.736	 -9.487	 -0.512	 -0.774	 -0.646	 31.800	 99.978	 -0.137
35631	 -0.482	 -0.260	  0.424	  0.775	  1.524	 -12.064	 -0.465	 -0.552	 -0.128	 31.800	 99.990	 -1.214
35681	 -0.465	 -0.281	  0.430	  0.746	  0.260	 -8.167	 -1.000	 -1.166	 -0.208	 31.800	 99.978	 -0.137
35731	 -0.441	 -0.267	  0.461	  0.591	  0.388	 -8.741	  1.991	 -0.212	  0.277	 31.800	 99.990	 -1.214
35781	 -0.451	 -0.258	  0.460	  0.410	 -1.040	 -5.365	 -0.080	  0.307	 -0.351	 31.900	 99.983	 -0.586
35831	 -0.452	 -0.257	  0.460	  0.192	  0.048	 -9.741	 -0.005	 -0.015	  0.000	 31.800	 99.978	 -0.137
35881	 -0.448	 -0.255	  0.452	  0.129	  0.042	 -9.706	 -0.003	  0.009	  0.001	 31.800	 99.990	 -1.214
35931	 -0.454	 -0.250	  0.461	  0.111	  0.027	 -9.742	 -0.004	  0.001	  0.002	 31.900	 99.994	 -1.573
35981	 -0.450	 -0.256	  0.460	  0.120	  0.061	 -9.720	 -0.003	  0.003	  0.001	 31.900	 99.983	 -0.586
36031	 -0.450	 -0.255	  0.457	  0.109	  0.039	 -9.815	 -0.002	  0.002	 -0.000	 31.800	 99.978	 -0.137
36081	 -0.452	 -0.259	  0.458	  0.091	  0.042	 -9.741	 -0.004	  0.002	  0.001	 31.800	 99.990	 -1.214
36131	 -0.448	 -0.255	  0.460	  0.115	  0.029	 -9.786	 -0.003	  0.002	  0.001	 31.800	 99.990	 -1.214
36181	 -0.451	 -0.257	  0.462	  0.117	  0.035	 -9.779	 -0.003	  0.003	  0.001	 31.800	 99.978	 -0.137
36231	 -0.449	 -0.253	  0.457	  0.106	  0.032	 -9.745	 -0.003	  0.002	  0.001	 31.900	 99.983	 -0.586
36281	 -0.453	 -0.258	  0.460	  0.098	  0.036	 -9.739	 -0.004	  0.001	  0.000	 31.900	 99.983	 -0.586
36331	 -0.448	 -0.257	  0.458	  0.146	  0.029	 -9.755	 -0.004	  0.002	  0.000	 31.800	 99.978	 -0.137
36381	 -0.452	 -0.259	  0.460	  0.084	  0.035	 -9.748	 -0.003	  0.002	  0.000	 31.800	 99.990	 -1.214
36431	 -0.449	 -0.259	  0.461	  0.153	  0.037	 -9.757	 -0.003	  0.002	  0.001	 31.800	 99.978	 -0.137
36481	 -0.451	 -0.247	  0.459	  0.122	  0.025	 -9.763	 -0.003	  0.002	  0.000	 31.800	 99.978	 -0.137
36531	 -0.451	 -0.256	  0.461	  0.105	  0.039	 -9.755	 -0.004	  0.002	  0.000	 31.800	 99.978	 -0.137
36581	 -0.450	 -0.256	  0.455	  0.112	  0.036	 -9.770	 -0.003	  0.002	  0.001	 31.900	 99.983	 -0.586
36631	 -0.450	 -0.256	  0.461	  0.120	  0.063	 -9.782	 -0.003	  0.002	  0.001	 31.800	 99.990	 -1.214
36681	 -0.452	 -0.261	  0.462	  0.145	  0.032	 -9.748	 -0.003	  0.001	  0.002	 31.800	 99.978	 -0.137
36731	 -0.449	 -0.248	  0.460	  0.142	  0.051	 -9.771	 -0.004	  0.003	  0.001	 31.800	 99.990	 -1.214
36781	 -0.448	 -0.260	  0.461	  0.108	  0.022	 -9.755	 -0.004	  0.002	  0.001	 31.800	 99.978	 -0.137
36832	 -0.452	 -0.258	  0.460	  0.122	  0.040	 -9.746	 -0.003	  0.002	  0.000	 31.800	 99.978	 -0.137
36881	 -0.453	 -0.258	  0.458	  0.102	  0.037	 -9.775	 -0.002	  0.002	  0.002	 31.800	 99.978	 -0.137
36931	 -0.451	 -0.258	  0.459	  0.096	  0.038	 -9.744	 -0.003	  0.002	 -0.000	 31.800	 99.990	 -1.214
36981	 -0.452	 -0.254	  0.462	  0.117	  0.050	 -9.762	 -0.003	  0.003	  0.001	 31.800	 99.978	 -0.137
37031	 -0.448	 -0.257	  0.457	  0.122	  0.028	 -9.749	 -0.004	  0.001	  0.001	 31.800	 99.978	 -0.137
37081	 -0.448	 -0.258	  0.458	  0.110	  0.052	 -9.753	 -0.003	  0.002	  0.001	 31.800	 99.990	 -1.214
37131	 -0.450	 -0.259	  0.461	  0.115	  0.046	 -9.761	 -0.003	  0.003	  0.001	 31.800	 99.978	 -0.137
37181	 -0.450	 -0.259	  0.460	  0.129	  0.021	 -9.747	 -0.003	  0.003	  0.001	 31.900	 99.978	 -0.137
37231	 -0.447	 -0.258	  0.460	  0.099	  0.048	 -9.750	 -0.003	  0.003	  0.000	 31.900	 99.978	 -0.137
37281	 -0.448	 -0.252	  0.452	  0.120	  0.034	 -9.763	 -0.004	  0.002	  0.001	 31.800	 99.967	  0.850
37331	 -0.447	 -0.261	  0.462	  0.117	  0.050	 -9.726	 -0.004	  0.003	  0.001	 31.800	 99.978	 -0.137
37382	 -0.450	 -0.256	  0.460	  0.108	  0.042	 -9.741	 -0.002	  0.003	  0.000	 31.900	 99.967	  0.850
37431	 -0.447	 -0.259	  0.459	  0.139	  0.045	 -9.746	 -0.004	  0.002	  0.001	 31.800	 99.978	 -0.137
37482	 -0.451	 -0.256	  0.456	  0.128	  0.045	 -9.765	 -0.004	  0.002	  0.001	 31.900	 99.983	 -0.586
37531	 -0.450	 -0.258	  0.456	  0.106	  0.021	 -9.735	 -0.002	  0.003	 -0.000	 31.800	 99.978	 -0.137
37581	 -0.450	 -0.260	  0.458	  0.128	  0.045	 -9.734	 -0.004	  0.002	  0.000	 31.800	 99.967	  0.850
37631	 -0.450	 -0.261	  0.459	  0.124	  0.049	 -9.744	 -0.004	  0.002	  0.001	 31.900	 99.967	  0.850
37682	 -0.449	 -0.255	  0.461	  0.112	  0.046	 -9.786	 -0.003	  0.003	  0.001	 31.800	 99.967	  0.850
37732	 -0.449	 -0.253	  0.458	  0.118	  0.038	 -9.752	 -0.004	  0.001	  0.000	 31.900	 99.978	 -0.137
37782	 -0.448	 -0.258	  0.457	  0.110	  0.030	 -9.782	 -0.003	  0.002	  0.000	 31.800	 99.978	 -0.137
37832	 -0.450	 -0.256	  0.460	  0.104	  0.043	 -9.782	 -0.004	  0.001	  0.001	 31.800	 99.978	 -0.137
37882	 -0.447	 -0.254	  0.457	  0.109	  0.019	 -9.751	 -0.005	  0.002	  0.000	 31.800	 99.978	 -0.137
37932	 -0.447	 -0.258	  0.457	  0.099	  0.034	 -9.748	 -0.003	  0.004	  0.001	 31.800	 99.978	 -0.137
37982	 -0.450	 -0.258	  0.462	  0.114	  0.041	 -9.749	 -0.004	  0.001	  0.002	 31.800	 99.978	 -0.137
38032	 -0.450	 -0.260	  0.461	  0.115	  0.029	 -9.746	 -0.004	  0.002	 -0.000	 31.800	 99.978	 -0.137
38082	 -0.448	 -0.262	  0.460	  0.137	  0.059	 -9.759	 -0.004	  0.004	  0.000	 31.800	 99.990	 -1.214
38132	 -0.449	 -0.252	  0.458	  0.114	  0.054	 -9.755	 -0.004	  0.002	 -0.000	 31.900	 99.994	 -1.573
38182	 -0.450	 -0.259	  0.461	  0.121	  0.049	 -9.778	 -0.003	  0.003	  0.001	 31.900	 99.983	 -0.586
38232	 -0.449	 -0.257	  0.459	  0.117	  0.047	 -9.770	 -0.003	  0.003	  0.000	 31.900	 99.983	 -0.586
38282	 -0.451	 -0.264	  0.461	  0.116	  0.034	 -9.773	 -0.004	  0.003	  0.001	 31.800	 99.990	 -1.214
38332	 -0.451	 -0.256	  0.459	  0.120	  0.044	 -9.770	 -0.003	  0.003	  0.002	 31.800	 99.978	 -0.137
38382	 -0.450	 -0.260	  0.461	  0.096	  0.009	 -9.754	 -0.003	  0.002	  0.002	 31.800	 99.978	 -0.137
38432	 -0.451	 -0.259	  0.460	  0.120	  0.022	 -9.753	 -0.003	  0.003	  0.002	 31.900	 99.978	 -0.137
38482	 -0.449	 -0.254	  0.458	  0.117	  0.059	 -9.726	 -0.004	  0.002	  0.001	 31.800	 99.990	 -1.214
38532	 -0.449	 -0.257	  0.460	  0.132	  0.039	 -9.760	 -0.002	  0.002	  0.001	 31.900	 99.983	 -0.586
38582	 -0.452	 -0.258	  0.460	  0.123	  0.005	 -9.747	 -0.004	  0.002	  0.002	 31.800	 99.978	 -0.137
38632	 -0.448	 -0.246	  0.460	  0.100	  0.046	 -9.771	 -0.004	  0.002	  0.002	 31.900	 99.983	 -0.586
38682	 -0.451	 -0.256	  0.453	  0.137	  0.026	 -9.736	 -0.004	  0.001	  0.001	 31.900	 99.983	 -0.586
38732	 -0.449	 -0.259	  0.459	  0.107	  0.057	 -9.749	 -0.004	  0.003	 -0.001	 31.800	 99.978	 -0.137
38782	 -0.452	 -0.250	  0.456	  0.106	  0.035	 -9.715	 -0.003	  0.002	  0.001	 31.800	 99.978	 -0.137
38832	 -0.449	 -0.255	  0.460	  0.119	  0.055	 -9.792	 -0.003	  0.002	  0.002	 31.800	 99.990	 -1.214
38882	 -0.447	 -0.257	  0.457	  0.124	  0.033	 -9.770	 -0.003	  0.002	  0.001	 31.800	 99.978	 -0.137
38932	 -0.450	 -0.263	  0.457	  0.122	  0.052	 -9.773	 -0.003	  0.002	  0.002	 31.800	 99.978	 -0.137
38982	 -0.449	 -0.254	  0.458	  0.140	  0.062	 -9.790	 -0.004	  0.003	  0.000	 31.800	 99.978	 -0.137
39032	 -0.453	 -0.259	  0.461	  0.123	  0.056	 -9.722	 -0.004	  0.002	  0.000	 31.800	 99.978	 -0.137
39082	 -0.452	 -0.257	  0.456	  0.132	  0.049	 -9.748	 -0.003	  0.003	  0.000	 31.800	 99.978	 -0.137
39132	 -0.450	 -0.260	  0.461	  0.108	  0.024	 -9.745	 -0.003	  0.001	  0.000	 31.800	 99.978	 -0.137
39182	 -0.447	 -0.259	  0.453	  0.113	  0.059	 -9.750	 -0.004	  0.002	  0.000	 31.800	 99.978	 -0.137
39232	 -0.452	 -0.257	  0.459	  0.118	  0.049	 -9.759	 -0.003	  0.002	  0.001	 31.800	 99.990	 -1.214
39282	 -0.451	 -0.257	  0.460	  0.098	  0.044	 -9.752	 -0.004	  0.003	 -0.000	 31.800	 99.990	 -1.214
39332	 -0.450	 -0.258	  0.456	  0.110	  0.040	 -9.772	 -0.002	  0.002	  0.001	 31.800	 99.978	 -0.137
39382	 -0.449	 -0.259	  0.460	  0.104	  0.051	 -9.778	 -0.002	  0.001	  0.001	 31.800	 99.978	 -0.137
39432	 -0.450	 -0.260	  0.460	  0.116	  0.027	 -9.763	 -0.004	  0.002	 -0.001	 31.800	 99.978	 -0.137
39482	 -0.447	 -0.259	  0.459	  0.117	  0.024	 -9.759	 -0.003	  0.004	  0.001	 31.900	 99.994	 -1.573
39532	 -0.451	 -0.260	  0.458	  0.100	  0.053	 -9.754	 -0.004	  0.003	 -0.000	 31.800	 99.990	 -1.214
39582	 -0.451	 -0.257	  0.462	  0.138	  0.049	 -9.800	 -0.004	  0.002	  0.000	 31.900	 99.983	 -0.586
39632	 -0.447	 -0.259	  0.456	  0.108	  0.028	 -9.770	 -0.002	  0.001	 -0.000	 31.900	 99.967	  0.850
39682	 -0.451	 -0.258	  0.458	  0.161	  0.046	 -9.744	 -0.004	  0.002	  0.001	 31.900	 99.983	 -0.586
39732	 -0.446	 -0.259	  0.464	  0.118	  0.027	 -9.730	 -0.003	  0.001	 -0.000	 31.900	 99.990	 -1.214
39782	 -0.450	 -0.256	  0.457	  0.113	  0.050	 -9.762	 -0.004	  0.003	  0.001	 31.800	 99.990	 -1.214
39832	 -0.448	 -0.258	  0.460	  0.123	  0.070	 -9.755	 -0.004	  0.003	  0.000	 31.800	 99.978	 -0.137
39882	 -0.448	 -0.257	  0.456	  0.116	  0.043	 -9.794	 -0.004	  0.002	  0.001	 31.800	 99.978	 -0.137
39932	 -0.448	 -0.258	  0.461	  0.102	  0.041	 -9.737	 -0.004	  0.001	  0.001	 31.800	 99.978	 -0.137
39982	 -0.448	 -0.257	  0.459	  0.069	  0.041	 -9.752	 -0.003	  0.002	  0.000	 31.800	 99.978	 -0.137
40032	 -0.450	 -0.259	  0.460	  0.114	  0.044	 -9.780	 -0.004	  0.004	  0.000	 31.800	 99.978	 -0.137
40082	 -0.449	 -0.258	  0.461	  0.119	  0.039	 -9.766	 -0.003	  0.002	 -0.000	 31.900	 99.983	 -0.586
40132	 -0.452	 -0.250	  0.463	  0.116	  0.050	 -9.744	 -0.003	  0.002	  0.002	 31.900	 99.971	  0.491
40182	 -0.449	 -0.255	  0.461	  0.103	  0.052	 -9.735	 -0.003	  0.001	  0.002	 31.800	 99.978	 -0.137
40232	 -0.450	 -0.253	  0.462	  0.124	  0.030	 -9.759	 -0.003	  0.003	  0.001	 31.900	 99.983	 -0.586
40282	 -0.449	 -0.245	  0.452	  0.109	  0.043	 -9.734	 -0.002	  0.001	  0.000	 31.900	 99.983	 -0.586
40332	 -0.449	 -0.261	  0.458	  0.121	  0.027	 -9.766	 -0.004	  0.002	  0.001	 31.800	 99.990	 -1.214
40382	 -0.450	 -0.259	  0.459	  0.130	  0.029	 -9.754	 -0.003	  0.002	  0.001	 31.900	 99.983	 -0.586
40431	 -0.451	 -0.258	  0.462	  0.108	  0.051	 -9.766	 -0.004	  0.002	  0.001	 31.800	 99.990	 -1.214
40482	 -0.450	 -0.260	  0.459	  0.119	  0.037	 -9.724	 -0.004	  0.002	  0.001	 31.800	 99.978	 -0.137
40531	 -0.450	 -0.247	  0.450	  0.118	  0.023	 -9.718	 -0.003	  0.004	 -0.000	 31.900	 99.994	 -1.573
40582	 -0.449	 -0.259	  0.460	  0.126	  0.034	 -9.788	 -0.004	  0.003	  0.002	 31.900	 99.983	 -0.586
40631	 -0.448	 -0.256	  0.458	  0.121	  0.058	 -9.739	 -0.004	  0.003	  0.001	 31.800	 99.978	 -0.137
40682	 -0.452	 -0.260	  0.456	  0.120	  0.032	 -9.759	 -0.004	  0.003	  0.001	 31.800	 99.990	 -1.214
40731	 -0.449	 -0.256	  0.458	  0.113	  0.050	 -9.754	 -0.004	  0.003	 -0.001	 31.900	 99.983	 -0.586
40782	 -0.449	 -0.261	  0.458	  0.129	  0.030	 -9.738	 -0.002	  0.003	  0.001	 31.900	 99.983	 -0.586
40831	 -0.451	 -0.248	  0.454	  0.105	  0.043	 -9.785	 -0.004	  0.003	  0.001	 31.800	 99.978	 -0.137
40881	 -0.449	 -0.255	  0.460	  0.131	  0.035	 -9.745	 -0.004	  0.002	  0.001	 31.900	 99.983	 -0.586
40931	 -0.450	 -0.256	  0.460	  0.124	  0.052	 -9.784	 -0.004	  0.002	  0.001	 31.800	 99.978	 -0.137
40981	 -0.449	 -0.257	  0.458	  0.119	  0.038	 -9.744	 -0.003	  0.003	  0.000	 31.800	 99.978	 -0.137
41031	 -0.451	 -0.260	  0.461	  0.102	  0.060	 -9.773	 -0.004	  0.002	 -0.000	 31.900	 99.978	 -0.137
41081	 -0.448	 -0.254	  0.460	  0.096	  0.047	 -9.765	 -0.003	  0.001	  0.001	 31.800	 99.978	 -0.137
41131	 -0.450	 -0.257	  0.453	  0.142	  0.048	 -9.745	 -0.005	  0.003	  0.001	 31.800	 99.978	 -0.137
41181	 -0.448	 -0.258	  0.457	  0.136	  0.057	 -9.795	 -0.003	  0.003	  0.002	 31.800	 99.990	 -1.214
41231	 -0.448	 -0.259	  0.460	  0.119	  0.047	 -9.747	 -0.004	  0.002	  0.001	 31.900	 99.990	 -1.214
41281	 -0.448	 -0.255	  0.462	  0.141	  0.031	 -9.767	 -0.004	  0.001	 -0.000	 31.800	 100.001	 -2.201
41331	 -0.450	 -0.259	  0.461	  0.116	  0.033	 -9.753	 -0.003	  0.001	  0.001	 31.900	 99.983	 -0.586
41381	 -0.449	 -0.262	  0.460	  0.137	  0.043	 -9.761	 -0.003	  0.002	  0.001	 31.800	 99.978	 -0.137
41431	 -0.451	 -0.256	  0.461	  0.114	  0.072	 -9.770	 -0.004	  0.003	  0.001	 31.800	 99.978	 -0.137
41481	 -0.451	 -0.260	  0.461	  0.150	  0.039	 -9.791	 -0.003	  0.003	 -0.000	 31.800	 99.990	 -1.214
41531	 -0.448	 -0.258	  0.457	  0.133	  0.027	 -9.745	 -0.003	  0.002	  0.002	 31.900	 99.983	 -0.586
41581	 -0.448	 -0.262	  0.457	  0.104	  0.034	 -9.764	 -0.004	  0.001	  0.001	 31.900	 99.983	 -0.586
41631	 -0.450	 -0.255	  0.461	  0.102	  0.044	 -9.774	 -0.004	  0.003	  0.001	 31.800	 99.978	 -0.137
41681	 -0.448	 -0.260	  0.459	  0.116	  0.032	 -9.796	 -0.003	  0.002	  0.001	 31.800	 99.978	 -0.137
41732	 -0.450	 -0.254	  0.460	  0.119	  0.050	 -9.797	 -0.004	  0.002	  0.001	 31.900	 99.983	 -0.586
41781	 -0.447	 -0.250	  0.462	  0.130	  0.047	 -9.803	 -0.004	  0.002	  0.001	 31.900	 99.994	 -1.573
41831	 -0.449	 -0.258	  0.452	  0.085	  0.038	 -9.778	 -0.004	  0.003	  0.002	 31.800	 99.978	 -0.137
41881	 -0.450	 -0.257	  0.454	  0.118	  0.033	 -9.773	 -0.004	  0.002	 -0.000	 31.800	 99.978	 -0.137
41931	 -0.447	 -0.258	  0.461	  0.132	  0.051	 -9.759	 -0.004	  0.003	  0.001	 31.900	 99.978	 -0.137
41981	 -0.448	 -0.260	  0.459	  0.097	  0.032	 -9.789	 -0.005	  0.001	  0.001	 31.800	 99.967	  0.850
42031	 -0.449	 -0.257	  0.461	  0.116	  0.047	 -9.744	 -0.003	  0.002	  0.001	 31.900	 99.983	 -0.586
42081	 -0.448	 -0.258	  0.462	  0.127	  0.052	 -9.749	 -0.003	  0.003	  0.002	 31.800	 99.978	 -0.137
42131	 -0.449	 -0.258	  0.461	  0.109	  0.048	 -9.750	 -0.004	  0.002	 -0.001	 31.800	 99.967	  0.850
42181	 -0.449	 -0.258	  0.460	  0.097	  0.017	 -9.761	 -0.003	  0.003	  0.000	 31.800	 99.978	 -0.137
42231	 -0.448	 -0.262	  0.458	  0.127	  0.024	 -9.742	 -0.005	  0.002	  0.001	 31.900	 99.978	 -0.137
42282	 -0.452	 -0.251	  0.458	  0.128	  0.015	 -9.769	 -0.005	  0.003	  0.000	 31.800	 99.978	 -0.137
42331	 -0.447	 -0.260	  0.459	  0.144	  0.041	 -9.763	 -0.002	  0.002	  0.002	 31.800	 99.978	 -0.137
42381	 -0.448	 -0.244	  0.461	  0.102	  0.019	 -9.732	 -0.003	  0.002	  0.001	 31.800	 99.990	 -1.214
42431	 -0.448	 -0.255	  0.454	  0.130	  0.026	 -9.745	 -0.003	  0.000	  0.001	 31.900	 99.994	 -1.573
42481	 -0.450	 -0.258	  0.457	  0.100	  0.052	 -9.741	 -0.004	  0.003	  0.001	 31.800	 99.990	 -1.214
42531	 -0.450	 -0.259	  0.460	  0.124	  0.025	 -9.774	 -0.005	  0.002	  0.001	 31.900	 99.978	 -0.137
42581	 -0.448	 -0.254	  0.458	  0.116	  0.031	 -9.745	 -0.004	  0.001	 -0.000	 31.800	 99.990	 -1.214
42631	 -0.450	 -0.260	  0.460	  0.128	  0.036	 -9.768	 -0.004	  0.003	  0.001	 31.900	 99.978	 -0.137
42681	 -0.450	 -0.257	  0.459	  0.116	  0.056	 -9.778	 -0.003	  0.003	  0.001	 31.800	 99.978	 -0.137
42731	 -0.448	 -0.258	  0.462	  0.120	  0.052	 -9.763	 -0.003	  0.002	  0.001	 31.900	 99.994	 -1.573
42781	 -0.448	 -0.245	  0.460	  0.123	  0.038	 -9.793	 -0.004	  0.002	  0.001	 31.800	 99.978	 -0.137
42832	 -0.449	 -0.257	  0.459	  0.135	  0.060	 -9.761	 -0.003	  0.002	  0.000	 31.800	 99.990	 -1.214
42881	 -0.449	 -0.258	  0.457	  0.111	  0.045	 -9.764	 -0.004	  0.002	  0.001	 31.900	 99.983	 -0.586
42932	 -0.451	 -0.248	  0.452	  0.107	  0.053	 -9.746	 -0.004	  0.003	  0.000	 31.900	 99.983	 -0.586
42981	 -0.450	 -0.259	  0.460	  0.136	  0.048	 -9.768	 -0.003	  0.003	  0.001	 31.900	 99.983	 -0.586
43031	 -0.449	 -0.244	  0.451	  0.100	  0.056	 -9.748	 -0.004	  0.002	  0.000	 31.800	 99.967	  0.850
43081	 -0.449	 -0.258	  0.461	  0.129	  0.045	 -9.767	 -0.003	  0.003	  0.002	 31.900	 99.978	 -0.137
43132	 -0.447	 -0.257	  0.459	  0.116	  0.047	 -9.770	 -0.003	  0.002	 -0.000	 31.900	 99.994	 -1.573
43182	 -0.450	 -0.261	  0.458	  0.092	  0.041	 -9.740	 -0.003	  0.002	  0.001	 31.800	 99.978	 -0.137
43232	 -0.450	 -0.260	  0.458	  0.131	  0.044	 -9.752	 -0.003	  0.002	 -0.000	 31.800	 99.990	 -1.214
43282	 -0.453	 -0.258	  0.459	  0.122	  0.048	 -9.790	 -0.003	  0.003	 -0.000	 31.800	 99.978	 -0.137
43332	 -0.449	 -0.261	  0.462	  0.105	  0.023	 -9.756	 -0.003	  0.002	  0.001	 31.800	 99.978	 -0.137
43382	 -0.452	 -0.258	  0.459	  0.113	  0.036	 -9.785	 -0.003	  0.003	  0.001	 31.800	 99.978	 -0.137
43432	 -0.449	 -0.257	  0.454	  0.132	  0.038	 -9.778	 -0.004	  0.003	  0.001	 31.800	 99.990	 -1.214
43482	 -0.448	 -0.254	  0.459	  0.124	  0.036	 -9.801	 -0.004	  0.002	  0.001	 31.800	 99.978	 -0.137
43532	 -0.448	 -0.257	  0.462	  0.128	  0.035	 -9.776	 -0.004	  0.003	  0.001	 31.800	 99.978	 -0.137
43582	 -0.450	 -0.256	  0.459	  0.126	  0.065	 -9.749	 -0.003	  0.001	  0.001	 31.900	 99.983	 -0.586
43632	 -0.449	 -0.260	  0.460	  0.109	  0.041	 -9.778	 -0.004	  0.002	  0.001	 31.800	 99.990	 -1.214
43682	 -0.451	 -0.257	  0.459	  0.122	  0.048	 -9.761	 -0.003	  0.002	  0.000	 31.900	 99.983	 -0.586
43732	 -0.448	 -0.256	  0.457	  0.123	  0.045	 -9.734	 -0.003	  0.003	  0.001	 31.800	 99.978	 -0.137
43782	 -0.450	 -0.260	  0.460	  0.112	  0.022	 -9.766	 -0.004	  0.002	 -0.001	 31.800	 99.990	 -1.214
43832	 -0.450	 -0.249	  0.456	  0.120	  0.037	 -9.788	 -0.002	  0.003	  0.000	 31.900	 99.983	 -0.586
43882	 -0.449	 -0.256	  0.460	  0.119	  0.022	 -9.755	 -0.003	  0.000	  0.000	 31.800	 99.990	 -1.214
43932	 -0.450	 -0.261	  0.457	  0.134	  0.062	 -9.716	 -0.003	  0.003	  0.001	 31.800	 99.978	 -0.137
43982	 -0.452	 -0.252	  0.462	  0.103	  0.055	 -9.753	 -0.004	  0.002	  0.000	 31.800	 99.978	 -0.137
44032	 -0.451	 -0.247	  0.459	  0.107	  0.037	 -9.767	 -0.004	  0.002	  0.001	 31.800	 99.978	 -0.137
44082	 -0.449	 -0.259	  0.460	  0.111	  0.047	 -9.741	 -0.003	  0.003	  0.002	 31.900	 99.983	 -0.586
44132	 -0.449	 -0.253	  0.459	  0.108	  0.061	 -9.747	 -0.004	  0.001	  0.002	 31.800	 99.978	 -0.137
44182	 -0.448	 -0.249	  0.462	  0.131	  0.048	 -9.740	 -0.004	  0.003	  0.000	 31.800	 99.978	 -0.137
44232	 -0.450	 -0.259	  0.457	  0.125	  0.028	 -9.748	 -0.004	  0.002	  0.001	 31.900	 99.983	 -0.586
44282	 -0.450	 -0.255	  0.458	  0.116	  0.062	 -9.726	 -0.004	  0.001	  0.001	 31.800	 99.978	 -0.137
44332	 -0.448	 -0.257	  0.458	  0.132	  0.062	 -9.787	 -0.003	  0.002	  0.001	 31.900	 99.983	 -0.586
44382	 -0.451	 -0.259	  0.461	  0.105	  0.053	 -9.769	 -0.003	  0.002	  0.001	 31.900	 99.983	 -0.586
44432	 -0.451	 -0.257	  0.455	  0.118	  0.034	 -9.780	 -0.003	  0.002	  0.001	 31.900	 99.983	 -0.586
44482	 -0.450	 -0.259	  0.460	  0.107	  0.056	 -9.754	 -0.004	  0.003	  0.001	 31.800	 99.967	  0.850
44532	 -0.450	 -0.255	  0.458	  0.110	  0.044	 -9.782	 -0.003	  0.003	  0.001	 31.800	 99.978	 -0.137
44582	 -0.449	 -0.258	  0.458	  0.099	  0.025	 -9.796	 -0.003	  0.000	  0.001	 31.900	 99.994	 -1.573
44632	 -0.449	 -0.256	  0.458	  0.113	  0.033	 -9.775	 -0.004	  0.002	 -0.000	 31.900	 99.994	 -1.573
44682	 -0.448	 -0.257	  0.460	  0.115	  0.029	 -9.761	 -0.004	  0.002	 -0.000	 31.900	 99.983	 -0.586
44732	 -0.450	 -0.259	  0.459	  0.130	  0.035	 -9.737	 -0.004	  0.002	  0.000	 31.900	 99.978	 -0.137
44782	 -0.449	 -0.257	  0.454	  0.087	  0.047	 -9.751	 -0.004	  0.003	  0.001	 31.900	 99.983	 -0.586
44832	 -0.447	 -0.258	  0.457	  0.116	  0.051	 -9.754	 -0.004	  0.003	  0.001	 31.900	 99.978	 -0.137
44882	 -0.449	 -0.244	  0.460	  0.124	  0.032	 -9.744	 -0.004	  0.002	  0.002	 31.800	 99.978	 -0.137
44932	 -0.449	 -0.258	  0.463	  0.120	  0.038	 -9.762	 -0.003	  0.003	  0.001	 31.800	 99.978	 -0.137
