Time	 MagX	 MagY	 MagZ	 AccelX	 AccelY	 AccelZ	 Yaw	 Pitch	 Roll	 Temperature	 Pressure	 Altitude
18289	 -0.281	  0.520	  0.556	  0.227	 -0.526	 -9.729	 -0.003	  0.001	 -0.000	 33.300	 100.694	 -99999.000
18339	 -0.278	  0.522	  0.558	  0.244	 -0.575	 -9.738	 -0.003	  0.003	  0.001	 33.300	 100.683	 -99999.000
18389	 -0.283	  0.520	  0.555	  0.229	 -0.546	 -9.725	 -0.003	  0.002	  0.001	 33.300	 100.678	 -99999.000
18439	 -0.282	  0.518	  0.557	  0.220	 -0.542	 -9.706	 -0.003	  0.004	  0.002	 33.300	 100.690	 -99999.000
18489	 -0.282	  0.529	  0.556	  0.256	 -0.562	 -9.774	 -0.003	  0.003	  0.000	 33.300	 100.678	 -99999.000
18539	 -0.281	  0.518	  0.555	  0.214	 -0.542	 -9.749	 -0.003	  0.002	  0.000	 33.300	 100.690	 -99999.000
18589	 -0.279	  0.516	  0.559	  0.213	 -0.561	 -9.773	 -0.004	  0.004	 -0.000	 33.300	 100.678	 -99999.000
18639	 -0.280	  0.519	  0.553	  0.236	 -0.540	 -9.724	 -0.005	  0.003	  0.000	 33.300	 100.690	 -99999.000
18689	 -0.279	  0.515	  0.560	  0.212	 -0.560	 -9.729	 -0.003	  0.002	  0.001	 33.300	 100.678	 -99999.000
18739	 -0.281	  0.520	  0.548	  0.237	 -0.554	 -9.699	 -0.003	  0.002	  0.000	 33.300	 100.683	 -99999.000
18789	 -0.281	  0.516	  0.555	  0.230	 -0.558	 -9.729	 -0.004	  0.002	  0.001	 33.300	 100.683	 -99999.000
18839	 -0.281	  0.519	  0.556	  0.225	 -0.564	 -9.763	 -0.003	  0.001	 -0.000	 33.300	 100.694	 -99999.000
18889	 -0.282	  0.519	  0.555	  0.238	 -0.557	 -9.738	 -0.003	  0.004	 -0.000	 33.300	 100.678	 -99999.000
18939	 -0.279	  0.518	  0.548	  0.230	 -0.579	 -9.735	 -0.003	  0.002	  0.001	 33.300	 100.683	 -99999.000
18989	 -0.279	  0.518	  0.548	  0.200	 -0.546	 -9.727	 -0.004	  0.001	  0.000	 33.300	 100.694	 -99999.000
19039	 -0.280	  0.533	  0.558	  0.234	 -0.579	 -9.738	 -0.003	  0.002	  0.000	 33.300	 100.671	 -99999.000
19089	 -0.281	  0.522	  0.550	  0.220	 -0.570	 -9.753	 -0.003	  0.003	 -0.000	 33.300	 100.690	 -99999.000
19139	 -0.279	  0.519	  0.558	  0.204	 -0.547	 -9.594	 -0.001	  0.003	 -0.001	 33.300	 100.683	 -99999.000
19189	 -0.279	  0.520	  0.554	  0.249	 -0.562	 -9.772	 -0.000	 -0.002	 -0.001	 33.300	 100.683	 -99999.000
19239	 -0.279	  0.531	  0.560	  0.227	 -0.524	 -9.755	 -0.002	  0.003	  0.001	 33.300	 100.690	 -99999.000
19289	 -0.281	  0.517	  0.555	  0.233	 -0.562	 -9.758	 -0.002	  0.002	  0.001	 33.300	 100.690	 -99999.000
19339	 -0.282	  0.531	  0.558	  0.218	 -0.584	 -9.742	 -0.004	  0.002	  0.000	 33.300	 100.683	 -99999.000
19389	 -0.281	  0.522	  0.557	  0.219	 -0.552	 -9.703	 -0.002	  0.004	  0.001	 33.300	 100.678	 -99999.000
19439	 -0.279	  0.519	  0.558	  0.244	 -0.557	 -9.720	 -0.002	  0.003	 -0.000	 33.300	 100.683	 -99999.000
19489	 -0.281	  0.518	  0.559	  0.241	 -0.556	 -9.738	 -0.004	  0.003	 -0.000	 33.300	 100.690	 -99999.000
19539	 -0.280	  0.520	  0.547	  0.227	 -0.544	 -9.722	 -0.002	  0.001	  0.001	 33.300	 100.690	 -99999.000
19589	 -0.280	  0.519	  0.556	  0.230	 -0.570	 -9.752	 -0.003	  0.002	 -0.000	 33.300	 100.678	 -99999.000
19639	 -0.282	  0.533	  0.554	  0.266	 -0.541	 -9.731	 -0.004	  0.002	  0.001	 33.300	 100.694	 -99999.000
19689	 -0.280	  0.519	  0.555	  0.225	 -0.561	 -9.770	 -0.004	  0.001	  0.001	 33.300	 100.683	 -99999.000
19739	 -0.284	  0.517	  0.558	  0.232	 -0.548	 -9.783	 -0.004	  0.004	  0.001	 33.300	 100.678	 -99999.000
19789	 -0.280	  0.522	  0.555	  0.217	 -0.557	 -9.737	 -0.003	  0.002	 -0.000	 33.300	 100.690	 -99999.000
19839	 -0.279	  0.526	  0.555	  0.235	 -0.548	 -9.769	 -0.003	  0.002	  0.001	 33.300	 100.683	 -99999.000
19889	 -0.279	  0.517	  0.560	  0.230	 -0.574	 -9.745	 -0.002	  0.002	  0.001	 33.300	 100.694	 -99999.000
19939	 -0.280	  0.521	  0.559	  0.231	 -0.570	 -9.775	 -0.003	  0.002	  0.000	 33.300	 100.678	 -99999.000
19989	 -0.282	  0.514	  0.554	  0.225	 -0.543	 -9.766	 -0.003	  0.002	  0.001	 33.300	 100.683	 -99999.000
20039	 -0.282	  0.523	  0.563	  0.228	 -0.547	 -9.735	 -0.004	  0.003	  0.001	 33.300	 100.694	 -99999.000
20089	 -0.279	  0.518	  0.549	  0.233	 -0.535	 -9.752	 -0.004	  0.003	 -0.000	 33.300	 100.705	 -99999.000
20139	 -0.279	  0.521	  0.558	  0.233	 -0.561	 -9.730	 -0.002	  0.001	  0.001	 33.300	 100.683	 -99999.000
20189	 -0.281	  0.534	  0.555	  0.236	 -0.556	 -9.755	 -0.003	  0.003	 -0.001	 33.300	 100.690	 -99999.000
20239	 -0.280	  0.518	  0.561	  0.242	 -0.538	 -9.677	 -0.002	  0.003	  0.000	 33.300	 100.694	 -99999.000
20289	 -0.280	  0.519	  0.555	  0.232	 -0.560	 -9.735	 -0.003	  0.002	 -0.001	 33.300	 100.690	 -99999.000
20339	 -0.281	  0.528	  0.560	  0.255	 -0.538	 -9.714	 -0.003	  0.002	  0.001	 33.300	 100.683	 -99999.000
20389	 -0.282	  0.523	  0.558	  0.228	 -0.560	 -9.713	 -0.003	  0.002	 -0.000	 33.300	 100.694	 -99999.000
20439	 -0.280	  0.522	  0.553	  0.236	 -0.560	 -9.748	 -0.004	  0.004	  0.000	 33.300	 100.678	 -99999.000
20489	 -0.284	  0.517	  0.556	  0.233	 -0.553	 -9.759	 -0.003	  0.003	  0.001	 33.300	 100.667	 -99999.000
20539	 -0.280	  0.520	  0.557	  0.248	 -0.546	 -9.807	 -0.004	  0.003	  0.000	 33.300	 100.690	 -99999.000
20589	 -0.280	  0.517	  0.559	  0.227	 -0.539	 -9.733	 -0.004	  0.001	  0.001	 33.300	 100.705	 -99999.000
20639	 -0.281	  0.519	  0.556	  0.234	 -0.531	 -9.768	 -0.003	  0.004	  0.001	 33.300	 100.694	 -99999.000
20689	 -0.280	  0.527	  0.560	  0.243	 -0.537	 -9.728	 -0.003	  0.003	  0.000	 33.300	 100.683	 -99999.000
20739	 -0.282	  0.516	  0.556	  0.230	 -0.555	 -9.746	 -0.003	  0.001	  0.000	 33.300	 100.683	 -99999.000
20789	 -0.280	  0.519	  0.556	  0.230	 -0.576	 -9.729	 -0.003	  0.002	  0.000	 33.300	 100.701	 -99999.000
20839	 -0.281	  0.529	  0.556	  0.253	 -0.552	 -9.717	 -0.004	  0.003	  0.001	 33.300	 100.690	 -99999.000
20889	 -0.280	  0.520	  0.560	  0.239	 -0.530	 -9.700	 -0.004	  0.003	  0.001	 33.300	 100.705	 -99999.000
20939	 -0.280	  0.519	  0.554	  0.209	 -0.546	 -9.729	 -0.003	  0.001	  0.000	 33.300	 100.694	 -99999.000
20989	 -0.280	  0.520	  0.555	  0.216	 -0.551	 -9.743	 -0.003	  0.002	  0.001	 33.300	 100.690	 -99999.000
21039	 -0.281	  0.519	  0.555	  0.237	 -0.561	 -9.745	 -0.003	  0.002	  0.000	 33.300	 100.694	 -99999.000
21089	 -0.281	  0.519	  0.556	  0.234	 -0.553	 -9.745	 -0.002	  0.002	 -0.000	 33.300	 100.683	 -99999.000
21139	 -0.281	  0.517	  0.549	  0.248	 -0.563	 -9.740	 -0.003	  0.004	  0.000	 33.300	 100.690	 -99999.000
21189	 -0.281	  0.526	  0.557	  0.208	 -0.556	 -9.776	 -0.003	  0.002	  0.001	 33.300	 100.690	 -99999.000
21239	 -0.280	  0.522	  0.559	  0.235	 -0.570	 -9.753	 -0.003	  0.003	 -0.000	 33.300	 100.683	 -99999.000
21289	 -0.280	  0.518	  0.556	  0.224	 -0.560	 -9.738	 -0.004	  0.002	  0.002	 33.300	 100.694	 -99999.000
21339	 -0.280	  0.520	  0.557	  0.235	 -0.570	 -9.774	 -0.003	  0.002	  0.001	 33.300	 100.678	 -99999.000
21389	 -0.278	  0.518	  0.558	  0.227	 -0.533	 -9.759	 -0.004	  0.002	 -0.000	 33.300	 100.705	 -99999.000
21439	 -0.281	  0.519	  0.555	  0.228	 -0.556	 -9.759	 -0.004	  0.002	  0.000	 33.300	 100.683	 -99999.000
21489	 -0.281	  0.519	  0.557	  0.233	 -0.576	 -9.744	 -0.003	  0.002	  0.001	 33.300	 100.683	 -99999.000
21539	 -0.282	  0.521	  0.555	  0.242	 -0.564	 -9.738	 -0.004	  0.002	  0.001	 33.300	 100.694	 -99999.000
21589	 -0.281	  0.518	  0.556	  0.226	 -0.554	 -9.716	 -0.003	  0.002	  0.000	 33.300	 100.690	 -99999.000
21639	 -0.282	  0.520	  0.555	  0.238	 -0.555	 -9.785	 -0.004	  0.002	  0.001	 33.300	 100.678	 -99999.000
21689	 -0.280	  0.518	  0.560	  0.239	 -0.536	 -9.760	 -0.003	  0.003	  0.000	 33.300	 100.694	 -99999.000
21739	 -0.281	  0.520	  0.557	  0.236	 -0.560	 -9.743	 -0.002	  0.002	  0.002	 33.300	 100.694	 -99999.000
21789	 -0.280	  0.523	  0.556	  0.227	 -0.546	 -9.739	 -0.004	  0.003	 -0.001	 33.300	 100.694	 -99999.000
21839	 -0.281	  0.529	  0.560	  0.235	 -0.556	 -9.743	 -0.004	  0.002	  0.000	 33.300	 100.705	 -99999.000
21889	 -0.280	  0.529	  0.558	  0.200	 -0.553	 -9.690	 -0.003	  0.002	 -0.000	 33.300	 100.678	 -99999.000
21939	 -0.281	  0.518	  0.555	  0.231	 -0.572	 -9.756	 -0.003	  0.002	 -0.000	 33.300	 100.683	 -99999.000
21989	 -0.281	  0.529	  0.558	  0.206	 -0.575	 -9.755	 -0.003	  0.001	 -0.001	 33.300	 100.694	 -99999.000
22039	 -0.283	  0.522	  0.554	  0.237	 -0.546	 -9.721	 -0.002	  0.002	  0.001	 33.300	 100.687	 -99999.000
22089	 -0.281	  0.519	  0.557	  0.229	 -0.572	 -9.752	 -0.003	  0.003	  0.001	 33.300	 100.694	 -99999.000
22139	 -0.281	  0.518	  0.556	  0.225	 -0.539	 -9.738	 -0.003	  0.002	  0.001	 33.300	 100.690	 -99999.000
22189	 -0.280	  0.521	  0.556	  0.232	 -0.549	 -9.742	 -0.003	  0.002	  0.001	 33.300	 100.683	 -99999.000
22239	 -0.279	  0.524	  0.559	  0.229	 -0.567	 -9.741	 -0.003	  0.002	  0.000	 33.300	 100.690	 -99999.000
22289	 -0.282	  0.520	  0.557	  0.215	 -0.570	 -9.763	 -0.004	  0.003	  0.000	 33.300	 100.683	 -99999.000
22340	 -0.280	  0.518	  0.558	  0.234	 -0.560	 -9.760	 -0.003	  0.002	 -0.000	 33.300	 100.690	 -99999.000
22389	 -0.280	  0.532	  0.558	  0.241	 -0.559	 -9.741	 -0.002	  0.002	  0.000	 33.300	 100.683	 -99999.000
22439	 -0.282	  0.519	  0.554	  0.240	 -0.559	 -9.751	 -0.004	  0.003	  0.000	 33.300	 100.683	 -99999.000
22489	 -0.282	  0.522	  0.555	  0.262	 -0.573	 -9.721	 -0.002	  0.002	  0.000	 33.300	 100.678	 -99999.000
22539	 -0.280	  0.516	  0.553	  0.213	 -0.560	 -9.781	 -0.004	  0.003	 -0.000	 33.300	 100.683	 -99999.000
22590	 -0.280	  0.521	  0.555	  0.242	 -0.557	 -9.804	 -0.003	  0.004	  0.001	 33.300	 100.690	 -99999.000
22639	 -0.279	  0.522	  0.559	  0.219	 -0.549	 -9.748	 -0.003	  0.001	 -0.001	 33.300	 100.694	 -99999.000
22689	 -0.281	  0.519	  0.554	  0.232	 -0.557	 -9.752	 -0.004	  0.003	  0.001	 33.300	 100.678	 -99999.000
22739	 -0.280	  0.519	  0.558	  0.220	 -0.554	 -9.743	 -0.003	  0.002	  0.000	 33.300	 100.683	 -99999.000
22789	 -0.282	  0.518	  0.556	  0.240	 -0.558	 -9.755	 -0.004	  0.003	  0.000	 33.300	 100.683	 -99999.000
22839	 -0.281	  0.521	  0.555	  0.229	 -0.569	 -9.742	 -0.004	  0.002	 -0.000	 33.300	 100.694	 -99999.000
22889	 -0.282	  0.520	  0.558	  0.227	 -0.563	 -9.745	 -0.003	  0.001	  0.000	 33.300	 100.690	 -99999.000
22939	 -0.281	  0.519	  0.555	  0.247	 -0.550	 -9.740	 -0.004	  0.002	 -0.000	 33.300	 100.683	 -99999.000
22989	 -0.279	  0.519	  0.556	  0.240	 -0.574	 -9.756	 -0.004	  0.002	 -0.000	 33.300	 100.705	 -99999.000
23039	 -0.280	  0.517	  0.556	  0.224	 -0.552	 -9.743	 -0.003	  0.003	  0.000	 33.300	 100.683	 -99999.000
23089	 -0.282	  0.522	  0.557	  0.227	 -0.523	 -9.760	 -0.003	  0.003	  0.000	 33.300	 100.694	 -99999.000
23139	 -0.281	  0.519	  0.556	  0.218	 -0.573	 -9.792	 -0.003	  0.002	 -0.000	 33.300	 100.690	 -99999.000
23189	 -0.280	  0.517	  0.555	  0.240	 -0.559	 -9.708	 -0.002	  0.002	  0.000	 33.300	 100.678	 -99999.000
23239	 -0.280	  0.527	  0.556	  0.222	 -0.551	 -9.754	 -0.004	  0.002	 -0.001	 33.300	 100.694	 -99999.000
23289	 -0.281	  0.531	  0.558	  0.243	 -0.569	 -9.762	 -0.004	  0.002	 -0.000	 33.300	 100.683	 -99999.000
23339	 -0.284	  0.517	  0.556	  0.223	 -0.499	 -9.691	 -0.005	  0.024	  0.009	 33.300	 100.694	 -99999.000
23389	 -0.282	  0.520	  0.558	  0.251	 -0.534	 -9.690	 -0.007	  0.014	  0.004	 33.300	 100.694	 -99999.000
23439	 -0.281	  0.517	  0.557	  0.215	 -0.555	 -9.739	 -0.003	  0.003	  0.001	 33.300	 100.678	 -99999.000
23489	 -0.282	  0.531	  0.557	  0.241	 -0.551	 -9.753	 -0.003	 -0.002	 -0.001	 33.300	 100.690	 -99999.000
                                                                                                                                                                                                                                                                                                                                                                                                                                                                                                                                                                                                                                                                                                                                                                                                                                                                                                                                                                                           