Time	 MagX	 MagY	 MagZ	 AccelX	 AccelY	 AccelZ	 Yaw	 Pitch	 Roll	 Temperature	 Pressure	 Altitude
18274	 -0.634	  0.196	  0.737	  0.076	 -0.034	 -9.795	 -0.003	  0.002	  0.001	 32.900	 100.828	 -99999.000
18324	 -0.636	  0.196	  0.736	  0.132	 -0.043	 -9.802	 -0.003	  0.001	  0.001	 33.000	 100.821	 -99999.000
18374	 -0.636	  0.197	  0.741	  0.098	 -0.026	 -9.781	 -0.004	  0.003	  0.000	 32.900	 100.828	 -99999.000
18424	 -0.636	  0.211	  0.739	  0.117	 -0.007	 -9.772	 -0.004	  0.001	 -0.001	 32.900	 100.817	 -99999.000
18474	 -0.636	  0.201	  0.738	  0.114	 -0.010	 -9.802	 -0.004	  0.003	  0.000	 32.900	 100.828	 -99999.000
18524	 -0.637	  0.194	  0.738	  0.109	 -0.039	 -9.790	 -0.003	  0.002	  0.000	 33.000	 100.821	 -99999.000
18574	 -0.636	  0.196	  0.733	  0.151	 -0.006	 -9.764	 -0.003	  0.003	  0.000	 32.900	 100.828	 -99999.000
18624	 -0.638	  0.195	  0.738	  0.127	 -0.038	 -9.817	 -0.002	  0.003	 -0.000	 32.900	 100.817	 -99999.000
18674	 -0.636	  0.198	  0.736	  0.123	 -0.031	 -9.802	 -0.004	  0.002	 -0.001	 32.900	 100.817	 -99999.000
18724	 -0.635	  0.199	  0.739	  0.090	 -0.032	 -9.783	 -0.003	  0.003	 -0.001	 32.900	 100.828	 -99999.000
18774	 -0.637	  0.199	  0.740	  0.132	 -0.019	 -9.784	 -0.003	  0.001	 -0.001	 32.900	 100.817	 -99999.000
18824	 -0.637	  0.202	  0.738	  0.117	 -0.003	 -9.782	 -0.004	  0.001	  0.000	 32.900	 100.817	 -99999.000
18874	 -0.635	  0.199	  0.738	  0.097	 -0.020	 -9.788	 -0.004	  0.002	 -0.000	 33.000	 100.821	 -99999.000
18924	 -0.637	  0.199	  0.734	  0.101	 -0.024	 -9.814	 -0.004	  0.003	  0.001	 32.900	 100.817	 -99999.000
18974	 -0.638	  0.197	  0.739	  0.103	 -0.020	 -9.775	 -0.004	  0.002	  0.000	 32.900	 100.817	 -99999.000
19024	 -0.637	  0.199	  0.734	  0.104	 -0.028	 -9.778	 -0.003	  0.001	 -0.001	 33.000	 100.809	 -99999.000
19074	 -0.637	  0.196	  0.734	  0.100	 -0.014	 -9.778	 -0.004	  0.002	  0.001	 33.000	 100.832	 -99999.000
19124	 -0.636	  0.196	  0.739	  0.092	 -0.022	 -9.794	 -0.004	  0.003	  0.000	 33.000	 100.821	 -99999.000
19174	 -0.637	  0.202	  0.735	  0.130	 -0.027	 -9.799	 -0.003	  0.002	 -0.001	 32.900	 100.817	 -99999.000
19224	 -0.636	  0.200	  0.732	  0.111	 -0.018	 -9.799	 -0.005	  0.002	 -0.000	 33.000	 100.832	 -99999.000
19274	 -0.635	  0.200	  0.734	  0.117	  0.001	 -9.828	 -0.003	  0.002	 -0.000	 32.900	 100.828	 -99999.000
19324	 -0.636	  0.199	  0.737	  0.110	 -0.028	 -9.801	 -0.002	  0.001	 -0.001	 32.900	 100.828	 -99999.000
19374	 -0.637	  0.197	  0.739	  0.108	 -0.019	 -9.780	 -0.003	  0.002	 -0.000	 32.900	 100.828	 -99999.000
19423	 -0.636	  0.197	  0.739	  0.094	 -0.005	 -9.816	 -0.004	  0.002	  0.001	 32.900	 100.817	 -99999.000
19473	 -0.637	  0.198	  0.738	  0.107	 -0.027	 -9.822	 -0.004	  0.003	  0.001	 32.900	 100.828	 -99999.000
19524	 -0.635	  0.208	  0.738	  0.141	 -0.039	 -9.783	 -0.003	  0.002	 -0.001	 32.900	 100.832	 -99999.000
19574	 -0.636	  0.195	  0.739	  0.114	 -0.018	 -9.760	 -0.004	  0.002	 -0.001	 32.900	 100.817	 -99999.000
19624	 -0.634	  0.194	  0.732	  0.095	 -0.033	 -9.785	 -0.004	  0.001	 -0.001	 32.900	 100.817	 -99999.000
19673	 -0.634	  0.198	  0.731	  0.101	 -0.013	 -9.802	 -0.002	  0.002	 -0.000	 32.900	 100.817	 -99999.000
19723	 -0.633	  0.200	  0.739	  0.109	  0.010	 -9.771	 -0.003	  0.003	 -0.000	 32.900	 100.817	 -99999.000
19773	 -0.636	  0.197	  0.739	  0.133	 -0.020	 -9.815	 -0.004	  0.003	  0.000	 32.900	 100.805	 -99999.000
19823	 -0.637	  0.198	  0.738	  0.115	 -0.009	 -9.834	 -0.004	  0.002	 -0.000	 32.900	 100.828	 -99999.000
19873	 -0.636	  0.194	  0.740	  0.093	 -0.019	 -9.820	 -0.003	  0.001	 -0.000	 32.900	 100.828	 -99999.000
19923	 -0.636	  0.196	  0.739	  0.120	 -0.024	 -9.786	 -0.005	  0.003	 -0.001	 32.900	 100.817	 -99999.000
19973	 -0.637	  0.196	  0.740	  0.104	 -0.027	 -9.784	 -0.004	  0.002	  0.000	 32.900	 100.828	 -99999.000
20023	 -0.635	  0.197	  0.736	  0.099	 -0.040	 -9.779	 -0.004	  0.004	 -0.001	 32.900	 100.828	 -99999.000
20074	 -0.635	  0.207	  0.738	  0.105	 -0.002	 -9.796	 -0.005	  0.002	 -0.001	 32.900	 100.817	 -99999.000
20125	 -0.636	  0.196	  0.738	  0.107	 -0.031	 -9.797	 -0.003	  0.001	 -0.001	 32.900	 100.828	 -99999.000
20175	 -0.636	  0.200	  0.736	  0.125	 -0.010	 -9.789	 -0.003	  0.002	 -0.000	 32.900	 100.828	 -99999.000
20225	 -0.637	  0.197	  0.740	  0.117	 -0.005	 -9.795	 -0.003	  0.002	  0.000	 33.000	 100.809	 -99999.000
20275	 -0.632	  0.201	  0.730	  0.110	 -0.040	 -9.802	 -0.004	  0.003	  0.000	 32.900	 100.809	 -99999.000
20325	 -0.637	  0.195	  0.737	  0.111	 -0.011	 -9.807	 -0.004	  0.002	  0.001	 33.000	 100.832	 -99999.000
20375	 -0.637	  0.198	  0.739	  0.102	 -0.041	 -9.817	 -0.004	  0.003	  0.000	 32.900	 100.805	 -99999.000
20425	 -0.636	  0.194	  0.741	  0.113	 -0.006	 -9.797	 -0.004	  0.002	 -0.000	 32.900	 100.817	 -99999.000
20475	 -0.636	  0.193	  0.732	  0.083	 -0.034	 -9.810	 -0.004	  0.004	 -0.000	 32.900	 100.817	 -99999.000
20525	 -0.634	  0.194	  0.735	  0.132	 -0.036	 -9.837	 -0.003	  0.003	 -0.001	 32.900	 100.817	 -99999.000
20575	 -0.634	  0.199	  0.739	  0.118	 -0.016	 -9.793	 -0.003	  0.003	 -0.000	 32.900	 100.821	 -99999.000
20625	 -0.637	  0.197	  0.739	  0.110	 -0.012	 -9.802	 -0.004	  0.001	 -0.001	 32.900	 100.817	 -99999.000
20675	 -0.637	  0.197	  0.740	  0.143	 -0.019	 -9.796	 -0.004	  0.002	 -0.000	 32.900	 100.817	 -99999.000
20725	 -0.633	  0.200	  0.735	  0.101	 -0.020	 -9.790	 -0.004	  0.003	  0.000	 33.000	 100.832	 -99999.000
20775	 -0.634	  0.196	  0.739	  0.121	 -0.005	 -9.817	 -0.004	  0.002	  0.000	 32.900	 100.817	 -99999.000
20825	 -0.637	  0.197	  0.738	  0.098	 -0.032	 -9.810	 -0.004	  0.003	 -0.000	 32.900	 100.817	 -99999.000
20874	 -0.637	  0.209	  0.742	  0.109	 -0.006	 -9.815	 -0.004	  0.002	  0.000	 32.900	 100.817	 -99999.000
20924	 -0.636	  0.198	  0.738	  0.101	 -0.023	 -9.794	 -0.004	  0.002	 -0.000	 32.900	 100.817	 -99999.000
20974	 -0.636	  0.194	  0.737	  0.122	 -0.024	 -9.794	 -0.003	  0.002	  0.001	 32.900	 100.821	 -99999.000
21024	 -0.637	  0.199	  0.735	  0.112	 -0.027	 -9.783	 -0.004	  0.002	 -0.000	 32.900	 100.817	 -99999.000
21074	 -0.637	  0.202	  0.732	  0.128	 -0.022	 -9.759	 -0.003	  0.002	 -0.000	 32.900	 100.817	 -99999.000
21124	 -0.636	  0.195	  0.732	  0.118	 -0.014	 -9.756	 -0.003	  0.003	 -0.000	 33.000	 100.821	 -99999.000
21174	 -0.635	  0.200	  0.736	  0.132	 -0.026	 -9.779	 -0.003	  0.002	 -0.000	 32.900	 100.817	 -99999.000
21224	 -0.636	  0.199	  0.740	  0.115	 -0.021	 -9.835	 -0.003	  0.003	 -0.000	 32.900	 100.817	 -99999.000
21275	 -0.633	  0.198	  0.731	  0.121	 -0.000	 -9.783	 -0.003	  0.002	 -0.000	 32.900	 100.828	 -99999.000
21324	 -0.637	  0.197	  0.739	  0.095	 -0.013	 -9.768	 -0.003	  0.003	 -0.001	 32.900	 100.817	 -99999.000
21374	 -0.638	  0.199	  0.740	  0.114	 -0.001	 -9.778	 -0.004	  0.002	 -0.000	 33.000	 100.832	 -99999.000
21424	 -0.637	  0.201	  0.737	  0.119	 -0.017	 -9.770	 -0.004	  0.004	  0.000	 32.900	 100.817	 -99999.000
21474	 -0.635	  0.196	  0.729	  0.101	 -0.014	 -9.787	 -0.002	  0.002	  0.000	 32.900	 100.828	 -99999.000
21524	 -0.636	  0.196	  0.737	  0.141	 -0.021	 -9.779	 -0.002	  0.001	 -0.001	 33.000	 100.821	 -99999.000
21574	 -0.637	  0.194	  0.738	  0.108	 -0.018	 -9.781	 -0.003	  0.004	 -0.001	 32.900	 100.821	 -99999.000
21624	 -0.637	  0.195	  0.736	  0.112	 -0.021	 -9.791	 -0.003	  0.002	 -0.001	 33.000	 100.821	 -99999.000
21674	 -0.636	  0.194	  0.737	  0.103	 -0.011	 -9.786	 -0.004	  0.002	  0.001	 32.900	 100.817	 -99999.000
21724	 -0.637	  0.199	  0.736	  0.119	 -0.050	 -9.775	 -0.003	  0.001	 -0.000	 32.900	 100.828	 -99999.000
21774	 -0.636	  0.198	  0.736	  0.109	 -0.039	 -9.771	 -0.005	  0.001	 -0.001	 32.900	 100.828	 -99999.000
21824	 -0.636	  0.197	  0.739	  0.117	 -0.005	 -9.803	 -0.003	  0.004	  0.000	 32.900	 100.817	 -99999.000
21874	 -0.636	  0.199	  0.729	  0.117	 -0.030	 -9.780	 -0.004	  0.002	 -0.001	 32.900	 100.817	 -99999.000
21924	 -0.637	  0.194	  0.737	  0.100	 -0.008	 -9.808	 -0.002	  0.003	 -0.000	 32.900	 100.817	 -99999.000
21974	 -0.637	  0.201	  0.735	  0.122	 -0.031	 -9.784	 -0.003	  0.003	 -0.001	 32.900	 100.817	 -99999.000
22024	 -0.634	  0.197	  0.736	  0.101	 -0.027	 -9.795	 -0.004	  0.002	  0.000	 32.900	 100.817	 -99999.000
22074	 -0.635	  0.196	  0.734	  0.126	 -0.013	 -9.810	 -0.004	  0.002	 -0.000	 32.900	 100.828	 -99999.000
22124	 -0.635	  0.195	  0.739	  0.092	 -0.021	 -9.771	 -0.002	  0.002	 -0.000	 32.900	 100.828	 -99999.000
22174	 -0.637	  0.197	  0.739	  0.109	 -0.010	 -9.801	 -0.004	  0.002	  0.000	 32.900	 100.817	 -99999.000
22224	 -0.637	  0.198	  0.732	  0.113	 -0.027	 -9.785	 -0.004	  0.002	 -0.000	 32.900	 100.839	 -99999.000
22274	 -0.635	  0.197	  0.738	  0.109	 -0.015	 -9.802	 -0.003	  0.003	 -0.001	 33.000	 100.821	 -99999.000
22324	 -0.637	  0.197	  0.739	  0.127	  0.005	 -9.816	 -0.004	  0.002	  0.001	 32.900	 100.828	 -99999.000
22374	 -0.636	  0.196	  0.741	  0.121	 -0.022	 -9.785	 -0.005	  0.002	 -0.001	 32.900	 100.805	 -99999.000
22424	 -0.635	  0.197	  0.738	  0.115	 -0.020	 -9.838	 -0.003	  0.003	 -0.000	 33.000	 100.821	 -99999.000
22474	 -0.637	  0.196	  0.739	  0.097	  0.001	 -9.785	 -0.003	  0.003	 -0.001	 32.900	 100.828	 -99999.000
22524	 -0.637	  0.197	  0.738	  0.112	 -0.034	 -9.786	 -0.003	  0.002	  0.001	 32.900	 100.828	 -99999.000
22574	 -0.635	  0.196	  0.734	  0.121	 -0.014	 -9.781	 -0.004	  0.003	 -0.001	 33.000	 100.821	 -99999.000
22624	 -0.636	  0.194	  0.737	  0.128	 -0.001	 -9.781	 -0.003	  0.002	 -0.001	 32.900	 100.817	 -99999.000
22674	 -0.637	  0.197	  0.738	  0.130	 -0.020	 -9.824	 -0.003	  0.002	  0.000	 33.000	 100.832	 -99999.000
22724	 -0.638	  0.210	  0.739	  0.110	 -0.032	 -9.821	 -0.003	  0.003	  0.000	 32.900	 100.828	 -99999.000
22774	 -0.635	  0.197	  0.738	  0.114	 -0.025	 -9.817	 -0.004	  0.003	 -0.001	 32.900	 100.828	 -99999.000
22824	 -0.635	  0.200	  0.736	  0.129	 -0.022	 -9.776	 -0.003	  0.002	 -0.001	 32.900	 100.817	 -99999.000
22874	 -0.637	  0.195	  0.737	  0.113	 -0.020	 -9.781	 -0.004	  0.003	 -0.000	 32.900	 100.817	 -99999.000
22924	 -0.636	  0.197	  0.733	  0.110	 -0.021	 -9.832	 -0.003	  0.001	 -0.001	 32.900	 100.828	 -99999.000
22974	 -0.637	  0.193	  0.740	  0.119	 -0.031	 -9.772	 -0.004	  0.002	 -0.001	 33.000	 100.821	 -99999.000
23024	 -0.636	  0.195	  0.738	  0.121	 -0.015	 -9.769	 -0.003	  0.002	  0.000	 32.900	 100.817	 -99999.000
23074	 -0.636	  0.200	  0.736	  0.105	 -0.033	 -9.791	 -0.003	  0.002	 -0.000	 32.900	 100.828	 -99999.000
23124	 -0.635	  0.197	  0.731	  0.125	 -0.003	 -9.788	 -0.004	  0.002	 -0.001	 33.000	 100.821	 -99999.000
23174	 -0.636	  0.199	  0.737	  0.125	 -0.017	 -9.773	 -0.004	  0.002	 -0.001	 32.900	 100.821	 -99999.000
23224	 -0.636	  0.194	  0.738	  0.106	 -0.017	 -9.803	 -0.003	  0.002	 -0.000	 32.900	 100.828	 -99999.000
23274	 -0.640	  0.200	  0.734	  0.102	 -0.024	 -9.777	 -0.003	  0.003	  0.000	 32.900	 100.805	 -99999.000
23324	 -0.636	  0.196	  0.734	  0.106	 -0.026	 -9.787	 -0.003	  0.003	  0.001	 32.900	 100.817	 -99999.000
23374	 -0.637	  0.198	  0.739	  0.123	 -0.009	 -9.791	 -0.002	  0.002	 -0.001	 32.900	 100.821	 -99999.000
23424	 -0.635	  0.196	  0.739	  0.114	 -0.023	 -9.804	 -0.004	  0.002	 -0.001	 32.900	 100.828	 -99999.000
23474	 -0.635	  0.199	  0.737	  0.117	 -0.010	 -9.785	 -0.004	  0.003	 -0.000	 32.900	 100.817	 -99999.000
23524	 -0.635	  0.198	  0.739	  0.108	 -0.009	 -9.803	 -0.005	  0.002	 -0.000	 32.900	 100.817	 -99999.000
23574	 -0.637	  0.199	  0.741	  0.117	 -0.010	 -9.835	 -0.003	  0.003	  0.000	 33.000	 100.809	 -99999.000
23624	 -0.633	  0.201	  0.733	  0.122	 -0.024	 -9.817	 -0.004	  0.000	 -0.000	 33.000	 100.821	 -99999.000
23674	 -0.634	  0.192	  0.738	  0.104	 -0.003	 -9.815	 -0.003	  0.003	  0.001	 32.900	 100.821	 -99999.000
23724	 -0.636	  0.201	  0.739	  0.111	 -0.041	 -9.769	 -0.004	  0.002	  0.001	 33.000	 100.821	 -99999.000
23774	 -0.636	  0.196	  0.739	  0.116	  0.004	 -9.826	 -0.003	  0.002	 -0.001	 33.000	 100.832	 -99999.000
23824	 -0.635	  0.196	  0.736	  0.130	 -0.017	 -9.817	 -0.005	  0.002	  0.001	 32.900	 100.817	 -99999.000
23874	 -0.634	  0.196	  0.740	  0.125	 -0.009	 -9.804	 -0.004	  0.003	  0.001	 32.900	 100.817	 -99999.000
23923	 -0.636	  0.197	  0.738	  0.097	 -0.012	 -9.831	 -0.004	  0.003	 -0.000	 33.000	 100.821	 -99999.000
23973	 -0.633	  0.193	  0.739	  0.108	 -0.037	 -9.794	 -0.003	  0.002	  0.001	 32.900	 100.817	 -99999.000
24023	 -0.637	  0.195	  0.740	  0.120	 -0.030	 -9.814	 -0.002	  0.003	  0.001	 32.900	 100.817	 -99999.000
24073	 -0.637	  0.205	  0.738	  0.115	 -0.045	 -9.799	 -0.003	  0.003	 -0.001	 32.900	 100.817	 -99999.000
24123	 -0.637	  0.196	  0.738	  0.111	 -0.027	 -9.778	 -0.003	  0.002	 -0.001	 32.900	 100.821	 -99999.000
24173	 -0.635	  0.198	  0.739	  0.105	 -0.038	 -9.810	 -0.003	  0.003	 -0.000	 32.900	 100.828	 -99999.000
24224	 -0.638	  0.199	  0.740	  0.124	 -0.002	 -9.767	 -0.003	  0.002	  0.000	 32.900	 100.817	 -99999.000
26076	 -0.634	  0.196	  0.737	  0.100	 -0.019	 -9.818	 -0.003	  0.002	 -0.000	 32.900	 100.828	 -0.578
26124	 -0.637	  0.197	  0.741	  0.112	 -0.018	 -9.822	 -0.004	  0.003	 -0.000	 32.900	 100.817	  0.400
26174	 -0.636	  0.194	  0.741	  0.117	 -0.018	 -9.788	 -0.003	  0.002	  0.000	 32.900	 100.821	  0.044
26224	 -0.637	  0.197	  0.733	  0.119	 -0.016	 -9.820	 -0.002	  0.003	 -0.000	 32.900	 100.828	 -0.578
26274	 -0.636	  0.195	  0.736	  0.113	 -0.012	 -9.810	 -0.004	  0.002	  0.000	 32.900	 100.817	  0.400
26324	 -0.636	  0.211	  0.738	  0.118	  0.007	 -9.827	 -0.003	  0.005	  0.001	 33.000	 100.821	  0.044
26374	 -0.637	  0.198	  0.730	  0.093	 -0.003	 -9.790	 -0.003	  0.003	  0.000	 33.000	 100.821	  0.044
26424	 -0.636	  0.194	  0.738	  0.127	 -0.036	 -9.813	 -0.003	  0.003	 -0.000	 33.000	 100.821	  0.044
26474	 -0.637	  0.195	  0.738	  0.092	 -0.006	 -9.813	 -0.004	  0.003	 -0.001	 32.900	 100.828	 -0.578
26524	 -0.637	  0.198	  0.739	  0.110	 -0.007	 -9.783	 -0.004	  0.002	 -0.001	 32.900	 100.817	  0.400
26574	 -0.636	  0.201	  0.736	  0.105	 -0.006	 -9.823	 -0.003	  0.002	 -0.001	 32.900	 100.817	  0.400
26624	 -0.636	  0.197	  0.738	  0.114	 -0.011	 -9.777	 -0.004	  0.002	 -0.000	 32.900	 100.817	  0.400
26674	 -0.635	  0.208	  0.739	  0.077	 -0.022	 -9.798	 -0.004	  0.002	  0.000	 32.900	 100.817	  0.400
26724	 -0.635	  0.196	  0.735	  0.096	 -0.012	 -9.788	 -0.004	  0.003	 -0.001	 33.000	 100.821	  0.044
26774	 -0.637	  0.197	  0.739	  0.127	 -0.042	 -9.819	 -0.002	  0.003	 -0.000	 32.900	 100.821	  0.044
26824	 -0.637	  0.202	  0.738	  0.099	  0.014	 -9.789	 -0.004	  0.003	 -0.000	 33.000	 100.821	  0.044
26874	 -0.635	  0.200	  0.740	  0.094	 -0.021	 -9.796	 -0.003	  0.002	  0.001	 32.900	 100.828	 -0.578
26924	 -0.637	  0.199	  0.737	  0.115	 -0.028	 -9.785	 -0.004	  0.002	 -0.000	 33.000	 100.821	  0.044
26974	 -0.633	  0.209	  0.739	  0.114	 -0.004	 -9.809	 -0.004	  0.002	 -0.000	 32.900	 100.817	  0.400
27024	 -0.637	  0.196	  0.740	  0.113	 -0.014	 -9.795	 -0.003	  0.002	 -0.000	 32.900	 100.828	 -0.578
27074	 -0.637	  0.201	  0.739	  0.118	 -0.027	 -9.811	 -0.004	  0.002	 -0.001	 32.900	 100.817	  0.400
27124	 -0.633	  0.198	  0.743	  0.104	 -0.032	 -9.791	 -0.003	  0.002	  0.002	 32.900	 100.828	 -0.578
27174	 -0.635	  0.209	  0.738	  0.101	  0.012	 -9.783	 -0.004	  0.004	 -0.000	 32.900	 100.832	 -0.934
27224	 -0.633	  0.196	  0.739	  0.086	 -0.040	 -9.833	 -0.003	  0.008	  0.000	 32.900	 100.817	  0.400
27274	 -0.635	  0.203	  0.736	  0.193	 -0.008	 -9.677	  0.005	  0.019	  0.094	 32.900	 100.832	 -0.934
27324	 -0.636	  0.200	  0.732	 -0.439	 -0.024	 -10.171	 -0.016	  0.022	  0.160	 32.900	 100.817	  0.400
27374	 -0.631	  0.235	  0.749	  0.016	 -0.951	 -9.660	  0.010	  0.041	  0.687	 32.900	 100.817	  0.400
27424	 -0.620	  0.259	  0.757	  2.173	  1.965	 -9.687	 -0.007	 -0.053	 -0.025	 32.900	 100.805	  1.467
27474	 -0.628	  0.264	  0.751	 -0.247	  0.080	 -10.483	  0.025	  0.074	 -0.036	 32.900	 100.828	 -0.578
27524	 -0.631	  0.261	  0.748	  0.687	 -0.497	 -9.240	  0.095	  0.042	 -0.099	 32.900	 100.817	  0.400
27574	 -0.633	  0.268	  0.752	  0.221	 -0.242	 -9.853	  0.037	 -0.048	 -0.043	 32.900	 100.821	  0.044
27624	 -0.631	  0.259	  0.749	  0.317	 -0.522	 -9.622	 -0.149	 -0.031	 -0.055	 33.000	 100.832	 -0.934
27674	 -0.631	  0.254	  0.752	 -1.048	 -0.283	 -10.074	 -0.053	 -0.014	 -0.128	 32.900	 100.817	  0.400
27724	 -0.632	  0.269	  0.756	  0.827	  0.596	 -9.656	  0.144	  0.079	 -0.146	 33.000	 100.821	  0.044
27774	 -0.639	  0.256	  0.739	  1.082	  0.762	 -12.372	  0.362	  0.293	 -0.506	 33.000	 100.832	 -0.934
27824	 -0.643	  0.240	  0.684	  2.472	  0.371	 -14.234	  0.174	  0.926	 -0.190	 32.900	 100.828	 -0.578
27874	 -0.595	  0.226	  0.629	 -1.961	 -2.145	 -0.516	  1.215	  0.383	  0.336	 32.900	 100.817	  0.400
27924	 -0.587	  0.300	  0.626	  3.407	 -0.866	 -8.040	  0.217	 -1.664	 -0.779	 32.900	 100.817	  0.400
27974	 -0.568	  0.194	  0.665	 -3.152	  4.369	 -22.285	 -2.731	  0.965	 -0.230	 32.900	 100.817	  0.400
28024	 -0.571	  0.203	  0.611	  0.004	 -5.518	  3.516	  2.996	 -0.178	  0.160	 33.000	 100.832	 -0.934
28074	 -0.560	  0.232	  0.640	 -1.221	  2.098	 -21.419	 -2.113	 -0.844	  0.144	 32.900	 100.817	  0.400
28124	 -0.504	  0.222	  0.651	 -0.249	 -5.991	 -0.508	  2.696	 -1.647	  0.537	 32.900	 100.817	  0.400
28174	 -0.448	  0.301	  0.693	 -0.841	  2.140	 -16.493	 -2.008	 -0.596	  0.518	 33.000	 100.821	  0.044
28224	 -0.456	  0.225	  0.706	 -1.321	 -0.375	 -4.739	  0.899	  0.911	  0.183	 33.000	 100.821	  0.044
28274	 -0.489	  0.285	  0.679	  0.323	  1.905	 -9.471	 -0.525	  0.500	 -0.270	 32.900	 100.821	  0.044
28324	 -0.499	  0.211	  0.690	 -0.210	  0.856	 -10.042	  1.018	 -0.440	 -0.302	 32.900	 100.828	 -0.578
28374	 -0.479	  0.302	  0.660	  0.365	 -6.420	 -1.306	  1.134	  0.426	 -0.107	 32.900	 100.805	  1.467
28424	 -0.491	  0.215	  0.696	 -0.568	  5.592	 -23.668	 -1.833	 -0.765	 -0.521	 32.900	 100.817	  0.400
28474	 -0.489	  0.272	  0.648	 -0.839	 -8.340	  4.617	  2.663	  1.424	  0.510	 32.900	 100.817	  0.400
28524	 -0.554	  0.252	  0.666	  5.268	  3.425	 -26.688	 -4.570	 -0.696	 -0.755	 33.000	 100.832	 -0.934
28574	 -0.531	  0.238	  0.649	 -3.763	 -6.755	  2.556	  3.958	  0.174	  0.153	 32.900	 100.817	  0.400
28624	 -0.554	  0.264	  0.676	  3.364	  3.928	 -27.387	 -3.936	  0.043	  0.167	 32.900	 100.817	  0.400
28674	 -0.542	  0.234	  0.647	 -0.880	 -6.539	  0.802	  3.332	  0.361	  0.019	 33.000	 100.821	  0.044
28724	 -0.586	  0.261	  0.629	 -0.672	  8.064	 -17.770	 -3.517	  0.481	 -1.158	 33.000	 100.832	 -0.934
28774	 -0.580	  0.226	  0.661	 -2.383	 -4.100	 -8.403	  3.253	 -1.659	  1.715	 32.900	 100.832	 -0.934
28824	 -0.520	  0.340	  0.676	  2.618	  0.730	 -11.672	 -1.561	  0.710	  0.060	 32.900	 100.828	 -0.578
28874	 -0.522	  0.267	  0.665	 -1.930	  2.227	 -14.979	  1.441	  0.156	  0.049	 32.900	 100.817	  0.400
28924	 -0.546	  0.317	  0.583	 -1.848	 -6.980	  6.743	  0.392	  2.364	  0.282	 32.900	 100.817	  0.400
28974	 -0.570	  0.271	  0.637	  5.534	  6.100	 -24.241	 -3.241	 -3.621	 -1.538	 33.000	 100.832	 -0.934
29024	 -0.527	  0.247	  0.643	 -4.889	 -4.567	 -4.163	  3.320	  1.425	  1.004	 32.900	 100.828	 -0.578
29074	 -0.602	  0.306	  0.615	  6.446	  3.622	 -8.312	 -3.429	 -0.308	 -1.363	 32.900	 100.817	  0.400
29124	 -0.592	  0.184	  0.641	 -3.875	 -0.195	 -8.046	  3.967	  1.658	  1.258	 33.000	 100.821	  0.044
29174	 -0.621	  0.300	  0.586	  2.706	 -5.935	 -4.140	 -1.606	 -0.734	  0.518	 32.900	 100.817	  0.400
29224	 -0.516	  0.278	  0.682	 -5.111	 -0.537	 -13.224	  1.275	 -2.423	 -0.101	 32.900	 100.828	 -0.578
29274	 -0.547	  0.331	  0.655	  4.205	  0.588	 -8.700	 -1.436	  1.659	  0.618	 32.900	 100.828	 -0.578
29324	 -0.521	  0.284	  0.682	 -3.292	  0.086	 -13.892	  0.849	 -1.308	 -0.473	 33.000	 100.821	  0.044
29374	 -0.554	  0.303	  0.637	 -0.582	 -3.782	 -6.365	 -0.012	  3.169	  0.723	 32.900	 100.832	 -0.934
29424	 -0.571	  0.274	  0.639	  2.914	 -1.000	 -5.625	  0.436	 -3.725	 -1.271	 33.000	 100.832	 -0.934
29474	 -0.493	  0.288	  0.676	 -5.382	 -3.626	 -14.139	  0.070	  2.083	  0.715	 32.900	 100.817	  0.400
29524	 -0.619	  0.282	  0.616	  7.804	 -4.156	 -4.300	 -1.413	  0.601	 -0.799	 33.000	 100.821	  0.044
29574	 -0.531	  0.258	  0.687	 -6.616	  6.471	 -23.666	  0.160	 -1.290	  0.649	 32.900	 100.821	  0.044
29624	 -0.607	  0.294	  0.573	 -0.435	 -5.504	 -0.031	  0.699	  3.972	  1.432	 32.900	 100.828	 -0.578
29674	 -0.610	  0.319	  0.603	  3.697	 -0.225	 -2.342	 -1.420	 -4.146	 -1.851	 32.900	 100.821	  0.044
29724	 -0.527	  0.228	  0.684	 -2.549	  7.190	 -20.850	  0.554	 -0.027	  0.497	 32.900	 100.817	  0.400
29774	 -0.494	  0.322	  0.635	  0.984	 -12.162	  4.043	  2.015	  0.909	  0.371	 32.900	 100.817	  0.400
29824	 -0.543	  0.287	  0.670	  4.333	  9.205	 -29.139	 -4.605	 -1.552	 -1.005	 33.000	 100.832	 -0.934
29874	 -0.517	  0.265	  0.623	 -4.711	 -5.896	  2.146	  5.645	  1.297	  1.099	 32.900	 100.805	  1.467
29924	 -0.578	  0.332	  0.596	  4.030	  2.412	 -1.169	 -4.398	 -0.810	 -0.976	 33.000	 100.821	  0.044
29974	 -0.541	  0.202	  0.652	 -9.007	  2.881	 -9.928	  4.508	  0.472	  0.371	 33.000	 100.821	  0.044
30024	 -0.581	  0.348	  0.591	  3.460	 -3.846	  2.933	 -2.694	  0.124	 -0.368	 33.000	 100.821	  0.044
30074	 -0.535	  0.235	  0.680	 -2.536	  6.414	 -15.835	  2.339	 -0.395	 -0.012	 33.000	 100.821	  0.044
30124	 -0.566	  0.338	  0.610	 -4.916	 -6.983	  9.411	 -0.366	  1.395	  0.186	 33.000	 100.821	  0.044
30174	 -0.569	  0.237	  0.692	  2.773	  7.943	 -26.364	  0.019	 -0.062	 -0.360	 33.000	 100.821	  0.044
30224	 -0.527	  0.341	  0.618	 -6.789	 -12.294	 12.769	  2.297	 -0.141	  0.628	 33.000	 100.821	  0.044
30274	 -0.554	  0.289	  0.709	  6.159	  5.068	 -38.347	 -3.962	 -0.918	 -1.016	 32.900	 100.817	  0.400
30324	 -0.511	  0.316	  0.619	 -3.235	 -9.784	  2.940	  4.079	  0.822	  0.865	 32.900	 100.817	  0.400
30374	 -0.564	  0.374	  0.614	  5.088	  4.401	 -5.943	 -3.942	 -1.673	 -0.735	 32.900	 100.817	  0.400
30423	 -0.516	  0.242	  0.692	 -5.803	  6.616	 -4.554	  3.891	  0.629	  0.018	 32.900	 100.817	  0.400
30473	 -0.516	  0.378	  0.591	 -3.290	 -7.105	 18.039	 -0.380	  1.656	  0.586	 32.900	 100.817	  0.400
30524	 -0.493	  0.259	  0.718	 -5.038	  5.880	 -41.657	 -1.016	 -1.143	 -0.679	 32.900	 100.817	  0.400
30574	 -0.493	  0.347	  0.593	 -4.259	 -12.394	 14.168	  2.111	  2.786	  0.665	 32.900	 100.817	  0.400
30623	 -0.532	  0.292	  0.670	 11.127	  6.486	 -41.706	 -4.740	 -3.157	 -0.790	 32.900	 100.817	  0.400
30674	 -0.474	  0.320	  0.622	 -1.867	 -12.467	  7.404	  4.340	  0.931	  0.238	 32.900	 100.817	  0.400
30724	 -0.523	  0.343	  0.642	  5.973	  5.283	 -26.949	 -5.101	 -1.645	 -0.537	 32.900	 100.817	  0.400
30774	 -0.507	  0.297	  0.657	 -3.988	 -6.868	 -5.425	  3.545	  0.661	  0.725	 32.900	 100.805	  1.467
30824	 -0.492	  0.358	  0.648	 -0.224	  0.878	 -3.243	 -1.286	 -0.649	  0.384	 33.000	 100.821	  0.044
30874	 -0.499	  0.359	  0.683	  1.779	 -0.537	 -12.056	  0.534	 -0.381	 -0.214	 32.900	 100.812	  0.845
30924	 -0.488	  0.356	  0.692	 -2.097	 -2.245	 -7.623	 -0.012	 -0.269	 -0.170	 32.900	 100.832	 -0.934
30973	 -0.486	  0.355	  0.689	 -1.529	 -2.157	 -13.155	 -0.251	  0.204	 -0.032	 33.000	 100.821	  0.044
31024	 -0.488	  0.355	  0.680	 -0.802	 -2.054	 -8.510	  0.268	 -0.212	  0.035	 32.900	 100.817	  0.400
31075	 -0.478	  0.352	  0.698	 -0.067	 -1.846	 -10.142	 -0.551	  0.088	 -0.117	 32.900	 100.817	  0.400
31125	 -0.485	  0.339	  0.691	 -0.707	 -1.527	 -9.884	 -0.239	  0.067	 -0.131	 33.000	 100.821	  0.044
31175	 -0.481	  0.319	  0.694	 -1.150	 -1.645	 -9.619	 -0.342	 -0.284	  0.003	 32.900	 100.817	  0.400
31225	 -0.460	  0.314	  0.693	  0.193	 -1.599	 -9.848	  0.213	 -0.302	 -0.314	 33.000	 100.821	  0.044
31275	 -0.461	  0.327	  0.684	 -1.608	 -3.961	 -8.420	  1.877	  0.021	 -0.283	 32.900	 100.805	  1.467
31325	 -0.491	  0.376	  0.650	 -2.650	 -2.051	 -11.127	  0.084	  0.886	 -0.287	 33.000	 100.821	  0.044
31375	 -0.519	  0.327	  0.647	  0.357	 -2.426	 -9.578	 -1.335	  0.400	 -0.151	 32.900	 100.828	 -0.578
31424	 -0.524	  0.281	  0.653	 -0.952	 -1.354	 -8.864	 -0.339	  0.057	 -0.220	 33.000	 100.821	  0.044
31474	 -0.532	  0.280	  0.650	 -0.146	 -2.199	 -10.006	  0.431	  0.162	 -0.343	 32.900	 100.821	  0.044
31525	 -0.551	  0.265	  0.646	 -0.197	 -1.702	 -9.762	 -0.797	  0.510	 -0.304	 33.000	 100.832	 -0.934
31575	 -0.567	  0.229	  0.642	  0.436	 -1.978	 -9.054	 -0.479	  0.166	 -0.139	 32.900	 100.821	  0.044
31624	 -0.570	  0.237	  0.637	 -0.292	 -1.137	 -9.886	  0.118	  0.166	  0.455	 33.000	 100.832	 -0.934
31674	 -0.569	  0.248	  0.641	  0.379	 -0.658	 -9.993	 -0.185	  0.037	 -0.023	 32.900	 100.817	  0.400
31724	 -0.575	  0.236	  0.638	 -0.034	 -1.457	 -9.670	  0.096	  0.025	 -0.280	 32.900	 100.817	  0.400
31775	 -0.580	  0.239	  0.640	 -0.090	 -1.350	 -9.744	  0.160	  0.088	 -0.000	 32.900	 100.828	 -0.578
31824	 -0.592	  0.240	  0.628	  0.364	 -1.335	 -9.646	 -0.007	  0.352	 -0.010	 32.900	 100.817	  0.400
31874	 -0.601	  0.250	  0.626	  0.498	 -1.224	 -9.738	  0.153	  0.172	  0.086	 33.000	 100.821	  0.044
31924	 -0.607	  0.250	  0.624	  0.482	 -1.100	 -10.021	 -0.031	  0.019	 -0.028	 32.900	 100.817	  0.400
31974	 -0.609	  0.241	  0.628	  0.239	 -1.625	 -9.284	  0.098	  0.114	 -0.195	 32.900	 100.821	  0.044
32024	 -0.618	  0.250	  0.622	  0.646	 -1.652	 -9.537	  0.159	  0.137	  0.052	 32.900	 100.828	 -0.578
32074	 -0.629	  0.259	  0.618	  0.496	 -1.469	 -9.824	  0.038	  0.192	  0.069	 32.900	 100.817	  0.400
32125	 -0.639	  0.265	  0.616	  0.727	 -1.603	 -9.504	  0.132	  0.190	  0.013	 32.900	 100.817	  0.400
32174	 -0.643	  0.276	  0.607	  1.096	 -1.581	 -9.593	  0.060	  0.130	  0.124	 32.900	 100.817	  0.400
32224	 -0.646	  0.275	  0.609	  0.696	 -1.712	 -9.529	 -0.120	  0.101	  0.043	 32.900	 100.817	  0.400
32274	 -0.648	  0.281	  0.607	  0.833	 -1.025	 -9.511	 -0.042	  0.072	  0.154	 32.900	 100.817	  0.400
32324	 -0.650	  0.279	  0.605	  0.826	 -1.503	 -9.672	  0.042	  0.154	 -0.189	 33.000	 100.821	  0.044
32374	 -0.661	  0.280	  0.601	  0.907	 -2.032	 -9.540	  0.055	  0.123	 -0.052	 32.900	 100.805	  1.467
32424	 -0.667	  0.287	  0.601	  1.198	 -1.770	 -9.823	 -0.069	  0.096	  0.139	 33.000	 100.821	  0.044
32474	 -0.661	  0.292	  0.598	  1.095	 -1.467	 -9.844	 -0.062	 -0.015	  0.121	 32.900	 100.832	 -0.934
32524	 -0.657	  0.301	  0.597	  1.059	 -1.298	 -9.715	  0.143	 -0.120	  0.058	 32.900	 100.805	  1.467
32574	 -0.648	  0.301	  0.602	  0.935	 -1.592	 -9.562	  0.055	 -0.133	  0.017	 32.900	 100.832	 -0.934
32624	 -0.646	  0.301	  0.601	  0.814	 -1.638	 -9.421	 -0.087	 -0.034	 -0.057	 32.900	 100.828	 -0.578
32674	 -0.645	  0.296	  0.598	  0.751	 -1.601	 -9.418	  0.017	  0.105	  0.027	 32.900	 100.832	 -0.934
32724	 -0.651	  0.299	  0.591	  1.127	 -1.395	 -9.749	 -0.063	  0.129	 -0.075	 33.000	 100.821	  0.044
32774	 -0.660	  0.300	  0.593	  1.181	 -1.747	 -9.644	 -0.093	  0.131	 -0.124	 32.900	 100.828	 -0.578
32824	 -0.660	  0.279	  0.598	  0.909	 -1.416	 -9.711	 -0.074	 -0.047	 -0.090	 33.000	 100.821	  0.044
32874	 -0.663	  0.276	  0.596	  0.975	 -1.580	 -9.427	 -0.005	  0.041	 -0.072	 32.900	 100.817	  0.400
32924	 -0.666	  0.275	  0.592	  1.175	 -1.656	 -9.715	  0.071	  0.049	  0.001	 32.900	 100.828	 -0.578
32974	 -0.663	  0.279	  0.590	  1.132	 -1.535	 -9.766	  0.010	 -0.047	  0.014	 32.900	 100.817	  0.400
33024	 -0.663	  0.279	  0.596	  1.058	 -1.537	 -9.575	 -0.008	 -0.055	  0.001	 33.000	 100.821	  0.044
33074	 -0.659	  0.279	  0.596	  0.949	 -1.513	 -9.607	  0.022	 -0.024	  0.009	 32.900	 100.817	  0.400
33124	 -0.661	  0.277	  0.595	  1.038	 -1.585	 -9.587	 -0.014	  0.010	  0.002	 32.900	 100.832	 -0.934
33174	 -0.660	  0.277	  0.597	  1.083	 -1.601	 -9.646	 -0.022	 -0.025	 -0.014	 32.900	 100.832	 -0.934
33224	 -0.659	  0.280	  0.600	  0.903	 -1.486	 -9.700	 -0.007	 -0.022	  0.052	 33.000	 100.832	 -0.934
33274	 -0.656	  0.278	  0.602	  1.055	 -1.694	 -9.608	 -0.049	 -0.055	 -0.013	 33.000	 100.832	 -0.934
33324	 -0.653	  0.284	  0.600	  0.951	 -1.429	 -9.592	 -0.048	 -0.006	  0.093	 32.900	 100.817	  0.400
33374	 -0.652	  0.281	  0.603	  0.755	 -1.326	 -9.405	  0.111	 -0.013	 -0.031	 32.900	 100.817	  0.400
33424	 -0.654	  0.284	  0.597	  1.065	 -1.604	 -9.664	  0.024	  0.008	 -0.072	 32.900	 100.828	 -0.578
33474	 -0.655	  0.283	  0.599	  1.012	 -1.741	 -9.699	  0.009	  0.003	  0.052	 32.900	 100.828	 -0.578
33524	 -0.650	  0.299	  0.597	  0.943	 -1.249	 -9.727	 -0.025	 -0.117	  0.031	 32.900	 100.817	  0.400
33574	 -0.645	  0.280	  0.606	  0.634	 -1.768	 -9.581	 -0.094	 -0.141	 -0.149	 32.900	 100.828	 -0.578
33624	 -0.649	  0.271	  0.596	  0.711	 -1.692	 -9.376	 -0.079	  0.150	  0.052	 33.000	 100.832	 -0.934
33674	 -0.659	  0.271	  0.602	  0.991	 -1.344	 -9.504	 -0.146	  0.485	  0.207	 32.900	 100.828	 -0.578
33724	 -0.682	  0.280	  0.587	  1.103	 -0.726	 -9.487	 -0.076	  0.552	  0.054	 32.900	 100.805	  1.467
33774	 -0.687	  0.301	  0.592	  2.417	 -1.841	 -11.565	 -0.275	 -0.358	 -0.173	 32.900	 100.817	  0.400
33824	 -0.665	  0.280	  0.604	  1.410	 -1.407	 -9.795	  0.098	 -0.448	 -0.016	 32.900	 100.817	  0.400
33874	 -0.654	  0.289	  0.607	  0.383	 -1.130	 -9.153	  0.187	 -0.121	 -0.027	 32.900	 100.828	 -0.578
33924	 -0.653	  0.286	  0.606	  1.096	 -1.508	 -9.558	  0.003	  0.072	 -0.005	 32.900	 100.817	  0.400
33974	 -0.659	  0.292	  0.605	  0.897	 -1.165	 -9.644	  0.047	  0.152	 -0.151	 32.900	 100.817	  0.400
34024	 -0.669	  0.266	  0.601	  0.727	 -1.827	 -9.635	  0.011	  0.080	 -0.053	 33.000	 100.832	 -0.934
34074	 -0.673	  0.275	  0.605	  1.157	 -1.362	 -9.807	 -0.259	 -0.013	  0.012	 32.900	 100.821	  0.044
34124	 -0.667	  0.248	  0.614	  1.132	 -1.614	 -9.860	 -0.457	 -0.319	 -0.192	 32.900	 100.817	  0.400
34174	 -0.654	  0.225	  0.625	  1.237	 -0.604	 -9.020	 -0.296	 -0.257	 -0.160	 32.900	 100.824	 -0.222
34224	 -0.644	  0.224	  0.634	  1.293	  1.342	 -3.104	  2.075	 -0.661	  0.037	 32.900	 100.828	 -0.578
34274	 -0.654	  0.236	  0.628	  0.783	 -2.085	 -11.442	 -0.793	  0.052	 -0.929	 32.900	 100.828	 -0.578
34324	 -0.679	  0.184	  0.619	  1.543	 -3.065	 -9.501	 -0.108	  0.497	 -0.232	 32.900	 100.817	  0.400
34374	 -0.669	  0.172	  0.620	  0.669	 -2.237	 -9.572	 -0.237	 -0.467	  0.453	 32.900	 100.821	  0.044
34424	 -0.634	  0.200	  0.630	  0.888	 -0.910	 -9.492	  0.156	 -0.492	  0.374	 32.900	 100.805	  1.467
34474	 -0.622	  0.208	  0.634	  0.267	 -1.193	 -9.450	  0.135	  0.080	 -0.004	 32.900	 100.832	 -0.934
34524	 -0.628	  0.208	  0.622	  0.359	 -1.647	 -9.753	 -0.069	  0.385	  0.025	 32.900	 100.817	  0.400
34574	 -0.640	  0.200	  0.613	  0.495	 -1.880	 -9.658	 -0.151	  0.328	  0.111	 32.900	 100.828	 -0.578
34624	 -0.637	  0.208	  0.602	  0.789	 -1.320	 -9.587	  0.019	 -0.092	  0.100	 33.000	 100.832	 -0.934
34674	 -0.633	  0.202	  0.606	  0.536	 -1.859	 -9.933	 -0.079	 -0.068	  0.038	 33.000	 100.832	 -0.934
34724	 -0.621	  0.201	  0.605	  0.621	 -1.662	 -9.517	 -0.262	 -0.170	  0.071	 33.000	 100.821	  0.044
34774	 -0.608	  0.201	  0.609	  1.183	 -1.143	 -9.762	 -0.328	 -0.140	  0.124	 32.900	 100.805	  1.467
34824	 -0.599	  0.202	  0.612	 -0.333	 -1.060	 -9.355	 -0.078	 -0.074	  0.052	 32.900	 100.828	 -0.578
34874	 -0.637	  0.206	  0.595	  1.305	 -1.491	 -12.836	  1.077	  0.588	 -0.265	 32.900	 100.821	  0.044
34924	 -0.636	  0.187	  0.600	 -0.335	 -1.273	 -9.694	 -0.612	 -0.264	 -0.321	 32.900	 100.805	  1.467
34974	 -0.633	  0.162	  0.602	  2.225	 -0.146	 -9.261	  0.364	 -0.114	 -0.490	 32.900	 100.821	  0.044
35024	 -0.629	  0.130	  0.602	  0.106	 -0.681	 -8.324	 -0.863	  0.115	 -0.275	 32.900	 100.817	  0.400
35074	 -0.616	  0.096	  0.600	  6.177	 -5.471	 -12.943	 -0.360	 -0.503	  0.233	 32.900	 100.821	  0.044
35124	 -0.581	  0.120	  0.590	  3.504	 -0.819	 -10.391	 -0.198	 -0.597	  1.844	 33.000	 100.821	  0.044
35174	 -0.501	  0.170	  0.591	 -2.655	  1.766	 -9.990	  0.906	 -1.463	  0.675	 32.900	 100.809	  1.112
35224	 -0.464	  0.176	  0.596	 -2.730	 -1.033	 -8.382	  0.278	 -0.337	 -0.639	 32.900	 100.817	  0.400
35274	 -0.482	  0.152	  0.583	 -1.841	 -1.699	 -9.898	  0.056	  1.002	  0.044	 32.900	 100.828	 -0.578
35324	 -0.538	  0.137	  0.565	  1.639	 -1.134	 -9.474	 -0.206	  1.179	 -0.047	 32.900	 100.817	  0.400
35374	 -0.570	  0.125	  0.546	  0.468	 -0.959	 -10.304	  0.207	  0.459	 -0.375	 32.900	 100.817	  0.400
35424	 -0.581	  0.109	  0.533	  1.323	 -1.447	 -10.129	  0.215	 -0.044	 -0.542	 33.000	 100.832	 -0.934
35474	 -0.581	  0.091	  0.529	  0.115	 -1.972	 -10.058	  0.174	 -0.035	 -0.452	 32.900	 100.817	  0.400
35524	 -0.579	  0.089	  0.528	  0.862	 -1.913	 -9.868	 -0.020	  0.000	  0.112	 32.900	 100.828	 -0.578
35574	 -0.582	  0.082	  0.520	  1.548	 -1.126	 -9.592	  0.156	 -0.030	  0.073	 33.000	 100.832	 -0.934
35624	 -0.568	  0.087	  0.527	  0.111	 -1.233	 -10.224	  0.237	 -0.682	 -0.131	 32.900	 100.832	 -0.934
35674	 -0.541	  0.090	  0.550	 -0.044	 -1.832	 -8.937	 -0.316	 -0.557	  0.192	 32.900	 100.817	  0.400
35724	 -0.541	  0.089	  0.557	  0.859	 -1.067	 -9.072	  0.002	  0.294	  0.085	 32.900	 100.817	  0.400
35774	 -0.553	  0.089	  0.543	  0.541	 -1.583	 -10.928	  0.008	  0.242	 -0.074	 32.900	 100.817	  0.400
35824	 -0.554	  0.088	  0.546	  0.457	 -1.144	 -9.675	  0.000	 -0.229	  0.089	 33.000	 100.832	 -0.934
35873	 -0.548	  0.088	  0.551	  0.153	 -1.386	 -9.620	  0.010	 -0.281	 -0.016	 32.900	 100.817	  0.400
35923	 -0.539	  0.083	  0.550	  0.452	 -1.322	 -9.390	 -0.080	 -0.110	 -0.043	 32.900	 100.817	  0.400
35973	 -0.541	  0.080	  0.554	  0.244	 -1.431	 -9.794	  0.092	  0.144	  0.009	 32.900	 100.805	  1.467
36023	 -0.543	  0.083	  0.545	  0.807	 -0.731	 -9.494	 -0.040	  0.108	 -0.049	 32.900	 100.828	 -0.578
36073	 -0.552	  0.073	  0.536	  0.174	 -1.242	 -8.720	 -0.187	  0.759	 -0.375	 32.900	 100.817	  0.400
36123	 -0.577	  0.061	  0.519	  0.244	 -2.132	 -10.978	  0.072	  0.397	 -0.051	 32.900	 100.817	  0.400
36173	 -0.591	  0.052	  0.510	  1.882	 -0.959	 -9.495	  0.242	  0.341	 -0.096	 33.000	 100.821	  0.044
36224	 -0.602	  0.036	  0.492	  0.777	 -1.202	 -9.826	  0.066	  0.523	 -0.849	 32.900	 100.828	 -0.578
36273	 -0.627	  0.002	  0.471	 -0.464	 -0.998	 -9.284	  0.098	  0.637	 -0.475	 32.900	 100.809	  1.112
36323	 -0.641	 -0.017	  0.467	  1.038	 -0.857	 -9.058	 -0.028	 -0.042	 -0.329	 32.900	 100.821	  0.044
36373	 -0.651	 -0.035	  0.470	  2.307	 -1.529	 -8.888	 -0.030	 -0.120	 -0.209	 32.900	 100.817	  0.400
36423	 -0.653	 -0.043	  0.482	  1.969	 -1.843	 -10.123	  0.060	 -0.373	 -0.163	 32.900	 100.828	 -0.578
36473	 -0.645	 -0.044	  0.501	  7.041	 -3.075	 -8.862	 -0.227	 -0.762	 -0.074	 32.900	 100.817	  0.400
36523	 -0.593	 -0.017	  0.527	  1.110	 -1.789	 -9.483	 -0.173	 -1.045	  2.235	 33.000	 100.832	 -0.934
36574	 -0.520	  0.058	  0.550	 -2.686	  4.256	 -11.336	 -0.287	 -1.226	  1.135	 32.900	 100.828	 -0.578
36624	 -0.463	  0.060	  0.549	 -2.667	 -0.756	 -10.109	  0.618	 -0.944	 -1.857	 33.000	 100.832	 -0.934
36674	 -0.429	  0.049	  0.546	 -1.793	 -3.779	 -7.895	  0.527	 -0.751	 -0.955	 32.900	 100.824	 -0.222
36724	 -0.421	  0.059	  0.553	  0.852	 -1.280	 -7.875	  0.036	  0.436	  0.162	 32.900	 100.828	 -0.578
36774	 -0.455	  0.043	  0.528	  1.381	 -0.939	 -9.042	  0.136	  1.497	 -0.342	 32.900	 100.828	 -0.578
36824	 -0.487	  0.024	  0.495	  0.655	 -2.172	 -10.228	  0.129	  0.626	 -0.337	 32.900	 100.828	 -0.578
36874	 -0.477	  0.023	  0.475	  0.172	 -2.327	 -10.934	  0.160	 -0.432	  0.123	 32.900	 100.817	  0.400
36924	 -0.440	  0.045	  0.489	  0.561	 -1.634	 -10.251	  0.150	 -1.124	  0.049	 33.000	 100.832	 -0.934
36974	 -0.402	  0.049	  0.497	 -0.025	 -2.041	 -9.639	  0.228	 -1.083	 -0.177	 32.900	 100.832	 -0.934
37024	 -0.357	  0.047	  0.497	 -1.394	 -2.347	 -9.568	  0.084	 -0.832	 -0.061	 32.900	 100.817	  0.400
37074	 -0.334	  0.045	  0.493	 -1.124	 -2.140	 -9.149	 -0.103	 -0.280	 -0.129	 32.900	 100.828	 -0.578
37124	 -0.325	  0.050	  0.476	 -1.492	 -2.905	 -8.908	  0.176	 -0.162	 -0.369	 32.900	 100.817	  0.400
37174	 -0.312	  0.045	  0.479	 -1.778	 -3.038	 -8.441	  0.005	 -0.349	 -0.246	 32.900	 100.817	  0.400
37224	 -0.296	  0.047	  0.483	 -1.355	 -2.596	 -8.661	 -0.086	 -0.413	 -0.248	 32.900	 100.817	  0.400
37274	 -0.284	  0.043	  0.484	 -1.091	 -3.195	 -8.589	 -0.053	 -0.507	 -0.305	 32.900	 100.817	  0.400
37324	 -0.273	  0.036	  0.489	 -1.553	 -3.542	 -8.729	 -0.015	 -0.451	 -0.069	 33.000	 100.821	  0.044
37374	 -0.265	  0.045	  0.491	 -2.140	 -3.040	 -9.762	  0.145	 -0.024	  0.071	 32.900	 100.828	 -0.578
37424	 -0.269	  0.053	  0.491	 -1.606	 -2.567	 -10.111	  0.144	 -0.023	  0.085	 32.900	 100.817	  0.400
37474	 -0.263	  0.070	  0.492	 -2.026	 -2.780	 -10.957	  0.266	 -0.134	 -0.074	 32.900	 100.839	 -1.556
37524	 -0.261	  0.077	  0.489	 -2.080	 -3.881	 -11.009	 -0.077	 -0.324	 -0.361	 33.000	 100.821	  0.044
37574	 -0.247	  0.100	  0.484	 -3.461	 -4.641	 -11.279	  0.614	 -0.295	 -0.244	 32.900	 100.817	  0.400
37624	 -0.231	  0.127	  0.471	 -3.575	 -3.413	 -10.130	 -0.208	 -0.878	 -0.043	 32.900	 100.817	  0.400
37674	 -0.196	  0.159	  0.466	 -3.918	 -2.876	 -9.469	  0.672	 -0.952	 -0.192	 32.900	 100.805	  1.467
37724	 -0.175	  0.167	  0.452	 -4.195	 -2.521	 -9.852	 -0.054	 -0.755	 -0.375	 32.900	 100.817	  0.400
37774	 -0.155	  0.156	  0.439	 -3.728	 -3.489	 -8.462	 -0.638	 -0.752	 -0.221	 32.900	 100.828	 -0.578
37824	 -0.128	  0.144	  0.432	 -4.655	 -1.845	 -7.996	 -0.988	 -0.620	  0.827	 32.900	 100.817	  0.400
37874	 -0.106	  0.128	  0.434	 -3.037	 -0.740	 -7.050	 -0.837	 -0.182	  0.766	 32.900	 100.828	 -0.578
37924	 -0.101	  0.114	  0.429	 -3.578	  0.400	 -7.102	 -0.754	  0.515	  0.891	 32.900	 100.817	  0.400
37974	 -0.105	  0.101	  0.425	 -1.059	  0.717	 -5.727	 -0.299	  0.400	  0.734	 32.900	 100.817	  0.400
38024	 -0.097	  0.095	  0.428	 -2.321	  0.771	 -4.016	 -0.449	 -0.721	  0.683	 32.900	 100.805	  1.467
38074	 -0.068	  0.094	  0.440	 -1.857	  0.490	 -5.525	  0.335	 -1.072	  0.540	 32.900	 100.821	  0.044
38124	 -0.056	  0.101	  0.442	 -4.981	 -0.615	 -6.673	  0.099	  0.213	  0.372	 33.000	 100.821	  0.044
38174	 -0.081	  0.103	  0.448	 -4.154	 -1.478	 -8.695	  0.829	  1.147	  0.037	 32.900	 100.817	  0.400
38224	 -0.117	  0.115	  0.452	 -5.246	 -1.724	 -10.631	  0.494	  0.937	 -0.072	 32.900	 100.817	  0.400
38274	 -0.138	  0.125	  0.447	 -4.802	 -2.102	 -10.699	  0.593	  0.318	  0.086	 32.900	 100.832	 -0.934
38324	 -0.146	  0.131	  0.456	 -3.937	 -1.400	 -11.064	  0.399	  0.638	  0.449	 32.900	 100.812	  0.845
38374	 -0.165	  0.135	  0.447	 -6.963	 -2.564	 -15.007	  0.104	  1.088	  0.631	 32.900	 100.821	  0.044
38424	 -0.188	  0.136	  0.428	 -3.159	 -1.352	 -12.526	 -0.470	  1.249	  0.852	 32.900	 100.828	 -0.578
38474	 -0.194	  0.126	  0.426	 -4.160	 -1.426	 -10.998	 -0.102	  0.600	  0.722	 32.900	 100.832	 -0.934
38524	 -0.192	  0.140	  0.405	 -2.607	 -2.158	 -11.702	  0.422	  0.121	  0.346	 33.000	 100.832	 -0.934
38574	 -0.175	  0.152	  0.393	 -3.672	 -2.580	 -11.009	  0.351	 -0.141	  0.508	 32.900	 100.828	 -0.578
38624	 -0.153	  0.175	  0.379	 -2.222	 -1.874	 -9.070	  0.420	 -0.461	  0.448	 32.900	 100.817	  0.400
38674	 -0.130	  0.172	  0.371	 -2.608	 -1.759	 -8.892	  0.387	 -0.790	  0.210	 32.900	 100.805	  1.467
38724	 -0.100	  0.179	  0.361	 -3.192	 -1.311	 -7.420	  0.401	 -0.976	  0.161	 32.900	 100.817	  0.400
38774	 -0.068	  0.187	  0.354	 -2.806	 -1.016	 -6.592	  0.414	 -1.334	 -0.060	 32.900	 100.817	  0.400
38824	 -0.045	  0.194	  0.347	 -4.123	 -1.313	 -6.919	  0.258	 -0.915	 -0.141	 32.900	 100.805	  1.467
38874	 -0.032	  0.209	  0.341	 -3.661	 -1.470	 -7.060	 -0.028	 -0.365	 -0.006	 32.900	 100.817	  0.400
38924	 -0.025	  0.205	  0.343	 -3.817	 -1.805	 -7.567	 -0.176	  0.188	  0.022	 33.000	 100.832	 -0.934
38974	 -0.035	  0.188	  0.344	 -3.769	 -1.747	 -7.866	 -0.201	  0.952	  0.156	 32.900	 100.832	 -0.934
39024	 -0.056	  0.189	  0.344	 -2.622	 -1.775	 -9.232	 -0.097	  1.400	  0.160	 32.900	 100.817	  0.400
39074	 -0.078	  0.180	  0.344	 -2.340	 -1.811	 -9.390	 -0.282	  1.108	  0.291	 32.900	 100.817	  0.400
39124	 -0.090	  0.181	  0.339	 -2.085	 -1.525	 -9.002	  0.263	  0.218	  0.348	 32.900	 100.817	  0.400
39174	 -0.082	  0.182	  0.338	 -2.158	 -1.242	 -7.885	  0.063	 -0.566	  0.123	 32.900	 100.805	  1.467
39224	 -0.071	  0.186	  0.338	 -3.696	 -2.166	 -7.150	 -0.022	 -0.744	 -0.135	 33.000	 100.821	  0.044
39274	 -0.056	  0.181	  0.339	 -3.789	 -2.416	 -7.011	 -0.206	 -0.711	 -0.019	 32.900	 100.817	  0.400
39324	 -0.042	  0.179	  0.340	 -6.439	 -1.818	 -8.773	 -0.303	 -0.531	  0.414	 32.900	 100.817	  0.400
39374	 -0.033	  0.164	  0.352	 -4.507	 -1.150	 -7.840	 -0.611	 -0.284	  0.127	 32.900	 100.817	  0.400
39424	 -0.033	  0.165	  0.351	 -4.336	 -1.204	 -8.675	 -0.054	  0.085	 -0.273	 32.900	 100.817	  0.400
39474	 -0.038	  0.159	  0.353	 -4.576	 -1.633	 -8.520	 -0.230	  0.070	 -0.292	 32.900	 100.805	  1.467
39524	 -0.036	  0.157	  0.353	 -5.369	 -0.855	 -9.822	 -0.469	 -0.216	  0.032	 32.900	 100.817	  0.400
39574	 -0.036	  0.141	  0.366	 -4.704	 -0.450	 -8.457	 -0.533	 -0.126	 -0.332	 32.900	 100.817	  0.400
39624	 -0.037	  0.146	  0.369	 -4.830	 -0.862	 -8.805	  0.024	 -0.088	 -0.577	 32.900	 100.828	 -0.578
39674	 -0.041	  0.155	  0.373	 -4.336	 -1.422	 -8.822	 -0.093	 -0.204	 -0.562	 32.900	 100.817	  0.400
39724	 -0.042	  0.147	  0.371	 -5.130	 -1.102	 -9.621	 -0.184	  0.266	 -0.217	 32.900	 100.805	  1.467
39774	 -0.052	  0.138	  0.366	 -4.276	 -0.588	 -9.338	 -0.125	  0.647	 -0.161	 32.900	 100.817	  0.400
39824	 -0.076	  0.145	  0.373	 -3.876	 -0.492	 -10.030	  0.238	  0.871	 -0.176	 33.000	 100.821	  0.044
39874	 -0.086	  0.146	  0.370	 -3.140	 -0.776	 -10.208	  0.129	  0.320	 -0.355	 32.900	 100.817	  0.400
39924	 -0.092	  0.152	  0.368	 -3.256	 -1.396	 -10.280	  0.590	  0.173	 -0.137	 32.900	 100.817	  0.400
39974	 -0.093	  0.163	  0.360	 -3.069	 -1.268	 -11.032	  0.351	  0.066	  0.228	 32.900	 100.828	 -0.578
40024	 -0.088	  0.170	  0.355	 -2.070	 -1.319	 -10.116	  0.566	 -0.427	  0.260	 32.900	 100.817	  0.400
40074	 -0.068	  0.183	  0.348	 -2.525	 -1.295	 -9.799	  0.524	 -0.342	  0.595	 32.900	 100.809	  1.112
40124	 -0.058	  0.191	  0.335	 -2.173	 -0.708	 -9.069	  0.619	 -0.380	  0.814	 32.900	 100.817	  0.400
40174	 -0.039	  0.201	  0.332	 -1.962	 -0.676	 -8.357	  0.492	 -0.176	  0.903	 32.900	 100.817	  0.400
40224	 -0.029	  0.206	  0.319	 -2.005	 -0.901	 -7.726	  0.597	  0.274	  0.888	 32.900	 100.817	  0.400
40274	 -0.023	  0.210	  0.316	 -2.431	 -1.190	 -8.219	  0.190	  0.553	  0.871	 32.900	 100.828	 -0.578
40324	 -0.027	  0.209	  0.313	 -2.861	 -1.638	 -7.628	 -0.085	  0.726	  0.794	 32.900	 100.821	  0.044
40374	 -0.033	  0.209	  0.306	 -2.521	 -1.885	 -8.232	 -0.010	  0.968	  0.679	 32.900	 100.817	  0.400
40424	 -0.044	  0.200	  0.312	 -1.416	 -2.427	 -7.908	  0.021	  0.857	  0.619	 32.900	 100.817	  0.400
40474	 -0.050	  0.200	  0.305	 -1.459	 -2.413	 -9.082	  0.027	  0.587	  0.988	 32.900	 100.821	  0.044
40524	 -0.044	  0.197	  0.308	 -0.361	 -2.114	 -8.925	 -0.206	 -0.010	  0.880	 33.000	 100.821	  0.044
40574	 -0.028	  0.197	  0.305	 -1.381	 -2.273	 -9.440	 -0.169	 -0.365	  0.789	 32.900	 100.805	  1.467
40624	 -0.015	  0.185	  0.298	 -1.528	 -2.241	 -9.850	 -0.103	 -0.194	  0.557	 32.900	 100.817	  0.400
40674	 -0.003	  0.182	  0.300	 -3.506	 -1.984	 -10.591	 -0.143	  0.009	  0.711	 32.900	 100.817	  0.400
40724	  0.004	  0.176	  0.290	 -4.049	 -1.452	 -9.897	  0.445	  0.301	  0.396	 32.900	 100.812	  0.845
40774	  0.003	  0.181	  0.285	 -5.097	 -2.309	 -11.015	  0.406	  0.471	  0.082	 32.900	 100.805	  1.467
40824	 -0.004	  0.182	  0.279	 -5.859	 -2.694	 -9.745	  0.283	  0.671	  0.091	 32.900	 100.817	  0.400
40874	 -0.013	  0.182	  0.279	 -4.452	 -2.103	 -9.222	  0.373	  1.176	  0.499	 32.900	 100.805	  1.467
40924	 -0.022	  0.189	  0.280	 -2.189	 -1.835	 -8.141	  0.010	  0.875	  0.410	 32.900	 100.817	  0.400
40974	 -0.030	  0.175	  0.283	 -3.188	 -2.100	 -8.387	 -0.165	  0.654	  0.462	 32.900	 100.805	  1.467
41024	 -0.026	  0.162	  0.283	 -2.357	 -1.835	 -7.779	 -0.431	 -0.358	  0.338	 32.900	 100.817	  0.400
41074	 -0.016	  0.154	  0.288	 -3.960	 -2.383	 -7.966	 -0.233	 -0.058	 -0.056	 32.900	 100.817	  0.400
41124	 -0.015	  0.145	  0.292	 -4.204	 -1.836	 -8.517	 -0.233	  0.319	  0.288	 32.900	 100.817	  0.400
41174	 -0.020	  0.135	  0.294	 -2.243	 -1.621	 -8.133	 -0.467	  0.381	  0.122	 32.900	 100.817	  0.400
41224	 -0.023	  0.122	  0.297	 -3.894	 -0.885	 -10.125	 -0.495	  0.886	  0.542	 32.900	 100.817	  0.400
41274	 -0.037	  0.103	  0.300	 -1.362	 -0.408	 -8.472	 -0.584	  1.109	  0.281	 32.900	 100.805	  1.467
41324	 -0.045	  0.101	  0.308	 -1.577	 -0.989	 -12.108	  0.338	 -0.632	 -0.003	 32.900	 100.817	  0.400
41374	 -0.038	  0.089	  0.308	 -1.932	 -1.160	 -9.312	 -0.466	 -0.151	 -0.359	 32.900	 100.817	  0.400
41424	 -0.043	  0.083	  0.311	 -2.402	 -1.354	 -12.125	  0.199	  0.387	 -0.193	 32.900	 100.805	  1.467
41474	 -0.059	  0.076	  0.316	 -1.776	 -0.355	 -10.499	 -0.296	  0.922	 -0.050	 32.900	 100.832	 -0.934
41524	 -0.076	  0.067	  0.305	 -0.388	  0.488	 -10.620	  0.135	  0.452	 -0.093	 32.900	 100.828	 -0.578
41574	 -0.080	  0.068	  0.319	 -0.637	  0.440	 -12.137	 -0.483	 -0.087	 -0.225	 32.900	 100.817	  0.400
41624	 -0.086	  0.052	  0.324	 -0.188	  0.854	 -10.129	 -0.098	  0.138	 -0.117	 32.900	 100.817	  0.400
41674	 -0.087	  0.051	  0.322	  0.304	  0.844	 -11.031	  0.213	 -0.185	 -0.062	 32.900	 100.821	  0.044
41724	 -0.084	  0.051	  0.332	  0.078	  0.112	 -8.793	  0.067	 -0.519	 -0.672	 32.900	 100.828	 -0.578
41774	 -0.082	  0.051	  0.335	 -1.160	 -0.093	 -8.760	  0.039	 -0.189	 -0.509	 32.900	 100.805	  1.467
41824	 -0.086	  0.056	  0.336	  0.163	 -0.051	 -8.370	  0.495	 -0.058	 -0.669	 32.900	 100.805	  1.467
41873	 -0.087	  0.061	  0.340	 -0.239	 -1.026	 -8.384	  0.633	 -0.250	 -0.930	 32.900	 100.817	  0.400
41924	 -0.089	  0.067	  0.339	 -0.159	 -1.185	 -9.067	  0.519	 -0.444	 -0.864	 32.900	 100.817	  0.400
41975	 -0.079	  0.078	  0.339	 -0.445	 -1.795	 -9.408	  0.536	 -1.126	 -0.794	 32.900	 100.817	  0.400
42024	 -0.063	  0.089	  0.341	 -1.537	 -1.470	 -10.146	  0.288	 -1.514	 -0.627	 32.900	 100.805	  1.467
42074	 -0.036	  0.091	  0.340	 -2.053	 -1.590	 -10.446	  0.195	 -1.359	 -0.391	 32.900	 100.832	 -0.934
42124	 -0.024	  0.089	  0.336	 -2.506	 -1.033	 -11.366	  0.167	 -0.745	 -0.443	 32.900	 100.817	  0.400
42173	 -0.021	  0.093	  0.341	 -3.139	 -1.473	 -10.746	  0.403	 -0.265	 -0.644	 32.900	 100.817	  0.400
42223	 -0.029	  0.111	  0.347	 -3.309	 -0.819	 -11.170	  0.484	  0.013	 -0.806	 32.900	 100.817	  0.400
42274	 -0.037	  0.119	  0.340	 -3.490	 -1.357	 -10.306	  0.634	  0.029	 -0.698	 32.900	 100.828	 -0.578
42325	 -0.048	  0.146	  0.338	 -3.262	 -1.476	 -9.330	  0.854	  0.059	 -0.575	 32.900	 100.817	  0.400
42375	 -0.054	  0.151	  0.334	 -2.318	 -2.140	 -8.288	  0.393	  0.086	 -0.554	 32.900	 100.828	 -0.578
42425	 -0.064	  0.153	  0.333	 -2.396	 -2.196	 -7.618	 -0.106	  0.154	 -0.443	 32.900	 100.828	 -0.578
42475	 -0.072	  0.156	  0.332	 -1.905	 -2.438	 -6.691	  0.179	  0.332	 -0.271	 32.900	 100.817	  0.400
42525	 -0.085	  0.166	  0.330	 -1.526	 -2.902	 -6.642	  0.201	  0.422	 -0.166	 32.900	 100.817	  0.400
42575	 -0.097	  0.163	  0.328	 -1.636	 -3.070	 -7.276	  0.113	  0.463	 -0.052	 32.900	 100.817	  0.400
42625	 -0.108	  0.167	  0.323	 -1.346	 -3.199	 -7.882	 -0.042	  0.472	  0.059	 32.900	 100.817	  0.400
42675	 -0.113	  0.178	  0.323	 -1.234	 -3.527	 -8.793	  0.043	  0.360	  0.271	 32.900	 100.817	  0.400
42725	 -0.119	  0.171	  0.315	 -1.441	 -3.260	 -9.901	 -0.181	  0.430	  0.566	 33.000	 100.821	  0.044
42775	 -0.117	  0.173	  0.318	 -0.432	 -3.599	 -10.746	 -0.333	  0.369	  0.816	 32.900	 100.805	  1.467
42825	 -0.117	  0.166	  0.324	 -0.977	 -2.478	 -12.651	 -0.574	  0.268	  0.534	 32.900	 100.817	  0.400
42875	 -0.120	  0.155	  0.320	 -0.860	 -2.040	 -11.019	 -0.467	  0.418	  0.244	 32.900	 100.821	  0.044
42925	 -0.125	  0.151	  0.326	 -0.712	 -1.938	 -9.959	 -0.063	  0.499	  0.399	 32.900	 100.817	  0.400
42975	 -0.127	  0.162	  0.320	  0.032	 -1.946	 -9.640	 -0.151	  0.351	  0.453	 32.900	 100.817	  0.400
43025	 -0.127	  0.150	  0.320	  0.585	 -2.948	 -8.210	 -0.090	 -0.005	  0.197	 32.900	 100.817	  0.400
43075	 -0.123	  0.144	  0.323	 -0.496	 -2.083	 -7.767	 -0.476	 -0.102	  0.274	 32.900	 100.817	  0.400
43125	 -0.118	  0.141	  0.329	 -0.212	 -2.381	 -7.123	  0.063	 -0.054	  0.065	 32.900	 100.817	  0.400
43175	 -0.116	  0.146	  0.323	  0.020	 -3.151	 -9.114	  0.311	 -0.027	 -0.198	 32.900	 100.821	  0.044
43224	 -0.121	  0.146	  0.320	 -0.291	 -3.709	 -9.451	  0.160	  0.084	 -0.495	 32.900	 100.817	  0.400
43274	 -0.127	  0.143	  0.319	 -0.376	 -3.737	 -10.572	  0.020	  0.034	 -0.701	 32.900	 100.809	  1.112
43324	 -0.132	  0.134	  0.321	 -0.734	 -3.232	 -10.647	 -0.438	 -0.019	 -0.828	 32.900	 100.817	  0.400
43374	 -0.140	  0.117	  0.323	  0.032	 -2.703	 -11.310	 -0.231	  0.017	 -1.004	 32.900	 100.817	  0.400
43425	 -0.148	  0.113	  0.322	 -1.583	 -3.286	 -11.045	  0.668	 -0.059	 -1.306	 32.900	 100.817	  0.400
43474	 -0.163	  0.120	  0.317	 -2.903	 -2.976	 -12.755	  0.838	  0.526	 -1.019	 32.900	 100.817	  0.400
43524	 -0.181	  0.123	  0.313	  0.148	 -2.589	 -11.350	  0.628	  0.517	 -1.159	 32.900	 100.817	  0.400
43574	 -0.193	  0.134	  0.310	 -0.524	 -4.850	 -7.253	  1.397	 -0.038	 -1.242	 32.900	 100.817	  0.400
43624	 -0.199	  0.147	  0.307	 -0.934	 -4.026	 -9.261	  0.693	 -0.462	 -1.143	 32.900	 100.805	  1.467
43674	 -0.200	  0.138	  0.318	 -1.745	 -3.157	 -7.248	 -0.061	 -0.451	 -1.095	 32.900	 100.817	  0.400
43724	 -0.201	  0.134	  0.324	  0.934	 -3.790	 -7.119	  0.426	  0.101	 -1.435	 32.900	 100.817	  0.400
43775	 -0.215	  0.140	  0.323	 -1.576	 -2.738	 -6.709	  1.078	 -0.220	 -1.193	 32.900	 100.817	  0.400
43824	 -0.219	  0.160	  0.329	 -0.091	 -4.496	 -7.072	  0.820	 -0.226	 -1.262	 32.900	 100.805	  1.467
43874	 -0.222	  0.163	  0.338	  0.482	 -3.900	 -7.960	  0.680	 -0.426	 -1.344	 32.900	 100.805	  1.467
43924	 -0.225	  0.188	  0.348	  0.259	 -4.854	 -6.892	  0.799	 -0.431	 -1.301	 32.900	 100.817	  0.400
43974	 -0.226	  0.210	  0.361	  0.922	 -4.715	 -8.435	  0.588	 -0.602	 -1.433	 32.900	 100.817	  0.400
44024	 -0.223	  0.213	  0.376	 -0.408	 -5.155	 -8.028	 -0.063	 -0.771	 -1.184	 32.900	 100.817	  0.400
44074	 -0.213	  0.240	  0.396	  0.093	 -4.008	 -9.312	 -0.464	 -0.875	 -0.798	 32.900	 100.817	  0.400
44124	 -0.194	  0.260	  0.417	  0.505	 -3.960	 -9.767	 -0.765	 -1.144	 -0.803	 32.900	 100.805	  1.467
44174	 -0.179	  0.283	  0.440	 -1.509	 -2.155	 -9.569	 -1.094	 -0.708	 -0.818	 32.900	 100.817	  0.400
44224	 -0.168	  0.309	  0.453	  0.299	 -0.986	 -8.282	 -0.254	 -1.066	 -0.760	 32.900	 100.805	  1.467
44274	 -0.152	  0.345	  0.466	 -0.672	 -1.909	 -8.857	 -0.540	 -0.983	 -0.878	 32.900	 100.817	  0.400
44324	 -0.140	  0.359	  0.488	 -0.271	 -0.802	 -8.145	 -0.866	 -0.612	 -0.703	 32.900	 100.817	  0.400
44374	 -0.147	  0.350	  0.505	 -1.795	 -0.403	 -8.592	 -0.949	 -0.370	 -0.764	 32.900	 100.805	  1.467
44424	 -0.155	  0.331	  0.524	 -2.329	 -0.781	 -10.538	 -0.731	 -0.441	 -0.446	 32.900	 100.828	 -0.578
44474	 -0.177	  0.300	  0.539	 -1.532	 -0.698	 -12.658	 -1.573	  0.390	 -0.844	 32.900	 100.817	  0.400
44524	 -0.232	  0.227	  0.555	 -1.338	  0.559	 -11.581	 -1.985	  0.972	 -0.756	 32.900	 100.828	 -0.578
44574	 -0.294	  0.173	  0.552	  1.682	  0.881	 -10.286	 -0.827	  1.496	 -0.615	 32.900	 100.817	  0.400
44624	 -0.347	  0.132	  0.538	  1.547	  0.824	 -9.252	 -0.776	  0.926	 -0.743	 32.900	 100.828	 -0.578
44674	 -0.372	  0.105	  0.529	  2.721	  0.883	 -11.411	  0.032	 -0.159	 -0.935	 32.900	 100.817	  0.400
44724	 -0.369	  0.101	  0.535	  2.914	  0.033	 -9.140	  0.395	 -0.809	 -0.996	 32.900	 100.817	  0.400
44774	 -0.353	  0.089	  0.536	  1.720	 -0.373	 -9.380	  0.558	 -0.432	 -0.869	 32.900	 100.817	  0.400
44824	 -0.355	  0.107	  0.525	  0.203	 -0.559	 -11.094	  1.104	  0.047	 -0.280	 32.900	 100.817	  0.400
44874	 -0.367	  0.118	  0.519	  1.520	 -0.830	 -11.372	 -0.090	  0.260	 -0.404	 32.900	 100.828	 -0.578
44924	 -0.377	  0.105	  0.503	  0.441	 -0.384	 -8.835	 -0.175	  0.463	 -0.222	 32.900	 100.817	  0.400
44974	 -0.393	  0.107	  0.506	  2.559	 -0.262	 -8.858	  0.498	  0.281	 -0.188	 32.900	 100.817	  0.400
45024	 -0.407	  0.126	  0.489	  2.078	 -0.009	 -9.346	  0.453	  0.788	 -0.418	 32.900	 100.817	  0.400
45074	 -0.437	  0.125	  0.462	  1.999	 -0.246	 -8.710	  0.582	  1.118	 -0.018	 32.900	 100.828	 -0.578
45124	 -0.463	  0.149	  0.432	  2.529	 -0.125	 -10.409	  0.965	  0.435	 -0.007	 32.900	 100.817	  0.400
45174	 -0.474	  0.149	  0.411	  2.766	 -1.430	 -9.281	 -0.112	  0.366	 -0.608	 32.900	 100.805	  1.467
45224	 -0.482	  0.128	  0.414	  2.917	 -1.037	 -8.558	 -1.494	  0.067	  0.188	 32.900	 100.828	 -0.578
45274	 -0.496	  0.116	  0.410	  3.914	 -1.187	 -7.872	  0.797	  0.641	 -0.129	 32.900	 100.817	  0.400
45324	 -0.518	  0.120	  0.380	  3.838	 -1.359	 -8.504	  0.405	  1.133	 -0.267	 32.900	 100.817	  0.400
45374	 -0.554	  0.120	  0.355	  2.610	 -0.781	 -9.899	 -0.033	  1.060	 -0.546	 32.900	 100.817	  0.400
45424	 -0.571	  0.089	  0.342	  4.089	 -0.153	 -8.133	 -0.326	  0.243	 -0.922	 32.900	 100.805	  1.467
45474	 -0.586	  0.061	  0.334	  3.989	 -0.240	 -7.811	  0.576	  0.232	 -0.697	 32.900	 100.817	  0.400
45524	 -0.604	  0.053	  0.321	  5.102	 -0.936	 -7.957	  0.455	  0.545	 -0.732	 32.900	 100.817	  0.400
45574	 -0.628	  0.025	  0.295	  4.662	 -0.854	 -8.197	  0.134	  0.685	 -0.698	 32.900	 100.824	 -0.222
45624	 -0.649	 -0.006	  0.268	  5.811	 -1.419	 -7.413	  0.655	  0.815	 -0.703	 32.900	 100.828	 -0.578
45674	 -0.674	 -0.005	  0.232	  6.221	 -1.369	 -7.796	  1.254	  0.916	 -0.554	 32.900	 100.817	  0.400
45724	 -0.677	 -0.014	  0.226	  5.060	  0.577	 -10.226	 -0.232	 -0.707	 -0.359	 32.900	 100.805	  1.467
45774	 -0.671	 -0.039	  0.249	  5.054	 -0.004	 -6.435	 -0.090	 -0.601	 -0.537	 32.900	 100.812	  0.845
45824	 -0.667	 -0.060	  0.245	  5.094	 -0.004	 -7.235	 -0.327	  0.448	 -0.386	 32.900	 100.828	 -0.578
45874	 -0.679	 -0.072	  0.222	  4.564	 -0.964	 -5.826	  0.346	  0.959	 -0.649	 32.900	 100.812	  0.845
45924	 -0.690	 -0.097	  0.157	  3.214	 -1.116	 -6.344	 -0.533	  1.541	 -0.520	 32.900	 100.817	  0.400
45974	 -0.706	 -0.132	  0.061	  6.860	  0.255	 -7.520	 -0.847	  2.742	  0.019	 32.900	 100.817	  0.400
46024	 -0.707	 -0.139	 -0.066	  8.534	 -0.035	 -6.477	 -0.400	  2.316	 -0.586	 32.900	 100.828	 -0.578
46074	 -0.697	 -0.165	 -0.084	  8.829	  0.657	 -6.309	  1.098	 -1.361	 -0.097	 32.900	 100.817	  0.400
46124	 -0.690	 -0.171	 -0.035	  6.775	 -0.453	 -6.127	  0.954	 -1.330	 -0.478	 32.900	 100.828	 -0.578
46174	 -0.682	 -0.185	 -0.020	  6.448	  0.046	 -6.914	  0.448	 -0.121	 -0.055	 32.900	 100.817	  0.400
46224	 -0.679	 -0.196	 -0.039	  8.261	 -0.515	 -7.182	 -0.102	 -0.189	 -0.006	 32.900	 100.828	 -0.578
46274	 -0.676	 -0.191	 -0.026	  7.824	  0.389	 -7.195	 -0.212	 -0.671	 -0.013	 32.900	 100.817	  0.400
46324	 -0.669	 -0.197	 -0.013	  7.135	  0.168	 -7.011	  0.159	 -0.600	  0.082	 32.900	 100.805	  1.467
46374	 -0.662	 -0.197	 -0.019	  6.743	 -0.812	 -8.153	  0.433	 -0.278	 -0.070	 32.900	 100.817	  0.400
46424	 -0.656	 -0.207	 -0.009	  7.542	 -1.705	 -7.615	 -0.085	 -0.425	 -0.514	 32.900	 100.828	 -0.578
46474	 -0.649	 -0.224	  0.015	  5.805	  1.041	 -6.339	 -0.325	 -0.884	 -0.270	 32.900	 100.817	  0.400
46524	 -0.638	 -0.231	  0.032	  5.765	  0.038	 -9.585	  0.144	 -0.623	 -0.292	 32.900	 100.817	  0.400
46574	 -0.633	 -0.244	  0.028	  6.128	  0.114	 -7.239	 -0.291	  0.049	 -0.046	 32.900	 100.817	  0.400
46624	 -0.635	 -0.246	  0.034	  5.563	  0.218	 -6.442	 -0.099	 -0.105	 -0.127	 32.900	 100.812	  0.845
46674	 -0.627	 -0.255	  0.034	  5.522	  0.742	 -10.316	  0.244	 -0.346	 -0.152	 32.900	 100.817	  0.400
46724	 -0.627	 -0.252	  0.033	  5.908	  0.238	 -7.461	  0.189	 -0.056	 -0.108	 32.900	 100.805	  1.467
46774	 -0.628	 -0.259	  0.040	  5.750	  0.355	 -7.586	  0.255	  0.015	 -0.049	 32.900	 100.817	  0.400
46824	 -0.628	 -0.254	  0.040	  6.034	  0.257	 -8.456	 -0.064	 -0.019	 -0.025	 32.900	 100.817	  0.400
46874	 -0.626	 -0.257	  0.044	  6.098	 -0.032	 -8.258	 -0.020	  0.028	 -0.003	 32.900	 100.828	 -0.578
46924	 -0.626	 -0.259	  0.041	  5.984	  0.032	 -8.082	 -0.008	  0.009	  0.010	 32.900	 100.817	  0.400
46975	 -0.627	 -0.252	  0.040	  5.936	  0.020	 -8.021	 -0.011	  0.002	  0.001	 32.900	 100.824	 -0.222
47024	 -0.627	 -0.260	  0.041	  5.819	  0.137	 -8.010	 -0.004	 -0.002	 -0.007	 32.900	 100.817	  0.400
47074	 -0.629	 -0.255	  0.040	  5.724	  0.201	 -8.039	 -0.008	 -0.003	 -0.006	 32.900	 100.805	  1.467
47124	 -0.625	 -0.257	  0.041	  5.657	  0.271	 -7.937	 -0.009	 -0.001	 -0.005	 32.900	 100.817	  0.400
47174	 -0.625	 -0.255	  0.042	  5.634	  0.274	 -7.971	 -0.003	  0.000	 -0.002	 32.900	 100.817	  0.400
47224	 -0.626	 -0.259	  0.039	  5.664	  0.303	 -7.941	 -0.000	  0.002	 -0.001	 32.900	 100.817	  0.400
47273	 -0.627	 -0.256	  0.042	  5.632	  0.164	 -8.064	 -0.000	  0.004	 -0.001	 32.900	 100.824	 -0.222
47323	 -0.625	 -0.258	  0.040	  5.690	  0.188	 -8.009	 -0.002	  0.003	 -0.001	 32.900	 100.817	  0.400
47373	 -0.625	 -0.262	  0.044	  5.708	  0.237	 -7.978	 -0.005	  0.001	  0.001	 32.900	 100.817	  0.400
47424	 -0.623	 -0.257	  0.040	  5.670	  0.290	 -7.970	 -0.005	 -0.001	 -0.001	 32.900	 100.817	  0.400
47473	 -0.624	 -0.256	  0.043	  5.690	  0.274	 -7.899	 -0.002	  0.001	  0.000	 32.900	 100.812	  0.845
47523	 -0.625	 -0.256	  0.035	  5.674	  0.288	 -7.882	 -0.001	  0.002	  0.000	 32.900	 100.817	  0.400
47573	 -0.625	 -0.262	  0.042	  5.631	  0.234	 -8.019	 -0.005	  0.005	  0.001	 32.900	 100.824	 -0.222
47623	 -0.625	 -0.261	  0.042	  5.708	  0.262	 -8.037	 -0.000	  0.002	  0.000	 32.900	 100.805	  1.467
47673	 -0.624	 -0.263	  0.034	  5.685	  0.266	 -7.976	 -0.003	  0.004	  0.002	 32.900	 100.817	  0.400
47723	 -0.625	 -0.254	  0.042	  5.669	  0.243	 -7.950	 -0.006	  0.003	 -0.000	 32.900	 100.817	  0.400
47773	 -0.627	 -0.260	  0.042	  5.680	  0.259	 -8.004	 -0.003	  0.001	 -0.000	 32.900	 100.817	  0.400
47823	 -0.624	 -0.259	  0.040	  5.677	  0.240	 -7.962	 -0.004	  0.002	  0.001	 32.900	 100.812	  0.845
47874	 -0.626	 -0.260	  0.043	  5.658	  0.247	 -7.979	 -0.003	  0.003	  0.000	 32.900	 100.812	  0.845
47924	 -0.623	 -0.255	  0.042	  5.667	  0.230	 -7.978	 -0.003	  0.003	 -0.000	 32.900	 100.824	 -0.222
47974	 -0.625	 -0.256	  0.043	  5.700	  0.257	 -7.950	 -0.003	  0.002	  0.000	 32.900	 100.817	  0.400
48024	 -0.625	 -0.258	  0.043	  5.678	  0.241	 -7.974	 -0.004	  0.002	  0.001	 32.900	 100.817	  0.400
48074	 -0.623	 -0.261	  0.040	  5.683	  0.242	 -7.951	 -0.003	  0.002	 -0.001	 32.900	 100.824	 -0.222
48124	 -0.625	 -0.257	  0.042	  5.656	  0.239	 -7.956	 -0.002	  0.001	 -0.000	 32.900	 100.824	 -0.222
48174	 -0.626	 -0.248	  0.040	  5.675	  0.251	 -7.941	 -0.003	  0.002	 -0.001	 32.900	 100.812	  0.845
48224	 -0.623	 -0.253	  0.036	  5.558	  0.209	 -7.950	 -0.011	  0.008	 -0.000	 32.900	 100.805	  1.467
48274	 -0.627	 -0.255	  0.042	  5.680	  0.467	 -7.968	 -0.019	 -0.002	 -0.004	 32.900	 100.824	 -0.222
48324	 -0.624	 -0.259	  0.042	  5.737	  0.205	 -7.974	 -0.002	  0.000	 -0.003	 32.900	 100.828	 -0.578
48374	 -0.624	 -0.262	  0.044	  5.733	  0.195	 -7.809	  0.052	  0.019	  0.040	 32.900	 100.812	  0.845
48424	 -0.625	 -0.257	  0.040	  5.793	  0.451	 -8.021	 -0.044	 -0.126	  0.022	 32.900	 100.824	 -0.222
48474	 -0.626	 -0.251	  0.043	  5.714	  0.485	 -7.888	 -0.030	 -0.050	  0.014	 32.900	 100.812	  0.845
48524	 -0.621	 -0.257	  0.036	  5.517	  0.217	 -7.952	 -0.217	 -0.037	 -0.222	 32.900	 100.824	 -0.222
48574	 -0.618	 -0.257	  0.042	  5.597	  0.678	 -7.666	 -0.171	 -0.073	 -0.129	 32.900	 100.828	 -0.578
48624	 -0.619	 -0.267	  0.046	  6.159	  0.327	 -8.382	  0.070	  0.004	 -0.133	 32.900	 100.824	 -0.222
48674	 -0.621	 -0.274	  0.045	  5.535	  0.740	 -7.879	 -0.451	 -0.084	 -0.122	 32.900	 100.828	 -0.578
48724	 -0.618	 -0.273	  0.045	  5.947	  0.609	 -7.892	 -0.013	  0.058	 -0.129	 32.900	 100.817	  0.400
48774	 -0.618	 -0.280	  0.047	  6.261	  0.442	 -8.452	  0.091	  0.051	  0.046	 32.900	 100.817	  0.400
