Time	 MagX	 MagY	 MagZ	 AccelX	 AccelY	 AccelZ	 Yaw	 Pitch	 Roll	 Temperature	 Pressure	 Altitude
5354	 -0.383	 -0.408	  0.440	  0.115	  0.078	 -9.769	 -0.003	  0.003	 -0.001	 31.600	 99.938	 -99999.000

5404	 -0.379	 -0.405	  0.442	  0.136	  0.037	 -9.760	 -0.004	  0.003	  0.000	 31.600	 99.949	 -99999.000

5453	 -0.381	 -0.405	  0.443	  0.126	  0.064	 -9.957	 -0.003	  0.001	  0.001	 31.600	 99.949	 -99999.000

5503	 -0.383	 -0.401	  0.442	  0.142	  0.036	 -9.704	 -0.003	  0.002	  0.001	 31.600	 99.938	 -99999.000

5553	 -0.381	 -0.409	  0.438	  0.102	  0.056	 -9.737	 -0.004	  0.002	  0.001	 31.600	 99.927	 -99999.000

5603	 -0.381	 -0.408	  0.441	  0.091	  0.046	 -9.765	 -0.004	  0.001	  0.001	 31.600	 99.949	 -99999.000

5653	 -0.382	 -0.405	  0.438	  0.120	  0.042	 -9.798	 -0.004	  0.001	  0.002	 31.600	 99.949	 -99999.000

5703	 -0.382	 -0.407	  0.438	  0.108	  0.025	 -9.777	 -0.004	  0.003	  0.001	 31.600	 99.949	 -99999.000

5753	 -0.383	 -0.410	  0.441	  0.104	  0.063	 -9.776	 -0.003	  0.002	  0.001	 31.600	 99.949	 -99999.000

5803	 -0.380	 -0.412	  0.439	  0.088	  0.053	 -9.744	 -0.003	  0.001	  0.001	 31.600	 99.927	 -99999.000

5853	 -0.384	 -0.409	  0.443	  0.092	  0.040	 -9.783	 -0.003	  0.002	  0.001	 31.600	 99.938	 -99999.000

5903	 -0.383	 -0.408	  0.441	  0.107	  0.035	 -9.666	 -0.005	  0.004	  0.001	 31.600	 99.938	 -99999.000

5953	 -0.381	 -0.404	  0.443	  0.125	  0.064	 -9.791	 -0.005	  0.001	  0.000	 31.600	 99.938	 -99999.000

6003	 -0.380	 -0.410	  0.442	  0.122	  0.046	 -9.731	 -0.004	  0.004	  0.001	 31.600	 99.949	 -99999.000

6053	 -0.380	 -0.408	  0.442	  0.115	  0.035	 -9.751	 -0.004	  0.004	  0.001	 31.600	 99.938	 -99999.000

6103	 -0.380	 -0.410	  0.443	  0.098	  0.065	 -9.773	 -0.004	  0.002	 -0.000	 31.600	 99.938	 -99999.000

6153	 -0.382	 -0.397	  0.441	  0.119	  0.057	 -9.743	 -0.004	  0.003	 -0.000	 31.600	 99.938	 -99999.000

6203	 -0.381	 -0.400	  0.435	  0.135	  0.057	 -9.787	 -0.004	  0.003	 -0.000	 31.600	 99.931	 -99999.000

6253	 -0.379	 -0.404	  0.439	  0.119	  0.072	 -9.737	 -0.005	  0.002	  0.000	 31.600	 99.938	 -99999.000

6303	 -0.382	 -0.394	  0.437	  0.123	  0.047	 -9.724	 -0.005	  0.003	  0.001	 31.600	 99.927	 -99999.000

6353	 -0.379	 -0.394	  0.436	  0.080	  0.066	 -9.621	 -0.007	  0.007	  0.003	 31.600	 99.949	 -99999.000

6403	 -0.381	 -0.410	  0.442	  0.117	  0.066	 -9.794	 -0.004	  0.002	  0.000	 31.600	 99.938	 -99999.000

6453	 -0.379	 -0.404	  0.439	  0.123	  0.037	 -9.745	 -0.004	  0.002	  0.001	 31.600	 99.938	 -99999.000

6503	 -0.381	 -0.409	  0.444	  0.117	  0.066	 -9.803	 -0.004	  0.004	  0.001	 31.600	 99.938	 -99999.000

6553	 -0.379	 -0.409	  0.442	  0.110	  0.023	 -9.739	 -0.002	  0.003	  0.000	 31.600	 99.938	 -99999.000

6603	 -0.380	 -0.403	  0.441	  0.108	  0.037	 -9.802	 -0.003	  0.002	  0.001	 31.600	 99.938	 -99999.000

6653	 -0.380	 -0.407	  0.440	  0.103	  0.061	 -9.790	 -0.003	  0.002	 -0.000	 31.600	 99.938	 -99999.000

6703	 -0.380	 -0.405	  0.441	  0.109	  0.043	 -9.757	 -0.002	  0.002	  0.000	 31.600	 99.949	 -99999.000

6753	 -0.380	 -0.410	  0.447	  0.087	  0.037	 -9.647	 -0.006	  0.004	  0.003	 31.600	 99.938	 -99999.000

6803	 -0.380	 -0.407	  0.440	  0.098	  0.039	 -9.758	 -0.003	  0.001	  0.001	 31.600	 99.942	 -99999.000

6853	 -0.380	 -0.408	  0.439	  0.107	  0.093	 -9.769	 -0.004	  0.004	  0.000	 31.600	 99.938	 -99999.000

6903	 -0.383	 -0.406	  0.441	  0.144	  0.049	 -9.756	 -0.003	  0.003	  0.001	 31.600	 99.938	 -99999.000

6953	 -0.381	 -0.410	  0.443	  0.146	  0.070	 -9.750	 -0.003	  0.002	  0.001	 31.600	 99.938	 -99999.000

7003	 -0.380	 -0.407	  0.440	  0.094	  0.046	 -9.759	 -0.003	  0.003	  0.001	 31.600	 99.949	 -99999.000

7053	 -0.380	 -0.407	  0.440	  0.107	  0.072	 -9.752	 -0.003	  0.002	  0.001	 31.600	 99.938	 -99999.000

7103	 -0.381	 -0.408	  0.442	  0.116	  0.067	 -9.791	 -0.003	  0.002	  0.001	 31.600	 99.949	 -99999.000

7153	 -0.382	 -0.406	  0.443	  0.127	  0.075	 -9.675	 -0.004	 -0.001	  0.001	 31.600	 99.938	 -99999.000

7203	 -0.382	 -0.410	  0.440	  0.084	  0.055	 -9.772	 -0.003	  0.004	  0.001	 31.600	 99.938	 -99999.000

7253	 -0.384	 -0.404	  0.444	  0.121	  0.067	 -9.775	 -0.002	  0.003	  0.001	 31.600	 99.938	 -99999.000

7303	 -0.381	 -0.409	  0.443	  0.099	  0.044	 -9.712	 -0.004	  0.002	  0.001	 31.600	 99.927	 -99999.000

7353	 -0.382	 -0.406	  0.433	  0.102	  0.046	 -9.786	 -0.004	  0.002	 -0.000	 31.600	 99.927	 -99999.000

7403	 -0.380	 -0.411	  0.443	  0.113	  0.036	 -9.730	 -0.003	  0.003	 -0.001	 31.600	 99.942	 -99999.000

7453	 -0.383	 -0.406	  0.442	  0.094	  0.038	 -9.755	 -0.002	  0.002	  0.001	 31.600	 99.938	 -99999.000

7503	 -0.382	 -0.411	  0.439	  0.110	  0.043	 -9.740	 -0.004	  0.001	  0.001	 31.600	 99.942	 -99999.000

7553	 -0.380	 -0.406	  0.442	  0.154	  0.094	 -9.744	 -0.001	  0.004	 -0.001	 31.600	 99.938	 -99999.000

7603	 -0.377	 -0.407	  0.444	  0.138	  0.033	 -9.656	 -0.005	  0.002	  0.001	 31.600	 99.938	 -99999.000

7653	 -0.381	 -0.405	  0.443	  0.115	  0.067	 -9.717	 -0.003	  0.002	 -0.000	 31.600	 99.938	 -99999.000

7703	 -0.380	 -0.397	  0.438	  0.092	  0.032	 -9.836	 -0.005	  0.001	  0.001	 31.600	 99.942	 -99999.000

7753	 -0.380	 -0.409	  0.443	  0.141	  0.077	 -9.737	 -0.004	  0.002	  0.001	 31.600	 99.927	 -99999.000

7803	 -0.382	 -0.403	  0.443	  0.100	  0.059	 -9.744	 -0.003	  0.002	 -0.000	 31.600	 99.938	 -99999.000

7853	 -0.380	 -0.404	  0.440	  0.095	  0.056	 -9.729	 -0.004	  0.002	  0.000	 31.600	 99.949	 -99999.000

7903	 -0.380	 -0.395	  0.442	  0.107	  0.033	 -9.715	 -0.002	  0.002	  0.002	 31.600	 99.942	 -99999.000

7953	 -0.382	 -0.411	  0.441	  0.092	  0.050	 -9.594	 -0.004	  0.003	  0.001	 31.600	 99.938	 -99999.000

8003	 -0.381	 -0.407	  0.440	  0.119	  0.031	 -9.823	 -0.003	  0.002	 -0.000	 31.600	 99.938	 -99999.000

8053	 -0.380	 -0.411	  0.441	  0.140	  0.068	 -9.796	 -0.003	  0.003	 -0.000	 31.600	 99.938	 -99999.000

8103	 -0.379	 -0.408	  0.442	  0.119	  0.044	 -9.751	 -0.003	  0.004	  0.001	 31.600	 99.954	 -99999.000

8153	 -0.380	 -0.410	  0.444	  0.117	  0.045	 -9.729	 -0.004	  0.001	  0.002	 31.600	 99.942	 -99999.000

8203	 -0.380	 -0.404	  0.444	  0.133	  0.057	 -9.799	 -0.005	  0.002	  0.001	 31.600	 99.938	 -99999.000

8253	 -0.381	 -0.404	  0.442	  0.086	  0.022	 -9.759	 -0.002	  0.001	  0.001	 31.600	 99.961	 -99999.000

8303	 -0.380	 -0.406	  0.442	  0.076	  0.068	 -9.782	 -0.004	  0.003	  0.002	 31.600	 99.949	 -99999.000

8353	 -0.380	 -0.405	  0.439	  0.067	  0.036	 -9.607	 -0.003	  0.003	  0.000	 31.600	 99.949	 -99999.000

8403	 -0.381	 -0.399	  0.438	  0.127	  0.047	 -9.751	 -0.004	 -0.001	  0.001	 31.600	 99.942	 -99999.000

8453	 -0.381	 -0.406	  0.438	  0.098	  0.040	 -9.771	 -0.004	  0.002	 -0.000	 31.600	 99.938	 -99999.000

8503	 -0.381	 -0.408	  0.444	  0.143	  0.054	 -9.820	 -0.004	  0.002	  0.000	 31.600	 99.938	 -99999.000

8554	 -0.380	 -0.406	  0.441	  0.113	  0.070	 -9.714	 -0.003	  0.002	  0.001	 31.600	 99.938	 -99999.000

8603	 -0.380	 -0.408	  0.442	  0.102	  0.068	 -9.743	 -0.004	  0.003	  0.000	 31.600	 99.938	 -99999.000

8653	 -0.380	 -0.409	  0.440	  0.110	  0.039	 -9.777	 -0.004	  0.002	  0.001	 31.600	 99.938	 -99999.000

8703	 -0.381	 -0.408	  0.442	  0.128	  0.037	 -9.743	 -0.003	  0.003	  0.001	 31.600	 99.938	 -99999.000

8753	 -0.380	 -0.407	  0.440	  0.078	  0.069	 -9.603	 -0.002	  0.001	  0.001	 31.600	 99.949	 -99999.000

8803	 -0.380	 -0.405	  0.441	  0.111	  0.072	 -9.754	 -0.003	  0.002	  0.001	 31.600	 99.938	 -99999.000

8853	 -0.383	 -0.409	  0.444	  0.108	  0.061	 -9.750	 -0.003	  0.004	  0.000	 31.600	 99.945	 -99999.000

8904	 -0.380	 -0.406	  0.439	  0.129	  0.049	 -9.782	 -0.004	  0.002	  0.002	 31.600	 99.938	 -99999.000

8953	 -0.380	 -0.397	  0.443	  0.133	  0.048	 -9.740	 -0.004	  0.002	  0.001	 31.600	 99.949	 -99999.000

9004	 -0.380	 -0.406	  0.435	  0.119	  0.046	 -9.744	 -0.003	  0.001	  0.000	 31.600	 99.954	 -99999.000

9053	 -0.381	 -0.404	  0.437	  0.122	  0.062	 -9.735	 -0.003	  0.002	  0.000	 31.600	 99.949	 -99999.000

9104	 -0.381	 -0.405	  0.440	  0.132	  0.027	 -9.750	 -0.003	  0.001	  0.001	 31.600	 99.942	 -99999.000

9154	 -0.383	 -0.405	  0.441	  0.112	  0.093	 -9.910	 -0.004	  0.005	  0.001	 31.600	 99.938	 -99999.000

9204	 -0.380	 -0.411	  0.441	  0.083	  0.043	 -9.730	 -0.003	  0.004	  0.001	 31.600	 99.949	 -99999.000

9254	 -0.381	 -0.407	  0.445	  0.103	  0.067	 -9.716	 -0.004	  0.002	  0.001	 31.600	 99.938	 -99999.000

9304	 -0.378	 -0.395	  0.434	  0.109	  0.041	 -9.792	 -0.003	  0.002	  0.002	 31.600	 99.938	 -99999.000

9354	 -0.380	 -0.404	  0.436	  0.097	  0.064	 -9.749	 -0.004	  0.003	  0.001	 31.600	 99.949	 -99999.000

9404	 -0.380	 -0.410	  0.443	  0.133	  0.047	 -9.741	 -0.003	  0.000	 -0.000	 31.600	 99.938	 -99999.000

9454	 -0.380	 -0.404	  0.441	  0.122	  0.060	 -9.760	 -0.003	  0.002	  0.001	 31.600	 99.938	 -99999.000

9504	 -0.380	 -0.408	  0.444	  0.094	  0.024	 -9.772	 -0.003	  0.002	  0.001	 31.600	 99.954	 -99999.000

9554	 -0.380	 -0.408	  0.439	  0.104	  0.050	 -9.765	 -0.004	  0.002	  0.000	 31.600	 99.949	 -99999.000

9604	 -0.381	 -0.409	  0.442	  0.088	  0.025	 -10.091	 -0.003	  0.005	  0.002	 31.600	 99.942	 -99999.000

9654	 -0.380	 -0.409	  0.442	  0.111	  0.068	 -9.698	 -0.002	  0.004	 -0.000	 31.600	 99.938	 -99999.000

9704	 -0.382	 -0.402	  0.440	  0.129	  0.045	 -9.685	 -0.003	  0.001	  0.001	 31.600	 99.938	 -99999.000

9754	 -0.378	 -0.398	  0.444	  0.120	  0.051	 -9.767	 -0.004	  0.001	  0.000	 31.600	 99.949	 -99999.000

9804	 -0.382	 -0.406	  0.442	  0.113	  0.040	 -9.761	 -0.003	  0.002	  0.002	 31.600	 99.954	 -99999.000

9854	 -0.379	 -0.405	  0.439	  0.094	  0.060	 -9.741	 -0.004	  0.002	 -0.000	 31.600	 99.942	 -99999.000

9904	 -0.385	 -0.404	  0.439	  0.127	  0.055	 -9.745	 -0.003	  0.002	  0.001	 31.600	 99.949	 -99999.000

9954	 -0.383	 -0.410	  0.443	  0.119	  0.048	 -9.758	 -0.004	  0.003	  0.000	 31.600	 99.949	 -99999.000

10004	 -0.382	 -0.404	  0.438	  0.100	  0.055	 -9.763	 -0.004	  0.001	 -0.000	 31.600	 99.942	 -99999.000

10054	 -0.380	 -0.406	  0.442	  0.177	  0.106	 -9.833	 -0.004	  0.006	  0.001	 31.600	 99.938	 -99999.000

10104	 -0.381	 -0.403	  0.440	  0.112	  0.051	 -9.670	 -0.004	  0.001	  0.001	 31.600	 99.938	 -99999.000

10154	 -0.381	 -0.408	  0.442	  0.113	  0.060	 -9.731	 -0.004	  0.001	  0.002	 31.600	 99.938	 -99999.000

10204	 -0.380	 -0.408	  0.440	  0.077	  0.056	 -9.817	 -0.003	  0.003	  0.002	 31.600	 99.954	 -99999.000

10254	 -0.381	 -0.407	  0.443	  0.116	  0.067	 -9.733	 -0.004	  0.002	  0.001	 31.600	 99.938	 -99999.000

10304	 -0.382	 -0.410	  0.442	  0.125	  0.058	 -9.769	 -0.003	  0.000	  0.001	 31.600	 99.942	 -99999.000

10354	 -0.380	 -0.409	  0.436	  0.134	  0.061	 -9.776	 -0.004	  0.004	  0.001	 31.600	 99.938	 -99999.000

10404	 -0.381	 -0.407	  0.437	  0.120	  0.052	 -9.742	 -0.004	  0.003	  0.001	 31.600	 99.954	 -99999.000

10454	 -0.381	 -0.404	  0.440	  0.094	  0.051	 -9.737	 -0.003	  0.002	  0.001	 31.600	 99.942	 -99999.000

10504	 -0.380	 -0.407	  0.440	  0.134	  0.072	 -9.777	 -0.003	  0.002	  0.000	 31.600	 99.938	 -99999.000

10554	 -0.382	 -0.407	  0.435	  0.113	  0.036	 -9.649	 -0.003	  0.002	  0.001	 31.600	 99.942	 -99999.000

10604	 -0.381	 -0.409	  0.444	  0.102	  0.050	 -9.738	 -0.002	 -0.000	  0.000	 31.600	 99.942	 -99999.000

10654	 -0.381	 -0.408	  0.441	  0.131	  0.055	 -9.748	 -0.003	  0.002	 -0.000	 31.600	 99.938	 -99999.000

10704	 -0.382	 -0.403	  0.441	  0.114	  0.055	 -9.790	 -0.003	  0.004	  0.001	 31.600	 99.938	 -99999.000

10754	 -0.379	 -0.394	  0.441	  0.115	  0.085	 -9.765	 -0.004	  0.003	  0.001	 31.600	 99.938	 -99999.000

10804	 -0.382	 -0.407	  0.442	  0.123	  0.043	 -9.766	 -0.003	  0.002	  0.001	 31.600	 99.954	 -99999.000

10854	 -0.380	 -0.410	  0.442	  0.162	  0.072	 -9.984	 -0.007	  0.007	  0.002	 31.600	 99.938	 -99999.000

10904	 -0.381	 -0.408	  0.440	  0.116	  0.039	 -9.649	 -0.003	  0.002	 -0.000	 31.600	 99.938	 -99999.000

10954	 -0.382	 -0.407	  0.440	  0.122	  0.064	 -9.726	 -0.003	  0.001	 -0.001	 31.600	 99.938	 -99999.000

11004	 -0.380	 -0.406	  0.440	  0.087	  0.040	 -9.829	 -0.004	  0.002	  0.001	 31.600	 99.938	 -99999.000

11054	 -0.383	 -0.409	  0.442	  0.102	  0.058	 -9.759	 -0.004	  0.003	  0.001	 31.600	 99.927	 -99999.000

11104	 -0.381	 -0.406	  0.443	  0.129	  0.064	 -9.753	 -0.003	  0.001	  0.001	 31.600	 99.927	 -99999.000

11154	 -0.379	 -0.407	  0.442	  0.137	  0.060	 -9.738	 -0.003	  0.002	 -0.000	 31.600	 99.954	 -99999.000

11204	 -0.383	 -0.405	  0.446	  0.122	  0.052	 -9.787	 -0.003	  0.002	  0.001	 31.600	 99.938	 -99999.000

11254	 -0.379	 -0.408	  0.443	  0.120	  0.139	 -9.787	 -0.005	  0.002	  0.001	 31.600	 99.938	 -99999.000

11304	 -0.381	 -0.406	  0.444	  0.134	  0.035	 -9.693	 -0.003	  0.004	  0.001	 31.600	 99.949	 -99999.000

13903	 -0.382	 -0.408	  0.443	  0.133	  0.036	 -9.686	 -0.004	  0.002	  0.002	 31.600	 99.938	  0.378

13953	 -0.380	 -0.408	  0.440	  0.119	  0.042	 -9.707	 -0.003	  0.001	  0.002	 31.600	 99.942	  0.020

14003	 -0.381	 -0.408	  0.441	  0.126	  0.057	 -9.731	 -0.003	  0.001	  0.001	 31.600	 99.938	  0.378

14053	 -0.381	 -0.407	  0.438	  0.123	  0.075	 -9.769	 -0.003	  0.003	 -0.000	 31.600	 99.954	 -1.057

14103	 -0.380	 -0.407	  0.444	  0.120	  0.059	 -9.738	 -0.003	  0.003	  0.001	 31.600	 99.942	  0.020

14153	 -0.384	 -0.409	  0.443	  0.121	  0.065	 -9.765	 -0.003	  0.003	  0.001	 31.600	 99.949	 -0.608

14203	 -0.381	 -0.408	  0.442	  0.126	  0.040	 -9.747	 -0.004	  0.002	  0.001	 31.600	 99.954	 -1.057

14254	 -0.379	 -0.401	  0.442	  0.143	  0.044	 -9.755	 -0.003	  0.003	 -0.001	 31.600	 99.938	  0.378

14303	 -0.380	 -0.410	  0.441	  0.121	  0.050	 -9.738	 -0.003	  0.003	  0.001	 31.600	 99.942	  0.020

14354	 -0.380	 -0.395	  0.444	  0.115	  0.059	 -9.740	 -0.003	  0.002	  0.001	 31.600	 99.942	  0.020

14403	 -0.378	 -0.395	  0.444	  0.128	  0.049	 -9.746	 -0.004	  0.002	  0.001	 31.600	 99.938	  0.378

14454	 -0.379	 -0.408	  0.442	  0.116	  0.054	 -9.774	 -0.004	  0.002	  0.000	 31.600	 99.954	 -1.057

14504	 -0.381	 -0.407	  0.443	  0.142	  0.075	 -9.746	 -0.003	  0.001	  0.001	 31.600	 99.942	  0.020

14554	 -0.381	 -0.410	  0.440	  0.104	  0.046	 -9.770	 -0.003	  0.003	  0.001	 31.600	 99.949	 -0.608

14603	 -0.382	 -0.403	  0.438	  0.124	  0.052	 -9.740	 -0.004	  0.003	 -0.000	 31.600	 99.942	  0.020

14654	 -0.380	 -0.407	  0.435	  0.107	  0.053	 -9.758	 -0.003	  0.003	  0.000	 31.600	 99.942	  0.020

14704	 -0.380	 -0.408	  0.444	  0.113	  0.039	 -9.768	 -0.003	  0.002	  0.000	 31.600	 99.942	  0.020

14754	 -0.381	 -0.410	  0.442	  0.123	  0.051	 -9.755	 -0.003	  0.002	  0.002	 31.600	 99.949	 -0.608

14804	 -0.380	 -0.409	  0.444	  0.108	  0.046	 -9.789	 -0.002	  0.002	 -0.000	 31.600	 99.942	  0.020

14854	 -0.381	 -0.409	  0.441	  0.141	  0.024	 -9.745	 -0.003	  0.002	  0.000	 31.600	 99.949	 -0.608

14904	 -0.381	 -0.398	  0.436	  0.102	  0.045	 -9.770	 -0.003	  0.003	  0.001	 31.600	 99.938	  0.378

14954	 -0.381	 -0.410	  0.443	  0.118	  0.034	 -9.696	 -0.004	  0.003	  0.001	 31.600	 99.938	  0.378

15004	 -0.381	 -0.409	  0.443	  0.099	  0.045	 -9.763	 -0.003	  0.002	  0.000	 31.600	 99.942	  0.020

15054	 -0.379	 -0.405	  0.444	  0.101	  0.066	 -9.770	 -0.003	  0.002	  0.001	 31.600	 99.949	 -0.608

15104	 -0.381	 -0.409	  0.440	  0.130	  0.040	 -9.753	 -0.004	  0.003	  0.000	 31.600	 99.942	  0.020

15154	 -0.380	 -0.410	  0.443	  0.126	  0.031	 -9.738	 -0.004	  0.001	  0.001	 31.600	 99.938	  0.378

15204	 -0.380	 -0.409	  0.441	  0.126	  0.059	 -9.744	 -0.003	  0.000	  0.000	 31.600	 99.942	  0.020

15254	 -0.380	 -0.413	  0.444	  0.141	  0.056	 -9.769	 -0.003	  0.001	  0.002	 31.600	 99.954	 -1.057

15304	 -0.382	 -0.413	  0.442	  0.104	  0.038	 -9.749	 -0.004	  0.002	  0.002	 31.600	 99.938	  0.378

15354	 -0.382	 -0.408	  0.444	  0.119	  0.037	 -9.779	 -0.004	  0.002	  0.001	 31.600	 99.938	  0.378

15404	 -0.379	 -0.404	  0.443	  0.099	  0.053	 -9.753	 -0.004	  0.002	  0.001	 31.600	 99.942	  0.020

15454	 -0.382	 -0.397	  0.441	  0.137	  0.043	 -9.735	 -0.004	  0.003	  0.001	 31.600	 99.938	  0.378

15504	 -0.383	 -0.410	  0.440	  0.109	  0.066	 -9.784	 -0.004	  0.003	  0.002	 31.600	 99.938	  0.378

15554	 -0.380	 -0.403	  0.443	  0.103	  0.079	 -9.789	 -0.004	  0.002	  0.000	 31.600	 99.942	  0.020

15604	 -0.381	 -0.404	  0.436	  0.104	  0.046	 -9.747	 -0.004	  0.001	 -0.001	 31.600	 99.942	  0.020

15654	 -0.382	 -0.406	  0.438	  0.109	  0.047	 -9.768	 -0.003	  0.002	  0.001	 31.600	 99.949	 -0.608

15704	 -0.381	 -0.410	  0.443	  0.115	  0.049	 -9.784	 -0.004	  0.003	  0.000	 31.600	 99.942	  0.020

15754	 -0.383	 -0.410	  0.441	  0.136	  0.046	 -9.776	 -0.003	  0.002	  0.001	 31.600	 99.942	  0.020

15804	 -0.381	 -0.407	  0.437	  0.121	  0.059	 -9.725	 -0.003	  0.001	  0.001	 31.600	 99.942	  0.020

15854	 -0.381	 -0.396	  0.445	  0.111	  0.066	 -9.763	 -0.003	  0.002	  0.001	 31.600	 99.942	  0.020

15904	 -0.380	 -0.411	  0.445	  0.118	  0.055	 -9.742	 -0.003	  0.002	 -0.001	 31.600	 99.938	  0.378

15954	 -0.381	 -0.406	  0.443	  0.097	  0.081	 -9.766	 -0.002	  0.002	  0.001	 31.600	 99.942	  0.020

16004	 -0.381	 -0.408	  0.442	  0.108	  0.063	 -9.725	 -0.004	  0.002	  0.001	 31.600	 99.949	 -0.608

16054	 -0.381	 -0.409	  0.441	  0.101	  0.045	 -9.750	 -0.001	  0.001	 -0.001	 31.600	 99.942	  0.020

16104	 -0.381	 -0.408	  0.441	  0.128	  0.059	 -9.747	 -0.003	  0.001	  0.000	 31.600	 99.942	  0.020

16154	 -0.382	 -0.409	  0.436	  0.109	  0.043	 -9.755	 -0.004	  0.002	  0.000	 31.600	 99.938	  0.378

16204	 -0.381	 -0.396	  0.442	  0.119	  0.055	 -9.762	 -0.002	  0.001	 -0.000	 31.600	 99.942	  0.020

16254	 -0.383	 -0.408	  0.442	  0.118	  0.060	 -9.779	 -0.004	  0.001	 -0.000	 31.600	 99.942	  0.020

16304	 -0.382	 -0.408	  0.442	  0.121	  0.056	 -9.739	 -0.002	  0.002	  0.001	 31.600	 99.927	  1.365

16354	 -0.380	 -0.411	  0.440	  0.107	  0.068	 -9.760	 -0.004	  0.003	  0.000	 31.600	 99.942	  0.020

16404	 -0.382	 -0.411	  0.441	  0.117	  0.050	 -9.763	 -0.004	  0.003	  0.000	 31.600	 99.938	  0.378

16454	 -0.379	 -0.398	  0.437	  0.128	  0.066	 -9.773	 -0.004	  0.001	  0.001	 31.600	 99.949	 -0.608

16504	 -0.380	 -0.407	  0.444	  0.114	  0.043	 -9.751	 -0.004	  0.001	  0.001	 31.600	 99.938	  0.378

16554	 -0.382	 -0.396	  0.434	  0.134	  0.046	 -9.736	 -0.004	  0.002	  0.000	 31.600	 99.938	  0.378

16604	 -0.380	 -0.409	  0.441	  0.118	  0.056	 -9.790	 -0.003	  0.002	  0.001	 31.600	 99.931	  1.007

16654	 -0.381	 -0.408	  0.442	  0.115	  0.042	 -9.742	 -0.004	  0.002	  0.001	 31.600	 99.942	  0.020

16704	 -0.381	 -0.407	  0.442	  0.113	  0.075	 -9.709	 -0.004	  0.002	 -0.001	 31.600	 99.942	  0.020

16754	 -0.381	 -0.409	  0.442	  0.114	  0.054	 -9.763	 -0.003	  0.003	  0.001	 31.600	 99.942	  0.020

16804	 -0.383	 -0.410	  0.441	  0.125	  0.064	 -9.762	 -0.002	  0.003	  0.001	 31.600	 99.942	  0.020

16854	 -0.380	 -0.402	  0.440	  0.095	  0.046	 -9.764	 -0.004	  0.002	  0.001	 31.600	 99.942	  0.020

16904	 -0.380	 -0.409	  0.441	  0.097	  0.036	 -9.766	 -0.003	  0.003	  0.000	 31.600	 99.949	 -0.608

16954	 -0.382	 -0.408	  0.444	  0.130	  0.055	 -9.756	 -0.003	  0.002	  0.000	 31.600	 99.949	 -0.608

17004	 -0.377	 -0.408	  0.441	  0.088	  0.043	 -9.769	 -0.003	  0.002	  0.001	 31.600	 99.931	  1.007

17054	 -0.382	 -0.400	  0.441	  0.108	  0.037	 -9.754	 -0.003	  0.002	  0.001	 31.600	 99.954	 -1.057

17104	 -0.379	 -0.406	  0.441	  0.128	  0.029	 -9.774	 -0.004	  0.002	  0.001	 31.600	 99.938	  0.378

17154	 -0.380	 -0.408	  0.441	  0.111	  0.053	 -9.727	 -0.003	  0.004	  0.000	 31.600	 99.942	  0.020

17204	 -0.385	 -0.407	  0.434	  0.106	  0.043	 -9.741	 -0.003	  0.003	  0.001	 31.600	 99.954	 -1.057

17254	 -0.382	 -0.408	  0.441	  0.126	  0.057	 -9.755	 -0.003	  0.002	  0.001	 31.600	 99.942	  0.020

17304	 -0.383	 -0.396	  0.443	  0.144	  0.063	 -9.765	 -0.004	  0.002	  0.001	 31.600	 99.942	  0.020

17354	 -0.379	 -0.408	  0.444	  0.113	  0.050	 -9.779	 -0.002	  0.003	  0.001	 31.600	 99.942	  0.020

17404	 -0.381	 -0.410	  0.441	  0.102	  0.047	 -9.761	 -0.003	  0.003	  0.000	 31.600	 99.942	  0.020

17454	 -0.380	 -0.408	  0.440	  0.123	  0.065	 -9.760	 -0.003	  0.002	  0.001	 31.600	 99.942	  0.020

17504	 -0.379	 -0.410	  0.445	  0.093	  0.055	 -9.723	 -0.004	  0.002	  0.001	 31.600	 99.927	  1.365

17554	 -0.380	 -0.410	  0.442	  0.147	  0.040	 -9.757	 -0.003	  0.003	  0.001	 31.600	 99.942	  0.020

17604	 -0.382	 -0.409	  0.440	  0.113	  0.060	 -9.736	 -0.003	  0.003	  0.002	 31.600	 99.942	  0.020

17654	 -0.381	 -0.399	  0.443	  0.126	  0.042	 -9.777	 -0.003	  0.002	  0.001	 31.600	 99.938	  0.378

17704	 -0.382	 -0.408	  0.440	  0.130	  0.066	 -9.736	 -0.003	  0.003	 -0.000	 31.600	 99.949	 -0.608

17754	 -0.381	 -0.407	  0.441	  0.116	  0.038	 -9.760	 -0.004	  0.003	  0.001	 31.600	 99.938	  0.378

17804	 -0.380	 -0.408	  0.441	  0.114	  0.037	 -9.740	 -0.004	  0.003	  0.002	 31.600	 99.942	  0.020

17854	 -0.380	 -0.409	  0.441	  0.114	  0.047	 -9.799	 -0.004	  0.003	  0.001	 31.600	 99.938	  0.378

17904	 -0.380	 -0.410	  0.443	  0.128	  0.042	 -9.732	 -0.004	  0.002	  0.001	 31.600	 99.942	  0.020

17954	 -0.380	 -0.405	  0.439	  0.122	  0.049	 -9.754	 -0.004	  0.004	  0.000	 31.600	 99.927	  1.365

18004	 -0.382	 -0.396	  0.436	  0.106	  0.035	 -9.789	 -0.004	  0.003	  0.001	 31.600	 99.931	  1.007

18054	 -0.381	 -0.408	  0.442	  0.114	  0.060	 -9.739	 -0.005	  0.002	 -0.000	 31.600	 99.931	  1.007

18104	 -0.380	 -0.406	  0.440	  0.133	  0.053	 -9.739	 -0.003	  0.003	 -0.000	 31.600	 99.942	  0.020

18154	 -0.380	 -0.408	  0.444	  0.132	  0.052	 -9.762	 -0.004	  0.003	  0.000	 31.600	 99.931	  1.007

18203	 -0.382	 -0.398	  0.436	  0.106	  0.079	 -9.782	 -0.004	  0.004	  0.000	 31.600	 99.938	  0.378

18253	 -0.383	 -0.406	  0.437	  0.118	  0.032	 -9.756	 -0.003	  0.003	  0.000	 31.600	 99.942	  0.020

18304	 -0.382	 -0.408	  0.441	  0.114	  0.062	 -9.755	 -0.005	  0.001	  0.001	 31.600	 99.942	  0.020

18354	 -0.383	 -0.407	  0.436	  0.115	  0.046	 -9.773	 -0.003	  0.003	  0.002	 31.600	 99.938	  0.378

18404	 -0.381	 -0.408	  0.440	  0.127	  0.045	 -9.761	 -0.003	  0.003	  0.001	 31.600	 99.938	  0.378

18454	 -0.381	 -0.409	  0.445	  0.099	  0.046	 -9.764	 -0.003	  0.003	  0.001	 31.600	 99.942	  0.020

18503	 -0.380	 -0.401	  0.441	  0.092	  0.064	 -9.763	 -0.004	  0.002	  0.001	 31.600	 99.942	  0.020

18554	 -0.381	 -0.408	  0.443	  0.120	  0.064	 -9.761	 -0.004	  0.003	  0.000	 31.600	 99.942	  0.020

18603	 -0.380	 -0.403	  0.440	  0.112	  0.046	 -9.781	 -0.002	  0.003	  0.001	 31.600	 99.942	  0.020

18653	 -0.381	 -0.407	  0.443	  0.100	  0.040	 -9.742	 -0.003	  0.003	  0.001	 31.600	 99.942	  0.020

18703	 -0.381	 -0.406	  0.434	  0.124	  0.046	 -9.735	 -0.004	  0.003	  0.001	 31.600	 99.942	  0.020

18754	 -0.380	 -0.412	  0.442	  0.126	  0.065	 -9.769	 -0.003	  0.003	  0.001	 31.600	 99.931	  1.007

18803	 -0.380	 -0.400	  0.434	  0.097	  0.053	 -9.763	 -0.003	  0.002	  0.000	 31.600	 99.938	  0.378

18853	 -0.382	 -0.410	  0.444	  0.110	  0.047	 -9.758	 -0.004	  0.002	  0.000	 31.600	 99.954	 -1.057

18903	 -0.381	 -0.407	  0.441	  0.121	  0.052	 -9.762	 -0.003	  0.003	  0.001	 31.600	 99.931	  1.007

18953	 -0.378	 -0.398	  0.433	  0.143	  0.071	 -9.737	 -0.004	  0.002	  0.001	 31.600	 99.954	 -1.057

19003	 -0.381	 -0.406	  0.438	  0.098	  0.061	 -9.785	 -0.002	  0.002	  0.000	 31.600	 99.942	  0.020

19053	 -0.379	 -0.404	  0.438	  0.117	  0.047	 -9.742	 -0.004	  0.002	  0.000	 31.600	 99.942	  0.020

19103	 -0.380	 -0.408	  0.439	  0.128	  0.050	 -9.751	 -0.004	  0.002	 -0.000	 31.600	 99.942	  0.020

19154	 -0.380	 -0.407	  0.441	  0.116	  0.037	 -9.783	 -0.004	  0.004	  0.000	 31.600	 99.954	 -1.057

19203	 -0.380	 -0.408	  0.441	  0.129	  0.048	 -9.778	 -0.003	  0.002	  0.002	 31.600	 99.931	  1.007

19254	 -0.382	 -0.405	  0.442	  0.111	  0.052	 -9.775	 -0.002	  0.001	  0.002	 31.600	 99.949	 -0.608

19303	 -0.380	 -0.410	  0.442	  0.127	  0.037	 -9.742	 -0.003	  0.001	  0.002	 31.600	 99.931	  1.007

19353	 -0.380	 -0.406	  0.441	  0.097	  0.048	 -9.733	 -0.003	  0.002	  0.001	 31.600	 99.942	  0.020

19403	 -0.383	 -0.403	  0.442	  0.111	  0.082	 -9.786	 -0.003	  0.002	 -0.000	 31.600	 99.927	  1.365

19453	 -0.377	 -0.408	  0.440	  0.118	  0.072	 -9.726	 -0.003	  0.001	  0.001	 31.600	 99.931	  1.007

19503	 -0.380	 -0.395	  0.443	  0.097	  0.059	 -9.759	 -0.004	  0.002	  0.001	 31.600	 99.942	  0.020

19553	 -0.380	 -0.407	  0.441	  0.101	  0.047	 -9.744	 -0.003	  0.002	  0.002	 31.600	 99.942	  0.020

19603	 -0.380	 -0.409	  0.443	  0.091	  0.057	 -9.755	 -0.003	  0.002	  0.001	 31.600	 99.942	  0.020

19653	 -0.379	 -0.406	  0.441	  0.132	  0.046	 -9.765	 -0.003	  0.002	  0.001	 31.600	 99.931	  1.007

19704	 -0.382	 -0.408	  0.437	  0.112	  0.037	 -9.782	 -0.004	  0.002	  0.000	 31.600	 99.942	  0.020

19753	 -0.382	 -0.411	  0.445	  0.146	  0.046	 -9.754	 -0.004	  0.003	  0.002	 31.600	 99.938	  0.378

19804	 -0.383	 -0.392	  0.442	  0.083	  0.042	 -9.746	 -0.003	  0.003	  0.001	 31.600	 99.927	  1.365

19853	 -0.381	 -0.407	  0.442	  0.114	  0.044	 -9.765	 -0.003	  0.003	  0.002	 31.600	 99.942	  0.020

19904	 -0.380	 -0.410	  0.441	  0.122	  0.060	 -9.748	 -0.003	  0.004	  0.002	 31.600	 99.938	  0.378

19954	 -0.380	 -0.408	  0.441	  0.112	  0.038	 -9.775	 -0.003	  0.003	  0.001	 31.600	 99.931	  1.007

20004	 -0.382	 -0.406	  0.438	  0.100	  0.039	 -9.729	 -0.004	  0.002	  0.001	 31.600	 99.942	  0.020

20054	 -0.380	 -0.404	  0.443	  0.152	  0.047	 -9.787	 -0.003	  0.002	  0.001	 31.600	 99.942	  0.020

20104	 -0.381	 -0.408	  0.442	  0.118	  0.056	 -9.744	 -0.004	  0.003	  0.001	 31.600	 99.942	  0.020

20154	 -0.381	 -0.408	  0.444	  0.122	  0.068	 -9.743	 -0.003	  0.003	  0.001	 31.600	 99.942	  0.020

20204	 -0.379	 -0.410	  0.443	  0.123	  0.053	 -9.749	 -0.004	  0.003	  0.000	 31.600	 99.954	 -1.057

20254	 -0.380	 -0.408	  0.443	  0.117	  0.048	 -9.783	 -0.004	  0.002	 -0.000	 31.600	 99.942	  0.020

20304	 -0.380	 -0.409	  0.443	  0.123	  0.061	 -9.752	 -0.004	  0.002	  0.002	 31.600	 99.938	  0.378

20354	 -0.383	 -0.409	  0.441	  0.106	  0.040	 -9.762	 -0.002	  0.002	  0.000	 31.600	 99.942	  0.020

20404	 -0.380	 -0.406	  0.442	  0.109	  0.049	 -9.726	 -0.004	  0.003	  0.002	 31.600	 99.931	  1.007

20454	 -0.382	 -0.408	  0.441	  0.125	  0.035	 -9.761	 -0.004	  0.003	  0.001	 31.600	 99.938	  0.378

20504	 -0.382	 -0.412	  0.443	  0.118	  0.050	 -9.752	 -0.005	  0.002	  0.000	 31.600	 99.942	  0.020

20554	 -0.380	 -0.400	  0.435	  0.096	  0.037	 -9.784	 -0.004	  0.002	  0.001	 31.600	 99.942	  0.020

20604	 -0.380	 -0.411	  0.442	  0.119	  0.052	 -9.718	 -0.003	  0.002	  0.002	 31.600	 99.954	 -1.057

20654	 -0.382	 -0.409	  0.442	  0.115	  0.044	 -9.763	 -0.003	  0.003	  0.001	 31.600	 99.931	  1.007

20704	 -0.379	 -0.406	  0.443	  0.090	  0.047	 -9.769	 -0.004	  0.001	  0.001	 31.600	 99.931	  1.007

20754	 -0.380	 -0.409	  0.444	  0.100	  0.058	 -9.778	 -0.003	  0.002	  0.001	 31.600	 99.942	  0.020

20804	 -0.380	 -0.407	  0.442	  0.122	  0.063	 -9.749	 -0.003	  0.002	  0.001	 31.600	 99.942	  0.020

20854	 -0.380	 -0.402	  0.443	  0.116	  0.038	 -9.764	 -0.004	  0.003	  0.000	 31.600	 99.927	  1.365

20904	 -0.381	 -0.409	  0.440	  0.132	  0.057	 -9.726	 -0.003	  0.003	 -0.000	 31.600	 99.931	  1.007

20954	 -0.381	 -0.401	  0.444	  0.122	  0.037	 -9.759	 -0.004	  0.002	  0.000	 31.600	 99.938	  0.378

21004	 -0.380	 -0.407	  0.441	  0.119	  0.048	 -9.774	 -0.005	  0.003	  0.000	 31.600	 99.942	  0.020

21054	 -0.381	 -0.403	  0.442	  0.107	  0.050	 -9.756	 -0.003	  0.002	  0.001	 31.600	 99.954	 -1.057

21104	 -0.383	 -0.405	  0.442	  0.136	  0.053	 -9.770	 -0.004	  0.003	  0.001	 31.600	 99.942	  0.020

21154	 -0.380	 -0.408	  0.441	  0.090	  0.053	 -9.736	 -0.003	  0.002	  0.001	 31.600	 99.942	  0.020

21204	 -0.380	 -0.408	  0.443	  0.129	  0.062	 -9.747	 -0.004	  0.003	  0.001	 31.600	 99.931	  1.007

21254	 -0.381	 -0.408	  0.442	  0.118	  0.032	 -9.777	 -0.003	  0.003	  0.001	 31.600	 99.942	  0.020

21304	 -0.380	 -0.408	  0.438	  0.123	  0.026	 -9.746	 -0.003	  0.003	  0.000	 31.600	 99.942	  0.020

21354	 -0.380	 -0.410	  0.442	  0.137	  0.045	 -9.775	 -0.003	  0.002	 -0.000	 31.600	 99.942	  0.020

21404	 -0.380	 -0.409	  0.445	  0.112	  0.058	 -9.753	 -0.003	  0.004	  0.001	 31.600	 99.942	  0.020

21454	 -0.380	 -0.406	  0.441	  0.133	  0.044	 -9.781	 -0.003	  0.001	  0.001	 31.600	 99.954	 -1.057

21504	 -0.382	 -0.404	  0.440	  0.106	  0.054	 -9.778	 -0.004	  0.001	  0.000	 31.600	 99.938	  0.378

21554	 -0.381	 -0.405	  0.444	  0.101	  0.052	 -9.759	 -0.003	  0.002	  0.000	 31.600	 99.942	  0.020

21604	 -0.381	 -0.403	  0.441	  0.142	  0.057	 -9.744	 -0.003	  0.004	  0.000	 31.600	 99.931	  1.007

21654	 -0.380	 -0.410	  0.438	  0.120	  0.058	 -9.757	 -0.004	  0.002	  0.000	 31.600	 99.942	  0.020

21704	 -0.379	 -0.398	  0.445	  0.127	  0.049	 -9.769	 -0.003	  0.003	  0.000	 31.600	 99.942	  0.020

21754	 -0.380	 -0.408	  0.443	  0.126	  0.051	 -9.778	 -0.003	  0.002	  0.001	 31.600	 99.931	  1.007

21804	 -0.381	 -0.407	  0.441	  0.149	  0.055	 -9.735	 -0.004	  0.003	  0.001	 31.600	 99.931	  1.007

21854	 -0.380	 -0.408	  0.443	  0.111	  0.048	 -9.735	 -0.004	  0.003	  0.001	 31.600	 99.942	  0.020

21904	 -0.381	 -0.404	  0.433	  0.109	  0.064	 -9.746	 -0.005	  0.003	  0.000	 31.600	 99.942	  0.020

21954	 -0.380	 -0.411	  0.443	  0.122	  0.042	 -9.810	 -0.003	  0.003	  0.000	 31.600	 99.942	  0.020

22004	 -0.382	 -0.405	  0.431	  0.106	  0.062	 -9.745	 -0.004	  0.002	 -0.000	 31.600	 99.942	  0.020

22054	 -0.380	 -0.409	  0.442	  0.124	  0.056	 -9.752	 -0.004	  0.002	  0.001	 31.600	 99.942	  0.020

22104	 -0.381	 -0.405	  0.432	  0.110	  0.058	 -9.752	 -0.004	  0.002	  0.001	 31.600	 99.954	 -1.057

22154	 -0.380	 -0.407	  0.445	  0.092	  0.043	 -9.778	 -0.003	  0.003	  0.001	 31.600	 99.942	  0.020

22204	 -0.381	 -0.408	  0.441	  0.114	  0.051	 -9.763	 -0.004	  0.002	  0.001	 31.600	 99.942	  0.020

22254	 -0.380	 -0.408	  0.441	  0.112	  0.057	 -9.771	 -0.003	  0.001	  0.001	 31.600	 99.931	  1.007

22304	 -0.379	 -0.410	  0.444	  0.102	  0.044	 -9.765	 -0.004	  0.003	 -0.000	 31.600	 99.931	  1.007

22354	 -0.382	 -0.408	  0.443	  0.114	  0.062	 -9.769	 -0.004	  0.002	  0.001	 31.600	 99.931	  1.007

22404	 -0.381	 -0.405	  0.443	  0.125	  0.056	 -9.727	 -0.004	  0.002	  0.001	 31.600	 99.942	  0.020

22454	 -0.381	 -0.405	  0.441	  0.096	  0.043	 -9.757	 -0.004	  0.003	  0.000	 31.600	 99.942	  0.020

22504	 -0.381	 -0.406	  0.444	  0.131	  0.062	 -9.730	 -0.003	  0.003	  0.002	 31.600	 99.931	  1.007

22554	 -0.381	 -0.409	  0.441	  0.109	  0.062	 -9.718	 -0.004	  0.002	  0.000	 31.600	 99.931	  1.007

22604	 -0.379	 -0.408	  0.442	  0.134	  0.052	 -9.774	 -0.003	  0.002	  0.001	 31.600	 99.942	  0.020

22654	 -0.382	 -0.404	  0.438	  0.109	  0.034	 -9.749	 -0.005	  0.001	  0.001	 31.600	 99.931	  1.007

22703	 -0.380	 -0.396	  0.444	  0.115	  0.073	 -9.772	 -0.003	  0.002	  0.002	 31.600	 99.942	  0.020

22753	 -0.382	 -0.404	  0.433	  0.113	  0.061	 -9.770	 -0.003	  0.002	  0.001	 31.600	 99.931	  1.007

22803	 -0.382	 -0.406	  0.441	  0.136	  0.054	 -9.779	 -0.004	  0.003	  0.000	 31.600	 99.942	  0.020

22853	 -0.380	 -0.407	  0.443	  0.109	  0.055	 -9.780	 -0.004	  0.001	  0.000	 31.600	 99.931	  1.007

22903	 -0.382	 -0.407	  0.442	  0.129	  0.053	 -9.799	 -0.003	  0.003	  0.000	 31.600	 99.942	  0.020

22953	 -0.383	 -0.408	  0.444	  0.144	  0.058	 -9.756	 -0.002	  0.003	 -0.000	 31.600	 99.942	  0.020

23003	 -0.381	 -0.407	  0.444	  0.108	  0.037	 -9.791	 -0.004	  0.003	  0.000	 31.600	 99.942	  0.020

23054	 -0.380	 -0.407	  0.441	  0.116	  0.034	 -9.698	 -0.003	  0.003	  0.001	 31.600	 99.931	  1.007

23103	 -0.381	 -0.407	  0.442	  0.104	  0.049	 -9.747	 -0.004	  0.001	  0.001	 31.600	 99.942	  0.020

23153	 -0.383	 -0.403	  0.441	  0.108	  0.051	 -9.765	 -0.003	  0.001	  0.001	 31.600	 99.931	  1.007

23203	 -0.380	 -0.406	  0.437	  0.110	  0.049	 -9.766	 -0.004	  0.004	  0.001	 31.600	 99.942	  0.020

23253	 -0.380	 -0.411	  0.438	  0.112	  0.057	 -9.779	 -0.003	  0.002	  0.001	 31.600	 99.954	 -1.057

23304	 -0.380	 -0.405	  0.440	  0.113	  0.043	 -9.756	 -0.003	  0.002	  0.000	 31.600	 99.931	  1.007

23353	 -0.380	 -0.409	  0.444	  0.108	  0.009	 -9.786	 -0.004	  0.002	  0.001	 31.600	 99.931	  1.007

23403	 -0.381	 -0.408	  0.430	  0.107	  0.062	 -9.788	 -0.004	  0.003	  0.001	 31.600	 99.931	  1.007

23453	 -0.382	 -0.409	  0.440	  0.121	  0.020	 -9.741	 -0.004	  0.002	  0.002	 31.600	 99.954	 -1.057

23503	 -0.382	 -0.410	  0.440	  0.150	  0.046	 -9.786	 -0.005	  0.002	  0.000	 31.600	 99.931	  1.007

23553	 -0.380	 -0.411	  0.444	  0.114	  0.046	 -9.753	 -0.003	  0.002	  0.001	 31.600	 99.954	 -1.057

23603	 -0.382	 -0.410	  0.441	  0.129	  0.036	 -9.711	 -0.004	  0.003	  0.001	 31.600	 99.931	  1.007

23653	 -0.380	 -0.408	  0.436	  0.125	  0.058	 -9.772	 -0.003	  0.002	  0.000	 31.600	 99.942	  0.020

23703	 -0.382	 -0.407	  0.440	  0.136	  0.028	 -9.732	 -0.002	  0.000	  0.001	 31.600	 99.931	  1.007

23753	 -0.381	 -0.400	  0.433	  0.119	  0.063	 -9.758	 -0.003	  0.002	  0.000	 31.600	 99.935	  0.648

23803	 -0.382	 -0.408	  0.444	  0.122	  0.053	 -9.770	 -0.003	  0.001	  0.001	 31.600	 99.942	  0.020

23853	 -0.381	 -0.407	  0.444	  0.108	  0.079	 -9.748	 -0.004	  0.002	  0.002	 31.600	 99.942	  0.020

23903	 -0.380	 -0.404	  0.445	  0.114	  0.051	 -9.746	 -0.003	  0.002	  0.000	 31.600	 99.931	  1.007

23953	 -0.379	 -0.408	  0.440	  0.131	  0.047	 -9.759	 -0.003	  0.003	  0.000	 31.600	 99.942	  0.020

24003	 -0.381	 -0.406	  0.448	  0.126	  0.052	 -9.785	 -0.004	  0.002	 -0.000	 31.600	 99.942	  0.020

24053	 -0.380	 -0.410	  0.440	  0.118	  0.057	 -9.762	 -0.003	  0.002	  0.000	 31.600	 99.938	  0.378

24104	 -0.381	 -0.407	  0.440	  0.129	  0.062	 -9.778	 -0.005	  0.005	  0.001	 31.600	 99.931	  1.007

24154	 -0.382	 -0.410	  0.446	  0.110	  0.039	 -9.753	 -0.003	  0.002	  0.001	 31.600	 99.954	 -1.057

24204	 -0.380	 -0.409	  0.440	  0.095	  0.058	 -9.748	 -0.004	  0.001	  0.001	 31.600	 99.931	  1.007

24254	 -0.380	 -0.406	  0.441	  0.116	  0.078	 -9.749	 -0.003	  0.002	  0.001	 31.600	 99.931	  1.007

24304	 -0.382	 -0.395	  0.442	  0.137	  0.059	 -9.764	 -0.004	  0.003	  0.001	 31.600	 99.931	  1.007

24354	 -0.382	 -0.409	  0.444	  0.098	  0.061	 -9.764	 -0.003	  0.002	  0.002	 31.600	 99.942	  0.020

24403	 -0.381	 -0.408	  0.442	  0.112	  0.057	 -9.769	 -0.003	  0.002	  0.001	 31.600	 99.946	 -0.339

24453	 -0.380	 -0.411	  0.438	  0.123	  0.052	 -9.748	 -0.002	  0.002	 -0.001	 31.600	 99.931	  1.007

24503	 -0.380	 -0.407	  0.442	  0.129	  0.061	 -9.783	 -0.003	  0.004	 -0.000	 31.600	 99.942	  0.020

24553	 -0.381	 -0.400	  0.443	  0.116	  0.039	 -9.751	 -0.004	  0.002	  0.000	 31.600	 99.942	  0.020

24603	 -0.382	 -0.404	  0.438	  0.115	  0.053	 -9.765	 -0.003	  0.002	  0.000	 31.600	 99.931	  1.007

24653	 -0.382	 -0.409	  0.442	  0.116	  0.040	 -9.682	 -0.003	  0.002	  0.001	 31.600	 99.931	  1.007

24703	 -0.382	 -0.409	  0.442	  0.105	  0.044	 -9.780	 -0.004	  0.002	 -0.000	 31.600	 99.931	  1.007

24753	 -0.381	 -0.407	  0.444	  0.117	  0.050	 -9.784	 -0.004	  0.002	  0.001	 31.600	 99.931	  1.007

24803	 -0.382	 -0.408	  0.441	  0.114	  0.076	 -9.780	 -0.003	  0.002	  0.000	 31.600	 99.931	  1.007

24853	 -0.382	 -0.407	  0.443	  0.099	  0.048	 -9.774	 -0.003	  0.003	  0.002	 31.600	 99.931	  1.007

24903	 -0.379	 -0.394	  0.442	  0.119	  0.033	 -9.800	 -0.003	  0.002	  0.001	 31.600	 99.942	  0.020

24953	 -0.381	 -0.406	  0.443	  0.118	  0.042	 -9.767	 -0.004	  0.002	  0.001	 31.600	 99.931	  1.007

25003	 -0.381	 -0.408	  0.444	  0.102	  0.024	 -9.816	 -0.002	  0.002	  0.001	 31.600	 99.931	  1.007

25054	 -0.382	 -0.405	  0.441	  0.118	  0.079	 -9.742	 -0.002	  0.001	  0.001	 31.600	 99.920	  1.993

25103	 -0.382	 -0.411	  0.444	  0.105	  0.039	 -9.786	 -0.003	  0.001	  0.000	 31.600	 99.931	  1.007

25153	 -0.381	 -0.407	  0.442	  0.117	  0.052	 -9.746	 -0.004	  0.003	  0.000	 31.600	 99.942	  0.020

25203	 -0.382	 -0.396	  0.441	  0.125	  0.030	 -9.796	 -0.003	  0.002	  0.001	 31.600	 99.954	 -1.057

25254	 -0.380	 -0.408	  0.442	  0.112	  0.043	 -9.711	 -0.002	  0.003	  0.000	 31.600	 99.931	  1.007

25304	 -0.380	 -0.410	  0.443	  0.128	  0.036	 -9.797	 -0.003	  0.003	  0.002	 31.600	 99.942	  0.020

25355	 -0.381	 -0.407	  0.442	  0.098	  0.047	 -9.765	 -0.004	  0.002	  0.001	 31.600	 99.931	  1.007

25404	 -0.384	 -0.407	  0.443	  0.106	  0.045	 -9.775	 -0.003	  0.002	  0.001	 31.600	 99.931	  1.007

25454	 -0.382	 -0.406	  0.442	  0.103	  0.052	 -9.766	 -0.003	  0.001	  0.001	 31.600	 99.942	  0.020

25504	 -0.383	 -0.409	  0.444	  0.110	  0.064	 -9.742	 -0.004	  0.002	  0.001	 31.600	 99.931	  1.007

25554	 -0.380	 -0.407	  0.443	  0.120	  0.052	 -9.742	 -0.004	  0.003	  0.001	 31.600	 99.942	  0.020

25604	 -0.381	 -0.407	  0.441	  0.102	  0.072	 -9.775	 -0.004	  0.003	  0.000	 31.600	 99.931	  1.007

25654	 -0.382	 -0.411	  0.435	  0.113	  0.044	 -9.758	 -0.004	  0.002	  0.001	 31.600	 99.931	  1.007

25704	 -0.381	 -0.401	  0.442	  0.141	  0.072	 -9.686	 -0.002	  0.001	 -0.000	 31.600	 99.942	  0.020

25754	 -0.381	 -0.407	  0.442	  0.122	  0.068	 -9.707	 -0.002	  0.003	 -0.001	 31.600	 99.942	  0.020

25804	 -0.381	 -0.406	  0.438	  0.109	  0.059	 -9.743	 -0.004	  0.004	  0.000	 31.600	 99.935	  0.648

25854	 -0.381	 -0.407	  0.441	  0.106	  0.058	 -9.737	 -0.002	  0.002	  0.001	 31.600	 99.942	  0.020

25904	 -0.380	 -0.408	  0.441	  0.141	  0.066	 -9.768	 -0.003	  0.002	  0.001	 31.600	 99.942	  0.020

25954	 -0.381	 -0.408	  0.444	  0.111	  0.064	 -9.783	 -0.004	  0.003	  0.000	 31.600	 99.942	  0.020

26004	 -0.382	 -0.408	  0.433	  0.098	  0.045	 -9.741	 -0.004	  0.004	  0.000	 31.600	 99.931	  1.007

26054	 -0.381	 -0.407	  0.434	  0.122	  0.057	 -9.792	 -0.004	  0.002	  0.000	 31.600	 99.942	  0.020

26104	 -0.380	 -0.399	  0.445	  0.112	  0.045	 -9.793	 -0.004	  0.002	  0.001	 31.600	 99.942	  0.020

26154	 -0.382	 -0.403	  0.441	  0.107	  0.025	 -9.738	 -0.003	  0.001	  0.001	 31.600	 99.931	  1.007

26204	 -0.380	 -0.411	  0.442	  0.110	  0.029	 -9.775	 -0.004	  0.003	  0.000	 31.600	 99.931	  1.007

26254	 -0.381	 -0.403	  0.438	  0.104	  0.068	 -9.761	 -0.003	  0.002	  0.000	 31.600	 99.931	  1.007

26304	 -0.382	 -0.410	  0.443	  0.114	  0.029	 -9.747	 -0.004	  0.003	  0.001	 31.600	 99.927	  1.365

26354	 -0.380	 -0.409	  0.441	  0.136	  0.078	 -9.748	 -0.004	  0.002	  0.001	 31.600	 99.942	  0.020

26404	 -0.382	 -0.412	  0.444	  0.119	  0.029	 -9.737	 -0.003	  0.003	  0.001	 31.600	 99.942	  0.020

26454	 -0.380	 -0.408	  0.442	  0.146	  0.038	 -9.760	 -0.003	  0.003	  0.001	 31.600	 99.946	 -0.339

26504	 -0.380	 -0.402	  0.437	  0.112	  0.044	 -9.788	 -0.004	  0.003	  0.002	 31.600	 99.931	  1.007

26554	 -0.381	 -0.408	  0.441	  0.124	  0.055	 -9.766	 -0.003	  0.001	  0.001	 31.600	 99.942	  0.020

26604	 -0.380	 -0.405	  0.443	  0.078	  0.057	 -9.916	 -0.002	  0.002	 -0.001	 31.600	 99.931	  1.007

26654	 -0.381	 -0.408	  0.443	  0.134	  0.067	 -9.715	 -0.002	  0.001	  0.001	 31.600	 99.942	  0.020

26704	 -0.381	 -0.408	  0.440	  0.125	  0.072	 -9.726	 -0.004	  0.002	 -0.000	 31.600	 99.931	  1.007

26754	 -0.380	 -0.407	  0.443	  0.098	  0.047	 -9.758	 -0.003	  0.003	  0.001	 31.600	 99.931	  1.007

26804	 -0.380	 -0.404	  0.442	  0.103	  0.061	 -9.759	 -0.004	  0.002	  0.000	 31.600	 99.942	  0.020

26854	 -0.380	 -0.406	  0.444	  0.115	  0.049	 -9.763	 -0.003	  0.002	  0.002	 31.600	 99.942	  0.020

26904	 -0.380	 -0.407	  0.442	  0.092	  0.045	 -9.751	 -0.003	  0.002	 -0.000	 31.600	 99.920	  1.993

26954	 -0.379	 -0.403	  0.441	  0.105	  0.062	 -9.753	 -0.005	  0.003	  0.000	 31.600	 99.931	  1.007

27004	 -0.382	 -0.401	  0.435	  0.115	  0.086	 -9.719	 -0.003	  0.002	  0.000	 31.600	 99.931	  1.007

27054	 -0.380	 -0.410	  0.443	  0.114	  0.065	 -9.768	 -0.003	  0.002	  0.000	 31.600	 99.942	  0.020

27104	 -0.381	 -0.408	  0.441	  0.100	  0.055	 -9.754	 -0.004	  0.002	  0.000	 31.600	 99.946	 -0.339

27154	 -0.383	 -0.409	  0.441	  0.138	  0.061	 -9.725	 -0.003	  0.003	  0.002	 31.600	 99.931	  1.007

27204	 -0.380	 -0.408	  0.442	  0.118	  0.057	 -9.779	 -0.002	 -0.000	 -0.000	 31.600	 99.942	  0.020

27254	 -0.380	 -0.402	  0.436	  0.105	  0.043	 -9.780	 -0.002	  0.001	  0.000	 31.600	 99.942	  0.020

27304	 -0.380	 -0.410	  0.443	  0.116	  0.065	 -9.765	 -0.004	  0.001	 -0.000	 31.600	 99.942	  0.020

27354	 -0.382	 -0.411	  0.438	  0.107	  0.037	 -9.743	 -0.004	  0.002	  0.001	 31.600	 99.942	  0.020

27404	 -0.381	 -0.407	  0.443	  0.119	  0.052	 -9.780	 -0.002	  0.003	  0.000	 31.600	 99.931	  1.007

27454	 -0.379	 -0.403	  0.442	  0.118	  0.054	 -9.735	 -0.004	  0.001	  0.000	 31.600	 99.931	  1.007

27504	 -0.381	 -0.405	  0.444	  0.098	  0.063	 -9.757	 -0.005	  0.002	  0.000	 31.600	 99.931	  1.007

27554	 -0.380	 -0.405	  0.441	  0.126	  0.049	 -9.729	 -0.004	  0.002	  0.001	 31.600	 99.942	  0.020

27604	 -0.381	 -0.408	  0.441	  0.111	  0.031	 -9.811	 -0.005	  0.004	  0.002	 31.600	 99.931	  1.007

27654	 -0.380	 -0.409	  0.444	  0.107	  0.045	 -9.753	 -0.004	  0.002	  0.001	 31.600	 99.931	  1.007

27704	 -0.380	 -0.405	  0.441	  0.125	  0.053	 -9.800	 -0.004	  0.004	  0.002	 31.600	 99.931	  1.007

27754	 -0.380	 -0.407	  0.441	  0.128	  0.057	 -9.790	 -0.004	  0.003	  0.001	 31.600	 99.942	  0.020

27804	 -0.381	 -0.403	  0.435	  0.118	  0.049	 -9.750	 -0.004	  0.003	  0.001	 31.600	 99.931	  1.007

27854	 -0.380	 -0.409	  0.441	  0.123	  0.065	 -9.777	 -0.003	  0.001	  0.001	 31.600	 99.931	  1.007

27904	 -0.379	 -0.410	  0.441	  0.123	  0.050	 -9.764	 -0.003	  0.002	  0.001	 31.600	 99.931	  1.007

27954	 -0.379	 -0.408	  0.442	  0.108	  0.041	 -9.719	 -0.004	  0.002	  0.000	 31.600	 99.920	  1.993

28004	 -0.381	 -0.408	  0.440	  0.123	  0.063	 -9.730	 -0.004	  0.002	  0.001	 31.600	 99.942	  0.020

28054	 -0.379	 -0.409	  0.442	  0.127	  0.068	 -9.766	 -0.003	  0.002	  0.000	 31.600	 99.931	  1.007

28104	 -0.379	 -0.405	  0.442	  0.135	  0.060	 -9.752	 -0.003	  0.002	  0.001	 31.600	 99.931	  1.007

28154	 -0.380	 -0.402	  0.438	  0.096	  0.049	 -9.755	 -0.003	  0.003	  0.002	 31.600	 99.931	  1.007

28204	 -0.383	 -0.408	  0.445	  0.127	  0.045	 -9.791	 -0.003	  0.002	 -0.001	 31.600	 99.931	  1.007

28254	 -0.381	 -0.406	  0.433	  0.125	  0.045	 -9.728	 -0.003	  0.003	  0.001	 31.600	 99.942	  0.020

28304	 -0.382	 -0.406	  0.444	  0.124	  0.066	 -9.839	 -0.005	  0.004	  0.001	 31.600	 99.935	  0.648

28354	 -0.380	 -0.408	  0.440	  0.117	  0.027	 -9.812	 -0.004	  0.003	  0.001	 31.600	 99.931	  1.007

28404	 -0.380	 -0.408	  0.442	  0.104	  0.052	 -9.770	 -0.004	  0.003	  0.001	 31.600	 99.942	  0.020

28454	 -0.380	 -0.410	  0.442	  0.101	  0.037	 -9.793	 -0.003	  0.003	  0.002	 31.600	 99.931	  1.007

28504	 -0.384	 -0.409	  0.444	  0.117	  0.054	 -9.792	 -0.003	  0.002	  0.001	 31.600	 99.931	  1.007

28554	 -0.380	 -0.407	  0.440	  0.115	  0.075	 -9.769	 -0.004	  0.002	  0.001	 31.600	 99.931	  1.007

28604	 -0.379	 -0.405	  0.442	  0.108	  0.051	 -9.777	 -0.004	  0.003	  0.001	 31.600	 99.942	  0.020

28654	 -0.380	 -0.407	  0.439	  0.109	  0.045	 -9.768	 -0.004	  0.001	  0.000	 31.600	 99.927	  1.365

28704	 -0.382	 -0.408	  0.441	  0.120	  0.055	 -9.740	 -0.004	  0.001	  0.002	 31.600	 99.931	  1.007

28754	 -0.382	 -0.410	  0.443	  0.108	  0.081	 -9.752	 -0.003	  0.002	 -0.000	 31.600	 99.931	  1.007

28804	 -0.380	 -0.409	  0.431	  0.113	  0.059	 -9.782	 -0.003	  0.003	  0.001	 31.600	 99.931	  1.007

28854	 -0.382	 -0.409	  0.443	  0.101	  0.047	 -9.797	 -0.005	  0.002	  0.001	 31.600	 99.931	  1.007

28904	 -0.380	 -0.407	  0.444	  0.140	  0.065	 -9.736	 -0.004	  0.002	  0.002	 31.600	 99.942	  0.020

28954	 -0.380	 -0.408	  0.443	  0.120	  0.050	 -9.765	 -0.003	  0.002	  0.000	 31.600	 99.946	 -0.339

29004	 -0.383	 -0.398	  0.432	  0.123	  0.048	 -9.756	 -0.004	  0.002	  0.000	 31.600	 99.935	  0.648

29054	 -0.380	 -0.406	  0.436	  0.128	  0.046	 -9.795	 -0.004	  0.003	  0.001	 31.600	 99.931	  1.007

29104	 -0.380	 -0.407	  0.443	  0.097	  0.053	 -9.726	 -0.005	  0.004	 -0.000	 31.600	 99.946	 -0.339

29154	 -0.381	 -0.408	  0.443	  0.106	  0.043	 -9.762	 -0.003	  0.002	  0.001	 31.600	 99.920	  1.993

29204	 -0.380	 -0.407	  0.443	  0.116	  0.041	 -9.773	 -0.004	  0.002	  0.000	 31.600	 99.931	  1.007

29254	 -0.381	 -0.403	  0.436	  0.129	  0.039	 -9.779	 -0.004	  0.003	  0.001	 31.600	 99.931	  1.007

29304	 -0.380	 -0.409	  0.445	  0.113	  0.045	 -9.751	 -0.003	  0.001	  0.001	 31.600	 99.935	  0.648

29354	 -0.380	 -0.407	  0.443	  0.121	  0.057	 -9.727	 -0.005	  0.001	 -0.000	 31.600	 99.942	  0.020

29404	 -0.382	 -0.412	  0.443	  0.104	  0.033	 -9.817	 -0.005	  0.004	  0.001	 31.600	 99.931	  1.007

29454	 -0.381	 -0.408	  0.443	  0.100	  0.044	 -9.760	 -0.004	  0.002	  0.001	 31.600	 99.931	  1.007

29504	 -0.379	 -0.402	  0.442	  0.118	  0.048	 -9.779	 -0.005	  0.003	  0.001	 31.600	 99.942	  0.020

29554	 -0.380	 -0.395	  0.440	  0.093	  0.060	 -9.779	 -0.003	  0.002	  0.000	 31.600	 99.931	  1.007

29604	 -0.380	 -0.407	  0.440	  0.115	  0.043	 -9.784	 -0.004	  0.002	  0.002	 31.600	 99.942	  0.020

29654	 -0.380	 -0.408	  0.443	  0.121	  0.032	 -9.732	 -0.004	  0.002	  0.002	 31.600	 99.931	  1.007

29704	 -0.381	 -0.401	  0.433	  0.119	  0.059	 -9.708	 -0.004	  0.003	  0.000	 31.600	 99.920	  1.993

29754	 -0.379	 -0.399	  0.439	  0.095	  0.059	 -9.738	 -0.004	  0.002	 -0.000	 31.600	 99.931	  1.007

29804	 -0.383	 -0.406	  0.444	  0.126	  0.035	 -9.742	 -0.005	  0.004	  0.001	 31.600	 99.931	  1.007

29854	 -0.380	 -0.404	  0.443	  0.125	  0.057	 -9.765	 -0.003	  0.002	  0.001	 31.600	 99.935	  0.648

29904	 -0.379	 -0.408	  0.444	  0.110	  0.069	 -9.770	 -0.003	  0.002	  0.001	 31.600	 99.931	  1.007

29954	 -0.380	 -0.400	  0.436	  0.117	  0.022	 -9.766	 -0.003	  0.003	  0.000	 31.600	 99.931	  1.007

30004	 -0.382	 -0.409	  0.441	  0.111	  0.052	 -9.721	 -0.003	  0.003	  0.002	 31.600	 99.931	  1.007

30054	 -0.380	 -0.409	  0.440	  0.096	  0.034	 -9.750	 -0.003	  0.003	  0.001	 31.600	 99.920	  1.993

30104	 -0.380	 -0.409	  0.441	  0.101	  0.046	 -9.729	 -0.002	  0.003	  0.001	 31.600	 99.942	  0.020

30154	 -0.380	 -0.409	  0.443	  0.083	  0.050	 -9.749	 -0.003	  0.003	  0.001	 31.600	 99.931	  1.007

30204	 -0.379	 -0.398	  0.435	  0.103	  0.083	 -9.775	 -0.004	  0.003	  0.001	 31.600	 99.942	  0.020

30255	 -0.381	 -0.402	  0.440	  0.130	  0.062	 -9.764	 -0.003	  0.003	 -0.000	 31.600	 99.946	 -0.339

30304	 -0.382	 -0.408	  0.442	  0.096	  0.060	 -9.774	 -0.004	  0.002	  0.002	 31.600	 99.920	  1.993

30354	 -0.381	 -0.407	  0.436	  0.104	  0.055	 -9.759	 -0.004	  0.001	  0.000	 31.600	 99.931	  1.007

30404	 -0.380	 -0.402	  0.437	  0.113	  0.057	 -9.750	 -0.004	  0.002	  0.001	 31.600	 99.954	 -1.057

30454	 -0.381	 -0.404	  0.442	  0.105	  0.039	 -9.772	 -0.004	  0.002	  0.002	 31.600	 99.931	  1.007

30504	 -0.382	 -0.408	  0.442	  0.108	  0.038	 -9.757	 -0.005	  0.002	  0.000	 31.600	 99.931	  1.007

30554	 -0.380	 -0.408	  0.438	  0.105	  0.038	 -9.764	 -0.004	  0.002	  0.002	 31.600	 99.946	 -0.339

30603	 -0.380	 -0.405	  0.441	  0.114	  0.047	 -9.766	 -0.003	  0.003	  0.000	 31.600	 99.931	  1.007

30653	 -0.381	 -0.405	  0.441	  0.095	  0.061	 -9.728	 -0.005	  0.001	  0.001	 31.600	 99.931	  1.007

30704	 -0.382	 -0.407	  0.436	  0.116	  0.048	 -9.760	 -0.003	  0.001	  0.002	 31.600	 99.931	  1.007

30753	 -0.380	 -0.409	  0.444	  0.109	  0.046	 -9.766	 -0.003	  0.002	  0.001	 31.600	 99.931	  1.007

30804	 -0.381	 -0.406	  0.442	  0.116	  0.060	 -9.726	 -0.004	  0.002	  0.000	 31.600	 99.931	  1.007

30854	 -0.379	 -0.404	  0.444	  0.126	  0.055	 -9.747	 -0.002	  0.002	  0.002	 31.600	 99.931	  1.007

30904	 -0.382	 -0.407	  0.442	  0.133	  0.060	 -9.732	 -0.004	  0.003	  0.001	 31.600	 99.931	  1.007

30954	 -0.382	 -0.404	  0.435	  0.123	  0.048	 -9.755	 -0.004	  0.003	  0.001	 31.600	 99.935	  0.648

31004	 -0.380	 -0.407	  0.442	  0.134	  0.028	 -9.751	 -0.004	  0.002	 -0.000	 31.600	 99.931	  1.007

31054	 -0.380	 -0.409	  0.445	  0.101	  0.046	 -9.768	 -0.003	  0.003	  0.002	 31.600	 99.920	  1.993

31104	 -0.382	 -0.408	  0.440	  0.122	  0.064	 -9.749	 -0.004	  0.003	  0.001	 31.600	 99.942	  0.020

31154	 -0.383	 -0.406	  0.442	  0.124	  0.061	 -9.765	 -0.004	  0.003	  0.000	 31.600	 99.931	  1.007

31204	 -0.382	 -0.409	  0.443	  0.118	  0.056	 -9.753	 -0.003	  0.001	  0.000	 31.600	 99.931	  1.007

31254	 -0.380	 -0.406	  0.442	  0.132	  0.048	 -9.747	 -0.004	  0.002	  0.002	 31.600	 99.946	 -0.339

31304	 -0.380	 -0.411	  0.444	  0.119	  0.046	 -9.759	 -0.003	  0.004	  0.001	 31.600	 99.931	  1.007

31354	 -0.380	 -0.407	  0.436	  0.115	  0.062	 -9.772	 -0.002	  0.002	  0.001	 31.600	 99.935	  0.648

31404	 -0.380	 -0.410	  0.442	  0.122	  0.056	 -9.755	 -0.002	  0.002	  0.001	 31.600	 99.931	  1.007

31454	 -0.380	 -0.407	  0.443	  0.116	  0.063	 -9.756	 -0.004	  0.002	  0.001	 31.600	 99.931	  1.007

31504	 -0.380	 -0.409	  0.444	  0.115	  0.032	 -9.776	 -0.003	  0.003	  0.002	 31.600	 99.931	  1.007

31554	 -0.380	 -0.408	  0.442	  0.117	  0.071	 -9.740	 -0.004	  0.003	  0.000	 31.600	 99.942	  0.020

31604	 -0.380	 -0.406	  0.443	  0.122	  0.042	 -9.754	 -0.003	  0.002	  0.002	 31.600	 99.942	  0.020

31654	 -0.380	 -0.396	  0.440	  0.111	  0.039	 -9.770	 -0.003	  0.004	  0.001	 31.600	 99.931	  1.007

31704	 -0.382	 -0.407	  0.442	  0.135	  0.062	 -9.762	 -0.004	  0.002	  0.001	 31.600	 99.931	  1.007

31754	 -0.382	 -0.411	  0.444	  0.131	  0.030	 -9.741	 -0.002	  0.002	  0.001	 31.600	 99.931	  1.007

31804	 -0.381	 -0.406	  0.435	  0.113	  0.041	 -9.763	 -0.003	  0.002	 -0.000	 31.600	 99.931	  1.007

31854	 -0.380	 -0.402	  0.437	  0.103	  0.039	 -9.749	 -0.003	  0.003	  0.002	 31.600	 99.946	 -0.339

31904	 -0.380	 -0.409	  0.440	  0.090	  0.049	 -9.748	 -0.003	  0.003	  0.001	 31.600	 99.935	  0.648

31954	 -0.380	 -0.409	  0.444	  0.123	  0.044	 -9.747	 -0.003	  0.002	  0.001	 31.600	 99.942	  0.020

32004	 -0.382	 -0.409	  0.442	  0.111	  0.050	 -9.767	 -0.004	  0.002	  0.001	 31.600	 99.931	  1.007

32054	 -0.380	 -0.402	  0.442	  0.108	  0.050	 -9.780	 -0.003	  0.001	  0.001	 31.600	 99.946	 -0.339

32104	 -0.380	 -0.408	  0.441	  0.140	  0.048	 -9.783	 -0.002	  0.002	  0.002	 31.600	 99.931	  1.007

32154	 -0.377	 -0.395	  0.441	  0.104	  0.072	 -9.760	 -0.004	  0.002	 -0.000	 31.600	 99.931	  1.007

32204	 -0.381	 -0.407	  0.440	  0.120	  0.051	 -9.786	 -0.003	  0.002	  0.001	 31.600	 99.942	  0.020

32254	 -0.381	 -0.404	  0.441	  0.118	  0.045	 -9.742	 -0.004	  0.001	  0.002	 31.600	 99.942	  0.020

32304	 -0.380	 -0.404	  0.436	  0.125	  0.070	 -9.769	 -0.002	  0.000	  0.002	 31.600	 99.942	  0.020

32354	 -0.383	 -0.405	  0.441	  1.088	  0.033	 -9.639	 -0.001	 -0.026	  0.051	 31.600	 99.931	  1.007

32404	 -0.377	 -0.411	  0.441	  0.902	 -0.324	 -9.753	 -0.002	 -0.024	 -0.251	 31.600	 99.935	  0.648

32454	 -0.364	 -0.419	  0.427	  0.072	  0.707	 -10.624	 -0.020	 -0.056	 -0.454	 31.600	 99.931	  1.007

32504	 -0.350	 -0.420	  0.426	 -1.923	 -0.740	 -10.208	  0.089	 -0.573	  0.209	 31.600	 99.938	  0.378

32554	 -0.313	 -0.413	  0.447	 -0.910	  0.884	 -16.020	 -0.489	 -2.290	  0.908	 31.600	 99.931	  1.007

32604	 -0.282	 -0.440	  0.427	  0.659	  3.279	 -11.162	 -2.074	  3.950	  1.051	 31.600	 99.931	  1.007

32654	 -0.435	 -0.422	  0.348	  1.006	  2.791	  4.273	  2.552	  1.656	  1.364	 31.600	 99.931	  1.007

32704	 -0.365	 -0.420	  0.413	  0.321	  1.443	 -29.472	 -4.464	 -1.187	  1.954	 31.600	 99.931	  1.007

32754	 -0.444	 -0.472	  0.272	  1.822	  3.076	 11.108	 -1.848	  1.581	  0.691	 31.600	 99.931	  1.007

32804	 -0.410	 -0.477	  0.308	  3.949	  4.062	 -13.937	 -0.773	  0.109	  0.049	 31.600	 99.942	  0.020

32854	 -0.421	 -0.448	  0.333	 -2.634	  0.990	 -12.389	  2.669	 -2.537	 -0.720	 31.600	 99.942	  0.020

32904	 -0.428	 -0.412	  0.340	  4.086	  1.744	  0.440	  0.396	  2.869	  1.182	 31.600	 99.931	  1.007

32954	 -0.443	 -0.356	  0.399	 -3.188	 -2.333	 -22.001	  3.446	 -2.199	 -0.834	 31.600	 99.931	  1.007

33004	 -0.464	 -0.343	  0.380	  5.331	 -2.067	 -2.473	 -1.890	  3.105	  1.480	 31.600	 99.935	  0.648

33054	 -0.474	 -0.312	  0.397	 -0.951	 -1.975	 -20.176	  2.738	 -2.231	 -1.232	 31.600	 99.935	  0.648

33104	 -0.458	 -0.335	  0.375	  5.447	 -3.883	 -10.938	 -5.145	  2.164	  2.587	 31.600	 99.931	  1.007

33154	 -0.466	 -0.364	  0.344	  1.166	  2.333	  3.373	  3.436	 -2.392	 -1.976	 31.600	 99.931	  1.007

33204	 -0.422	 -0.348	  0.407	  2.367	 -1.274	 -24.174	 -2.200	  0.451	  1.275	 31.600	 99.935	  0.648

33254	 -0.449	 -0.345	  0.362	  2.219	  0.469	  0.559	  0.942	  0.280	 -0.589	 31.600	 99.935	  0.648

33304	 -0.434	 -0.357	  0.375	  0.229	  1.401	 -18.494	 -0.971	 -0.886	  0.535	 31.600	 99.920	  1.993

33354	 -0.434	 -0.384	  0.340	  5.477	  1.331	 -2.219	 -0.971	  1.357	 -0.040	 31.600	 99.931	  1.007

33404	 -0.444	 -0.373	  0.348	 -0.846	  0.035	 -9.070	  2.689	 -1.674	 -0.950	 31.600	 99.931	  1.007

33454	 -0.433	 -0.352	  0.371	 -0.068	 -0.173	 -18.444	 -1.644	  2.237	  1.021	 31.600	 99.935	  0.648

33504	 -0.462	 -0.358	  0.323	  2.734	  0.956	  6.395	  1.370	 -0.640	 -0.359	 31.600	 99.935	  0.648

33554	 -0.458	 -0.320	  0.369	 -0.580	 -0.969	 -34.616	 -0.919	  1.781	  0.972	 31.600	 99.931	  1.007

33604	 -0.519	 -0.329	  0.265	  9.545	  1.320	 26.336	 -0.642	 -0.055	  1.210	 31.600	 99.924	  1.634

33654	 -0.477	 -0.296	  0.380	 -4.490	 -1.124	 -31.176	  1.829	 -2.365	 -1.471	 31.600	 99.954	 -1.057

33704	 -0.476	 -0.321	  0.357	  3.351	  0.009	  0.790	 -0.705	  1.564	 -0.353	 31.600	 99.931	  1.007

33754	 -0.479	 -0.315	  0.359	  0.510	 -2.760	 -22.234	 -0.920	 -0.579	  1.593	 31.600	 99.942	  0.020

33804	 -0.477	 -0.326	  0.325	  8.851	  0.102	  6.180	  0.819	  2.702	 -0.953	 31.600	 99.946	 -0.339

33854	 -0.515	 -0.289	  0.339	 -3.995	 -2.141	 -7.995	  4.405	 -1.504	 -0.401	 31.600	 99.920	  1.993

33904	 -0.458	 -0.308	  0.382	  0.538	 -1.591	 -29.775	 -4.346	  1.921	  1.791	 31.600	 99.942	  0.020

33954	 -0.507	 -0.356	  0.278	  4.916	  2.799	 18.365	  1.257	 -1.537	 -0.726	 31.600	 99.931	  1.007

34004	 -0.448	 -0.343	  0.371	 -1.675	  0.403	 -27.133	 -1.162	 -0.383	  0.015	 31.600	 99.946	 -0.339

34054	 -0.471	 -0.378	  0.324	  2.624	  0.813	 -0.598	 -0.696	  0.673	 -0.332	 31.600	 99.946	 -0.339

34104	 -0.477	 -0.370	  0.340	  2.545	  1.586	 -10.367	  0.737	 -0.951	 -0.330	 31.600	 99.931	  1.007

34154	 -0.479	 -0.350	  0.379	  1.058	 -0.008	 -12.230	  0.574	 -0.375	 -0.121	 31.600	 99.931	  1.007

34204	 -0.498	 -0.353	  0.372	  3.207	  0.961	 -9.331	 -0.446	  0.282	  0.243	 31.600	 99.935	  0.648

34254	 -0.486	 -0.333	  0.395	  0.585	 -0.306	 -8.915	  0.433	 -1.034	 -0.064	 31.600	 99.946	 -0.339

34303	 -0.482	 -0.326	  0.412	  1.549	 -1.668	 -10.893	  0.425	 -0.161	 -0.514	 31.600	 99.931	  1.007

34354	 -0.473	 -0.329	  0.418	  0.923	  0.185	 -8.873	  0.226	 -0.239	 -0.413	 31.600	 99.931	  1.007

34403	 -0.452	 -0.330	  0.426	  1.459	  2.538	 -9.449	 -0.093	 -0.926	 -0.748	 31.600	 99.931	  1.007

34453	 -0.428	 -0.329	  0.442	  1.967	 -0.087	 -34.464	  0.278	 -0.227	  0.207	 31.600	 99.920	  1.993

34503	 -0.426	 -0.337	  0.433	  0.268	 -0.311	 -10.039	  0.142	 -0.036	  0.003	 31.600	 99.935	  0.648

34553	 -0.427	 -0.334	  0.438	  0.100	 -0.045	 -10.069	  0.084	 -0.023	  0.005	 31.600	 99.942	  0.020

34603	 -0.427	 -0.333	  0.439	  0.182	 -0.123	 -9.985	  0.013	 -0.003	  0.002	 31.600	 99.931	  1.007

34653	 -0.430	 -0.331	  0.438	  0.181	  0.018	 -9.777	 -0.016	  0.005	 -0.001	 31.600	 99.942	  0.020

34703	 -0.425	 -0.332	  0.438	  0.193	  0.074	 -9.757	 -0.002	  0.003	  0.001	 31.600	 99.931	  1.007

34753	 -0.427	 -0.333	  0.439	  0.157	  0.027	 -9.774	 -0.004	  0.003	  0.001	 31.600	 99.931	  1.007

34804	 -0.428	 -0.333	  0.438	  0.152	  0.025	 -9.755	 -0.003	  0.001	  0.001	 31.600	 99.942	  0.020

34854	 -0.427	 -0.330	  0.431	  0.162	  0.032	 -9.763	 -0.004	  0.000	  0.001	 31.600	 99.935	  0.648

34903	 -0.428	 -0.333	  0.438	  0.152	  0.048	 -9.740	 -0.004	  0.003	  0.001	 31.600	 99.931	  1.007

34953	 -0.426	 -0.336	  0.439	  0.172	  0.036	 -9.768	 -0.004	  0.001	 -0.000	 31.600	 99.924	  1.634

35003	 -0.427	 -0.331	  0.437	  0.178	  0.025	 -9.768	 -0.003	  0.002	  0.001	 31.600	 99.931	  1.007

35053	 -0.427	 -0.333	  0.441	  0.163	  0.031	 -9.781	 -0.004	  0.002	  0.001	 31.600	 99.931	  1.007

35103	 -0.429	 -0.329	  0.437	  0.157	  0.034	 -9.774	 -0.004	  0.002	  0.001	 31.600	 99.931	  1.007

35153	 -0.427	 -0.326	  0.439	  0.186	  0.040	 -9.777	 -0.004	  0.002	  0.000	 31.600	 99.946	 -0.339

35203	 -0.426	 -0.331	  0.431	  0.189	  0.020	 -9.809	 -0.003	  0.002	 -0.001	 31.600	 99.942	  0.020

35253	 -0.429	 -0.335	  0.440	  0.154	  0.046	 -9.725	 -0.003	  0.004	  0.000	 31.600	 99.935	  0.648

35303	 -0.427	 -0.335	  0.430	  0.158	  0.049	 -9.745	 -0.003	  0.002	 -0.000	 31.600	 99.935	  0.648

35353	 -0.427	 -0.332	  0.441	  0.154	  0.040	 -9.766	 -0.003	  0.002	  0.000	 31.600	 99.942	  0.020

35403	 -0.424	 -0.333	  0.440	  0.137	  0.014	 -9.749	 -0.001	  0.002	 -0.001	 31.600	 99.931	  1.007

35454	 -0.428	 -0.331	  0.439	  0.153	  0.041	 -9.759	 -0.003	  0.003	  0.000	 31.600	 99.931	  1.007

35503	 -0.429	 -0.334	  0.440	  0.163	  0.048	 -9.770	 -0.002	  0.003	  0.002	 31.600	 99.935	  0.648

35553	 -0.430	 -0.331	  0.439	  0.178	  0.018	 -9.750	 -0.003	  0.001	  0.001	 31.600	 99.931	  1.007

35603	 -0.428	 -0.336	  0.438	  0.193	  0.002	 -9.771	 -0.003	  0.003	  0.001	 31.600	 99.942	  0.020

35653	 -0.426	 -0.320	  0.439	  0.157	  0.025	 -9.756	 -0.004	  0.002	  0.001	 31.600	 99.931	  1.007

35703	 -0.429	 -0.331	  0.441	  0.169	  0.041	 -9.769	 -0.004	  0.002	  0.001	 31.600	 99.942	  0.020

35753	 -0.431	 -0.335	  0.439	  0.158	  0.039	 -9.760	 -0.003	  0.003	  0.001	 31.600	 99.946	 -0.339

35803	 -0.429	 -0.327	  0.435	  0.159	  0.053	 -9.738	 -0.005	  0.002	  0.001	 31.600	 99.931	  1.007

35854	 -0.426	 -0.335	  0.435	  0.170	  0.038	 -9.754	 -0.003	  0.003	  0.001	 31.600	 99.942	  0.020

35904	 -0.428	 -0.336	  0.438	  0.172	  0.065	 -9.794	 -0.004	  0.002	  0.000	 31.600	 99.935	  0.648

35953	 -0.425	 -0.333	  0.439	  0.183	  0.041	 -9.762	 -0.003	  0.002	  0.001	 31.600	 99.942	  0.020

36004	 -0.429	 -0.327	  0.428	  0.150	  0.041	 -9.751	 -0.005	  0.003	 -0.000	 31.600	 99.935	  0.648

36054	 -0.427	 -0.329	  0.440	  0.164	  0.037	 -9.751	 -0.004	  0.002	  0.002	 31.600	 99.942	  0.020

36103	 -0.428	 -0.331	  0.438	  0.164	  0.037	 -9.742	 -0.004	  0.003	  0.001	 31.600	 99.935	  0.648

36153	 -0.429	 -0.334	  0.437	  0.160	  0.036	 -9.748	 -0.004	  0.002	  0.001	 31.600	 99.946	 -0.339

36204	 -0.428	 -0.333	  0.438	  0.162	  0.030	 -9.738	 -0.004	  0.002	  0.000	 31.600	 99.931	  1.007

36254	 -0.428	 -0.324	  0.432	  0.165	  0.045	 -9.757	 -0.004	  0.003	  0.000	 31.600	 99.931	  1.007

36304	 -0.426	 -0.336	  0.439	  0.144	  0.025	 -9.746	 -0.004	  0.003	  0.000	 31.600	 99.931	  1.007

36355	 -0.429	 -0.334	  0.442	  0.144	  0.027	 -9.793	 -0.004	  0.002	  0.001	 31.600	 99.935	  0.648

36405	 -0.429	 -0.319	  0.433	  0.173	  0.037	 -9.778	 -0.004	  0.002	  0.001	 31.600	 99.931	  1.007

36455	 -0.429	 -0.334	  0.437	  0.174	  0.049	 -9.757	 -0.003	  0.004	  0.001	 31.600	 99.942	  0.020

36504	 -0.427	 -0.333	  0.441	  0.168	  0.033	 -9.746	 -0.002	  0.002	  0.001	 31.600	 99.942	  0.020

36554	 -0.428	 -0.329	  0.437	  0.157	  0.058	 -9.739	 -0.003	  0.003	  0.000	 31.600	 99.946	 -0.339

36604	 -0.426	 -0.330	  0.441	  0.146	  0.039	 -9.739	 -0.003	  0.003	  0.000	 31.600	 99.927	  1.365

36654	 -0.429	 -0.332	  0.430	  0.177	  0.033	 -9.751	 -0.004	  0.003	  0.001	 31.600	 99.942	  0.020

36704	 -0.430	 -0.329	  0.440	  0.183	  0.043	 -9.730	 -0.005	  0.003	 -0.000	 31.600	 99.931	  1.007

