Time	 MagX	 MagY	 MagZ	 AccelX	 AccelY	 AccelZ	 Yaw	 Pitch	 Roll	 Temperature	 Pressure	 Altitude
5509	 -0.342	 -0.442	  0.407	  0.109	  0.044	 -9.767	 -0.004	  0.003	  0.002	 33.100	 100.047	 -99999.000
5560	 -0.343	 -0.428	  0.413	  0.114	  0.055	 -9.752	 -0.003	  0.003	  0.001	 33.100	 100.043	 -99999.000
5609	 -0.342	 -0.441	  0.416	  0.139	  0.041	 -9.765	 -0.003	  0.002	  0.001	 33.100	 100.043	 -99999.000
5659	 -0.343	 -0.441	  0.414	  0.089	  0.062	 -9.772	 -0.003	  0.000	 -0.001	 33.100	 100.047	 -99999.000
5709	 -0.343	 -0.443	  0.408	  0.108	 -0.003	 -9.775	 -0.003	  0.002	  0.001	 33.100	 100.058	 -99999.000
5759	 -0.342	 -0.438	  0.414	  0.099	  0.017	 -9.747	 -0.003	  0.002	  0.001	 33.100	 100.047	 -99999.000
5809	 -0.340	 -0.442	  0.415	  0.090	  0.041	 -9.731	 -0.002	  0.002	  0.001	 33.100	 100.058	 -99999.000
5859	 -0.341	 -0.441	  0.403	  0.101	  0.049	 -9.747	 -0.003	  0.003	  0.001	 33.100	 100.043	 -99999.000
5909	 -0.345	 -0.444	  0.411	  0.106	  0.039	 -9.777	 -0.001	  0.002	  0.002	 33.100	 100.043	 -99999.000
5959	 -0.340	 -0.439	  0.414	  0.129	  0.039	 -9.758	 -0.003	  0.002	  0.001	 33.100	 100.043	 -99999.000
6009	 -0.343	 -0.438	  0.412	  0.103	  0.042	 -9.760	 -0.004	  0.002	  0.002	 33.100	 100.058	 -99999.000
6059	 -0.344	 -0.440	  0.415	  0.123	  0.043	 -9.755	 -0.002	  0.002	  0.001	 33.100	 100.043	 -99999.000
6109	 -0.342	 -0.439	  0.409	  0.126	  0.052	 -9.765	 -0.003	  0.002	  0.001	 33.100	 100.058	 -99999.000
6159	 -0.344	 -0.428	  0.413	  0.073	  0.048	 -9.776	 -0.003	  0.003	  0.001	 33.100	 100.043	 -99999.000
6209	 -0.341	 -0.439	  0.412	  0.117	  0.030	 -9.748	 -0.003	  0.003	  0.001	 33.100	 100.047	 -99999.000
6259	 -0.345	 -0.433	  0.419	  0.113	  0.040	 -9.783	 -0.004	  0.003	 -0.001	 33.100	 100.043	 -99999.000
6309	 -0.342	 -0.441	  0.412	  0.114	  0.033	 -9.762	 -0.004	  0.002	  0.000	 33.100	 100.058	 -99999.000
6359	 -0.342	 -0.442	  0.414	  0.116	  0.015	 -9.772	 -0.003	  0.002	  0.001	 33.100	 100.043	 -99999.000
6409	 -0.341	 -0.439	  0.411	  0.130	  0.040	 -9.772	 -0.004	  0.001	  0.001	 33.100	 100.043	 -99999.000
6459	 -0.342	 -0.436	  0.409	  0.139	  0.027	 -9.761	 -0.004	  0.003	  0.001	 33.100	 100.043	 -99999.000
6509	 -0.340	 -0.441	  0.411	  0.103	  0.045	 -9.723	 -0.002	  0.003	  0.000	 33.100	 100.035	 -99999.000
6559	 -0.344	 -0.438	  0.411	  0.117	  0.037	 -9.785	 -0.003	  0.003	  0.001	 33.100	 100.047	 -99999.000
6609	 -0.342	 -0.438	  0.416	  0.121	  0.038	 -9.753	 -0.002	  0.003	  0.000	 33.100	 100.054	 -99999.000
6659	 -0.343	 -0.440	  0.414	  0.100	  0.005	 -9.786	 -0.003	  0.002	  0.001	 33.100	 100.058	 -99999.000
6709	 -0.342	 -0.431	  0.412	  0.106	  0.027	 -9.747	 -0.004	  0.003	 -0.001	 33.100	 100.058	 -99999.000
6759	 -0.343	 -0.439	  0.405	  0.119	  0.060	 -9.797	 -0.002	  0.004	  0.001	 33.100	 100.047	 -99999.000
6809	 -0.346	 -0.445	  0.410	  0.120	  0.035	 -9.775	 -0.003	  0.003	  0.001	 33.100	 100.047	 -99999.000
6859	 -0.341	 -0.442	  0.409	  0.111	  0.033	 -9.804	 -0.003	  0.002	  0.001	 33.100	 100.043	 -99999.000
6910	 -0.343	 -0.433	  0.413	  0.118	  0.038	 -9.778	 -0.004	  0.002	  0.000	 33.100	 100.054	 -99999.000
6959	 -0.343	 -0.443	  0.412	  0.125	  0.046	 -9.751	 -0.003	  0.002	  0.000	 33.100	 100.043	 -99999.000
7009	 -0.342	 -0.441	  0.411	  0.106	  0.040	 -9.791	 -0.005	  0.002	 -0.000	 33.100	 100.043	 -99999.000
7059	 -0.343	 -0.442	  0.409	  0.126	  0.023	 -9.764	 -0.003	  0.002	  0.001	 33.100	 100.054	 -99999.000
7109	 -0.344	 -0.431	  0.412	  0.116	  0.041	 -9.765	 -0.002	  0.001	  0.001	 33.100	 100.058	 -99999.000
7159	 -0.347	 -0.443	  0.412	  0.104	  0.038	 -9.741	 -0.002	  0.002	  0.000	 33.100	 100.035	 -99999.000
7209	 -0.345	 -0.437	  0.410	  0.101	  0.044	 -9.770	 -0.003	  0.003	  0.000	 33.100	 100.043	 -99999.000
7259	 -0.345	 -0.443	  0.410	  0.100	  0.042	 -9.760	 -0.003	  0.003	  0.000	 33.100	 100.047	 -99999.000
7309	 -0.345	 -0.437	  0.414	  0.099	  0.023	 -9.779	 -0.002	  0.002	  0.001	 33.100	 100.047	 -99999.000
7359	 -0.345	 -0.429	  0.409	  0.106	  0.043	 -9.775	 -0.003	  0.004	  0.001	 33.100	 100.047	 -99999.000
7409	 -0.346	 -0.438	  0.412	  0.103	  0.023	 -9.792	 -0.003	  0.004	  0.001	 33.100	 100.058	 -99999.000
7460	 -0.343	 -0.442	  0.408	  0.112	  0.026	 -9.741	 -0.003	  0.003	 -0.000	 33.100	 100.054	 -99999.000
7509	 -0.343	 -0.443	  0.408	  0.102	  0.016	 -9.800	 -0.004	  0.002	  0.001	 33.100	 100.047	 -99999.000
7560	 -0.345	 -0.443	  0.410	  0.098	  0.043	 -9.793	 -0.003	  0.004	  0.001	 33.100	 100.047	 -99999.000
7609	 -0.345	 -0.442	  0.413	  0.119	  0.043	 -9.795	 -0.003	  0.001	  0.001	 33.100	 100.043	 -99999.000
7659	 -0.345	 -0.439	  0.413	  0.122	  0.019	 -9.779	 -0.002	  0.002	  0.001	 33.100	 100.054	 -99999.000
7710	 -0.344	 -0.441	  0.412	  0.095	  0.033	 -9.731	 -0.003	  0.002	  0.001	 33.100	 100.047	 -99999.000
7760	 -0.347	 -0.443	  0.413	  0.132	  0.037	 -9.749	 -0.003	  0.002	  0.001	 33.100	 100.047	 -99999.000
7810	 -0.347	 -0.441	  0.403	  0.118	  0.043	 -9.754	 -0.003	  0.003	  0.002	 33.100	 100.043	 -99999.000
7860	 -0.346	 -0.441	  0.412	  0.107	  0.031	 -9.767	 -0.003	  0.003	 -0.000	 33.100	 100.043	 -99999.000
7910	 -0.343	 -0.437	  0.404	  0.114	  0.024	 -9.762	 -0.003	  0.002	  0.000	 33.100	 100.043	 -99999.000
7960	 -0.342	 -0.441	  0.414	  0.105	  0.035	 -9.749	 -0.004	  0.003	  0.001	 33.100	 100.043	 -99999.000
8010	 -0.343	 -0.442	  0.412	  0.110	  0.030	 -9.759	 -0.003	  0.003	  0.000	 33.100	 100.047	 -99999.000
8060	 -0.345	 -0.441	  0.413	  0.121	  0.030	 -9.769	 -0.003	  0.003	  0.001	 33.100	 100.043	 -99999.000
8110	 -0.344	 -0.441	  0.410	  0.122	  0.034	 -9.789	 -0.001	  0.002	  0.000	 33.100	 100.054	 -99999.000
8160	 -0.344	 -0.444	  0.404	  0.111	  0.033	 -9.765	 -0.003	  0.003	 -0.000	 33.100	 100.047	 -99999.000
8210	 -0.344	 -0.441	  0.411	  0.106	  0.039	 -9.742	 -0.003	  0.003	  0.001	 33.100	 100.043	 -99999.000
8260	 -0.343	 -0.440	  0.410	  0.120	  0.034	 -9.746	 -0.003	  0.002	  0.001	 33.100	 100.047	 -99999.000
8310	 -0.345	 -0.443	  0.411	  0.113	  0.045	 -9.771	 -0.004	  0.002	  0.001	 33.100	 100.054	 -99999.000
8360	 -0.345	 -0.444	  0.403	  0.122	  0.055	 -9.747	 -0.003	  0.001	  0.001	 33.100	 100.047	 -99999.000
8410	 -0.345	 -0.442	  0.405	  0.105	  0.022	 -9.777	 -0.003	  0.002	  0.000	 33.100	 100.043	 -99999.000
8460	 -0.343	 -0.441	  0.403	  0.109	  0.033	 -9.713	 -0.002	  0.003	  0.002	 33.100	 100.035	 -99999.000
8510	 -0.341	 -0.428	  0.412	  0.102	  0.038	 -9.764	 -0.003	  0.003	  0.001	 33.100	 100.058	 -99999.000
8560	 -0.342	 -0.442	  0.411	  0.093	  0.037	 -9.801	 -0.003	  0.002	  0.002	 33.100	 100.043	 -99999.000
8610	 -0.343	 -0.428	  0.410	  0.091	  0.038	 -9.766	 -0.002	  0.003	 -0.001	 33.100	 100.047	 -99999.000
8660	 -0.344	 -0.442	  0.412	  0.090	  0.061	 -9.756	 -0.003	  0.003	  0.000	 33.100	 100.047	 -99999.000
8710	 -0.345	 -0.441	  0.411	  0.117	  0.040	 -9.761	 -0.003	  0.001	  0.000	 33.100	 100.047	 -99999.000
8760	 -0.341	 -0.440	  0.409	  0.097	  0.015	 -9.764	 -0.003	  0.002	  0.001	 33.100	 100.058	 -99999.000
8810	 -0.344	 -0.439	  0.409	  0.114	  0.036	 -9.786	 -0.002	  0.002	 -0.000	 33.100	 100.058	 -99999.000
8860	 -0.343	 -0.430	  0.413	  0.106	  0.034	 -9.756	 -0.003	  0.002	 -0.000	 33.100	 100.054	 -99999.000
8910	 -0.344	 -0.439	  0.408	  0.081	  0.038	 -9.765	 -0.003	  0.003	  0.001	 33.100	 100.043	 -99999.000
8960	 -0.342	 -0.440	  0.411	  0.118	  0.038	 -9.812	 -0.004	  0.003	  0.001	 33.100	 100.047	 -99999.000
9010	 -0.341	 -0.441	  0.412	  0.097	  0.030	 -9.780	 -0.001	  0.002	  0.001	 33.100	 100.047	 -99999.000
9060	 -0.343	 -0.441	  0.411	  0.098	  0.053	 -9.738	 -0.003	  0.004	  0.002	 33.100	 100.043	 -99999.000
9110	 -0.344	 -0.440	  0.411	  0.110	  0.040	 -9.778	 -0.003	  0.003	  0.001	 33.100	 100.035	 -99999.000
9160	 -0.344	 -0.441	  0.408	  0.139	  0.057	 -9.766	 -0.004	  0.002	 -0.000	 33.100	 100.047	 -99999.000
9210	 -0.342	 -0.440	  0.407	  0.078	  0.038	 -9.765	 -0.003	  0.003	  0.001	 33.100	 100.047	 -99999.000
9260	 -0.342	 -0.436	  0.411	  0.083	  0.024	 -9.767	 -0.003	  0.002	  0.001	 33.100	 100.047	 -99999.000
9309	 -0.342	 -0.438	  0.412	  0.085	  0.037	 -9.781	 -0.003	  0.002	  0.001	 33.100	 100.043	 -99999.000
9359	 -0.341	 -0.438	  0.411	  0.094	  0.059	 -9.807	 -0.004	  0.001	  0.000	 33.100	 100.047	 -99999.000
9409	 -0.343	 -0.441	  0.410	  0.122	  0.030	 -9.807	 -0.004	  0.001	  0.002	 33.100	 100.047	 -99999.000
9459	 -0.341	 -0.444	  0.412	  0.107	  0.042	 -9.771	 -0.003	  0.002	  0.001	 33.100	 100.058	 -99999.000
9509	 -0.342	 -0.444	  0.414	  0.106	  0.029	 -9.767	 -0.003	  0.002	  0.000	 33.100	 100.047	 -99999.000
9559	 -0.342	 -0.438	  0.411	  0.109	  0.056	 -9.788	 -0.004	  0.001	  0.001	 33.100	 100.043	 -99999.000
9609	 -0.343	 -0.438	  0.412	  0.102	  0.025	 -9.758	 -0.003	  0.003	  0.001	 33.100	 100.043	 -99999.000
9659	 -0.342	 -0.440	  0.412	  0.111	  0.031	 -9.765	 -0.004	  0.003	  0.000	 33.100	 100.047	 -99999.000
9710	 -0.344	 -0.437	  0.411	  0.107	  0.048	 -9.774	 -0.002	  0.002	 -0.001	 33.100	 100.047	 -99999.000
9759	 -0.341	 -0.442	  0.415	  0.100	  0.046	 -9.782	 -0.004	  0.003	  0.000	 33.100	 100.047	 -99999.000
9809	 -0.340	 -0.441	  0.410	  0.099	  0.076	 -9.780	 -0.002	  0.002	  0.001	 33.100	 100.043	 -99999.000
9859	 -0.342	 -0.440	  0.412	  0.144	  0.034	 -9.777	 -0.002	  0.003	  0.000	 33.100	 100.035	 -99999.000
9909	 -0.343	 -0.443	  0.410	  0.116	  0.020	 -9.783	 -0.002	  0.003	  0.001	 33.100	 100.047	 -99999.000
9959	 -0.341	 -0.442	  0.414	  0.123	  0.047	 -9.723	 -0.004	  0.001	  0.000	 33.100	 100.047	 -99999.000
10009	 -0.342	 -0.443	  0.412	  0.118	  0.045	 -9.765	 -0.005	  0.003	  0.001	 33.100	 100.058	 -99999.000
10059	 -0.341	 -0.441	  0.403	  0.131	  0.032	 -9.763	 -0.004	  0.002	  0.001	 33.100	 100.043	 -99999.000
10109	 -0.342	 -0.443	  0.415	  0.126	  0.057	 -9.782	 -0.002	  0.001	  0.001	 33.100	 100.054	 -99999.000
10159	 -0.343	 -0.440	  0.410	  0.107	  0.039	 -9.791	 -0.003	  0.003	  0.002	 33.100	 100.058	 -99999.000
10210	 -0.341	 -0.440	  0.414	  0.108	  0.042	 -9.796	 -0.003	  0.002	  0.001	 33.100	 100.047	 -99999.000
10260	 -0.345	 -0.436	  0.407	  0.120	  0.035	 -9.745	 -0.004	  0.002	  0.000	 33.100	 100.047	 -99999.000
10310	 -0.341	 -0.444	  0.412	  0.119	  0.039	 -9.767	 -0.002	  0.003	  0.001	 33.100	 100.043	 -99999.000
10360	 -0.343	 -0.439	  0.412	  0.105	  0.039	 -9.811	 -0.003	  0.002	  0.002	 33.100	 100.043	 -99999.000
10410	 -0.340	 -0.442	  0.412	  0.094	  0.020	 -9.768	 -0.002	  0.003	  0.001	 33.100	 100.047	 -99999.000
10460	 -0.344	 -0.441	  0.411	  0.116	  0.048	 -9.754	 -0.002	  0.003	  0.001	 33.100	 100.047	 -99999.000
10510	 -0.341	 -0.432	  0.411	  0.104	  0.022	 -9.753	 -0.004	  0.003	  0.000	 33.100	 100.047	 -99999.000
10560	 -0.342	 -0.441	  0.414	  0.131	  0.042	 -9.740	 -0.003	  0.003	  0.000	 33.100	 100.058	 -99999.000
10609	 -0.343	 -0.440	  0.411	  0.112	  0.053	 -9.782	 -0.002	  0.003	  0.002	 33.100	 100.043	 -99999.000
10660	 -0.343	 -0.441	  0.412	  0.114	  0.040	 -9.786	 -0.004	  0.002	 -0.000	 33.100	 100.043	 -99999.000
10710	 -0.343	 -0.438	  0.409	  0.079	  0.018	 -9.728	 -0.004	  0.002	  0.001	 33.100	 100.043	 -99999.000
10759	 -0.341	 -0.439	  0.412	  0.108	  0.054	 -9.771	 -0.003	  0.002	  0.001	 33.100	 100.043	 -99999.000
10809	 -0.341	 -0.441	  0.402	  0.127	  0.048	 -9.746	 -0.003	  0.001	  0.001	 33.100	 100.058	 -99999.000
10859	 -0.342	 -0.443	  0.409	  0.114	  0.044	 -9.769	 -0.002	  0.003	  0.001	 33.100	 100.058	 -99999.000
10909	 -0.342	 -0.442	  0.411	  0.122	  0.060	 -9.713	 -0.003	  0.001	  0.000	 33.100	 100.047	 -99999.000
10959	 -0.342	 -0.442	  0.411	  0.103	  0.020	 -9.779	 -0.003	  0.002	  0.002	 33.100	 100.043	 -99999.000
11009	 -0.342	 -0.442	  0.414	  0.096	  0.033	 -9.733	 -0.003	  0.003	  0.001	 33.100	 100.047	 -99999.000
11059	 -0.342	 -0.436	  0.402	  0.127	  0.029	 -9.792	 -0.004	  0.003	  0.000	 33.100	 100.058	 -99999.000
11109	 -0.342	 -0.441	  0.416	  0.131	  0.065	 -9.733	 -0.003	  0.004	  0.001	 33.100	 100.047	 -99999.000
11159	 -0.341	 -0.438	  0.407	  0.106	  0.031	 -9.776	 -0.003	  0.002	  0.002	 33.100	 100.047	 -99999.000
11209	 -0.342	 -0.441	  0.412	  0.106	  0.046	 -9.743	 -0.004	  0.004	  0.003	 33.100	 100.043	 -99999.000
11259	 -0.342	 -0.440	  0.410	  0.104	  0.026	 -9.797	 -0.003	  0.003	  0.002	 33.100	 100.047	 -99999.000
11309	 -0.342	 -0.444	  0.411	  0.119	  0.052	 -9.779	 -0.003	  0.001	 -0.000	 33.100	 100.047	 -99999.000
11359	 -0.343	 -0.436	  0.412	  0.111	  0.027	 -9.773	 -0.004	  0.003	  0.002	 33.100	 100.043	 -99999.000
11409	 -0.343	 -0.441	  0.412	  0.089	  0.044	 -9.755	 -0.002	  0.002	 -0.001	 33.100	 100.047	 -99999.000
11459	 -0.341	 -0.440	  0.407	  0.101	  0.057	 -9.739	 -0.004	  0.003	  0.001	 33.100	 100.054	 -99999.000
14436	 -0.341	 -0.435	  0.412	  0.117	  0.064	 -9.853	 -0.003	  0.003	  0.000	 33.100	 100.047	  0.056
14484	 -0.342	 -0.439	  0.403	  0.093	  0.052	 -9.829	 -0.003	  0.005	  0.000	 33.100	 100.043	  0.416
14534	 -0.342	 -0.440	  0.411	  0.093	  0.032	 -9.761	 -0.003	  0.001	  0.001	 33.100	 100.058	 -0.933
14584	 -0.342	 -0.440	  0.411	  0.117	  0.036	 -9.805	 -0.003	  0.005	  0.002	 33.100	 100.043	  0.416
14634	 -0.342	 -0.437	  0.414	  0.130	  0.030	 -9.762	 -0.002	  0.002	  0.001	 33.100	 100.047	  0.056
14684	 -0.342	 -0.440	  0.414	  0.091	  0.033	 -9.758	 -0.003	  0.001	  0.001	 33.100	 100.043	  0.416
14734	 -0.341	 -0.439	  0.415	  0.114	  0.037	 -9.742	 -0.003	  0.003	  0.001	 33.100	 100.047	  0.056
14784	 -0.343	 -0.442	  0.412	  0.101	  0.039	 -9.739	 -0.004	  0.001	  0.001	 33.100	 100.035	  1.135
14834	 -0.344	 -0.440	  0.409	  0.107	  0.056	 -9.747	 -0.004	  0.002	 -0.000	 33.100	 100.043	  0.416
14884	 -0.342	 -0.438	  0.412	  0.105	  0.033	 -9.797	 -0.003	  0.004	  0.001	 33.100	 100.047	  0.056
14934	 -0.343	 -0.440	  0.410	  0.079	  0.036	 -9.753	 -0.004	  0.003	  0.002	 33.100	 100.047	  0.056
14984	 -0.341	 -0.441	  0.411	  0.100	  0.037	 -9.754	 -0.003	  0.003	  0.002	 33.100	 100.047	  0.056
15034	 -0.342	 -0.442	  0.412	  0.110	  0.036	 -9.779	 -0.003	  0.002	  0.000	 33.100	 100.035	  1.135
15084	 -0.341	 -0.440	  0.412	  0.100	  0.048	 -9.770	 -0.004	  0.002	  0.001	 33.100	 100.047	  0.056
15134	 -0.343	 -0.441	  0.415	  0.099	  0.033	 -9.770	 -0.002	  0.002	  0.000	 33.100	 100.047	  0.056
15184	 -0.344	 -0.440	  0.412	  0.114	  0.051	 -9.743	 -0.004	  0.002	 -0.000	 33.100	 100.031	  1.495
15234	 -0.341	 -0.438	  0.417	  0.088	  0.059	 -9.775	 -0.003	  0.003	  0.001	 33.100	 100.035	  1.135
15284	 -0.341	 -0.434	  0.411	  0.115	  0.035	 -9.776	 -0.003	  0.002	  0.001	 33.100	 100.058	 -0.933
15334	 -0.343	 -0.438	  0.408	  0.127	  0.034	 -9.795	 -0.004	  0.003	  0.000	 33.100	 100.043	  0.416
15384	 -0.341	 -0.437	  0.411	  0.119	  0.021	 -9.762	 -0.004	  0.002	  0.001	 33.100	 100.047	  0.056
15434	 -0.343	 -0.438	  0.412	  0.101	  0.033	 -9.766	 -0.003	  0.002	  0.000	 33.100	 100.047	  0.056
15484	 -0.342	 -0.438	  0.412	  0.119	  0.056	 -9.768	 -0.003	  0.004	  0.002	 33.100	 100.058	 -0.933
15534	 -0.346	 -0.437	  0.410	  0.095	  0.038	 -9.780	 -0.004	  0.002	  0.000	 33.100	 100.054	 -0.574
15584	 -0.340	 -0.440	  0.412	  0.089	  0.049	 -9.770	 -0.005	  0.002	  0.001	 33.100	 100.058	 -0.933
15634	 -0.342	 -0.436	  0.410	  0.114	  0.042	 -9.794	 -0.004	 -0.000	  0.000	 33.100	 100.035	  1.135
15684	 -0.342	 -0.439	  0.407	  0.104	  0.027	 -9.764	 -0.003	  0.002	  0.001	 33.100	 100.058	 -0.933
15734	 -0.342	 -0.434	  0.410	  0.113	  0.033	 -9.792	 -0.003	  0.004	  0.001	 33.100	 100.043	  0.416
15784	 -0.343	 -0.443	  0.409	  0.107	  0.046	 -9.759	 -0.003	  0.002	  0.001	 33.100	 100.043	  0.416
15834	 -0.340	 -0.437	  0.410	  0.116	  0.047	 -9.775	 -0.003	  0.002	  0.001	 33.100	 100.069	 -1.922
15884	 -0.341	 -0.437	  0.415	  0.109	  0.041	 -9.755	 -0.003	  0.002	  0.000	 33.100	 100.047	  0.056
15934	 -0.342	 -0.440	  0.408	  0.097	  0.037	 -9.744	 -0.002	  0.002	  0.001	 33.100	 100.047	  0.056
15984	 -0.341	 -0.440	  0.410	  0.083	  0.041	 -9.764	 -0.003	  0.001	  0.000	 33.100	 100.043	  0.416
16034	 -0.344	 -0.439	  0.412	  0.112	  0.032	 -9.733	 -0.004	  0.003	  0.002	 33.100	 100.047	  0.056
16084	 -0.343	 -0.436	  0.410	  0.108	  0.024	 -9.785	 -0.003	  0.002	  0.001	 33.100	 100.047	  0.056
16134	 -0.341	 -0.439	  0.411	  0.097	  0.020	 -9.773	 -0.003	  0.003	  0.002	 33.100	 100.058	 -0.933
16184	 -0.344	 -0.437	  0.411	  0.113	  0.024	 -9.756	 -0.002	  0.002	  0.001	 33.100	 100.043	  0.416
16234	 -0.342	 -0.437	  0.409	  0.107	  0.050	 -9.743	 -0.004	  0.002	  0.000	 33.100	 100.043	  0.416
16284	 -0.341	 -0.439	  0.410	  0.107	  0.044	 -9.774	 -0.003	  0.002	  0.001	 33.100	 100.069	 -1.922
16334	 -0.341	 -0.428	  0.414	  0.082	  0.045	 -9.771	 -0.003	  0.002	  0.001	 33.100	 100.047	  0.056
16384	 -0.343	 -0.440	  0.404	  0.095	  0.038	 -9.804	 -0.003	  0.002	 -0.001	 33.100	 100.058	 -0.933
16434	 -0.345	 -0.440	  0.409	  0.097	  0.056	 -9.745	 -0.002	  0.003	  0.001	 33.100	 100.047	  0.056
16484	 -0.341	 -0.424	  0.411	  0.124	  0.055	 -9.750	 -0.002	  0.003	  0.000	 33.100	 100.043	  0.416
16534	 -0.342	 -0.437	  0.401	  0.102	  0.026	 -9.770	 -0.003	  0.002	  0.001	 33.100	 100.043	  0.416
16584	 -0.341	 -0.435	  0.411	  0.133	  0.052	 -9.755	 -0.002	  0.002	  0.001	 33.100	 100.058	 -0.933
16634	 -0.341	 -0.437	  0.404	  0.091	  0.044	 -9.764	 -0.005	  0.003	  0.001	 33.100	 100.047	  0.056
16684	 -0.342	 -0.438	  0.410	  0.109	  0.034	 -9.757	 -0.002	  0.003	  0.001	 33.100	 100.047	  0.056
16734	 -0.343	 -0.437	  0.407	  0.131	  0.043	 -9.776	 -0.004	  0.002	  0.001	 33.100	 100.035	  1.135
16784	 -0.342	 -0.439	  0.409	  0.106	  0.034	 -9.791	 -0.002	  0.003	  0.001	 33.100	 100.047	  0.056
16834	 -0.341	 -0.437	  0.409	  0.085	  0.058	 -9.770	 -0.004	  0.003	  0.001	 33.100	 100.047	  0.056
16884	 -0.343	 -0.424	  0.409	  0.115	  0.043	 -9.787	 -0.004	  0.003	  0.001	 33.100	 100.054	 -0.574
16934	 -0.341	 -0.437	  0.410	  0.101	  0.044	 -9.782	 -0.003	  0.002	  0.001	 33.100	 100.047	  0.056
16984	 -0.345	 -0.435	  0.402	  0.112	  0.033	 -9.783	 -0.003	  0.002	 -0.000	 33.100	 100.047	  0.056
17035	 -0.341	 -0.433	  0.405	  0.086	  0.046	 -9.732	 -0.003	  0.003	  0.001	 33.100	 100.054	 -0.574
17084	 -0.342	 -0.438	  0.407	  0.109	  0.022	 -9.709	 -0.003	  0.002	  0.000	 33.100	 100.058	 -0.933
17134	 -0.341	 -0.428	  0.409	  0.102	  0.032	 -9.747	 -0.003	  0.002	  0.001	 33.100	 100.047	  0.056
17184	 -0.341	 -0.435	  0.411	  0.105	  0.034	 -9.760	 -0.003	  0.003	  0.001	 33.100	 100.058	 -0.933
17234	 -0.342	 -0.436	  0.403	  0.110	  0.016	 -9.741	 -0.003	  0.002	  0.002	 33.100	 100.047	  0.056
17284	 -0.343	 -0.437	  0.410	  0.114	  0.032	 -9.760	 -0.002	  0.002	  0.001	 33.100	 100.043	  0.416
17334	 -0.342	 -0.437	  0.404	  0.123	  0.058	 -9.829	 -0.003	  0.003	  0.000	 33.100	 100.054	 -0.574
17384	 -0.340	 -0.434	  0.407	  0.110	  0.044	 -9.737	 -0.004	  0.004	  0.001	 33.100	 100.043	  0.416
17434	 -0.342	 -0.432	  0.407	  0.104	  0.036	 -9.775	 -0.003	  0.003	  0.000	 33.100	 100.058	 -0.933
17484	 -0.340	 -0.436	  0.410	  0.095	  0.059	 -9.792	 -0.003	  0.000	  0.001	 33.100	 100.047	  0.056
17534	 -0.343	 -0.441	  0.407	  0.120	  0.045	 -9.800	 -0.004	  0.003	  0.001	 33.100	 100.043	  0.416
17584	 -0.343	 -0.436	  0.405	  0.102	  0.025	 -9.737	 -0.002	  0.003	  0.000	 33.100	 100.047	  0.056
17634	 -0.343	 -0.436	  0.407	  0.132	  0.058	 -9.775	 -0.002	  0.002	  0.000	 33.100	 100.058	 -0.933
17685	 -0.344	 -0.436	  0.408	  0.077	  0.034	 -9.761	 -0.004	  0.001	  0.001	 33.100	 100.058	 -0.933
17734	 -0.341	 -0.437	  0.402	  0.122	  0.057	 -9.781	 -0.004	  0.002	  0.001	 33.100	 100.047	  0.056
17785	 -0.342	 -0.436	  0.409	  0.089	  0.012	 -9.759	 -0.003	  0.002	  0.001	 33.100	 100.047	  0.056
17835	 -0.341	 -0.434	  0.406	  0.114	  0.048	 -9.797	 -0.003	  0.003	  0.000	 33.100	 100.043	  0.416
17884	 -0.341	 -0.436	  0.408	  0.098	  0.035	 -9.760	 -0.002	  0.003	  0.002	 33.100	 100.047	  0.056
17935	 -0.342	 -0.435	  0.410	  0.109	  0.050	 -9.761	 -0.004	  0.002	 -0.000	 33.100	 100.043	  0.416
17985	 -0.341	 -0.434	  0.411	  0.115	  0.059	 -9.791	 -0.003	  0.002	 -0.001	 33.100	 100.047	  0.056
18035	 -0.345	 -0.432	  0.408	  0.110	  0.047	 -9.760	 -0.003	  0.002	  0.000	 33.100	 100.047	  0.056
18085	 -0.343	 -0.436	  0.411	  0.116	  0.037	 -9.785	 -0.002	  0.001	 -0.000	 33.100	 100.047	  0.056
18135	 -0.343	 -0.430	  0.411	  0.018	 -0.041	 -9.903	 -0.002	  0.006	 -0.002	 33.100	 100.047	  0.056
18185	 -0.345	 -0.437	  0.411	  0.126	  0.032	 -9.801	 -0.006	  0.025	 -0.004	 33.100	 100.047	  0.056
18235	 -0.343	 -0.432	  0.408	  0.193	  0.026	 -9.699	 -0.003	 -0.005	  0.001	 33.100	 100.035	  1.135
18285	 -0.344	 -0.435	  0.409	  0.116	  0.043	 -9.789	 -0.003	  0.015	  0.003	 33.100	 100.047	  0.056
18335	 -0.340	 -0.433	  0.408	  0.043	  0.069	 -9.769	 -0.003	  0.022	  0.000	 33.100	 100.047	  0.056
18385	 -0.343	 -0.436	  0.412	  0.130	  0.048	 -9.782	 -0.003	  0.008	  0.001	 33.100	 100.043	  0.416
18435	 -0.342	 -0.435	  0.412	  0.038	  0.051	 -9.771	 -0.003	  0.002	  0.018	 33.100	 100.047	  0.056
18485	 -0.343	 -0.420	  0.409	  0.117	  0.042	 -9.752	 -0.004	  0.005	  0.011	 33.100	 100.058	 -0.933
18535	 -0.344	 -0.438	  0.410	  0.114	  0.045	 -9.776	 -0.004	  0.001	  0.000	 33.100	 100.043	  0.416
18585	 -0.345	 -0.432	  0.405	  0.123	  0.055	 -9.762	 -0.003	  0.002	  0.001	 33.100	 100.043	  0.416
18635	 -0.346	 -0.437	  0.409	  0.101	  0.085	 -9.785	 -0.002	 -0.001	  0.001	 33.100	 100.047	  0.056
18685	 -0.348	 -0.435	  0.411	  0.106	  0.005	 -9.825	 -0.009	  0.021	 -0.001	 33.100	 100.047	  0.056
18735	 -0.345	 -0.436	  0.400	  0.117	  0.049	 -9.750	 -0.003	  0.003	  0.001	 33.100	 100.047	  0.056
18785	 -0.346	 -0.434	  0.404	  0.105	  0.032	 -9.751	 -0.004	  0.002	  0.001	 33.100	 100.047	  0.056
18835	 -0.348	 -0.438	  0.410	  0.115	  0.032	 -9.781	 -0.003	  0.002	  0.000	 33.100	 100.058	 -0.933
18885	 -0.345	 -0.437	  0.407	  0.126	  0.018	 -9.774	 -0.004	  0.002	  0.001	 33.100	 100.047	  0.056
18935	 -0.344	 -0.434	  0.407	  0.136	  0.022	 -9.773	 -0.002	  0.002	  0.001	 33.100	 100.058	 -0.933
18985	 -0.346	 -0.438	  0.411	  0.090	  0.045	 -9.785	 -0.003	  0.003	 -0.001	 33.100	 100.047	  0.056
19035	 -0.344	 -0.422	  0.410	  0.114	  0.035	 -9.771	 -0.003	  0.002	  0.001	 33.100	 100.047	  0.056
19085	 -0.344	 -0.439	  0.410	  0.126	  0.033	 -9.737	 -0.003	  0.003	  0.001	 33.100	 100.043	  0.416
19135	 -0.346	 -0.435	  0.407	  0.124	  0.013	 -9.775	 -0.003	  0.002	  0.000	 33.100	 100.058	 -0.933
19185	 -0.344	 -0.436	  0.407	  0.093	  0.040	 -9.758	 -0.005	  0.004	  0.001	 33.100	 100.047	  0.056
19235	 -0.344	 -0.438	  0.401	  0.134	  0.035	 -9.755	 -0.004	  0.002	  0.001	 33.100	 100.054	 -0.574
19285	 -0.344	 -0.437	  0.408	  0.112	  0.067	 -9.736	 -0.002	  0.003	  0.001	 33.100	 100.054	 -0.574
19335	 -0.348	 -0.435	  0.407	  0.104	  0.017	 -9.768	 -0.003	  0.002	  0.001	 33.100	 100.047	  0.056
19385	 -0.347	 -0.436	  0.406	  0.108	  0.044	 -9.763	 -0.003	  0.004	  0.001	 33.100	 100.047	  0.056
19435	 -0.343	 -0.432	  0.410	  0.118	  0.042	 -9.791	 -0.003	  0.004	  0.002	 33.100	 100.047	  0.056
19484	 -0.345	 -0.432	  0.408	  0.119	  0.028	 -9.724	 -0.003	  0.004	  0.001	 33.100	 100.047	  0.056
19535	 -0.345	 -0.433	  0.409	  0.106	  0.052	 -9.797	 -0.003	  0.002	  0.001	 33.100	 100.047	  0.056
19584	 -0.345	 -0.423	  0.402	  0.101	  0.037	 -9.751	 -0.004	  0.004	  0.000	 33.100	 100.047	  0.056
19634	 -0.346	 -0.438	  0.400	  0.104	  0.031	 -9.776	 -0.003	  0.003	  0.000	 33.100	 100.047	  0.056
19685	 -0.345	 -0.437	  0.410	  0.104	  0.042	 -9.727	 -0.004	  0.002	  0.002	 33.100	 100.047	  0.056
19734	 -0.347	 -0.438	  0.410	  0.109	  0.041	 -9.809	 -0.004	  0.003	  0.001	 33.100	 100.043	  0.416
19784	 -0.345	 -0.438	  0.403	  0.126	  0.045	 -9.751	 -0.003	  0.003	  0.000	 33.100	 100.058	 -0.933
19834	 -0.346	 -0.437	  0.408	  0.125	  0.035	 -9.781	 -0.004	  0.003	  0.002	 33.100	 100.043	  0.416
19884	 -0.348	 -0.436	  0.409	  0.105	  0.051	 -9.756	 -0.003	  0.003	  0.001	 33.100	 100.031	  1.495
19934	 -0.344	 -0.432	  0.405	  0.116	  0.053	 -9.780	 -0.004	  0.002	  0.002	 33.100	 100.058	 -0.933
19984	 -0.346	 -0.435	  0.408	  0.115	  0.023	 -9.761	 -0.003	  0.002	  0.001	 33.100	 100.047	  0.056
20034	 -0.347	 -0.436	  0.406	  0.107	  0.049	 -9.766	 -0.004	  0.002	  0.001	 33.100	 100.054	 -0.574
20084	 -0.344	 -0.438	  0.402	  0.121	  0.028	 -9.786	 -0.002	  0.003	  0.001	 33.100	 100.054	 -0.574
20134	 -0.347	 -0.440	  0.410	  0.113	  0.038	 -9.737	 -0.003	  0.002	  0.001	 33.100	 100.047	  0.056
20184	 -0.347	 -0.430	  0.409	  0.089	  0.025	 -9.779	 -0.002	  0.002	  0.001	 33.100	 100.047	  0.056
20234	 -0.346	 -0.440	  0.409	  0.108	  0.039	 -9.774	 -0.003	  0.003	  0.002	 33.100	 100.047	  0.056
20284	 -0.346	 -0.436	  0.407	  0.093	  0.078	 -9.731	 -0.004	  0.002	 -0.000	 33.100	 100.035	  1.135
20334	 -0.346	 -0.428	  0.409	  0.111	  0.021	 -9.735	 -0.003	  0.003	  0.001	 33.100	 100.035	  1.135
20384	 -0.345	 -0.438	  0.409	  0.106	  0.040	 -9.777	 -0.003	  0.002	  0.002	 33.100	 100.054	 -0.574
20434	 -0.347	 -0.437	  0.410	  0.115	  0.060	 -9.753	 -0.003	  0.002	  0.000	 33.100	 100.047	  0.056
20484	 -0.345	 -0.437	  0.404	  0.111	  0.027	 -9.755	 -0.003	  0.003	  0.000	 33.100	 100.047	  0.056
20534	 -0.344	 -0.438	  0.410	  0.096	  0.031	 -9.767	 -0.003	  0.001	  0.001	 33.100	 100.047	  0.056
20584	 -0.345	 -0.435	  0.409	  0.112	  0.125	 -9.752	 -0.003	 -0.002	  0.008	 33.100	 100.058	 -0.933
20634	 -0.353	 -0.430	  0.411	  0.146	 -0.192	 -9.803	 -0.013	  0.012	  0.632	 33.100	 100.043	  0.416
20684	 -0.365	 -0.421	  0.413	  0.254	 -0.434	 -9.782	 -0.007	 -0.002	  0.472	 33.100	 100.054	 -0.574
20734	 -0.373	 -0.417	  0.410	  0.149	 -0.093	 -9.778	 -0.005	  0.003	  0.049	 33.100	 100.047	  0.056
20784	 -0.370	 -0.420	  0.410	  0.173	 -0.012	 -9.796	 -0.006	  0.015	 -0.064	 33.100	 100.047	  0.056
20834	 -0.368	 -0.421	  0.409	  0.210	 -0.065	 -9.776	 -0.002	  0.002	 -0.112	 33.100	 100.047	  0.056
20884	 -0.366	 -0.412	  0.409	  0.448	 -0.174	 -9.755	 -0.000	 -0.003	 -0.215	 33.100	 100.047	  0.056
20934	 -0.358	 -0.421	  0.407	 -0.215	  0.353	 -9.744	 -0.002	  0.005	 -0.142	 33.100	 100.047	  0.056
20984	 -0.358	 -0.425	  0.401	  0.004	  0.036	 -9.767	 -0.003	  0.003	 -0.004	 33.100	 100.047	  0.056
21034	 -0.357	 -0.429	  0.407	  0.119	  0.021	 -9.764	 -0.002	 -0.003	 -0.049	 33.100	 100.054	 -0.574
21084	 -0.354	 -0.427	  0.407	  0.414	 -0.068	 -9.763	 -0.003	  0.011	 -0.152	 33.100	 100.054	 -0.574
21134	 -0.352	 -0.431	  0.404	 -0.329	  0.115	 -9.836	 -0.001	  0.003	 -0.118	 33.100	 100.058	 -0.933
21184	 -0.350	 -0.419	  0.403	  0.117	  0.043	 -9.738	  0.001	 -0.004	 -0.022	 33.100	 100.058	 -0.933
21234	 -0.348	 -0.432	  0.406	  0.045	  0.059	 -9.776	 -0.003	  0.005	 -0.011	 33.100	 100.047	  0.056
21284	 -0.348	 -0.426	  0.405	  0.198	 -0.020	 -9.724	 -0.003	  0.002	 -0.018	 33.100	 100.047	  0.056
21334	 -0.348	 -0.426	  0.409	  0.239	  0.005	 -9.772	 -0.004	  0.002	 -0.060	 33.100	 100.035	  1.135
21384	 -0.349	 -0.432	  0.402	  0.149	  0.023	 -9.765	 -0.006	 -0.023	  0.019	 33.100	 100.054	 -0.574
21434	 -0.350	 -0.430	  0.402	  0.095	  0.038	 -9.767	 -0.003	  0.013	 -0.001	 33.100	 100.047	  0.056
21484	 -0.348	 -0.428	  0.395	  0.075	  0.052	 -9.770	 -0.002	  0.008	  0.015	 33.100	 100.047	  0.056
21534	 -0.347	 -0.433	  0.402	  0.085	 -0.045	 -9.760	 -0.002	 -0.001	  0.002	 33.100	 100.047	  0.056
21584	 -0.347	 -0.433	  0.398	  0.400	 -0.405	 -9.561	  0.051	 -0.176	  0.060	 33.100	 100.043	  0.416
21634	 -0.328	 -0.431	  0.414	 -0.911	 -0.502	 -15.405	 -0.855	 -1.986	  0.590	 33.100	 100.047	  0.056
21684	 -0.286	 -0.440	  0.417	 -2.023	  1.876	 -18.837	 -0.950	  2.266	  0.336	 33.100	 100.047	  0.056
21734	 -0.393	 -0.463	  0.303	  3.033	 -2.626	 15.753	 -1.156	  7.157	  1.580	 33.100	 100.047	  0.056
21784	 -0.387	 -0.432	  0.343	 -3.551	 -0.543	 -24.488	  2.700	 -10.717	 -1.998	 33.100	 100.047	  0.056
21834	 -0.325	 -0.464	  0.352	  1.474	 -3.024	 -7.686	 -2.594	  5.804	  0.423	 33.100	 100.043	  0.416
21884	 -0.360	 -0.436	  0.357	  1.508	 -1.934	 -10.030	  2.304	 -2.816	  0.134	 33.100	 100.043	  0.416
21934	 -0.358	 -0.418	  0.359	  1.749	 -2.202	 -2.713	 -1.119	  0.677	  0.069	 33.100	 100.058	 -0.933
21984	 -0.335	 -0.440	  0.367	 -0.511	  0.475	 -17.033	 -0.213	 -0.037	 -0.655	 33.100	 100.058	 -0.933
22034	 -0.340	 -0.451	  0.357	  1.094	  1.448	 -4.218	  0.320	  0.198	 -0.107	 33.100	 100.047	  0.056
22084	 -0.336	 -0.437	  0.370	 -0.156	  0.438	 -10.377	  1.180	 -0.322	 -0.247	 33.100	 100.047	  0.056
22134	 -0.331	 -0.429	  0.388	  0.802	  0.029	 -10.317	 -0.137	  0.077	 -0.011	 33.100	 100.043	  0.416
22184	 -0.334	 -0.420	  0.387	  1.287	  0.059	 -9.185	  0.034	 -0.107	  0.082	 33.100	 100.035	  1.135
22234	 -0.327	 -0.423	  0.402	 -0.342	 -0.401	 -10.587	  0.393	 -0.722	  0.289	 33.100	 100.047	  0.056
22284	 -0.309	 -0.401	  0.418	 -2.873	 -0.771	 -19.770	 -0.103	 -0.996	  0.262	 33.100	 100.058	 -0.933
22334	 -0.309	 -0.433	  0.389	  3.759	  0.334	 -3.472	 -2.243	  3.554	  0.378	 33.100	 100.035	  1.135
22384	 -0.350	 -0.454	  0.335	  1.469	 -1.142	  8.709	  0.558	 -2.670	 -0.163	 33.100	 100.047	  0.056
22434	 -0.262	 -0.442	  0.411	 -5.822	 -0.247	 -36.673	 -0.629	 -1.959	 -0.067	 33.100	 100.047	  0.056
22484	 -0.313	 -0.475	  0.345	  2.643	  1.481	  6.010	  0.390	  3.650	 -0.094	 33.100	 100.043	  0.416
22534	 -0.324	 -0.422	  0.394	 -3.664	 -2.108	 -21.266	  1.760	 -2.209	  0.541	 33.100	 100.047	  0.056
22584	 -0.326	 -0.403	  0.405	  0.555	  2.385	 -11.620	 -0.036	  2.320	 -0.323	 33.100	 100.047	  0.056
22634	 -0.360	 -0.406	  0.385	  2.756	 -0.482	  0.067	  0.356	 -0.810	  0.884	 33.100	 100.047	  0.056
22684	 -0.329	 -0.412	  0.408	 -1.312	 -0.978	 -16.459	 -0.468	 -0.229	 -0.585	 33.100	 100.047	  0.056
22735	 -0.330	 -0.421	  0.390	  0.089	  0.236	 -7.511	  0.106	  0.361	 -0.182	 33.100	 100.058	 -0.933
22784	 -0.332	 -0.410	  0.400	  0.651	  0.120	 -11.383	  0.346	  0.088	  0.007	 33.100	 100.047	  0.056
22834	 -0.338	 -0.411	  0.400	 -0.078	 -0.856	 -8.757	 -0.088	 -0.081	  0.009	 33.100	 100.047	  0.056
22884	 -0.322	 -0.413	  0.400	  0.807	 -0.125	 -21.197	 -1.327	  0.155	  0.256	 33.100	 100.031	  1.495
22934	 -0.365	 -0.445	  0.332	  1.003	 -1.584	 18.876	  0.103	  2.924	  0.492	 33.100	 100.047	  0.056
22984	 -0.305	 -0.408	  0.419	 -7.716	 -2.505	 -42.958	  1.135	 -5.339	 -1.421	 33.100	 100.058	 -0.933
23034	 -0.320	 -0.450	  0.378	  1.152	 -1.383	  3.769	 -1.522	  2.494	  0.178	 33.100	 100.058	 -0.933
23085	 -0.303	 -0.418	  0.407	  1.670	  3.066	 -15.621	  2.758	  1.046	 -0.984	 33.100	 100.043	  0.416
23134	 -0.332	 -0.407	  0.397	  0.870	 -3.708	 -1.882	 -2.285	 -2.444	  1.019	 33.100	 100.047	  0.056
23185	 -0.296	 -0.421	  0.402	 -1.008	  0.522	 -22.294	 -0.266	  1.317	 -0.695	 33.100	 100.047	  0.056
23235	 -0.319	 -0.445	  0.370	  2.340	  0.861	  2.960	 -0.709	  0.385	  0.281	 33.100	 100.047	  0.056
23285	 -0.311	 -0.436	  0.387	 -0.207	 -0.737	 -13.174	  0.852	 -0.422	 -0.117	 33.100	 100.047	  0.056
23335	 -0.326	 -0.423	  0.394	  1.030	 -0.215	 -12.935	  0.256	 -0.103	  0.183	 33.100	 100.054	 -0.574
23385	 -0.329	 -0.426	  0.384	  1.104	  0.015	 -7.956	 -0.267	  0.442	 -0.057	 33.100	 100.043	  0.416
23435	 -0.331	 -0.434	  0.382	  0.941	  0.130	 -8.727	 -0.078	 -0.335	  0.193	 33.100	 100.058	 -0.933
23485	 -0.341	 -0.425	  0.383	  0.510	 -0.123	 -10.281	 -0.100	  0.432	  0.179	 33.100	 100.058	 -0.933
23535	 -0.346	 -0.431	  0.373	  0.652	  0.351	 -9.926	 -0.160	  0.246	 -0.170	 33.100	 100.047	  0.056
23584	 -0.350	 -0.438	  0.365	  0.848	 -0.182	 -9.296	 -0.230	  0.036	 -0.121	 33.100	 100.047	  0.056
23634	 -0.341	 -0.440	  0.365	  0.783	  0.762	 -9.991	  0.017	 -0.117	 -0.119	 33.100	 100.054	 -0.574
23684	 -0.338	 -0.436	  0.377	  0.771	 -0.015	 -9.686	  0.102	 -0.076	 -0.006	 33.100	 100.043	  0.416
23734	 -0.336	 -0.437	  0.372	  0.948	  0.524	 -7.407	  0.171	 -0.636	 -0.053	 33.100	 100.058	 -0.933
