Time	 MagX	 MagY	 MagZ	 AccelX	 AccelY	 AccelZ	 Yaw	 Pitch	 Roll	 Temperature	 Pressure	 Altitude
16272	 -0.225	 -0.272	  0.243	  0.127	 -0.042	 -9.856	 -0.004	  0.002	  0.001	 34.000	 98.961	 -99999.000
16321	 -0.226	 -0.254	  0.250	  0.154	 -0.021	 -9.805	 -0.003	  0.002	  0.001	 34.000	 98.957	 -99999.000
16371	 -0.226	 -0.266	  0.250	  0.119	 -0.050	 -9.844	 -0.003	  0.002	  0.001	 34.000	 98.961	 -99999.000
16421	 -0.225	 -0.266	  0.249	  0.157	 -0.047	 -9.837	 -0.003	  0.001	 -0.001	 34.000	 98.957	 -99999.000
16471	 -0.226	 -0.264	  0.249	  0.162	 -0.030	 -9.811	 -0.004	  0.003	  0.000	 34.000	 98.957	 -99999.000
16521	 -0.224	 -0.267	  0.249	  0.135	 -0.025	 -9.772	 -0.003	  0.002	  0.001	 34.000	 98.969	 -99999.000
16571	 -0.225	 -0.268	  0.245	  0.134	 -0.037	 -9.800	 -0.003	  0.002	  0.000	 34.000	 98.969	 -99999.000
16621	 -0.226	 -0.267	  0.247	  0.159	 -0.036	 -9.837	 -0.004	  0.003	  0.000	 34.000	 98.961	 -99999.000
16671	 -0.227	 -0.267	  0.243	  0.157	 -0.036	 -9.824	 -0.003	  0.002	  0.001	 34.000	 98.957	 -99999.000
16721	 -0.227	 -0.269	  0.249	  0.170	 -0.025	 -9.854	 -0.003	  0.002	  0.001	 34.000	 98.957	 -99999.000
16771	 -0.227	 -0.262	  0.246	  0.161	 -0.026	 -9.815	 -0.004	  0.002	 -0.000	 34.000	 98.961	 -99999.000
16821	 -0.225	 -0.270	  0.248	  0.145	 -0.045	 -9.808	 -0.003	  0.002	  0.002	 34.000	 98.957	 -99999.000
16871	 -0.224	 -0.265	  0.244	  0.145	 -0.044	 -9.807	 -0.004	  0.003	  0.001	 34.000	 98.973	 -99999.000
16921	 -0.225	 -0.264	  0.251	  0.137	 -0.035	 -9.832	 -0.003	  0.002	  0.002	 34.000	 98.973	 -99999.000
16971	 -0.225	 -0.261	  0.245	  0.137	 -0.043	 -9.805	 -0.003	  0.002	 -0.000	 34.000	 98.957	 -99999.000
17021	 -0.230	 -0.268	  0.251	  0.157	 -0.040	 -9.818	 -0.004	  0.002	  0.000	 34.000	 98.957	 -99999.000
17071	 -0.226	 -0.270	  0.248	  0.153	 -0.049	 -9.802	 -0.004	  0.001	 -0.000	 34.000	 98.961	 -99999.000
17121	 -0.227	 -0.267	  0.249	  0.139	 -0.027	 -9.861	 -0.003	  0.002	  0.001	 34.000	 98.973	 -99999.000
17171	 -0.227	 -0.270	  0.252	  0.162	 -0.054	 -9.815	 -0.003	  0.002	  0.003	 34.000	 98.950	 -99999.000
17221	 -0.227	 -0.269	  0.245	  0.141	 -0.041	 -9.828	 -0.004	  0.003	  0.001	 34.000	 98.969	 -99999.000
17271	 -0.226	 -0.264	  0.250	  0.150	 -0.028	 -9.801	 -0.004	  0.002	  0.001	 34.000	 98.969	 -99999.000
17321	 -0.224	 -0.264	  0.250	  0.126	 -0.027	 -9.823	 -0.004	  0.002	  0.001	 34.000	 98.961	 -99999.000
17371	 -0.229	 -0.272	  0.247	  0.123	 -0.059	 -9.781	 -0.004	  0.001	  0.001	 34.000	 98.973	 -99999.000
17421	 -0.224	 -0.271	  0.246	  0.141	 -0.040	 -9.860	 -0.003	  0.003	 -0.000	 34.000	 98.969	 -99999.000
17471	 -0.226	 -0.270	  0.242	  0.146	 -0.019	 -9.792	 -0.003	  0.001	  0.000	 34.000	 98.973	 -99999.000
17521	 -0.224	 -0.264	  0.246	  0.160	 -0.027	 -9.823	 -0.003	  0.004	  0.000	 34.000	 98.961	 -99999.000
17571	 -0.227	 -0.271	  0.238	  0.138	 -0.040	 -9.807	 -0.002	  0.002	  0.001	 34.000	 98.961	 -99999.000
17621	 -0.230	 -0.255	  0.246	  0.123	 -0.031	 -9.809	 -0.003	  0.003	  0.001	 34.000	 98.973	 -99999.000
17671	 -0.226	 -0.269	  0.250	  0.141	 -0.024	 -9.804	 -0.003	  0.003	  0.002	 34.000	 98.969	 -99999.000
17720	 -0.226	 -0.268	  0.240	  0.173	 -0.035	 -9.820	 -0.003	  0.003	  0.000	 34.000	 98.961	 -99999.000
17770	 -0.227	 -0.269	  0.244	  0.160	 -0.039	 -9.853	 -0.004	  0.002	  0.002	 34.000	 98.961	 -99999.000
17820	 -0.227	 -0.270	  0.249	  0.159	 -0.048	 -9.812	 -0.003	  0.003	  0.001	 34.000	 98.973	 -99999.000
17870	 -0.226	 -0.269	  0.243	  0.155	 -0.045	 -9.803	 -0.003	  0.003	  0.001	 34.000	 98.973	 -99999.000
17920	 -0.228	 -0.268	  0.252	  0.144	 -0.024	 -9.818	 -0.002	  0.003	  0.001	 34.000	 98.973	 -99999.000
17970	 -0.226	 -0.270	  0.249	  0.134	 -0.015	 -9.827	 -0.003	  0.003	  0.001	 34.000	 98.961	 -99999.000
18020	 -0.227	 -0.268	  0.244	  0.132	 -0.059	 -9.789	 -0.004	  0.001	  0.001	 34.000	 98.961	 -99999.000
18070	 -0.226	 -0.269	  0.240	  0.151	 -0.031	 -9.835	 -0.003	  0.001	  0.002	 34.000	 98.961	 -99999.000
18120	 -0.225	 -0.269	  0.244	  0.138	 -0.053	 -9.813	 -0.003	  0.003	 -0.001	 34.000	 98.973	 -99999.000
18170	 -0.224	 -0.269	  0.250	  0.154	 -0.023	 -9.820	 -0.004	  0.002	  0.001	 34.000	 98.973	 -99999.000
18220	 -0.226	 -0.269	  0.248	  0.137	 -0.036	 -9.824	 -0.004	  0.002	  0.000	 34.000	 98.969	 -99999.000
18270	 -0.225	 -0.267	  0.249	  0.125	 -0.026	 -9.811	 -0.003	  0.002	  0.000	 34.000	 98.961	 -99999.000
18320	 -0.227	 -0.266	  0.241	  0.154	 -0.028	 -9.814	 -0.004	  0.001	  0.001	 34.000	 98.961	 -99999.000
18370	 -0.227	 -0.268	  0.247	  0.131	 -0.041	 -9.834	 -0.003	  0.002	  0.001	 34.000	 98.961	 -99999.000
18420	 -0.228	 -0.267	  0.247	  0.146	 -0.046	 -9.843	 -0.002	  0.002	  0.002	 34.000	 98.973	 -99999.000
18470	 -0.224	 -0.268	  0.246	  0.163	 -0.038	 -9.827	 -0.003	  0.001	  0.000	 34.000	 98.961	 -99999.000
18521	 -0.226	 -0.267	  0.246	  0.153	 -0.009	 -9.822	 -0.003	  0.002	  0.001	 34.000	 98.969	 -99999.000
18570	 -0.227	 -0.267	  0.249	  0.158	 -0.044	 -9.828	 -0.004	 -0.000	 -0.000	 34.000	 98.961	 -99999.000
18620	 -0.224	 -0.268	  0.248	  0.127	 -0.041	 -9.766	 -0.003	  0.002	  0.000	 34.000	 98.961	 -99999.000
18670	 -0.226	 -0.269	  0.248	  0.144	 -0.035	 -9.825	 -0.004	  0.001	  0.001	 34.000	 98.961	 -99999.000
18720	 -0.228	 -0.269	  0.249	  0.148	 -0.062	 -9.817	 -0.003	  0.003	  0.001	 34.000	 98.950	 -99999.000
18771	 -0.224	 -0.264	  0.249	  0.141	 -0.038	 -9.828	 -0.003	  0.002	  0.002	 34.000	 98.973	 -99999.000
18820	 -0.226	 -0.265	  0.245	  0.149	 -0.026	 -9.848	 -0.003	  0.003	 -0.001	 34.000	 98.961	 -99999.000
18871	 -0.225	 -0.262	  0.245	  0.143	 -0.029	 -9.810	 -0.003	  0.002	  0.002	 34.000	 98.961	 -99999.000
18921	 -0.225	 -0.268	  0.244	  0.133	 -0.026	 -9.832	 -0.004	  0.001	  0.001	 34.000	 98.961	 -99999.000
18971	 -0.226	 -0.264	  0.249	  0.160	 -0.025	 -9.779	 -0.004	  0.002	  0.001	 34.000	 98.973	 -99999.000
19021	 -0.226	 -0.270	  0.249	  0.153	 -0.022	 -9.801	 -0.005	  0.001	  0.002	 34.000	 98.957	 -99999.000
19071	 -0.226	 -0.268	  0.250	  0.105	 -0.059	 -9.826	 -0.003	  0.002	  0.002	 34.000	 98.977	 -99999.000
19121	 -0.227	 -0.267	  0.246	  0.176	 -0.017	 -9.830	 -0.004	  0.001	  0.000	 34.000	 98.973	 -99999.000
19171	 -0.226	 -0.269	  0.246	  0.141	 -0.031	 -9.826	 -0.003	  0.001	  0.000	 34.000	 98.961	 -99999.000
19221	 -0.225	 -0.267	  0.242	  0.163	 -0.047	 -9.802	 -0.004	  0.002	  0.001	 34.000	 98.961	 -99999.000
19271	 -0.225	 -0.268	  0.250	  0.139	 -0.053	 -9.830	 -0.004	  0.003	  0.000	 34.000	 98.950	 -99999.000
19321	 -0.227	 -0.270	  0.252	  0.167	 -0.042	 -9.811	 -0.005	  0.003	  0.000	 34.000	 98.961	 -99999.000
19371	 -0.226	 -0.269	  0.246	  0.160	 -0.044	 -9.786	 -0.005	  0.002	  0.001	 34.000	 98.961	 -99999.000
19421	 -0.227	 -0.270	  0.241	  0.141	 -0.052	 -9.796	 -0.004	  0.003	 -0.000	 34.000	 98.961	 -99999.000
19471	 -0.226	 -0.266	  0.245	  0.157	 -0.066	 -9.808	 -0.004	  0.002	  0.001	 34.000	 98.973	 -99999.000
19521	 -0.226	 -0.270	  0.250	  0.136	 -0.045	 -9.866	 -0.003	  0.003	  0.001	 34.000	 98.961	 -99999.000
19571	 -0.228	 -0.270	  0.241	  0.142	 -0.031	 -9.834	 -0.003	  0.002	  0.001	 34.000	 98.961	 -99999.000
19621	 -0.225	 -0.266	  0.244	  0.108	 -0.021	 -9.829	 -0.004	  0.002	  0.001	 34.000	 98.973	 -99999.000
19671	 -0.226	 -0.270	  0.246	  0.165	 -0.031	 -9.800	 -0.003	  0.001	  0.001	 34.000	 98.961	 -99999.000
19721	 -0.224	 -0.253	  0.244	  0.155	 -0.055	 -9.835	 -0.004	  0.002	  0.001	 34.000	 98.961	 -99999.000
19771	 -0.227	 -0.255	  0.246	  0.108	 -0.024	 -9.800	 -0.003	  0.002	  0.001	 34.000	 98.961	 -99999.000
19820	 -0.227	 -0.266	  0.247	  0.179	 -0.059	 -9.823	 -0.004	  0.002	  0.002	 34.000	 98.961	 -99999.000
19870	 -0.226	 -0.269	  0.249	  0.119	 -0.030	 -9.822	 -0.004	  0.002	  0.001	 34.000	 98.961	 -99999.000
19920	 -0.226	 -0.265	  0.247	  0.192	 -0.072	 -9.836	 -0.003	  0.001	  0.000	 34.000	 98.961	 -99999.000
19971	 -0.223	 -0.264	  0.249	  0.105	 -0.019	 -9.796	 -0.003	  0.002	  0.002	 34.000	 98.973	 -99999.000
20020	 -0.227	 -0.268	  0.243	  0.160	 -0.052	 -9.792	 -0.003	  0.001	  0.002	 34.000	 98.961	 -99999.000
20070	 -0.226	 -0.268	  0.248	  0.133	 -0.017	 -9.843	 -0.003	  0.002	  0.001	 34.000	 98.973	 -99999.000
20121	 -0.227	 -0.268	  0.242	  0.149	 -0.054	 -9.825	 -0.003	  0.002	  0.001	 34.000	 98.961	 -99999.000
20170	 -0.224	 -0.268	  0.250	  0.166	 -0.028	 -9.856	 -0.004	  0.002	  0.001	 34.000	 98.961	 -99999.000
20220	 -0.226	 -0.267	  0.246	  0.124	 -0.067	 -9.802	 -0.004	  0.003	  0.001	 34.000	 98.961	 -99999.000
20270	 -0.226	 -0.269	  0.248	  0.160	 -0.043	 -9.808	 -0.004	  0.002	 -0.000	 34.000	 98.961	 -99999.000
20320	 -0.225	 -0.270	  0.246	  0.118	 -0.068	 -9.832	 -0.004	  0.002	  0.000	 34.000	 98.961	 -99999.000
20370	 -0.227	 -0.268	  0.247	  0.184	 -0.047	 -9.846	 -0.003	  0.003	  0.000	 34.000	 98.961	 -99999.000
20420	 -0.226	 -0.258	  0.244	  0.124	 -0.047	 -9.868	 -0.003	  0.002	  0.001	 34.000	 98.966	 -99999.000
20470	 -0.226	 -0.268	  0.248	  0.170	 -0.027	 -9.818	 -0.003	  0.001	  0.000	 34.000	 98.961	 -99999.000
20520	 -0.225	 -0.268	  0.246	  0.143	 -0.060	 -9.824	 -0.003	  0.002	 -0.001	 34.000	 98.961	 -99999.000
20570	 -0.224	 -0.269	  0.245	  0.165	 -0.018	 -9.842	 -0.003	  0.002	 -0.000	 34.000	 98.973	 -99999.000
20620	 -0.227	 -0.269	  0.249	  0.099	 -0.046	 -9.780	 -0.003	  0.003	  0.003	 34.000	 98.973	 -99999.000
20670	 -0.224	 -0.272	  0.245	  0.161	 -0.035	 -9.811	 -0.003	  0.003	  0.002	 34.000	 98.961	 -99999.000
20720	 -0.226	 -0.271	  0.241	  0.127	 -0.053	 -9.828	 -0.002	  0.002	  0.001	 34.000	 98.966	 -99999.000
20770	 -0.226	 -0.261	  0.246	  0.177	 -0.057	 -9.810	 -0.004	  0.002	  0.001	 34.000	 98.966	 -99999.000
20820	 -0.224	 -0.267	  0.248	  0.142	 -0.038	 -9.808	 -0.004	  0.002	 -0.000	 34.000	 98.961	 -99999.000
20870	 -0.226	 -0.262	  0.246	  0.136	 -0.043	 -9.794	 -0.004	  0.003	  0.001	 34.000	 98.961	 -99999.000
20920	 -0.227	 -0.270	  0.244	  0.131	 -0.046	 -9.817	 -0.004	  0.001	  0.002	 34.000	 98.966	 -99999.000
20970	 -0.225	 -0.267	  0.240	  0.144	 -0.026	 -9.849	 -0.003	  0.002	  0.000	 34.000	 98.961	 -99999.000
21020	 -0.226	 -0.273	  0.249	  0.137	 -0.011	 -9.815	 -0.004	  0.002	  0.001	 34.000	 98.961	 -99999.000
21070	 -0.226	 -0.261	  0.247	  0.138	 -0.037	 -9.837	 -0.003	  0.002	  0.001	 34.000	 98.966	 -99999.000
21120	 -0.222	 -0.268	  0.248	  0.143	 -0.011	 -9.832	 -0.003	  0.001	 -0.000	 34.000	 98.966	 -99999.000
21170	 -0.223	 -0.271	  0.247	  0.155	 -0.061	 -9.824	 -0.003	  0.002	  0.002	 34.000	 98.961	 -99999.000
21220	 -0.230	 -0.270	  0.248	  0.168	 -0.037	 -9.886	 -0.003	  0.003	  0.002	 34.000	 98.961	 -99999.000
21270	 -0.223	 -0.267	  0.237	  0.127	 -0.045	 -9.794	 -0.003	  0.001	 -0.000	 34.000	 98.961	 -99999.000
21320	 -0.226	 -0.268	  0.248	  0.161	 -0.038	 -9.821	 -0.004	  0.002	 -0.000	 34.000	 98.966	 -99999.000
21370	 -0.226	 -0.267	  0.250	  0.143	 -0.058	 -9.804	 -0.004	  0.001	  0.001	 34.000	 98.961	 -99999.000
21420	 -0.225	 -0.268	  0.250	  0.175	 -0.004	 -9.791	 -0.004	  0.002	  0.001	 34.000	 98.954	 -99999.000
21470	 -0.225	 -0.262	  0.243	  0.113	 -0.023	 -9.818	 -0.003	  0.001	  0.001	 34.000	 98.950	 -99999.000
21520	 -0.225	 -0.269	  0.248	  0.153	 -0.043	 -9.820	 -0.004	  0.001	  0.001	 34.000	 98.966	 -99999.000
21570	 -0.226	 -0.264	  0.243	  0.156	 -0.041	 -9.837	 -0.003	  0.001	  0.000	 34.000	 98.966	 -99999.000
21620	 -0.226	 -0.255	  0.245	  0.130	 -0.045	 -9.846	 -0.004	  0.002	  0.001	 34.000	 98.961	 -99999.000
21670	 -0.224	 -0.272	  0.250	  0.144	 -0.055	 -9.812	 -0.004	  0.001	  0.000	 34.000	 98.966	 -99999.000
21720	 -0.225	 -0.266	  0.249	  0.139	 -0.055	 -9.825	 -0.003	  0.002	 -0.000	 34.000	 98.961	 -99999.000
21770	 -0.227	 -0.269	  0.246	  0.128	 -0.020	 -9.858	 -0.003	  0.002	  0.002	 34.000	 98.961	 -99999.000
21820	 -0.227	 -0.267	  0.246	  0.141	 -0.057	 -9.820	 -0.003	  0.003	 -0.000	 34.000	 98.966	 -99999.000
21870	 -0.227	 -0.267	  0.246	  0.136	 -0.016	 -9.855	 -0.003	  0.002	  0.001	 34.000	 98.961	 -99999.000
21919	 -0.225	 -0.268	  0.245	  0.146	 -0.031	 -9.826	 -0.003	  0.002	  0.001	 34.000	 98.966	 -99999.000
21969	 -0.226	 -0.269	  0.245	  0.126	 -0.012	 -9.806	 -0.003	  0.002	  0.002	 34.000	 98.977	 -99999.000
22019	 -0.229	 -0.268	  0.245	  0.144	 -0.042	 -9.845	 -0.004	  0.002	  0.001	 34.000	 98.961	 -99999.000
22069	 -0.226	 -0.262	  0.249	  0.158	 -0.023	 -9.833	 -0.003	  0.001	  0.001	 34.000	 98.966	 -99999.000
22119	 -0.227	 -0.256	  0.248	  0.141	 -0.037	 -9.823	 -0.003	  0.002	  0.002	 34.000	 98.961	 -99999.000
22169	 -0.223	 -0.259	  0.248	  0.154	 -0.029	 -9.816	 -0.004	  0.001	  0.001	 34.000	 98.966	 -99999.000
22219	 -0.226	 -0.266	  0.240	  0.115	 -0.032	 -9.835	 -0.004	  0.001	  0.001	 34.000	 98.950	 -99999.000
30668	 -0.225	 -0.269	  0.246	  0.194	 -0.095	 -9.824	 -0.002	  0.002	 -0.000	 34.000	 98.958	  0.447
30717	 -0.227	 -0.265	  0.245	  0.161	 -0.021	 -9.887	 -0.000	  0.003	  0.002	 34.000	 98.970	 -0.641
30767	 -0.224	 -0.265	  0.251	  0.137	 -0.028	 -9.867	 -0.003	  0.001	  0.000	 34.000	 98.958	  0.447
30817	 -0.226	 -0.270	  0.249	  0.140	 -0.013	 -9.797	 -0.004	  0.003	  0.000	 34.000	 98.951	  1.082
30867	 -0.223	 -0.269	  0.248	  0.134	 -0.036	 -9.830	 -0.004	  0.002	  0.002	 34.000	 98.974	 -1.003
30917	 -0.225	 -0.266	  0.244	  0.133	 -0.054	 -9.824	 -0.004	  0.002	  0.001	 34.000	 98.974	 -1.003
30967	 -0.227	 -0.259	  0.246	  0.126	 -0.047	 -9.832	 -0.004	  0.002	  0.001	 34.000	 98.958	  0.447
31017	 -0.223	 -0.270	  0.249	  0.152	 -0.052	 -9.859	 -0.003	  0.002	  0.001	 34.100	 98.962	  0.085
31067	 -0.225	 -0.272	  0.247	  0.139	 -0.058	 -9.831	 -0.002	  0.001	 -0.000	 34.000	 98.958	  0.447
31117	 -0.225	 -0.268	  0.240	  0.128	 -0.031	 -9.775	 -0.003	  0.001	  0.001	 34.000	 98.958	  0.447
31167	 -0.226	 -0.267	  0.243	  0.121	 -0.025	 -9.839	 -0.004	  0.003	  0.001	 34.000	 98.962	  0.085
31217	 -0.225	 -0.266	  0.245	  0.151	 -0.051	 -9.839	 -0.004	  0.002	  0.001	 34.000	 98.958	  0.447
31267	 -0.224	 -0.270	  0.250	  0.142	 -0.037	 -9.821	 -0.003	  0.003	  0.000	 34.000	 98.958	  0.447
31317	 -0.228	 -0.271	  0.245	  0.146	 -0.060	 -9.819	 -0.003	  0.002	  0.001	 34.000	 98.970	 -0.641
31367	 -0.224	 -0.268	  0.248	  0.138	 -0.038	 -9.834	 -0.003	  0.003	  0.001	 34.000	 98.962	  0.085
31417	 -0.227	 -0.265	  0.247	  0.137	 -0.053	 -9.811	 -0.003	  0.002	  0.000	 34.000	 98.947	  1.445
31467	 -0.227	 -0.265	  0.247	  0.146	 -0.005	 -9.816	 -0.003	  0.001	  0.000	 34.000	 98.958	  0.447
31517	 -0.223	 -0.271	  0.249	  0.129	 -0.057	 -9.811	 -0.003	  0.002	  0.002	 34.000	 98.981	 -1.638
31567	 -0.227	 -0.268	  0.249	  0.130	 -0.062	 -9.809	 -0.004	  0.001	  0.001	 34.000	 98.970	 -0.641
31617	 -0.222	 -0.268	  0.247	  0.147	 -0.040	 -9.825	 -0.003	  0.002	  0.000	 34.000	 98.974	 -1.003
31667	 -0.226	 -0.269	  0.243	  0.139	 -0.057	 -9.858	 -0.004	  0.002	  0.000	 34.000	 98.958	  0.447
31717	 -0.227	 -0.269	  0.249	  0.139	 -0.049	 -9.822	 -0.003	  0.002	  0.000	 34.000	 98.974	 -1.003
31767	 -0.223	 -0.271	  0.244	  0.162	 -0.036	 -9.813	 -0.003	  0.002	  0.001	 34.000	 98.958	  0.447
31817	 -0.227	 -0.267	  0.244	  0.156	 -0.030	 -9.826	 -0.002	  0.001	  0.001	 34.000	 98.970	 -0.641
31867	 -0.225	 -0.266	  0.236	  0.137	 -0.014	 -9.820	 -0.004	  0.003	  0.001	 34.000	 98.962	  0.085
31917	 -0.227	 -0.264	  0.238	  0.153	 -0.039	 -9.786	 -0.002	  0.002	  0.000	 34.000	 98.958	  0.447
31967	 -0.227	 -0.268	  0.252	  0.122	 -0.060	 -9.797	 -0.003	  0.002	  0.001	 34.000	 98.958	  0.447
32017	 -0.226	 -0.268	  0.250	  0.153	 -0.039	 -9.849	 -0.003	  0.001	  0.001	 34.000	 98.974	 -1.003
32067	 -0.226	 -0.268	  0.248	  0.130	 -0.032	 -9.821	 -0.004	  0.003	  0.002	 34.000	 98.962	  0.085
32117	 -0.224	 -0.271	  0.245	  0.139	 -0.034	 -9.838	 -0.005	 -0.001	  0.001	 34.000	 98.962	  0.085
32166	 -0.226	 -0.264	  0.244	  0.133	 -0.054	 -9.778	 -0.004	  0.001	  0.000	 34.000	 98.962	  0.085
32216	 -0.227	 -0.267	  0.247	  0.138	 -0.023	 -9.833	 -0.004	  0.003	  0.001	 34.000	 98.958	  0.447
32266	 -0.224	 -0.266	  0.251	  0.142	 -0.055	 -9.839	 -0.005	  0.002	  0.001	 34.000	 98.958	  0.447
32316	 -0.228	 -0.263	  0.245	  0.139	 -0.050	 -9.842	 -0.003	  0.002	  0.000	 34.000	 98.962	  0.085
32366	 -0.224	 -0.268	  0.250	  0.147	 -0.076	 -9.845	 -0.004	  0.000	  0.001	 34.000	 98.970	 -0.641
32416	 -0.226	 -0.266	  0.244	  0.132	 -0.032	 -9.849	 -0.003	  0.003	  0.001	 34.000	 98.962	  0.085
32467	 -0.228	 -0.269	  0.249	  0.147	 -0.032	 -9.800	 -0.003	  0.001	  0.001	 34.000	 98.958	  0.447
32516	 -0.223	 -0.266	  0.248	  0.145	 -0.020	 -9.817	 -0.004	  0.002	  0.001	 34.000	 98.974	 -1.003
32566	 -0.226	 -0.273	  0.248	  0.150	 -0.032	 -9.840	 -0.004	  0.001	  0.001	 34.000	 98.962	  0.085
32616	 -0.227	 -0.266	  0.250	  0.141	 -0.048	 -9.816	 -0.005	  0.002	  0.001	 34.000	 98.962	  0.085
32666	 -0.227	 -0.266	  0.246	  0.154	 -0.075	 -9.892	 -0.004	  0.001	  0.001	 34.000	 98.962	  0.085
32716	 -0.225	 -0.268	  0.246	  0.116	 -0.027	 -9.824	 -0.003	  0.002	  0.001	 34.000	 98.962	  0.085
32766	 -0.226	 -0.265	  0.245	  0.144	 -0.025	 -9.780	 -0.004	  0.002	  0.002	 34.000	 98.974	 -1.003
32816	 -0.225	 -0.269	  0.246	  0.124	 -0.004	 -9.804	 -0.005	  0.001	  0.000	 34.000	 98.958	  0.447
32866	 -0.226	 -0.266	  0.250	  0.143	 -0.047	 -9.830	 -0.003	  0.002	  0.001	 34.000	 98.962	  0.085
32916	 -0.224	 -0.266	  0.248	  0.141	 -0.020	 -9.718	 -0.003	  0.002	  0.002	 34.100	 98.974	 -1.003
32966	 -0.226	 -0.266	  0.246	  0.144	 -0.049	 -9.789	 -0.003	  0.001	  0.001	 34.000	 98.962	  0.085
33016	 -0.225	 -0.267	  0.245	  0.119	 -0.053	 -9.817	 -0.004	  0.002	  0.002	 34.000	 98.962	  0.085
33066	 -0.227	 -0.269	  0.248	  0.122	 -0.028	 -9.836	 -0.003	  0.001	  0.001	 34.000	 98.951	  1.082
33116	 -0.226	 -0.268	  0.249	  0.149	 -0.057	 -9.818	 -0.003	  0.002	 -0.000	 34.000	 98.962	  0.085
33166	 -0.225	 -0.266	  0.245	  0.137	 -0.024	 -9.803	 -0.005	  0.001	  0.001	 34.000	 98.962	  0.085
33216	 -0.227	 -0.270	  0.246	  0.152	 -0.048	 -9.824	 -0.003	  0.002	  0.001	 34.000	 98.974	 -1.003
33266	 -0.223	 -0.267	  0.250	  0.159	 -0.034	 -9.788	 -0.005	  0.002	  0.000	 34.000	 98.962	  0.085
33316	 -0.225	 -0.266	  0.248	  0.138	 -0.069	 -9.835	 -0.003	  0.002	  0.000	 34.100	 98.962	  0.085
33366	 -0.225	 -0.265	  0.246	  0.142	 -0.043	 -9.828	 -0.005	  0.001	  0.001	 34.000	 98.974	 -1.003
33416	 -0.224	 -0.265	  0.248	  0.168	 -0.091	 -9.857	 -0.004	  0.002	  0.001	 34.000	 98.974	 -1.003
33466	 -0.225	 -0.265	  0.245	  0.157	 -0.012	 -9.867	 -0.003	  0.001	 -0.000	 34.000	 98.962	  0.085
33516	 -0.227	 -0.265	  0.249	  0.103	 -0.007	 -9.795	 -0.003	  0.002	 -0.000	 34.000	 98.962	  0.085
33566	 -0.225	 -0.266	  0.248	  0.179	 -0.077	 -9.841	 -0.003	  0.002	 -0.000	 34.000	 98.962	  0.085
33616	 -0.225	 -0.273	  0.249	  0.149	 -0.043	 -9.786	 -0.004	  0.002	  0.001	 34.000	 98.951	  1.082
33667	 -0.227	 -0.265	  0.246	  0.158	 -0.063	 -9.820	 -0.004	  0.003	  0.002	 34.000	 98.962	  0.085
33718	 -0.226	 -0.270	  0.250	  0.117	 -0.060	 -9.845	 -0.005	  0.002	  0.001	 34.000	 98.962	  0.085
33768	 -0.226	 -0.268	  0.243	  0.146	 -0.049	 -9.861	 -0.003	  0.002	  0.000	 34.000	 98.962	  0.085
33819	 -0.225	 -0.268	  0.245	  0.153	 -0.066	 -9.817	 -0.003	  0.002	  0.001	 34.000	 98.974	 -1.003
33870	 -0.226	 -0.267	  0.249	  0.112	 -0.034	 -9.823	 -0.003	  0.002	  0.001	 34.000	 98.962	  0.085
33921	 -0.226	 -0.264	  0.245	  0.150	 -0.045	 -9.814	 -0.004	  0.002	  0.001	 34.000	 98.962	  0.085
33971	 -0.222	 -0.257	  0.250	  0.174	 -0.079	 -9.826	 -0.003	  0.002	  0.000	 34.000	 98.962	  0.085
34022	 -0.227	 -0.262	  0.249	  0.151	 -0.007	 -9.805	 -0.003	  0.001	  0.001	 34.100	 98.962	  0.085
34073	 -0.225	 -0.268	  0.246	  0.169	 -0.056	 -9.839	 -0.004	  0.001	  0.000	 34.000	 98.970	 -0.641
34124	 -0.223	 -0.267	  0.248	  0.162	 -0.024	 -9.839	 -0.004	  0.002	  0.000	 34.000	 98.974	 -1.003
34175	 -0.226	 -0.264	  0.246	  0.162	 -0.015	 -9.817	 -0.003	  0.002	  0.001	 34.000	 98.962	  0.085
34226	 -0.224	 -0.264	  0.248	  0.151	 -0.066	 -9.806	 -0.004	  0.001	  0.000	 34.000	 98.962	  0.085
34276	 -0.229	 -0.264	  0.246	  0.147	  0.007	 -9.851	 -0.004	  0.002	  0.002	 34.000	 98.962	  0.085
34327	 -0.224	 -0.265	  0.246	  0.143	 -0.041	 -9.816	 -0.003	  0.003	  0.001	 34.000	 98.962	  0.085
34378	 -0.226	 -0.271	  0.243	  0.148	 -0.022	 -9.834	 -0.004	  0.002	  0.001	 34.000	 98.974	 -1.003
34428	 -0.226	 -0.263	  0.245	  0.161	 -0.029	 -9.816	 -0.003	  0.001	  0.001	 34.000	 98.962	  0.085
34479	 -0.223	 -0.270	  0.242	  0.010	  0.203	 -9.720	  0.007	  0.004	  0.001	 34.000	 98.974	 -1.003
34530	 -0.227	 -0.256	  0.246	  0.070	 -0.149	 -9.733	 -0.004	 -0.000	  0.001	 34.100	 98.962	  0.085
34581	 -0.223	 -0.269	  0.236	  0.189	 -0.062	 -9.771	 -0.008	  0.004	  0.002	 34.000	 98.962	  0.085
34631	 -0.226	 -0.267	  0.245	  0.183	 -0.039	 -9.916	 -0.003	  0.002	  0.002	 34.000	 98.962	  0.085
34682	 -0.223	 -0.271	  0.245	  0.143	 -0.101	 -9.897	 -0.003	  0.002	  0.000	 34.000	 98.951	  1.082
34733	 -0.223	 -0.269	  0.248	  0.134	  0.007	 -9.836	 -0.003	  0.002	  0.001	 34.000	 98.962	  0.085
34784	 -0.224	 -0.268	  0.245	  0.101	 -0.075	 -9.766	 -0.004	  0.001	  0.001	 34.000	 98.962	  0.085
34834	 -0.223	 -0.266	  0.245	  0.175	 -0.020	 -9.796	 -0.005	  0.004	  0.001	 34.000	 98.962	  0.085
34885	 -0.226	 -0.268	  0.248	  0.114	 -0.099	 -9.815	 -0.004	  0.001	  0.002	 34.100	 98.974	 -1.003
34936	 -0.224	 -0.270	  0.244	  0.173	  0.006	 -9.847	 -0.003	  0.001	  0.001	 34.000	 98.962	  0.085
34986	 -0.226	 -0.267	  0.246	  0.091	 -0.059	 -9.828	 -0.003	  0.002	  0.000	 34.000	 98.962	  0.085
35037	 -0.223	 -0.271	  0.244	  0.165	 -0.017	 -9.827	 -0.005	  0.002	  0.001	 34.100	 98.951	  1.082
35088	 -0.224	 -0.268	  0.245	  0.118	 -0.071	 -9.815	 -0.004	  0.003	 -0.000	 34.100	 98.967	 -0.369
35140	 -0.222	 -0.265	  0.244	  0.163	 -0.041	 -9.822	 -0.005	  0.003	  0.001	 34.000	 98.962	  0.085
35189	 -0.224	 -0.271	  0.245	  0.117	 -0.047	 -9.833	 -0.003	  0.002	  0.001	 34.000	 98.974	 -1.003
35240	 -0.225	 -0.271	  0.243	  0.172	 -0.027	 -9.773	 -0.004	  0.002	  0.001	 34.000	 98.962	  0.085
35291	 -0.221	 -0.272	  0.236	  0.136	 -0.042	 -9.785	 -0.002	  0.002	  0.001	 34.000	 98.962	  0.085
35341	 -0.222	 -0.270	  0.245	  0.163	 -0.018	 -9.815	 -0.004	  0.001	  0.001	 34.000	 98.974	 -1.003
35393	 -0.223	 -0.272	  0.244	  0.133	 -0.042	 -9.852	 -0.002	  0.000	  0.001	 34.000	 98.962	  0.085
35443	 -0.222	 -0.259	  0.247	  0.127	 -0.057	 -9.828	 -0.004	  0.000	  0.001	 34.000	 98.962	  0.085
35493	 -0.222	 -0.269	  0.244	  0.153	 -0.049	 -9.856	 -0.004	  0.002	  0.001	 34.100	 98.962	  0.085
35544	 -0.223	 -0.271	  0.243	  0.131	 -0.014	 -9.806	 -0.003	  0.001	  0.002	 34.000	 98.951	  1.082
35595	 -0.221	 -0.272	  0.243	  0.198	  0.020	 -9.831	 -0.004	  0.002	  0.001	 34.100	 98.978	 -1.366
35647	 -0.223	 -0.270	  0.242	  0.175	  0.012	 -9.827	 -0.005	  0.002	  0.001	 34.000	 98.962	  0.085
35697	 -0.224	 -0.275	  0.243	  0.177	  0.003	 -9.789	 -0.007	  0.002	 -0.000	 34.000	 98.962	  0.085
35748	 -0.221	 -0.269	  0.245	  0.106	 -0.071	 -9.809	 -0.006	  0.004	  0.001	 34.100	 98.962	  0.085
35798	 -0.223	 -0.261	  0.241	  0.159	 -0.037	 -9.828	 -0.003	  0.002	  0.001	 34.000	 98.974	 -1.003
35849	 -0.223	 -0.274	  0.247	  0.160	 -0.023	 -9.847	 -0.004	  0.002	  0.001	 34.000	 98.962	  0.085
35900	 -0.225	 -0.270	  0.242	  0.175	 -0.048	 -9.856	 -0.003	  0.002	  0.002	 34.100	 98.967	 -0.369
35950	 -0.223	 -0.270	  0.236	  0.094	 -0.063	 -9.756	  0.006	  0.004	 -0.001	 34.000	 98.962	  0.085
36001	 -0.223	 -0.270	  0.235	  0.221	  0.024	 -9.810	 -0.011	 -0.002	  0.001	 34.000	 98.962	  0.085
36052	 -0.223	 -0.274	  0.242	  0.096	 -0.036	 -9.815	 -0.005	  0.002	  0.001	 34.100	 98.962	  0.085
36102	 -0.222	 -0.271	  0.242	  0.084	 -0.134	 -9.881	 -0.006	  0.004	  0.001	 34.000	 98.974	 -1.003
36153	 -0.222	 -0.273	  0.241	  0.154	  0.001	 -9.822	 -0.002	  0.002	 -0.000	 34.100	 98.978	 -1.366
36203	 -0.224	 -0.274	  0.242	  0.143	 -0.052	 -9.838	 -0.003	  0.003	  0.001	 34.000	 98.962	  0.085
36254	 -0.223	 -0.271	  0.242	  0.158	 -0.039	 -9.802	 -0.004	  0.002	 -0.000	 34.000	 98.962	  0.085
36305	 -0.226	 -0.272	  0.242	  0.122	 -0.085	 -9.854	 -0.004	  0.002	  0.000	 34.000	 98.974	 -1.003
36355	 -0.223	 -0.273	  0.240	  0.155	 -0.034	 -9.827	 -0.004	  0.001	  0.000	 34.000	 98.962	  0.085
36406	 -0.223	 -0.272	  0.243	  0.137	 -0.058	 -9.824	 -0.003	  0.002	  0.001	 34.100	 98.962	  0.085
36456	 -0.224	 -0.267	  0.238	  0.130	 -0.056	 -9.796	 -0.004	  0.004	  0.002	 34.000	 98.962	  0.085
36507	 -0.222	 -0.269	  0.241	  0.143	 -0.018	 -9.826	 -0.004	  0.002	  0.001	 34.100	 98.967	 -0.369
36558	 -0.224	 -0.266	  0.244	  0.127	 -0.033	 -9.838	 -0.003	  0.002	  0.001	 34.100	 98.967	 -0.369
36608	 -0.226	 -0.277	  0.243	  0.172	 -0.069	 -9.849	 -0.003	  0.000	  0.002	 34.100	 98.967	 -0.369
36659	 -0.222	 -0.274	  0.233	  0.145	 -0.025	 -9.833	 -0.003	  0.002	  0.000	 34.100	 98.967	 -0.369
36709	 -0.221	 -0.273	  0.240	  0.151	 -0.057	 -9.796	 -0.003	  0.001	  0.001	 34.000	 98.962	  0.085
36760	 -0.221	 -0.273	  0.233	  0.164	 -0.036	 -9.821	 -0.003	  0.002	  0.001	 34.100	 98.974	 -1.003
36811	 -0.222	 -0.275	  0.244	  0.138	 -0.037	 -9.826	 -0.003	  0.002	  0.001	 34.000	 98.962	  0.085
36861	 -0.224	 -0.274	  0.243	  0.168	  0.061	 -9.755	  0.006	  0.006	  0.027	 34.100	 98.962	  0.085
36912	 -0.224	 -0.274	  0.240	  0.156	 -0.082	 -9.785	 -0.008	 -0.001	  0.002	 34.000	 98.962	  0.085
36962	 -0.223	 -0.271	  0.233	  0.165	 -0.125	 -9.814	  0.002	  0.007	 -0.016	 34.100	 98.962	  0.085
37013	 -0.224	 -0.272	  0.238	  0.070	 -0.006	 -9.955	  0.007	  0.007	 -0.117	 34.100	 98.974	 -1.003
37063	 -0.218	 -0.275	  0.235	  0.107	  0.339	 -9.747	  0.001	  0.005	 -0.033	 34.100	 98.962	  0.085
37114	 -0.224	 -0.274	  0.243	  0.164	 -0.037	 -9.799	  0.002	  0.008	 -0.005	 34.000	 98.962	  0.085
37164	 -0.222	 -0.273	  0.242	  0.201	 -0.150	 -9.841	  0.011	  0.009	 -0.065	 34.000	 98.962	  0.085
37215	 -0.221	 -0.277	  0.241	  0.160	  0.002	 -9.857	 -0.001	  0.002	 -0.063	 34.000	 98.962	  0.085
37265	 -0.219	 -0.264	  0.242	  0.139	 -0.286	 -9.854	 -0.005	  0.001	 -0.126	 34.100	 98.978	 -1.366
37316	 -0.218	 -0.279	  0.246	  0.214	 -0.104	 -9.804	  0.008	  0.007	 -0.251	 34.000	 98.962	  0.085
37366	 -0.215	 -0.278	  0.244	  0.234	 -0.423	 -9.805	  0.005	 -0.000	 -0.304	 34.100	 98.962	  0.085
37417	 -0.214	 -0.283	  0.243	  0.093	  0.128	 -9.716	  0.009	 -0.001	 -0.279	 34.100	 98.955	  0.719
37468	 -0.213	 -0.282	  0.239	  0.763	 -0.553	 -9.608	 -0.033	  0.008	 -0.055	 34.000	 98.962	  0.085
37518	 -0.212	 -0.279	  0.245	  0.154	  0.298	 -9.871	 -0.021	 -0.002	 -0.072	 34.000	 98.962	  0.085
37569	 -0.211	 -0.277	  0.239	  0.027	 -0.096	 -9.902	  0.008	  0.033	 -0.003	 34.100	 98.962	  0.085
37619	 -0.210	 -0.277	  0.244	  0.393	 -0.207	 -9.730	 -0.007	  0.019	 -0.180	 34.100	 98.962	  0.085
37670	 -0.208	 -0.284	  0.234	 -0.030	  0.216	 -9.940	 -0.006	  0.071	 -0.072	 34.000	 98.974	 -1.003
37720	 -0.210	 -0.288	  0.239	  0.167	 -0.061	 -9.842	 -0.013	  0.083	 -0.014	 34.000	 98.962	  0.085
37771	 -0.209	 -0.274	  0.244	  0.491	 -0.075	 -9.752	 -0.005	  0.032	  0.002	 34.100	 98.962	  0.085
37821	 -0.211	 -0.286	  0.243	  0.324	 -0.046	 -9.785	  0.004	  0.014	  0.004	 34.000	 98.951	  1.082
37872	 -0.214	 -0.273	  0.243	  0.288	  0.008	 -9.763	 -0.001	  0.032	  0.011	 34.100	 98.962	  0.085
37922	 -0.209	 -0.284	  0.242	  0.102	 -0.101	 -9.949	 -0.002	  0.067	  0.005	 34.000	 98.962	  0.085
37972	 -0.212	 -0.284	  0.240	  0.358	  0.047	 -9.820	  0.011	  0.149	  0.032	 34.100	 98.962	  0.085
38023	 -0.215	 -0.280	  0.243	  0.770	 -0.080	 -9.705	  0.001	  0.130	  0.003	 34.100	 98.974	 -1.003
38073	 -0.218	 -0.283	  0.240	  0.837	 -0.093	 -9.672	 -0.001	  0.071	 -0.001	 34.100	 98.962	  0.085
38124	 -0.217	 -0.272	  0.241	  0.807	 -0.051	 -9.680	 -0.005	 -0.024	  0.009	 34.000	 98.974	 -1.003
38174	 -0.213	 -0.271	  0.241	  0.483	 -0.057	 -9.807	 -0.006	 -0.089	  0.000	 34.000	 98.962	  0.085
38225	 -0.214	 -0.285	  0.240	  0.597	 -0.070	 -9.770	 -0.008	 -0.089	  0.000	 34.000	 98.974	 -1.003
38275	 -0.214	 -0.282	  0.239	  1.183	  0.006	 -9.470	  0.001	 -0.165	  0.009	 34.100	 98.967	 -0.369
38326	 -0.211	 -0.285	  0.245	  0.186	  0.022	 -9.768	 -0.008	 -0.322	  0.095	 34.100	 98.974	 -1.003
38376	 -0.211	 -0.283	  0.238	  0.028	  0.012	 -9.140	  0.002	 -0.008	  0.000	 34.100	 98.962	  0.085
38427	 -0.208	 -0.286	  0.238	  0.000	  0.056	 -9.893	  0.007	  0.001	  0.004	 34.000	 98.951	  1.082
38477	 -0.209	 -0.284	  0.235	  0.411	  0.113	 -9.578	  0.011	 -0.014	  0.001	 34.100	 98.962	  0.085
38528	 -0.209	 -0.280	  0.243	  0.126	 -0.095	 -9.863	 -0.000	 -0.009	  0.002	 34.000	 98.962	  0.085
38578	 -0.210	 -0.287	  0.245	  0.193	 -0.072	 -9.791	 -0.005	 -0.003	  0.000	 34.100	 98.955	  0.719
38629	 -0.208	 -0.285	  0.242	  0.133	 -0.051	 -9.796	 -0.006	  0.003	 -0.002	 34.100	 98.962	  0.085
38679	 -0.209	 -0.285	  0.244	  0.123	 -0.044	 -9.792	 -0.006	  0.000	  0.000	 34.000	 98.962	  0.085
38730	 -0.209	 -0.281	  0.241	  0.101	 -0.019	 -9.820	 -0.002	  0.003	  0.002	 34.000	 98.962	  0.085
38780	 -0.210	 -0.284	  0.245	  0.125	 -0.023	 -9.791	 -0.005	  0.002	 -0.000	 34.100	 98.974	 -1.003
38831	 -0.209	 -0.284	  0.243	  0.119	 -0.028	 -9.820	 -0.003	  0.002	  0.000	 34.100	 98.978	 -1.366
38881	 -0.210	 -0.284	  0.235	  0.132	 -0.034	 -9.844	 -0.005	  0.001	  0.000	 34.100	 98.967	 -0.369
38931	 -0.209	 -0.287	  0.240	  0.142	 -0.044	 -9.840	 -0.002	  0.001	  0.000	 34.100	 98.967	 -0.369
38982	 -0.212	 -0.285	  0.240	  0.126	 -0.040	 -9.848	 -0.004	  0.001	  0.002	 34.100	 98.967	 -0.369
39032	 -0.208	 -0.282	  0.245	  0.149	 -0.121	 -9.802	 -0.004	  0.001	 -0.002	 34.000	 98.951	  1.082
39082	 -0.209	 -0.278	  0.236	  0.149	 -0.050	 -9.785	 -0.006	  0.003	  0.000	 34.100	 98.967	 -0.369
39133	 -0.210	 -0.288	  0.244	  0.129	 -0.040	 -9.806	 -0.004	  0.002	  0.001	 34.100	 98.962	  0.085
39183	 -0.208	 -0.283	  0.245	  0.103	 -0.007	 -9.836	 -0.006	 -0.006	  0.001	 34.100	 98.967	 -0.369
39234	 -0.208	 -0.278	  0.236	  0.113	 -0.064	 -9.835	 -0.006	  0.001	 -0.000	 34.100	 98.962	  0.085
39284	 -0.210	 -0.286	  0.243	  0.148	 -0.042	 -9.807	 -0.008	 -0.001	  0.001	 34.100	 98.967	 -0.369
39335	 -0.207	 -0.282	  0.243	  0.131	 -0.010	 -9.820	 -0.004	  0.005	 -0.003	 34.100	 98.978	 -1.366
39385	 -0.208	 -0.285	  0.237	  0.097	 -0.044	 -9.866	 -0.004	  0.004	  0.001	 34.100	 98.967	 -0.369
39436	 -0.211	 -0.284	  0.246	  0.092	 -0.035	 -9.816	 -0.004	  0.002	  0.001	 34.100	 98.967	 -0.369
39486	 -0.208	 -0.281	  0.241	  0.142	 -0.051	 -9.785	 -0.005	  0.004	  0.000	 34.100	 98.962	  0.085
39537	 -0.211	 -0.286	  0.246	  0.137	 -0.044	 -9.795	 -0.004	  0.003	  0.000	 34.100	 98.978	 -1.366
39587	 -0.208	 -0.288	  0.243	  0.146	 -0.022	 -9.771	 -0.002	  0.006	  0.000	 34.100	 98.955	  0.719
39637	 -0.208	 -0.283	  0.248	  0.191	 -0.043	 -9.755	 -0.002	  0.002	  0.001	 34.100	 98.978	 -1.366
39688	 -0.209	 -0.284	  0.245	  0.144	 -0.058	 -9.840	 -0.004	  0.000	 -0.000	 34.100	 98.978	 -1.366
39738	 -0.209	 -0.279	  0.237	  0.122	 -0.032	 -9.833	 -0.005	  0.003	 -0.000	 34.100	 98.967	 -0.369
39788	 -0.210	 -0.280	  0.243	  0.127	 -0.067	 -9.818	 -0.002	  0.007	  0.000	 34.100	 98.967	 -0.369
39839	 -0.209	 -0.286	  0.245	  0.197	  0.036	 -9.782	 -0.004	 -0.001	  0.002	 34.100	 98.967	 -0.369
39889	 -0.207	 -0.286	  0.243	 -0.307	  0.513	 -10.094	 -0.003	  0.036	 -0.002	 34.100	 98.967	 -0.369
39940	 -0.210	 -0.288	  0.238	  0.029	 -0.018	 -9.827	 -0.005	  0.002	  0.003	 34.100	 98.967	 -0.369
39990	 -0.207	 -0.287	  0.241	  0.116	 -0.023	 -9.840	 -0.002	  0.002	  0.002	 34.100	 98.962	  0.085
40040	 -0.209	 -0.293	  0.240	  0.139	 -0.028	 -9.850	 -0.003	  0.003	  0.001	 34.100	 98.962	  0.085
40090	 -0.209	 -0.289	  0.244	  0.137	 -0.048	 -9.842	 -0.004	  0.001	  0.000	 34.100	 98.967	 -0.369
40141	 -0.206	 -0.289	  0.243	  0.114	 -0.047	 -9.859	 -0.002	  0.002	  0.002	 34.100	 98.967	 -0.369
40191	 -0.210	 -0.293	  0.242	  0.105	 -0.021	 -9.818	 -0.004	  0.002	  0.002	 34.100	 98.967	 -0.369
40242	 -0.208	 -0.290	  0.238	  0.125	 -0.029	 -9.804	 -0.001	  0.002	  0.001	 34.100	 98.978	 -1.366
40292	 -0.210	 -0.292	  0.244	  0.128	 -0.023	 -9.825	 -0.000	  0.002	  0.002	 34.100	 98.967	 -0.369
40342	 -0.208	 -0.289	  0.240	  0.179	 -0.057	 -9.783	  0.002	  0.005	  0.001	 34.100	 98.967	 -0.369
40392	 -0.209	 -0.292	  0.240	  0.159	 -0.061	 -9.785	  0.003	  0.004	  0.002	 34.100	 98.978	 -1.366
40443	 -0.209	 -0.290	  0.241	  0.146	 -0.084	 -9.846	 -0.005	  0.002	  0.002	 34.100	 98.967	 -0.369
40493	 -0.210	 -0.291	  0.240	  0.143	 -0.080	 -9.805	 -0.007	  0.005	 -0.003	 34.100	 98.967	 -0.369
40544	 -0.210	 -0.286	  0.241	  0.116	 -0.020	 -9.825	 -0.008	 -0.000	 -0.001	 34.100	 98.962	  0.085
40594	 -0.211	 -0.292	  0.239	  0.096	 -0.045	 -9.839	 -0.007	 -0.004	  0.003	 34.100	 98.967	 -0.369
40645	 -0.210	 -0.283	  0.239	  0.114	 -0.038	 -9.840	 -0.012	 -0.007	  0.003	 34.100	 98.955	  0.719
40695	 -0.206	 -0.293	  0.241	  0.128	 -0.036	 -9.851	 -0.007	 -0.008	  0.001	 34.100	 98.978	 -1.366
40745	 -0.209	 -0.288	  0.240	  0.136	 -0.066	 -9.844	 -0.004	  0.002	  0.001	 34.100	 98.971	 -0.732
40795	 -0.212	 -0.293	  0.239	  0.132	 -0.050	 -9.830	 -0.002	  0.003	  0.001	 34.100	 98.974	 -1.003
40846	 -0.209	 -0.292	  0.237	  0.141	 -0.041	 -9.825	 -0.003	  0.002	  0.003	 34.100	 98.955	  0.719
40896	 -0.209	 -0.288	  0.241	  0.117	 -0.041	 -9.831	 -0.004	  0.004	 -0.001	 34.100	 98.955	  0.719
40947	 -0.210	 -0.292	  0.243	  0.116	 -0.065	 -9.793	 -0.002	  0.004	  0.002	 34.100	 98.967	 -0.369
40997	 -0.209	 -0.293	  0.243	  0.095	 -0.034	 -9.819	 -0.003	  0.005	 -0.001	 34.100	 98.951	  1.082
41047	 -0.216	 -0.293	  0.240	  0.132	 -0.044	 -9.783	 -0.002	  0.005	  0.001	 34.100	 98.974	 -1.003
41097	 -0.213	 -0.293	  0.242	  0.135	 -0.067	 -9.832	 -0.005	  0.004	  0.002	 34.100	 98.967	 -0.369
41148	 -0.213	 -0.293	  0.243	  0.114	 -0.021	 -9.824	 -0.003	  0.008	 -0.003	 34.100	 98.967	 -0.369
41199	 -0.213	 -0.296	  0.242	  0.154	 -0.034	 -9.872	  0.000	  0.005	  0.001	 34.100	 98.967	 -0.369
41248	 -0.213	 -0.290	  0.240	  0.118	 -0.042	 -9.776	 -0.004	  0.006	 -0.003	 34.100	 98.962	  0.085
41299	 -0.213	 -0.295	  0.239	  0.142	 -0.065	 -9.823	 -0.002	  0.007	 -0.003	 34.100	 98.967	 -0.369
41349	 -0.213	 -0.295	  0.239	  0.147	 -0.037	 -9.831	  0.002	  0.009	 -0.000	 34.100	 98.967	 -0.369
41399	 -0.214	 -0.293	  0.235	  0.174	 -0.050	 -9.836	 -0.002	  0.005	 -0.002	 34.100	 98.978	 -1.366
41450	 -0.213	 -0.292	  0.239	  0.150	 -0.035	 -9.837	 -0.003	  0.003	  0.000	 34.100	 98.955	  0.719
41501	 -0.212	 -0.282	  0.240	  0.154	 -0.066	 -9.784	 -0.003	  0.002	 -0.000	 34.100	 98.967	 -0.369
41551	 -0.215	 -0.294	  0.237	  0.127	 -0.024	 -9.849	 -0.003	  0.003	  0.002	 34.100	 98.967	 -0.369
41602	 -0.216	 -0.291	  0.238	  0.151	 -0.054	 -9.767	 -0.005	  0.001	 -0.000	 34.100	 98.967	 -0.369
41652	 -0.217	 -0.293	  0.240	  0.109	  0.005	 -9.869	 -0.001	  0.003	  0.001	 34.100	 98.978	 -1.366
41702	 -0.210	 -0.297	  0.241	  0.160	 -0.031	 -9.821	 -0.004	  0.003	  0.000	 34.100	 98.955	  0.719
41752	 -0.213	 -0.294	  0.243	  0.082	 -0.011	 -9.911	 -0.003	  0.003	  0.001	 34.100	 98.962	  0.085
41803	 -0.214	 -0.292	  0.238	  0.124	 -0.052	 -9.813	 -0.002	  0.002	  0.000	 34.100	 98.967	 -0.369
41853	 -0.214	 -0.295	  0.238	  0.144	 -0.045	 -9.808	 -0.004	  0.002	 -0.001	 34.100	 98.967	 -0.369
41903	 -0.214	 -0.293	  0.242	  0.146	 -0.047	 -9.789	 -0.004	  0.003	  0.001	 34.100	 98.955	  0.719
41954	 -0.214	 -0.289	  0.240	  0.136	 -0.037	 -9.860	 -0.003	  0.001	  0.001	 34.100	 98.955	  0.719
42004	 -0.211	 -0.296	  0.242	  0.148	 -0.050	 -9.833	 -0.000	  0.003	  0.001	 34.100	 98.962	  0.085
42054	 -0.212	 -0.296	  0.241	  0.152	 -0.033	 -9.830	 -0.003	  0.002	  0.001	 34.100	 98.967	 -0.369
42104	 -0.209	 -0.295	  0.238	  0.137	 -0.083	 -9.806	 -0.004	  0.003	  0.003	 34.100	 98.967	 -0.369
42155	 -0.211	 -0.296	  0.241	  0.023	 -0.544	 -9.881	  0.001	  0.008	  0.173	 34.100	 98.967	 -0.369
42205	 -0.212	 -0.295	  0.239	  0.099	 -0.076	 -9.922	 -0.012	  0.003	  0.000	 34.100	 98.967	 -0.369
42255	 -0.215	 -0.294	  0.239	  0.120	  0.036	 -10.038	  0.011	  0.010	  0.002	 34.100	 98.967	 -0.369
42306	 -0.217	 -0.294	  0.243	  0.128	 -0.096	 -9.743	 -0.002	  0.002	  0.001	 34.100	 98.955	  0.719
42356	 -0.216	 -0.283	  0.238	  0.169	 -0.011	 -9.767	 -0.004	  0.001	  0.002	 34.100	 98.971	 -0.732
42406	 -0.215	 -0.291	  0.243	  0.169	 -0.164	 -9.777	 -0.003	  0.001	 -0.003	 34.100	 98.967	 -0.369
42456	 -0.213	 -0.292	  0.236	  0.241	 -0.024	 -9.894	 -0.008	  0.000	 -0.001	 34.100	 98.967	 -0.369
42507	 -0.215	 -0.296	  0.240	 -0.162	  0.327	 -9.768	 -0.013	 -0.002	  0.445	 34.100	 98.967	 -0.369
42557	 -0.217	 -0.291	  0.239	 -0.256	  0.353	 -10.266	 -0.011	 -0.004	 -0.000	 34.100	 98.967	 -0.369
42607	 -0.219	 -0.289	  0.238	  0.158	  0.566	 -9.882	 -0.007	  0.069	  0.349	 34.100	 98.967	 -0.369
42658	 -0.221	 -0.287	  0.241	 -0.006	 -0.174	 -9.906	 -0.014	  0.021	  0.460	 34.100	 98.971	 -0.732
42708	 -0.225	 -0.283	  0.239	 -1.192	 -0.151	 -11.716	  0.006	  0.020	  0.206	 34.100	 98.967	 -0.369
42758	 -0.228	 -0.292	  0.233	 -0.316	  0.106	 -11.145	 -0.407	  0.368	 -0.169	 34.100	 98.955	  0.719
42808	 -0.230	 -0.297	  0.228	  0.440	  0.729	 -9.954	 -0.308	  0.671	 -0.589	 34.100	 98.967	 -0.369
42859	 -0.226	 -0.293	  0.225	  1.492	  1.266	 -9.910	 -0.000	  0.382	 -0.642	 34.100	 98.955	  0.719
42909	 -0.229	 -0.297	  0.224	  1.687	  1.457	 -9.135	  0.378	  0.293	  0.559	 34.100	 98.955	  0.719
42959	 -0.234	 -0.286	  0.234	  1.213	  0.269	 -10.342	  0.533	 -0.200	  0.933	 34.100	 98.967	 -0.369
43009	 -0.233	 -0.273	  0.238	  1.912	 -1.464	 -10.101	  0.140	 -0.660	  0.711	 34.100	 98.951	  1.082
43060	 -0.228	 -0.265	  0.239	 -0.498	  0.143	 -10.039	 -0.039	 -0.594	  0.869	 34.100	 98.967	 -0.369
43110	 -0.228	 -0.261	  0.251	  0.965	 -0.630	 -10.172	  0.378	 -0.133	  0.145	 34.100	 98.955	  0.719
43160	 -0.219	 -0.259	  0.255	 -0.426	 -0.169	 -9.330	  0.103	 -0.242	 -0.183	 34.100	 98.955	  0.719
43210	 -0.214	 -0.254	  0.257	  0.421	  0.199	 -8.197	  0.404	 -0.444	 -0.024	 34.100	 98.955	  0.719
43261	 -0.209	 -0.247	  0.264	 -1.026	  0.193	 -8.877	  0.891	 -0.466	  0.261	 34.100	 98.967	 -0.369
43311	 -0.207	 -0.229	  0.264	 -0.726	 -2.045	 -10.151	  0.678	 -0.121	  0.255	 34.100	 98.967	 -0.369
43361	 -0.204	 -0.225	  0.276	 -1.354	 -1.355	 -9.573	  0.260	 -0.039	  0.300	 34.100	 98.944	  1.716
43411	 -0.208	 -0.218	  0.273	 -0.897	 -1.999	 -9.908	  0.271	  0.366	  0.343	 34.100	 98.967	 -0.369
43462	 -0.215	 -0.212	  0.277	 -0.377	 -2.135	 -9.221	  0.107	  0.440	  0.229	 34.100	 98.955	  0.719
43512	 -0.219	 -0.208	  0.276	  0.932	 -2.213	 -9.156	  0.056	  0.188	  0.148	 34.100	 98.955	  0.719
43562	 -0.218	 -0.210	  0.271	  0.767	 -2.527	 -9.057	 -0.133	 -0.165	 -0.126	 34.100	 98.955	  0.719
43612	 -0.212	 -0.213	  0.272	 -0.444	 -1.588	 -9.264	 -0.324	 -0.299	 -0.350	 34.100	 98.955	  0.719
43663	 -0.210	 -0.218	  0.278	 -0.591	 -1.038	 -10.096	 -0.066	 -0.193	 -0.190	 34.100	 98.967	 -0.369
43713	 -0.208	 -0.219	  0.280	 -0.991	 -2.734	 -10.830	 -0.450	  0.038	 -0.118	 34.100	 98.955	  0.719
43763	 -0.209	 -0.230	  0.272	 -1.611	 -1.102	 -11.197	 -1.046	  0.334	  0.271	 34.100	 98.955	  0.719
43813	 -0.217	 -0.242	  0.265	 -0.167	  0.360	 -9.032	 -0.935	  0.419	  0.948	 34.100	 98.955	  0.719
43863	 -0.225	 -0.240	  0.266	  1.262	  0.678	 -8.379	 -0.190	  0.187	  0.941	 34.100	 98.967	 -0.369
43914	 -0.230	 -0.236	  0.262	  0.317	  0.024	 -9.085	  0.312	 -0.090	  0.543	 34.100	 98.955	  0.719
43964	 -0.235	 -0.229	  0.267	  0.289	 -1.531	 -10.458	  0.348	  0.053	  0.146	 34.100	 98.955	  0.719
44014	 -0.233	 -0.228	  0.266	  0.390	 -0.800	 -9.698	 -0.086	  0.153	 -0.114	 34.100	 98.967	 -0.369
44064	 -0.236	 -0.229	  0.264	  0.422	 -0.482	 -9.712	 -0.092	  0.198	 -0.144	 34.100	 98.955	  0.719
44115	 -0.233	 -0.230	  0.263	  0.702	 -0.466	 -9.651	 -0.032	  0.053	 -0.372	 34.100	 98.955	  0.719
44165	 -0.229	 -0.235	  0.260	 -0.021	 -0.336	 -9.156	  0.090	  0.029	 -0.702	 34.100	 98.955	  0.719
44215	 -0.225	 -0.238	  0.267	 -0.327	  0.320	 -9.493	  0.153	 -0.011	 -0.382	 34.100	 98.955	  0.719
44265	 -0.223	 -0.236	  0.261	  0.004	 -0.358	 -9.722	  0.092	 -0.099	  0.051	 34.100	 98.955	  0.719
44315	 -0.221	 -0.232	  0.267	  0.365	 -0.747	 -9.196	  0.173	 -0.092	  0.050	 34.100	 98.944	  1.716
44366	 -0.222	 -0.233	  0.267	 -1.054	 -0.535	 -9.745	  0.270	 -0.061	 -0.038	 34.100	 98.967	 -0.369
44416	 -0.226	 -0.226	  0.268	 -0.014	 -1.112	 -11.473	  0.295	  0.029	 -0.008	 34.100	 98.955	  0.719
44466	 -0.221	 -0.219	  0.267	  0.329	 -1.558	 -12.640	  0.048	 -0.306	 -0.001	 34.100	 98.967	 -0.369
44516	 -0.213	 -0.222	  0.277	  0.634	 -0.892	 -11.942	  0.315	 -0.436	  0.029	 34.100	 98.967	 -0.369
44567	 -0.204	 -0.219	  0.282	 -1.404	 -3.475	 -13.940	  0.024	 -0.260	 -0.214	 34.100	 98.955	  0.719
44617	 -0.198	 -0.227	  0.289	  0.235	 -2.238	 -13.583	 -0.431	  0.283	 -0.109	 34.100	 98.955	  0.719
44667	 -0.192	 -0.239	  0.285	 -0.906	  0.735	 -8.050	 -0.881	  0.077	 -0.087	 34.100	 98.955	  0.719
44717	 -0.189	 -0.236	  0.282	  1.283	  6.306	 11.319	  1.530	 -0.174	  0.375	 34.100	 98.955	  0.719
44767	 -0.183	 -0.196	  0.287	 -3.125	  0.555	 15.253	  3.224	 -0.947	 -0.563	 34.100	 98.955	  0.719
44818	 -0.196	 -0.173	  0.294	 -5.571	 -25.328	 -42.058	 -1.498	  0.909	 -1.041	 34.100	 98.955	  0.719
44868	 -0.219	 -0.234	  0.278	  9.191	 11.440	 -17.770	 -3.780	  1.122	  1.043	 34.100	 98.955	  0.719
44918	 -0.202	 -0.224	  0.281	  1.866	  2.747	 17.191	  3.181	 -2.268	 -0.590	 34.100	 98.955	  0.719
44968	 -0.187	 -0.202	  0.294	 -14.455	 -17.641	 -29.481	 -0.319	  0.446	 -0.204	 34.100	 98.959	  0.356
45018	 -0.207	 -0.223	  0.281	  0.995	  1.515	 -2.770	 -1.957	  1.553	  0.638	 34.100	 98.967	 -0.369
45069	 -0.230	 -0.232	  0.268	  2.762	  0.610	 -11.533	 -0.210	  0.879	  0.086	 34.100	 98.967	 -0.369
45119	 -0.235	 -0.236	  0.266	  1.170	 -0.303	 -9.885	  0.129	  0.119	  0.093	 34.100	 98.955	  0.719
45169	 -0.232	 -0.233	  0.268	  1.374	 -1.283	 -8.796	  0.244	 -0.248	  0.094	 34.100	 98.944	  1.716
45220	 -0.229	 -0.225	  0.272	 -0.776	 -2.125	 -10.172	 -0.146	 -0.238	  0.129	 34.100	 98.959	  0.356
45270	 -0.232	 -0.234	  0.264	 -0.645	 -0.690	 -10.449	 -0.510	  0.118	  0.150	 34.100	 98.955	  0.719
45320	 -0.232	 -0.237	  0.268	  1.170	  0.297	 -10.050	 -0.342	  0.046	  0.300	 34.100	 98.955	  0.719
45370	 -0.236	 -0.239	  0.265	  1.665	  0.089	 -9.867	 -0.114	 -0.191	  0.267	 34.100	 98.955	  0.719
45420	 -0.231	 -0.238	  0.265	  0.188	  0.171	 -9.405	  0.227	 -0.348	  0.103	 34.100	 98.955	  0.719
45470	 -0.230	 -0.233	  0.274	  0.146	 -0.871	 -9.807	  0.350	 -0.086	  0.095	 34.100	 98.944	  1.716
45521	 -0.230	 -0.231	  0.275	  0.431	 -1.001	 -10.108	  0.120	  0.012	  0.053	 34.100	 98.959	  0.356
45571	 -0.230	 -0.228	  0.272	  0.453	 -1.179	 -10.300	 -0.096	  0.035	  0.025	 34.100	 98.955	  0.719
45621	 -0.229	 -0.235	  0.272	  0.438	 -0.402	 -12.346	 -0.323	 -0.047	  0.062	 34.100	 98.955	  0.719
45671	 -0.227	 -0.229	  0.271	  0.036	  0.371	 -12.945	  0.066	 -0.218	  0.198	 34.100	 98.955	  0.719
45721	 -0.223	 -0.230	  0.279	  0.185	  0.310	 -10.963	  0.502	 -0.088	 -0.022	 34.100	 98.955	  0.719
45772	 -0.213	 -0.223	  0.284	  0.269	 -1.003	 -3.737	  0.665	 -0.259	  0.295	 34.100	 98.959	  0.356
45822	 -0.208	 -0.209	  0.290	  0.181	 -2.035	 -0.773	  0.637	 -0.227	 -0.078	 34.100	 98.944	  1.716
45872	 -0.208	 -0.203	  0.291	 -1.007	 -2.134	 -4.903	  0.329	  0.102	 -0.452	 34.100	 98.948	  1.354
45922	 -0.218	 -0.206	  0.289	 -0.063	 -3.368	 -14.131	 -0.563	  0.060	 -0.275	 34.100	 98.967	 -0.369
45972	 -0.227	 -0.210	  0.277	  0.937	  0.994	 -17.421	 -0.550	  0.390	 -0.038	 34.100	 98.955	  0.719
46022	 -0.230	 -0.222	  0.278	  0.440	  0.714	 -11.859	 -0.187	 -0.213	 -0.033	 34.100	 98.967	 -0.369
46072	 -0.223	 -0.207	  0.282	 -1.055	 -0.334	 -8.491	  0.360	 -0.043	 -0.034	 34.100	 98.955	  0.719
46122	 -0.222	 -0.212	  0.282	 -1.732	 -1.649	 -7.456	  0.511	  0.305	  0.172	 34.100	 98.948	  1.354
46173	 -0.228	 -0.200	  0.274	 -0.130	 -6.034	 -8.464	 -0.128	  0.281	  0.745	 34.100	 98.959	  0.356
46223	 -0.237	 -0.211	  0.274	 -0.015	 -0.120	 -6.669	 -0.393	  0.223	  0.220	 34.100	 98.955	  0.719
46273	 -0.245	 -0.209	  0.270	  0.369	 -0.705	 -13.577	  0.123	  0.096	 -0.155	 34.100	 98.948	  1.354
46323	 -0.251	 -0.215	  0.269	  4.273	 -3.728	 -19.405	 -0.260	  0.571	 -0.189	 34.100	 98.955	  0.719
46373	 -0.240	 -0.216	  0.255	  1.878	 -0.232	 -12.176	 -0.058	 -0.257	  0.083	 34.100	 98.955	  0.719
46423	 -0.224	 -0.216	  0.269	 -1.690	 -0.373	 -3.044	  0.072	 -0.395	  0.098	 34.100	 98.955	  0.719
46474	 -0.215	 -0.206	  0.274	 -2.227	  3.754	 15.012	  1.208	 -0.887	  0.252	 34.100	 98.944	  1.716
46524	 -0.222	 -0.198	  0.279	 -4.778	 -10.758	 -20.422	 -0.760	  0.199	 -0.428	 34.100	 98.955	  0.719
46574	 -0.244	 -0.228	  0.262	 17.574	 14.532	 -32.404	 -2.065	  1.157	 -0.011	 34.100	 98.967	 -0.369
46624	 -0.219	 -0.227	  0.275	  0.760	 -0.392	 14.509	  2.549	 -2.555	  0.014	 34.100	 98.944	  1.716
46675	 -0.198	 -0.202	  0.290	 -21.055	 -19.749	 10.129	 -0.455	  0.332	 -0.742	 34.100	 98.959	  0.356
46725	 -0.261	 -0.245	  0.252	 28.487	 20.630	 -35.627	 -4.031	  4.189	 -0.235	 34.100	 98.967	 -0.369
46775	 -0.250	 -0.252	  0.243	 12.536	  6.648	 14.167	  3.169	 -2.958	 -0.282	 34.100	 98.955	  0.719
46825	 -0.196	 -0.218	  0.280	 -28.650	 -22.504	  5.975	  0.838	 -0.373	 -0.239	 34.100	 98.944	  1.716
46875	 -0.255	 -0.257	  0.247	 30.433	 11.745	 -26.381	 -3.748	  4.487	  0.600	 34.100	 98.944	  1.716
46926	 -0.248	 -0.247	  0.244	 -2.519	 -3.182	 24.856	  2.870	 -5.081	  0.463	 34.100	 98.955	  0.719
46975	 -0.231	 -0.242	  0.259	 -10.398	 -5.401	 -29.684	 -2.317	  3.451	 -0.068	 34.100	 98.955	  0.719
47026	 -0.255	 -0.249	  0.240	 15.046	 10.890	  1.432	  1.015	 -0.395	  0.467	 34.100	 98.944	  1.716
47076	 -0.237	 -0.207	  0.262	 -3.889	 -7.802	 -15.144	  1.197	 -1.921	 -0.056	 34.100	 98.944	  1.716
47127	 -0.234	 -0.224	  0.263	 -2.842	 -1.783	 -13.644	 -1.126	  0.579	  0.055	 34.100	 98.967	 -0.369
47177	 -0.245	 -0.238	  0.259	  3.208	  3.694	 -9.767	 -0.495	  0.797	 -0.312	 34.100	 98.959	  0.356
47226	 -0.245	 -0.236	  0.247	  1.976	  0.859	 -8.262	  0.452	 -0.153	 -0.034	 34.100	 98.948	  1.354
47277	 -0.243	 -0.233	  0.258	  0.461	 -1.528	 -8.843	  0.362	 -0.251	  0.017	 34.100	 98.948	  1.354
47327	 -0.243	 -0.231	  0.259	 -0.164	 -2.327	 -9.215	 -0.070	  0.053	  0.072	 34.100	 98.959	  0.356
47378	 -0.243	 -0.233	  0.260	  1.192	 -1.114	 -9.597	 -0.484	 -0.042	 -0.066	 34.100	 98.955	  0.719
47428	 -0.246	 -0.245	  0.254	  0.217	 -0.850	 -11.053	 -0.493	  0.130	 -0.077	 34.100	 98.944	  1.716
47478	 -0.248	 -0.249	  0.245	  1.473	 -0.297	 -9.859	 -0.520	 -0.005	  0.089	 34.100	 98.959	  0.356
47528	 -0.247	 -0.258	  0.242	  0.793	 -0.056	 -10.391	 -0.462	  0.054	 -0.305	 34.100	 98.944	  1.716
47578	 -0.247	 -0.265	  0.233	  1.351	  1.013	 -8.866	 -0.420	 -0.245	 -0.399	 34.100	 98.959	  0.356
47628	 -0.242	 -0.260	  0.228	  0.400	  0.584	 -9.759	 -0.421	 -0.435	 -0.175	 34.100	 98.948	  1.354
47679	 -0.233	 -0.277	  0.229	 -0.008	  2.686	 -9.170	 -0.185	 -0.608	 -0.056	 34.100	 98.955	  0.719
47729	 -0.230	 -0.274	  0.225	 -0.416	  1.032	 -9.434	 -0.181	 -0.668	  0.234	 34.100	 98.955	  0.719
47779	 -0.228	 -0.275	  0.227	 -1.482	  1.754	 -9.958	  0.396	 -0.276	 -0.219	 34.100	 98.944	  1.716
47829	 -0.224	 -0.269	  0.221	 -1.498	 -0.089	 -10.417	  0.181	 -0.008	 -0.239	 34.100	 98.944	  1.716
47879	 -0.223	 -0.278	  0.226	 -1.276	  0.833	 -10.056	 -0.077	  0.410	 -0.658	 34.100	 98.955	  0.719
47929	 -0.224	 -0.276	  0.213	 -0.532	  1.923	 -9.792	 -0.226	  0.364	 -0.259	 34.100	 98.971	 -0.732
47979	 -0.225	 -0.285	  0.218	  0.237	  1.661	 -9.605	  0.151	  0.096	 -0.212	 34.100	 98.959	  0.356
48030	 -0.217	 -0.286	  0.219	  0.746	 -0.220	 -10.656	 -0.167	 -0.139	 -0.588	 34.100	 98.948	  1.354
48080	 -0.211	 -0.294	  0.212	  0.116	  0.676	 -9.724	 -0.390	 -0.243	 -0.700	 34.100	 98.959	  0.356
48130	 -0.207	 -0.291	  0.211	 -1.274	  1.350	 -9.549	 -0.450	 -0.064	 -0.405	 34.100	 98.959	  0.356
48180	 -0.201	 -0.313	  0.209	 -0.349	  2.139	 -9.374	 -0.147	  0.067	 -0.400	 34.100	 98.944	  1.716
48230	 -0.195	 -0.310	  0.200	 -0.568	  1.828	 -9.121	  0.235	  0.165	 -0.629	 34.100	 98.948	  1.354
48280	 -0.191	 -0.312	  0.204	 -0.449	  1.139	 -9.383	  0.312	 -0.124	 -0.450	 34.100	 98.944	  1.716
48330	 -0.186	 -0.315	  0.209	 -0.058	 -4.542	  1.246	  0.146	 -0.283	 -0.033	 34.100	 98.944	  1.716
48380	 -0.191	 -0.309	  0.217	 -2.124	  0.918	 -11.526	  0.249	 -0.087	  0.139	 34.100	 98.971	 -0.732
48431	 -0.191	 -0.308	  0.217	 -1.838	  0.015	 -10.217	 -0.048	  0.240	  0.135	 34.100	 98.955	  0.719
48481	 -0.200	 -0.307	  0.216	 -0.791	  1.349	 -9.131	 -0.102	  0.291	  0.161	 34.100	 98.955	  0.719
48531	 -0.202	 -0.307	  0.219	 -0.354	  1.142	 -9.088	  0.359	  0.316	 -0.004	 34.100	 98.955	  0.719
48581	 -0.205	 -0.301	  0.221	  1.315	  0.314	 -9.772	  0.590	  0.154	 -0.319	 34.100	 98.944	  1.716
48631	 -0.198	 -0.303	  0.222	 -0.195	  0.431	 -9.839	  0.306	 -0.106	 -0.854	 34.100	 98.971	 -0.732
48681	 -0.195	 -0.303	  0.231	 -1.950	  1.230	 -9.225	  0.563	  0.407	 -0.600	 34.100	 98.959	  0.356
48731	 -0.195	 -0.304	  0.231	  0.169	 -0.593	 -8.987	 -0.385	  0.499	 -0.242	 34.100	 98.948	  1.354
48781	 -0.201	 -0.300	  0.230	  0.493	  0.046	 -11.249	 -0.135	  0.035	 -0.415	 34.100	 98.948	  1.354
48832	 -0.201	 -0.303	  0.231	  0.053	  0.149	 -9.985	 -0.009	  0.005	 -0.083	 34.100	 98.959	  0.356
48882	 -0.200	 -0.300	  0.231	  0.122	 -0.098	 -9.908	 -0.005	  0.003	 -0.003	 34.100	 98.937	  2.351
48932	 -0.197	 -0.299	  0.232	  0.197	 -0.103	 -9.892	 -0.005	  0.001	  0.001	 34.100	 98.955	  0.719
48982	 -0.200	 -0.300	  0.231	  0.190	 -0.022	 -9.837	 -0.003	  0.002	  0.001	 34.100	 98.948	  1.354
49032	 -0.200	 -0.301	  0.228	  0.141	 -0.059	 -9.789	 -0.004	  0.001	  0.000	 34.100	 98.959	  0.356
49082	 -0.200	 -0.301	  0.230	  0.141	 -0.057	 -9.791	 -0.004	  0.002	  0.002	 34.100	 98.967	 -0.369
49132	 -0.199	 -0.299	  0.230	  0.151	 -0.035	 -9.846	 -0.003	  0.002	  0.002	 34.100	 98.971	 -0.732
49182	 -0.198	 -0.301	  0.229	  0.669	 -0.260	 -9.718	 -0.010	 -0.018	 -0.008	 34.100	 98.955	  0.719
49233	 -0.199	 -0.301	  0.228	  0.232	 -0.078	 -9.818	 -0.001	  0.001	  0.001	 34.100	 98.955	  0.719
49283	 -0.200	 -0.299	  0.230	  0.183	 -0.079	 -9.827	 -0.004	  0.001	  0.003	 34.100	 98.959	  0.356
49333	 -0.200	 -0.301	  0.233	  0.158	 -0.071	 -9.852	 -0.003	  0.002	  0.000	 34.100	 98.955	  0.719
49383	 -0.198	 -0.288	  0.234	  0.134	 -0.058	 -9.802	 -0.004	  0.002	  0.001	 34.100	 98.959	  0.356
49433	 -0.199	 -0.296	  0.233	  0.153	 -0.036	 -9.834	 -0.003	  0.003	  0.001	 34.100	 98.959	  0.356
49483	 -0.198	 -0.298	  0.233	  0.118	 -0.027	 -9.845	 -0.003	  0.002	  0.001	 34.100	 98.959	  0.356
49533	 -0.199	 -0.300	  0.231	  0.141	 -0.055	 -9.801	 -0.003	  0.003	  0.001	 34.100	 98.959	  0.356
49583	 -0.200	 -0.297	  0.226	  0.154	 -0.043	 -9.844	 -0.004	  0.002	  0.001	 34.100	 98.944	  1.716
49634	 -0.198	 -0.298	  0.228	  0.162	 -0.049	 -9.809	 -0.004	  0.002	  0.002	 34.100	 98.959	  0.356
49684	 -0.198	 -0.304	  0.230	  0.128	 -0.056	 -9.811	 -0.004	  0.003	  0.001	 34.100	 98.944	  1.716
49734	 -0.199	 -0.301	  0.232	  0.143	 -0.053	 -9.814	 -0.003	  0.002	  0.000	 34.100	 98.971	 -0.732
49784	 -0.198	 -0.301	  0.231	  0.149	 -0.029	 -9.858	 -0.003	  0.003	  0.000	 34.100	 98.959	  0.356
49834	 -0.200	 -0.297	  0.230	  0.139	 -0.028	 -9.837	 -0.003	  0.002	  0.001	 34.100	 98.944	  1.716
49884	 -0.201	 -0.303	  0.232	  0.147	 -0.035	 -9.846	 -0.004	  0.001	 -0.000	 34.100	 98.959	  0.356
49934	 -0.200	 -0.293	  0.232	  0.137	 -0.073	 -9.841	 -0.003	  0.002	 -0.000	 34.100	 98.955	  0.719
49984	 -0.199	 -0.301	  0.231	  0.132	 -0.063	 -9.805	 -0.003	  0.002	  0.000	 34.100	 98.955	  0.719
50034	 -0.200	 -0.303	  0.233	  0.144	 -0.047	 -9.830	 -0.003	  0.003	  0.001	 34.100	 98.967	 -0.369
50085	 -0.199	 -0.303	  0.230	  0.154	 -0.024	 -9.813	 -0.004	  0.002	  0.000	 34.100	 98.959	  0.356
50135	 -0.198	 -0.303	  0.229	  0.146	 -0.022	 -9.846	 -0.003	  0.001	  0.000	 34.100	 98.959	  0.356
50185	 -0.200	 -0.300	  0.231	  0.148	 -0.042	 -9.827	 -0.004	  0.003	  0.002	 34.100	 98.959	  0.356
50235	 -0.198	 -0.301	  0.233	  0.139	 -0.036	 -9.830	 -0.004	  0.001	  0.001	 34.100	 98.959	  0.356
50285	 -0.201	 -0.303	  0.230	  0.144	 -0.055	 -9.780	 -0.003	  0.001	  0.002	 34.100	 98.959	  0.356
50335	 -0.203	 -0.299	  0.231	  0.151	 -0.063	 -9.796	 -0.004	  0.001	  0.000	 34.100	 98.959	  0.356
50385	 -0.201	 -0.300	  0.230	  0.151	 -0.047	 -9.821	 -0.003	  0.001	  0.002	 34.100	 98.959	  0.356
50435	 -0.203	 -0.305	  0.230	  0.141	 -0.031	 -9.824	 -0.003	  0.002	  0.000	 34.100	 98.959	  0.356
50485	 -0.200	 -0.303	  0.233	  0.154	 -0.058	 -9.811	 -0.004	  0.002	  0.002	 34.100	 98.959	  0.356
50536	 -0.197	 -0.304	  0.231	  0.141	 -0.041	 -9.853	 -0.004	  0.001	  0.000	 34.100	 98.948	  1.354
50586	 -0.199	 -0.303	  0.231	  0.134	 -0.053	 -9.814	 -0.003	  0.002	  0.002	 34.100	 98.959	  0.356
50636	 -0.200	 -0.301	  0.224	  0.166	 -0.047	 -9.795	 -0.003	  0.002	  0.001	 34.100	 98.948	  1.354
50686	 -0.200	 -0.300	  0.233	  0.131	 -0.053	 -9.810	 -0.003	  0.002	  0.000	 34.100	 98.959	  0.356
50736	 -0.200	 -0.301	  0.223	  0.143	 -0.052	 -9.808	 -0.004	  0.002	  0.001	 34.100	 98.959	  0.356
50786	 -0.200	 -0.301	  0.231	  0.116	 -0.029	 -9.818	 -0.003	  0.002	  0.002	 34.100	 98.948	  1.354
50836	 -0.200	 -0.287	  0.232	  0.181	 -0.058	 -9.814	 -0.005	  0.001	  0.001	 34.100	 98.955	  0.719
50886	 -0.199	 -0.305	  0.231	  0.132	 -0.063	 -9.824	 -0.003	  0.003	  0.001	 34.100	 98.959	  0.356
50936	 -0.199	 -0.298	  0.229	  0.134	 -0.044	 -9.887	 -0.004	  0.002	  0.000	 34.100	 98.971	 -0.732
50986	 -0.199	 -0.305	  0.229	  0.137	 -0.045	 -9.833	 -0.003	  0.001	  0.000	 34.100	 98.955	  0.719
51037	 -0.199	 -0.303	  0.223	  0.127	 -0.056	 -9.821	 -0.004	  0.002	  0.001	 34.100	 98.959	  0.356
51087	 -0.199	 -0.297	  0.225	  0.147	 -0.049	 -9.809	 -0.003	  0.002	  0.000	 34.100	 98.955	  0.719
51137	 -0.199	 -0.305	  0.229	  0.160	 -0.061	 -9.814	 -0.004	  0.002	  0.000	 34.100	 98.959	  0.356
51187	 -0.200	 -0.306	  0.230	  0.185	 -0.019	 -9.802	 -0.003	  0.001	  0.002	 34.100	 98.959	  0.356
51237	 -0.199	 -0.304	  0.228	  0.141	 -0.054	 -9.841	 -0.005	  0.001	  0.001	 34.100	 98.959	  0.356
51287	 -0.199	 -0.303	  0.232	  0.166	 -0.028	 -9.852	 -0.003	  0.002	  0.001	 34.100	 98.959	  0.356
51337	 -0.199	 -0.294	  0.228	  0.136	 -0.052	 -9.806	 -0.003	  0.002	 -0.001	 34.100	 98.971	 -0.732
51387	 -0.200	 -0.306	  0.232	  0.178	 -0.052	 -9.822	 -0.003	  0.002	 -0.000	 34.100	 98.944	  1.716
51438	 -0.200	 -0.297	  0.230	  0.161	 -0.063	 -9.800	 -0.003	  0.001	  0.001	 34.100	 98.948	  1.354
51488	 -0.198	 -0.301	  0.228	  0.166	 -0.022	 -9.807	 -0.003	  0.002	  0.002	 34.100	 98.959	  0.356
51538	 -0.200	 -0.289	  0.227	  0.170	 -0.028	 -9.823	 -0.003	  0.002	  0.001	 34.100	 98.948	  1.354
51588	 -0.201	 -0.300	  0.232	  0.146	 -0.047	 -9.825	 -0.003	  0.002	  0.001	 34.100	 98.959	  0.356
51638	 -0.200	 -0.301	  0.223	  0.171	 -0.029	 -9.836	 -0.003	  0.002	  0.003	 34.100	 98.959	  0.356
51688	 -0.199	 -0.303	  0.232	  0.122	 -0.042	 -9.834	 -0.004	  0.001	  0.001	 34.100	 98.959	  0.356
51738	 -0.199	 -0.300	  0.232	  0.145	 -0.039	 -9.800	 -0.003	  0.002	  0.001	 34.100	 98.959	  0.356
51788	 -0.200	 -0.303	  0.231	  0.129	 -0.021	 -9.819	 -0.004	  0.003	  0.001	 34.100	 98.959	  0.356
51838	 -0.198	 -0.304	  0.230	  0.147	 -0.077	 -9.805	 -0.003	  0.001	 -0.000	 34.100	 98.967	 -0.369
51888	 -0.201	 -0.303	  0.231	  0.149	 -0.060	 -9.823	 -0.005	  0.003	 -0.000	 34.100	 98.948	  1.354
51939	 -0.198	 -0.301	  0.232	  0.138	 -0.052	 -9.815	 -0.003	  0.002	 -0.000	 34.100	 98.955	  0.719
51989	 -0.198	 -0.303	  0.231	  0.154	 -0.036	 -9.865	 -0.005	  0.003	 -0.001	 34.100	 98.948	  1.354
52039	 -0.200	 -0.300	  0.231	  0.114	 -0.015	 -9.820	 -0.004	  0.002	  0.001	 34.100	 98.959	  0.356
52089	 -0.200	 -0.303	  0.228	  0.169	 -0.046	 -9.824	 -0.003	  0.001	  0.002	 34.100	 98.948	  1.354
52139	 -0.201	 -0.299	  0.232	  0.121	 -0.021	 -9.812	 -0.003	  0.002	  0.001	 34.100	 98.959	  0.356
52189	 -0.198	 -0.303	  0.228	  0.163	 -0.067	 -9.828	 -0.004	  0.002	  0.002	 34.100	 98.948	  1.354
52239	 -0.197	 -0.296	  0.231	  0.131	 -0.015	 -9.828	 -0.004	  0.003	  0.001	 34.100	 98.959	  0.356
52289	 -0.200	 -0.289	  0.233	  0.174	 -0.076	 -9.819	 -0.004	  0.002	  0.000	 34.100	 98.948	  1.354
52339	 -0.199	 -0.303	  0.230	  0.146	 -0.018	 -9.805	 -0.003	  0.002	  0.001	 34.100	 98.959	  0.356
52389	 -0.200	 -0.298	  0.229	  0.163	 -0.043	 -9.804	 -0.003	  0.002	  0.003	 34.100	 98.959	  0.356
52439	 -0.199	 -0.301	  0.229	  0.143	 -0.016	 -9.831	 -0.003	  0.003	 -0.001	 34.100	 98.959	  0.356
52489	 -0.198	 -0.298	  0.231	  0.145	 -0.056	 -9.835	 -0.003	  0.003	  0.002	 34.100	 98.959	  0.356
52541	 -0.198	 -0.301	  0.233	  0.192	 -0.035	 -9.820	 -0.003	  0.002	  0.001	 34.100	 98.948	  1.354
52590	 -0.200	 -0.291	  0.230	  0.112	 -0.048	 -9.839	 -0.004	  0.002	  0.001	 34.100	 98.959	  0.356
52640	 -0.199	 -0.301	  0.231	  0.180	 -0.058	 -9.850	 -0.004	  0.002	  0.001	 34.100	 98.959	  0.356
52690	 -0.197	 -0.304	  0.228	  0.147	 -0.048	 -9.838	 -0.004	  0.002	  0.001	 34.100	 98.955	  0.719
52741	 -0.199	 -0.299	  0.232	  0.146	 -0.044	 -9.823	 -0.003	  0.002	  0.001	 34.100	 98.959	  0.356
52791	 -0.198	 -0.296	  0.231	  0.136	 -0.048	 -9.829	 -0.003	  0.003	  0.000	 34.100	 98.959	  0.356
52841	 -0.198	 -0.301	  0.232	  0.154	 -0.071	 -9.856	 -0.004	  0.002	 -0.000	 34.100	 98.959	  0.356
52891	 -0.198	 -0.304	  0.230	  0.121	 -0.034	 -9.824	 -0.004	  0.002	  0.001	 34.100	 98.955	  0.719
52941	 -0.203	 -0.303	  0.230	  0.149	 -0.058	 -9.843	 -0.003	  0.001	  0.002	 34.100	 98.959	  0.356
52991	 -0.199	 -0.298	  0.229	  0.160	 -0.024	 -9.832	 -0.004	  0.001	  0.002	 34.100	 98.959	  0.356
53041	 -0.197	 -0.295	  0.231	  0.151	 -0.044	 -9.814	 -0.004	  0.002	  0.001	 34.100	 98.959	  0.356
53091	 -0.198	 -0.301	  0.231	  0.123	 -0.041	 -9.801	 -0.003	  0.002	  0.001	 34.100	 98.959	  0.356
53142	 -0.199	 -0.299	  0.231	  0.172	 -0.039	 -9.805	 -0.004	  0.001	  0.001	 34.100	 98.959	  0.356
53192	 -0.199	 -0.299	  0.226	  0.138	 -0.047	 -9.831	 -0.003	  0.002	  0.002	 34.100	 98.948	  1.354
53242	 -0.199	 -0.301	  0.231	  0.162	 -0.032	 -9.836	 -0.003	  0.001	  0.001	 34.100	 98.959	  0.356
53292	 -0.198	 -0.303	  0.233	  0.141	 -0.045	 -9.820	 -0.004	  0.003	  0.001	 34.100	 98.955	  0.719
53342	 -0.200	 -0.299	  0.232	  0.152	 -0.065	 -9.788	 -0.003	  0.002	  0.001	 34.100	 98.959	  0.356
53392	 -0.198	 -0.299	  0.232	  0.154	 -0.053	 -9.842	 -0.004	  0.002	  0.002	 34.100	 98.955	  0.719
53442	 -0.198	 -0.286	  0.230	  0.147	 -0.060	 -9.844	 -0.004	  0.001	  0.002	 34.100	 98.959	  0.356
53492	 -0.197	 -0.304	  0.232	  0.163	 -0.032	 -9.852	 -0.004	  0.003	 -0.000	 34.100	 98.955	  0.719
53542	 -0.201	 -0.295	  0.228	  0.152	 -0.060	 -9.825	 -0.003	  0.002	  0.002	 34.100	 98.948	  1.354
53592	 -0.200	 -0.303	  0.223	  0.384	 -0.218	 -9.821	  0.001	  0.007	 -0.000	 34.100	 98.971	 -0.732
53642	 -0.201	 -0.290	  0.234	  0.010	 -0.297	 -9.788	 -0.009	  0.002	  0.001	 34.100	 98.959	  0.356
53692	 -0.199	 -0.295	  0.231	  0.119	 -0.088	 -9.842	 -0.004	  0.003	  0.003	 34.100	 98.959	  0.356
53742	 -0.200	 -0.289	  0.233	  0.195	  0.123	 -9.732	  0.001	 -0.002	 -0.001	 34.100	 98.948	  1.354
53793	 -0.197	 -0.299	  0.227	  0.051	 -0.265	 -9.863	  0.000	  0.002	  0.004	 34.100	 98.959	  0.356
