Time	 MagX	 MagY	 MagZ	 AccelX	 AccelY	 AccelZ	 Yaw	 Pitch	 Roll	 Temperature	 Pressure	 Altitude
5271	 -0.430	 -0.348	  0.435	  0.094	  0.052	 -9.734	 -0.003	  0.002	 -0.000	 33.200	 100.042	 -99999.000
5319	 -0.427	 -0.354	  0.429	  0.122	  0.035	 -9.739	 -0.002	  0.001	  0.000	 33.200	 100.049	 -99999.000
5369	 -0.428	 -0.342	  0.435	  0.113	  0.048	 -9.777	 -0.003	  0.003	  0.002	 33.200	 100.038	 -99999.000
5419	 -0.428	 -0.351	  0.426	  0.101	  0.040	 -9.784	 -0.004	  0.002	  0.001	 33.200	 100.049	 -99999.000
5469	 -0.427	 -0.351	  0.430	  0.105	  0.035	 -9.777	 -0.003	  0.002	  0.001	 33.200	 100.049	 -99999.000
5519	 -0.428	 -0.338	  0.436	  0.079	  0.023	 -9.763	 -0.002	  0.001	  0.001	 33.200	 100.042	 -99999.000
5569	 -0.430	 -0.351	  0.435	  0.117	  0.025	 -9.767	 -0.003	  0.002	 -0.000	 33.200	 100.038	 -99999.000
5619	 -0.427	 -0.352	  0.434	  0.097	  0.058	 -9.782	 -0.003	  0.003	  0.001	 33.200	 100.053	 -99999.000
5669	 -0.430	 -0.353	  0.433	  0.101	  0.025	 -9.749	 -0.004	  0.003	  0.001	 33.200	 100.038	 -99999.000
5719	 -0.430	 -0.351	  0.432	  0.088	  0.039	 -9.748	 -0.004	  0.003	  0.000	 33.200	 100.038	 -99999.000
5769	 -0.428	 -0.343	  0.435	  0.104	  0.033	 -9.786	 -0.003	  0.002	  0.001	 33.200	 100.049	 -99999.000
5819	 -0.428	 -0.351	  0.431	  0.113	  0.041	 -9.757	 -0.003	  0.002	  0.001	 33.200	 100.053	 -99999.000
5869	 -0.427	 -0.349	  0.430	  0.096	  0.026	 -9.790	 -0.002	  0.003	  0.000	 33.200	 100.058	 -99999.000
5919	 -0.428	 -0.349	  0.432	  0.098	  0.044	 -9.769	 -0.003	  0.003	  0.001	 33.200	 100.053	 -99999.000
5969	 -0.427	 -0.349	  0.434	  0.105	  0.033	 -9.727	 -0.003	  0.002	  0.002	 33.200	 100.038	 -99999.000
6019	 -0.428	 -0.347	  0.433	  0.097	  0.038	 -9.740	 -0.004	  0.003	  0.001	 33.200	 100.042	 -99999.000
6069	 -0.427	 -0.352	  0.428	  0.099	  0.037	 -9.765	 -0.004	  0.002	  0.002	 33.200	 100.042	 -99999.000
6119	 -0.430	 -0.352	  0.435	  0.092	  0.047	 -9.772	 -0.003	  0.002	  0.000	 33.200	 100.038	 -99999.000
6169	 -0.427	 -0.352	  0.435	  0.094	  0.042	 -9.772	 -0.004	  0.002	  0.001	 33.200	 100.049	 -99999.000
6219	 -0.428	 -0.340	  0.432	  0.097	  0.023	 -9.760	 -0.003	  0.003	  0.000	 33.200	 100.038	 -99999.000
6269	 -0.427	 -0.354	  0.433	  0.109	  0.023	 -9.773	 -0.003	  0.002	  0.000	 33.200	 100.042	 -99999.000
6319	 -0.427	 -0.352	  0.428	  0.107	  0.043	 -9.779	 -0.004	  0.002	  0.002	 33.200	 100.038	 -99999.000
6369	 -0.429	 -0.352	  0.433	  0.104	  0.055	 -9.756	 -0.002	  0.003	  0.001	 33.200	 100.053	 -99999.000
6419	 -0.428	 -0.342	  0.435	  0.120	  0.034	 -9.766	 -0.003	  0.002	  0.001	 33.200	 100.042	 -99999.000
6469	 -0.429	 -0.352	  0.433	  0.096	  0.033	 -9.768	 -0.004	  0.003	  0.001	 33.200	 100.042	 -99999.000
6519	 -0.428	 -0.348	  0.433	  0.113	  0.042	 -9.778	 -0.004	  0.003	 -0.000	 33.200	 100.053	 -99999.000
6569	 -0.427	 -0.349	  0.431	  0.108	  0.024	 -9.777	 -0.003	  0.002	  0.000	 33.200	 100.053	 -99999.000
6619	 -0.428	 -0.353	  0.431	  0.083	  0.043	 -9.766	 -0.003	  0.003	  0.001	 33.200	 100.053	 -99999.000
6669	 -0.429	 -0.353	  0.431	  0.132	  0.062	 -9.772	 -0.002	  0.001	  0.001	 33.200	 100.049	 -99999.000
6719	 -0.428	 -0.350	  0.435	  0.105	  0.018	 -9.767	 -0.003	  0.002	  0.000	 33.200	 100.042	 -99999.000
6769	 -0.428	 -0.349	  0.430	  0.092	  0.049	 -9.800	 -0.003	  0.003	  0.000	 33.200	 100.038	 -99999.000
6819	 -0.429	 -0.355	  0.434	  0.117	  0.047	 -9.763	 -0.003	  0.003	  0.001	 33.200	 100.042	 -99999.000
6869	 -0.426	 -0.352	  0.431	  0.109	  0.037	 -9.766	 -0.003	  0.003	  0.000	 33.200	 100.038	 -99999.000
6919	 -0.428	 -0.337	  0.433	  0.093	  0.014	 -9.752	 -0.003	  0.001	  0.001	 33.200	 100.042	 -99999.000
6969	 -0.430	 -0.348	  0.436	  0.106	  0.038	 -9.772	 -0.003	  0.003	  0.001	 33.200	 100.038	 -99999.000
7019	 -0.428	 -0.348	  0.433	  0.131	  0.041	 -9.772	 -0.003	  0.003	  0.001	 33.200	 100.053	 -99999.000
7069	 -0.431	 -0.352	  0.433	  0.117	  0.055	 -9.758	 -0.004	  0.001	  0.001	 33.200	 100.038	 -99999.000
7119	 -0.428	 -0.352	  0.430	  0.118	  0.043	 -9.764	 -0.003	  0.003	  0.001	 33.200	 100.042	 -99999.000
7169	 -0.428	 -0.355	  0.429	  0.109	  0.041	 -9.763	 -0.004	  0.002	  0.001	 33.200	 100.049	 -99999.000
7219	 -0.431	 -0.352	  0.433	  0.115	  0.023	 -9.772	 -0.002	  0.002	  0.002	 33.200	 100.053	 -99999.000
7269	 -0.430	 -0.351	  0.424	  0.106	  0.028	 -9.753	 -0.002	  0.003	  0.001	 33.200	 100.042	 -99999.000
7319	 -0.428	 -0.352	  0.435	  0.093	  0.036	 -9.763	 -0.002	  0.001	  0.001	 33.200	 100.053	 -99999.000
7369	 -0.428	 -0.353	  0.433	  0.119	  0.053	 -9.789	 -0.003	  0.002	 -0.000	 33.200	 100.042	 -99999.000
7419	 -0.428	 -0.347	  0.435	  0.081	  0.061	 -9.775	 -0.002	  0.003	  0.001	 33.200	 100.042	 -99999.000
7469	 -0.428	 -0.349	  0.424	  0.107	  0.039	 -9.765	 -0.003	  0.004	  0.001	 33.200	 100.049	 -99999.000
7519	 -0.431	 -0.352	  0.435	  0.097	  0.050	 -9.740	 -0.004	  0.002	  0.001	 33.200	 100.038	 -99999.000
7569	 -0.426	 -0.346	  0.434	  0.076	  0.062	 -9.775	 -0.003	  0.002	  0.001	 33.200	 100.049	 -99999.000
7619	 -0.428	 -0.351	  0.432	  0.100	  0.052	 -9.765	 -0.004	  0.003	  0.000	 33.200	 100.053	 -99999.000
7669	 -0.429	 -0.354	  0.430	  0.120	  0.021	 -9.753	 -0.003	  0.002	  0.000	 33.200	 100.038	 -99999.000
7719	 -0.429	 -0.352	  0.433	  0.090	  0.063	 -9.758	 -0.003	  0.002	  0.000	 33.200	 100.049	 -99999.000
7769	 -0.428	 -0.352	  0.430	  0.078	  0.051	 -9.780	 -0.003	  0.003	  0.002	 33.200	 100.038	 -99999.000
7819	 -0.428	 -0.342	  0.430	  0.091	  0.025	 -9.767	 -0.003	  0.002	 -0.000	 33.200	 100.042	 -99999.000
7869	 -0.426	 -0.352	  0.434	  0.069	  0.048	 -9.749	 -0.003	  0.003	  0.000	 33.200	 100.053	 -99999.000
7919	 -0.429	 -0.353	  0.432	  0.091	  0.051	 -9.788	 -0.003	  0.002	  0.000	 33.200	 100.049	 -99999.000
7969	 -0.428	 -0.351	  0.427	  0.096	  0.051	 -9.754	 -0.004	  0.003	 -0.000	 33.200	 100.042	 -99999.000
8019	 -0.428	 -0.348	  0.430	  0.114	  0.044	 -9.777	 -0.003	  0.002	  0.001	 33.200	 100.031	 -99999.000
8069	 -0.427	 -0.354	  0.431	  0.096	  0.033	 -9.747	 -0.003	  0.004	  0.000	 33.200	 100.049	 -99999.000
8119	 -0.426	 -0.349	  0.434	  0.117	  0.032	 -9.791	 -0.003	  0.002	  0.000	 33.200	 100.053	 -99999.000
8169	 -0.427	 -0.353	  0.431	  0.104	  0.028	 -9.770	 -0.003	  0.003	  0.001	 33.200	 100.042	 -99999.000
8219	 -0.429	 -0.354	  0.431	  0.092	  0.041	 -9.765	 -0.003	  0.002	  0.001	 33.200	 100.038	 -99999.000
8269	 -0.428	 -0.353	  0.433	  0.077	  0.020	 -9.771	 -0.002	  0.001	  0.001	 33.200	 100.049	 -99999.000
8319	 -0.428	 -0.352	  0.427	  0.117	  0.036	 -9.791	 -0.003	  0.003	 -0.000	 33.200	 100.038	 -99999.000
8368	 -0.429	 -0.351	  0.429	  0.111	  0.045	 -9.740	 -0.002	  0.002	  0.001	 33.200	 100.042	 -99999.000
8419	 -0.429	 -0.352	  0.431	  0.088	  0.047	 -9.784	 -0.004	  0.002	  0.001	 33.200	 100.049	 -99999.000
8469	 -0.428	 -0.349	  0.427	  0.116	  0.044	 -9.747	 -0.004	  0.003	  0.001	 33.200	 100.042	 -99999.000
8519	 -0.427	 -0.356	  0.435	  0.096	  0.040	 -9.757	 -0.002	  0.001	  0.001	 33.200	 100.053	 -99999.000
8568	 -0.428	 -0.346	  0.423	  0.094	  0.035	 -9.766	 -0.003	  0.002	  0.000	 33.200	 100.049	 -99999.000
8618	 -0.427	 -0.349	  0.426	  0.105	  0.019	 -9.755	 -0.003	  0.001	  0.000	 33.200	 100.049	 -99999.000
8669	 -0.427	 -0.351	  0.433	  0.116	  0.027	 -9.745	 -0.004	  0.002	  0.002	 33.200	 100.049	 -99999.000
8719	 -0.427	 -0.351	  0.431	  0.109	  0.039	 -9.766	 -0.002	  0.002	  0.001	 33.200	 100.053	 -99999.000
8769	 -0.428	 -0.353	  0.433	  0.093	  0.028	 -9.751	 -0.003	  0.003	  0.001	 33.200	 100.038	 -99999.000
8819	 -0.427	 -0.351	  0.431	  0.110	  0.039	 -9.809	 -0.003	  0.002	  0.001	 33.200	 100.053	 -99999.000
8868	 -0.427	 -0.353	  0.430	  0.089	  0.036	 -9.782	 -0.004	  0.002	  0.001	 33.200	 100.038	 -99999.000
8919	 -0.428	 -0.347	  0.431	  0.094	  0.044	 -9.751	 -0.003	  0.003	  0.001	 33.200	 100.038	 -99999.000
8968	 -0.431	 -0.351	  0.432	  0.106	  0.045	 -9.773	 -0.003	  0.003	  0.001	 33.200	 100.042	 -99999.000
9018	 -0.427	 -0.352	  0.431	  0.105	  0.033	 -9.783	 -0.003	  0.003	 -0.000	 33.200	 100.038	 -99999.000
9068	 -0.431	 -0.351	  0.432	  0.114	  0.023	 -9.738	 -0.002	  0.004	  0.001	 33.200	 100.049	 -99999.000
9118	 -0.429	 -0.338	  0.436	  0.107	  0.044	 -9.739	 -0.003	  0.002	  0.001	 33.200	 100.042	 -99999.000
9168	 -0.430	 -0.352	  0.435	  0.100	  0.050	 -9.765	 -0.003	  0.002	  0.002	 33.200	 100.053	 -99999.000
9218	 -0.428	 -0.352	  0.433	  0.109	  0.038	 -9.771	 -0.003	  0.002	  0.001	 33.200	 100.053	 -99999.000
9268	 -0.428	 -0.354	  0.428	  0.094	  0.048	 -9.758	 -0.002	  0.003	 -0.001	 33.200	 100.049	 -99999.000
9319	 -0.427	 -0.355	  0.435	  0.094	  0.039	 -9.790	 -0.001	  0.003	  0.001	 33.200	 100.053	 -99999.000
9368	 -0.428	 -0.351	  0.432	  0.080	  0.010	 -9.790	 -0.004	  0.004	  0.001	 33.200	 100.042	 -99999.000
9419	 -0.427	 -0.351	  0.433	  0.094	  0.027	 -9.762	 -0.003	  0.003	  0.001	 33.200	 100.053	 -99999.000
9469	 -0.428	 -0.353	  0.429	  0.105	  0.040	 -9.760	 -0.003	  0.002	  0.000	 33.200	 100.053	 -99999.000
9520	 -0.426	 -0.353	  0.433	  0.105	  0.035	 -9.771	 -0.004	  0.002	  0.001	 33.200	 100.038	 -99999.000
9569	 -0.431	 -0.351	  0.433	  0.103	  0.034	 -9.738	 -0.003	  0.004	  0.001	 33.200	 100.042	 -99999.000
9619	 -0.430	 -0.348	  0.433	  0.082	  0.048	 -9.752	 -0.003	  0.002	  0.001	 33.200	 100.053	 -99999.000
9669	 -0.431	 -0.351	  0.432	  0.110	  0.047	 -9.749	 -0.003	  0.002	  0.001	 33.200	 100.042	 -99999.000
9719	 -0.429	 -0.351	  0.433	  0.092	  0.048	 -9.759	 -0.002	  0.002	 -0.000	 33.200	 100.049	 -99999.000
9769	 -0.427	 -0.353	  0.433	  0.137	  0.030	 -9.763	 -0.002	  0.003	  0.001	 33.200	 100.042	 -99999.000
9819	 -0.429	 -0.352	  0.432	  0.104	  0.008	 -9.771	 -0.003	  0.003	  0.001	 33.200	 100.049	 -99999.000
9869	 -0.427	 -0.354	  0.434	  0.100	  0.027	 -9.753	 -0.004	  0.002	  0.001	 33.200	 100.042	 -99999.000
9919	 -0.428	 -0.348	  0.431	  0.084	  0.031	 -9.774	 -0.003	  0.002	  0.001	 33.200	 100.049	 -99999.000
9969	 -0.427	 -0.348	  0.436	  0.108	  0.035	 -9.783	 -0.003	  0.003	  0.001	 33.200	 100.049	 -99999.000
10019	 -0.428	 -0.348	  0.431	  0.105	  0.032	 -9.736	 -0.003	  0.001	  0.001	 33.200	 100.053	 -99999.000
10069	 -0.427	 -0.351	  0.434	  0.095	  0.037	 -9.770	 -0.003	  0.003	  0.001	 33.200	 100.038	 -99999.000
10119	 -0.427	 -0.352	  0.431	  0.092	  0.040	 -9.768	 -0.002	  0.004	  0.001	 33.200	 100.053	 -99999.000
10169	 -0.431	 -0.352	  0.428	  0.104	  0.034	 -9.761	 -0.002	  0.003	 -0.000	 33.200	 100.042	 -99999.000
10219	 -0.429	 -0.352	  0.427	  0.100	  0.048	 -9.788	 -0.002	  0.002	 -0.000	 33.200	 100.053	 -99999.000
10269	 -0.426	 -0.346	  0.433	  0.108	  0.038	 -9.786	 -0.003	  0.003	  0.002	 33.200	 100.038	 -99999.000
10319	 -0.427	 -0.353	  0.427	  0.090	  0.002	 -9.785	 -0.002	  0.003	  0.001	 33.200	 100.053	 -99999.000
10369	 -0.426	 -0.352	  0.426	  0.103	  0.060	 -9.805	 -0.002	  0.002	  0.001	 33.200	 100.042	 -99999.000
10419	 -0.428	 -0.340	  0.433	  0.116	  0.061	 -9.771	 -0.001	  0.002	 -0.000	 33.200	 100.053	 -99999.000
10469	 -0.426	 -0.351	  0.427	  0.077	  0.041	 -9.786	 -0.003	  0.002	  0.000	 33.200	 100.038	 -99999.000
10519	 -0.427	 -0.354	  0.434	  0.098	  0.031	 -9.757	 -0.003	  0.002	  0.000	 33.200	 100.053	 -99999.000
10569	 -0.430	 -0.349	  0.431	  0.095	  0.034	 -9.776	 -0.004	  0.003	  0.001	 33.200	 100.038	 -99999.000
10619	 -0.430	 -0.352	  0.433	  0.058	  0.033	 -9.759	 -0.004	  0.002	  0.000	 33.200	 100.042	 -99999.000
10669	 -0.428	 -0.344	  0.432	  0.101	  0.031	 -9.767	 -0.002	  0.004	  0.001	 33.200	 100.038	 -99999.000
10719	 -0.428	 -0.348	  0.430	  0.119	  0.028	 -9.790	 -0.003	  0.003	  0.001	 33.200	 100.053	 -99999.000
10769	 -0.428	 -0.350	  0.431	  0.102	  0.045	 -9.755	 -0.003	  0.002	  0.002	 33.200	 100.038	 -99999.000
10819	 -0.428	 -0.350	  0.432	  0.108	  0.058	 -9.780	 -0.003	  0.002	 -0.001	 33.200	 100.042	 -99999.000
10869	 -0.428	 -0.352	  0.435	  0.108	  0.039	 -9.763	 -0.002	  0.002	 -0.001	 33.200	 100.053	 -99999.000
10919	 -0.428	 -0.345	  0.435	  0.133	  0.037	 -9.771	 -0.002	  0.004	  0.001	 33.200	 100.042	 -99999.000
10969	 -0.428	 -0.347	  0.427	  0.123	  0.045	 -9.775	 -0.003	  0.002	  0.001	 33.200	 100.049	 -99999.000
11019	 -0.427	 -0.351	  0.430	  0.086	  0.038	 -9.750	 -0.003	  0.002	  0.001	 33.200	 100.042	 -99999.000
11069	 -0.430	 -0.354	  0.427	  0.116	  0.030	 -9.785	 -0.002	  0.003	  0.001	 33.200	 100.038	 -99999.000
11119	 -0.427	 -0.348	  0.433	  0.090	  0.055	 -9.754	 -0.001	  0.003	  0.001	 33.200	 100.042	 -99999.000
11169	 -0.428	 -0.352	  0.434	  0.112	  0.037	 -9.752	 -0.003	  0.002	  0.002	 33.200	 100.049	 -99999.000
11219	 -0.428	 -0.351	  0.432	  0.103	  0.050	 -9.769	 -0.003	  0.003	  0.001	 33.200	 100.049	 -99999.000
13368	 -0.431	 -0.352	  0.432	  0.108	  0.039	 -9.739	 -0.003	  0.002	  0.001	 33.200	 100.031	  1.341
13418	 -0.428	 -0.340	  0.431	  0.120	  0.040	 -9.747	 -0.003	  0.000	  0.001	 33.200	 100.031	  1.341
13468	 -0.430	 -0.352	  0.430	  0.096	  0.040	 -9.774	 -0.002	  0.003	  0.002	 33.200	 100.042	  0.351
13518	 -0.428	 -0.342	  0.432	  0.103	  0.060	 -9.745	 -0.003	  0.002	  0.001	 33.200	 100.042	  0.351
13568	 -0.427	 -0.350	  0.435	  0.074	  0.032	 -9.599	 -0.002	  0.001	  0.001	 33.200	 100.042	  0.351
13618	 -0.430	 -0.353	  0.432	  0.075	  0.027	 -9.800	 -0.003	  0.002	  0.002	 33.200	 100.042	  0.351
13668	 -0.427	 -0.355	  0.433	  0.141	  0.036	 -9.745	 -0.004	  0.004	  0.002	 33.200	 100.042	  0.351
13718	 -0.427	 -0.348	  0.429	  0.104	  0.053	 -9.783	 -0.003	  0.002	  0.000	 33.200	 100.042	  0.351
13768	 -0.431	 -0.356	  0.435	  0.111	  0.036	 -9.797	 -0.002	  0.002	  0.002	 33.200	 100.049	 -0.279
13818	 -0.426	 -0.352	  0.435	  0.089	  0.047	 -9.766	 -0.004	  0.004	  0.002	 33.200	 100.042	  0.351
13868	 -0.429	 -0.342	  0.432	  0.102	  0.069	 -9.758	 -0.003	  0.003	 -0.001	 33.200	 100.027	  1.700
13918	 -0.429	 -0.339	  0.435	  0.103	  0.044	 -9.763	 -0.004	  0.003	  0.000	 33.200	 100.038	  0.710
13968	 -0.428	 -0.349	  0.431	  0.071	  0.035	 -9.790	 -0.003	  0.003	  0.001	 33.200	 100.042	  0.351
14018	 -0.430	 -0.351	  0.435	  0.132	  0.039	 -9.722	 -0.003	  0.003	  0.001	 33.200	 100.042	  0.351
14068	 -0.429	 -0.352	  0.431	  0.116	  0.059	 -9.774	 -0.003	  0.002	  0.001	 33.200	 100.042	  0.351
14118	 -0.427	 -0.348	  0.433	  0.106	  0.027	 -9.747	 -0.003	  0.002	  0.001	 33.200	 100.053	 -0.640
14168	 -0.428	 -0.345	  0.432	  0.100	  0.036	 -9.739	 -0.003	  0.002	  0.001	 33.200	 100.053	 -0.640
14218	 -0.427	 -0.348	  0.434	  0.088	  0.040	 -9.751	 -0.003	  0.003	  0.001	 33.200	 100.042	  0.351
14268	 -0.428	 -0.349	  0.422	  0.115	  0.054	 -9.752	 -0.003	  0.002	  0.001	 33.200	 100.042	  0.351
14318	 -0.428	 -0.351	  0.427	  0.085	  0.024	 -9.762	 -0.003	  0.003	  0.001	 33.200	 100.031	  1.341
14368	 -0.428	 -0.340	  0.435	  0.101	  0.048	 -9.730	 -0.003	  0.002	 -0.000	 33.200	 100.038	  0.710
14418	 -0.425	 -0.344	  0.431	  0.112	  0.044	 -9.751	 -0.002	  0.002	  0.001	 33.200	 100.027	  1.700
14468	 -0.427	 -0.352	  0.434	  0.118	  0.056	 -9.743	 -0.003	  0.003	  0.001	 33.200	 100.042	  0.351
14518	 -0.429	 -0.353	  0.430	  0.083	  0.033	 -9.795	 -0.003	  0.002	 -0.000	 33.200	 100.042	  0.351
14569	 -0.428	 -0.351	  0.432	  0.102	  0.036	 -9.767	 -0.003	  0.003	  0.001	 33.200	 100.053	 -0.640
14618	 -0.428	 -0.350	  0.429	  0.108	  0.042	 -9.778	 -0.002	  0.001	  0.001	 33.200	 100.042	  0.351
14668	 -0.424	 -0.354	  0.437	  0.112	  0.041	 -9.767	 -0.003	  0.002	  0.001	 33.200	 100.042	  0.351
14718	 -0.428	 -0.343	  0.432	  0.115	  0.044	 -9.770	 -0.002	  0.003	  0.001	 33.200	 100.042	  0.351
14768	 -0.431	 -0.353	  0.433	  0.102	 -0.003	 -9.776	 -0.004	  0.001	  0.001	 33.200	 100.053	 -0.640
14818	 -0.428	 -0.353	  0.433	  0.115	  0.048	 -9.784	 -0.002	  0.002	  0.000	 33.200	 100.042	  0.351
14868	 -0.431	 -0.350	  0.431	  0.101	  0.037	 -9.761	 -0.003	  0.002	  0.001	 33.200	 100.038	  0.710
14919	 -0.428	 -0.354	  0.433	  0.084	  0.025	 -9.793	 -0.003	  0.003	  0.002	 33.200	 100.038	  0.710
14969	 -0.430	 -0.351	  0.429	  0.114	  0.035	 -9.775	 -0.002	  0.001	  0.000	 33.200	 100.042	  0.351
15019	 -0.428	 -0.343	  0.436	  0.118	  0.043	 -9.742	 -0.002	  0.001	  0.001	 33.200	 100.042	  0.351
15069	 -0.429	 -0.352	  0.424	  0.095	  0.038	 -9.794	 -0.003	  0.001	  0.001	 33.200	 100.042	  0.351
15119	 -0.429	 -0.355	  0.431	  0.095	  0.046	 -9.791	 -0.002	  0.002	  0.002	 33.200	 100.042	  0.351
15169	 -0.428	 -0.350	  0.435	  0.093	  0.028	 -9.771	 -0.003	  0.002	  0.001	 33.200	 100.042	  0.351
15219	 -0.430	 -0.349	  0.433	  0.085	  0.025	 -9.723	 -0.004	  0.003	  0.000	 33.200	 100.038	  0.710
15269	 -0.428	 -0.339	  0.433	  0.110	  0.079	 -9.748	 -0.004	  0.002	  0.001	 33.200	 100.042	  0.351
15319	 -0.428	 -0.340	  0.433	  0.091	  0.042	 -9.815	 -0.003	  0.002	  0.000	 33.200	 100.053	 -0.640
15369	 -0.428	 -0.355	  0.434	  0.087	  0.021	 -9.785	 -0.002	  0.002	  0.000	 33.200	 100.038	  0.710
15419	 -0.431	 -0.350	  0.436	  0.112	  0.023	 -9.785	 -0.003	  0.002	  0.000	 33.200	 100.053	 -0.640
15469	 -0.428	 -0.352	  0.428	  0.109	  0.024	 -9.749	 -0.004	  0.004	  0.001	 33.200	 100.038	  0.710
15519	 -0.428	 -0.348	  0.432	  0.101	  0.050	 -9.762	 -0.004	  0.003	  0.001	 33.200	 100.038	  0.710
15569	 -0.428	 -0.351	  0.435	  0.110	  0.024	 -9.775	  0.001	 -0.007	  0.001	 33.200	 100.027	  1.700
15619	 -0.429	 -0.352	  0.435	  0.775	 -0.478	 -9.655	 -0.003	  0.006	 -0.027	 33.200	 100.042	  0.351
15669	 -0.424	 -0.356	  0.429	  0.044	 -0.119	 -9.750	 -0.004	  0.002	 -0.068	 33.200	 100.042	  0.351
15719	 -0.422	 -0.354	  0.423	  0.665	 -0.277	 -9.701	  0.010	 -0.003	 -0.011	 33.200	 100.042	  0.351
15769	 -0.424	 -0.352	  0.422	 -0.872	  1.366	 -10.047	  0.092	 -0.481	  0.492	 33.300	 100.042	  0.351
15819	 -0.399	 -0.336	  0.447	  3.675	 -5.548	 -20.140	 -1.402	 -1.061	  1.476	 33.200	 100.042	  0.351
15869	 -0.422	 -0.394	  0.375	  9.102	  5.171	 25.014	  2.199	  1.391	 -1.383	 33.200	 100.042	  0.351
15919	 -0.381	 -0.358	  0.425	 -8.752	 -0.237	 -26.905	 -0.844	  0.461	 -0.259	 33.200	 100.049	 -0.279
15969	 -0.427	 -0.378	  0.378	  0.850	  1.541	 -1.415	  0.710	 -0.062	  0.490	 33.200	 100.042	  0.351
16019	 -0.426	 -0.364	  0.395	  1.202	  0.701	 -12.505	  0.164	  0.646	 -0.048	 33.200	 100.053	 -0.640
16069	 -0.428	 -0.365	  0.392	  0.106	  0.591	 -9.682	  0.148	 -0.152	  0.016	 33.200	 100.042	  0.351
16119	 -0.432	 -0.357	  0.396	  0.759	  0.436	 -9.760	  0.132	 -0.017	 -0.045	 33.200	 100.042	  0.351
16169	 -0.432	 -0.358	  0.394	  0.268	  0.489	 -9.838	  0.055	 -0.060	 -0.026	 33.200	 100.038	  0.710
16219	 -0.429	 -0.358	  0.398	  0.658	  0.829	 -9.742	  0.045	 -0.089	  0.016	 33.200	 100.042	  0.351
16269	 -0.428	 -0.355	  0.405	  0.505	  0.477	 -9.430	  0.012	 -0.198	  0.070	 33.200	 100.053	 -0.640
16319	 -0.428	 -0.347	  0.407	  0.496	  0.205	 -9.724	  0.148	 -0.089	 -0.062	 33.200	 100.031	  1.341
16369	 -0.426	 -0.338	  0.412	  0.244	  0.165	 -9.889	  0.147	 -0.137	 -0.080	 33.200	 100.049	 -0.279
16419	 -0.424	 -0.336	  0.412	  0.081	  0.154	 -10.050	  0.118	 -0.043	 -0.061	 33.200	 100.042	  0.351
16469	 -0.426	 -0.344	  0.412	  0.324	  0.151	 -9.663	  0.106	 -0.058	  0.015	 33.200	 100.042	  0.351
16519	 -0.426	 -0.344	  0.414	  0.211	 -0.163	 -9.954	  0.036	 -0.018	 -0.047	 33.200	 100.042	  0.351
16569	 -0.423	 -0.343	  0.417	  0.202	  0.112	 -9.804	  0.009	 -0.045	 -0.025	 33.200	 100.042	  0.351
16619	 -0.424	 -0.343	  0.420	  0.236	  0.041	 -9.791	  0.009	 -0.037	  0.015	 33.200	 100.042	  0.351
16669	 -0.423	 -0.344	  0.412	  0.099	  0.099	 -9.781	  0.015	 -0.029	 -0.007	 33.200	 100.042	  0.351
16719	 -0.422	 -0.339	  0.420	  0.046	  0.013	 -9.808	  0.012	 -0.018	  0.014	 33.200	 100.049	 -0.279
16769	 -0.422	 -0.341	  0.418	  0.116	 -0.034	 -9.716	  0.003	 -0.007	  0.005	 33.200	 100.053	 -0.640
16819	 -0.422	 -0.339	  0.421	  0.101	  0.030	 -9.785	  0.002	  0.002	 -0.016	 33.200	 100.042	  0.351
16869	 -0.422	 -0.343	  0.416	  0.089	  0.029	 -9.764	  0.009	 -0.004	  0.004	 33.200	 100.042	  0.351
16919	 -0.421	 -0.340	  0.419	  0.121	  0.037	 -9.786	  0.005	 -0.006	  0.004	 33.200	 100.053	 -0.640
16969	 -0.419	 -0.340	  0.419	  0.112	  0.044	 -9.742	  0.003	 -0.003	  0.008	 33.200	 100.035	  0.980
17019	 -0.423	 -0.336	  0.419	  0.115	  0.006	 -9.779	  0.002	 -0.003	  0.005	 33.200	 100.042	  0.351
17069	 -0.421	 -0.338	  0.420	  0.095	  0.044	 -9.793	  0.006	 -0.011	 -0.001	 33.200	 100.042	  0.351
17119	 -0.423	 -0.340	  0.419	  0.076	 -0.005	 -9.811	  0.005	 -0.006	  0.007	 33.200	 100.038	  0.710
17169	 -0.420	 -0.342	  0.417	  0.083	  0.035	 -9.765	 -0.005	  0.002	  0.016	 33.200	 100.042	  0.351
17219	 -0.423	 -0.337	  0.418	  0.110	  0.016	 -9.744	 -0.004	  0.003	  0.026	 33.200	 100.042	  0.351
17269	 -0.420	 -0.340	  0.423	  0.097	 -0.018	 -9.754	  0.002	 -0.000	  0.003	 33.200	 100.042	  0.351
17319	 -0.420	 -0.338	  0.419	  0.116	  0.008	 -9.793	 -0.001	 -0.000	  0.007	 33.200	 100.053	 -0.640
17369	 -0.423	 -0.338	  0.420	  0.081	  0.003	 -9.788	 -0.002	  0.005	  0.006	 33.200	 100.042	  0.351
17419	 -0.421	 -0.337	  0.420	  0.074	  0.014	 -9.768	  0.000	 -0.000	  0.003	 33.200	 100.053	 -0.640
17469	 -0.421	 -0.342	  0.417	  0.092	  0.006	 -9.798	 -0.000	  0.000	  0.005	 33.200	 100.042	  0.351
17519	 -0.423	 -0.337	  0.419	  0.085	  0.023	 -9.734	 -0.001	  0.001	  0.004	 33.200	 100.053	 -0.640
17569	 -0.422	 -0.339	  0.422	  0.060	 -0.008	 -9.760	 -0.006	  0.007	  0.003	 33.200	 100.049	 -0.279
17618	 -0.422	 -0.339	  0.418	  0.066	  0.027	 -9.810	 -0.006	  0.007	  0.002	 33.200	 100.053	 -0.640
17669	 -0.423	 -0.336	  0.418	  0.087	  0.014	 -9.762	  0.001	 -0.003	  0.002	 33.200	 100.053	 -0.640
17718	 -0.421	 -0.323	  0.420	  0.105	  0.013	 -9.727	 -0.002	  0.001	 -0.000	 33.200	 100.042	  0.351
17768	 -0.423	 -0.336	  0.417	  0.113	  0.007	 -9.778	 -0.005	  0.003	  0.004	 33.200	 100.053	 -0.640
17818	 -0.422	 -0.341	  0.418	  0.074	  0.003	 -9.794	 -0.001	  0.000	  0.001	 33.200	 100.053	 -0.640
17868	 -0.421	 -0.338	  0.418	  0.102	 -0.009	 -9.725	 -0.004	  0.005	  0.000	 33.200	 100.038	  0.710
17918	 -0.423	 -0.337	  0.417	  0.093	  0.012	 -9.668	  0.002	 -0.000	  0.002	 33.200	 100.042	  0.351
17968	 -0.421	 -0.333	  0.421	  0.082	  0.014	 -9.781	 -0.002	  0.000	  0.002	 33.200	 100.053	 -0.640
18018	 -0.424	 -0.335	  0.417	  0.060	 -0.018	 -9.771	 -0.003	  0.001	  0.004	 33.200	 100.031	  1.341
18068	 -0.420	 -0.339	  0.418	  0.051	 -0.001	 -9.799	 -0.003	 -0.002	  0.005	 33.200	 100.065	 -1.719
18118	 -0.421	 -0.338	  0.413	  0.056	 -0.004	 -9.758	 -0.005	 -0.002	  0.005	 33.200	 100.038	  0.710
18168	 -0.422	 -0.337	  0.417	  0.070	 -0.006	 -9.735	 -0.004	 -0.001	  0.004	 33.200	 100.042	  0.351
18218	 -0.421	 -0.338	  0.414	  0.058	  0.009	 -9.752	 -0.004	  0.004	  0.003	 33.200	 100.053	 -0.640
18268	 -0.421	 -0.340	  0.418	  0.088	  0.001	 -9.781	 -0.005	  0.004	  0.004	 33.200	 100.053	 -0.640
18318	 -0.421	 -0.336	  0.419	  0.094	  0.000	 -9.770	 -0.003	  0.002	  0.002	 33.200	 100.065	 -1.719
18368	 -0.422	 -0.339	  0.419	  0.057	 -0.017	 -9.742	 -0.001	 -0.003	  0.003	 33.200	 100.053	 -0.640
18418	 -0.422	 -0.336	  0.420	  0.038	  0.036	 -9.778	 -0.000	  0.000	  0.003	 33.200	 100.038	  0.710
18468	 -0.424	 -0.337	  0.414	  0.054	 -0.005	 -9.735	 -0.000	 -0.002	  0.001	 33.200	 100.042	  0.351
18518	 -0.422	 -0.338	  0.420	  0.100	 -0.017	 -9.787	 -0.002	  0.000	  0.004	 33.200	 100.042	  0.351
18568	 -0.423	 -0.339	  0.420	  0.066	  0.003	 -9.786	 -0.001	  0.001	  0.001	 33.200	 100.042	  0.351
18618	 -0.424	 -0.336	  0.422	  0.075	 -0.012	 -9.762	 -0.003	 -0.002	  0.005	 33.200	 100.053	 -0.640
18668	 -0.423	 -0.338	  0.424	  0.053	 -0.001	 -9.817	 -0.002	  0.001	 -0.001	 33.200	 100.053	 -0.640
18718	 -0.424	 -0.338	  0.420	  0.058	  0.002	 -9.788	 -0.003	  0.002	  0.003	 33.200	 100.042	  0.351
18768	 -0.421	 -0.335	  0.420	  0.084	 -0.008	 -9.750	 -0.002	 -0.004	  0.004	 33.200	 100.049	 -0.279
18818	 -0.423	 -0.333	  0.419	  0.056	  0.024	 -9.805	 -0.001	  0.001	  0.003	 33.200	 100.053	 -0.640
18868	 -0.420	 -0.336	  0.422	  0.018	 -0.013	 -9.761	 -0.000	  0.000	  0.005	 33.200	 100.042	  0.351
18918	 -0.421	 -0.333	  0.420	  0.051	  0.033	 -9.766	  0.001	 -0.003	 -0.001	 33.200	 100.053	 -0.640
18968	 -0.421	 -0.340	  0.419	  0.058	 -0.007	 -9.729	  0.001	 -0.003	  0.000	 33.200	 100.042	  0.351
19018	 -0.423	 -0.336	  0.418	  0.049	 -0.011	 -9.753	 -0.003	 -0.002	  0.007	 33.200	 100.053	 -0.640
19068	 -0.421	 -0.329	  0.422	  0.057	  0.004	 -9.761	 -0.004	 -0.000	  0.004	 33.200	 100.042	  0.351
19118	 -0.422	 -0.339	  0.419	  0.051	  0.000	 -9.782	 -0.004	 -0.006	  0.006	 33.200	 100.042	  0.351
19168	 -0.423	 -0.337	  0.420	  0.111	 -0.057	 -9.819	 -0.022	 -0.024	  0.007	 33.200	 100.038	  0.710
19218	 -0.421	 -0.339	  0.421	  0.505	 -0.222	 -10.165	 -0.032	  0.058	  0.087	 33.200	 100.053	 -0.640
19268	 -0.419	 -0.336	  0.417	 -0.062	  0.065	 -9.922	 -0.004	 -0.006	  0.019	 33.200	 100.042	  0.351
19318	 -0.419	 -0.342	  0.420	 -0.040	 -0.017	 -9.728	 -0.000	 -0.020	 -0.005	 33.200	 100.053	 -0.640
19368	 -0.419	 -0.339	  0.423	  0.027	  0.032	 -9.730	  0.007	 -0.015	 -0.010	 33.200	 100.046	 -0.009
19418	 -0.419	 -0.339	  0.421	 -0.022	  0.087	 -9.697	  0.023	 -0.003	 -0.018	 33.200	 100.042	  0.351
19468	 -0.424	 -0.339	  0.422	  0.114	  0.053	 -9.625	 -0.007	  0.034	  0.023	 33.200	 100.042	  0.351
19518	 -0.420	 -0.341	  0.423	 -0.040	  0.016	 -9.795	  0.002	  0.002	  0.006	 33.200	 100.042	  0.351
19568	 -0.420	 -0.337	  0.414	 -0.101	  0.139	 -10.267	 -0.026	 -0.002	  0.017	 33.200	 100.042	  0.351
19618	 -0.421	 -0.339	  0.424	  0.080	 -0.074	 -9.801	 -0.009	 -0.024	 -0.010	 33.200	 100.042	  0.351
19668	 -0.418	 -0.340	  0.421	 -0.027	  0.009	 -9.734	  0.009	 -0.011	 -0.011	 33.200	 100.049	 -0.279
19718	 -0.420	 -0.336	  0.422	 -0.416	  0.230	 -9.794	  0.023	 -0.005	  0.023	 33.200	 100.049	 -0.279
19768	 -0.422	 -0.342	  0.421	  0.169	  0.103	 -9.711	 -0.001	  0.007	  0.008	 33.200	 100.042	  0.351
19818	 -0.420	 -0.337	  0.424	  0.246	 -0.098	 -9.277	 -0.020	 -0.012	 -0.064	 33.200	 100.042	  0.351
19868	 -0.418	 -0.336	  0.420	 -0.133	  0.083	 -9.779	 -0.039	 -0.021	 -0.009	 33.200	 100.042	  0.351
19919	 -0.417	 -0.339	  0.420	  0.054	  0.064	 -9.622	  0.019	 -0.011	 -0.031	 33.200	 100.053	 -0.640
19968	 -0.418	 -0.341	  0.423	 -0.497	  0.051	 -9.973	  0.004	  0.013	  0.037	 33.200	 100.042	  0.351
20018	 -0.420	 -0.340	  0.423	 -0.047	  0.028	 -9.824	  0.002	  0.021	  0.046	 33.200	 100.053	 -0.640
20068	 -0.419	 -0.336	  0.420	 -0.043	  0.028	 -9.888	  0.002	  0.002	  0.003	 33.200	 100.053	 -0.640
20119	 -0.421	 -0.340	  0.419	 -0.058	  0.077	 -9.779	  0.000	  0.006	  0.012	 33.200	 100.042	  0.351
20168	 -0.421	 -0.338	  0.422	  0.021	  0.046	 -9.785	  0.002	  0.016	  0.016	 33.300	 100.053	 -0.640
20218	 -0.420	 -0.338	  0.421	 -0.003	  0.005	 -9.713	 -0.017	  0.013	 -0.038	 33.200	 100.042	  0.351
20268	 -0.421	 -0.337	  0.417	 -0.263	  0.167	 -9.767	  0.024	  0.026	  0.051	 33.200	 100.053	 -0.640
20318	 -0.427	 -0.329	  0.423	  0.266	 -0.525	 -9.193	  0.503	 -0.056	  0.092	 33.200	 100.053	 -0.640
20369	 -0.434	 -0.323	  0.425	  1.280	 -0.281	 -8.834	  0.007	 -0.090	  0.025	 33.200	 100.042	  0.351
20418	 -0.434	 -0.319	  0.425	  0.231	 -0.150	 -9.635	  0.004	 -0.025	  0.012	 33.200	 100.042	  0.351
20469	 -0.434	 -0.319	  0.427	  0.153	 -0.231	 -9.804	 -0.007	  0.005	  0.007	 33.200	 100.038	  0.710
20519	 -0.435	 -0.320	  0.424	  0.166	 -0.226	 -9.764	 -0.003	  0.009	 -0.001	 33.200	 100.042	  0.351
20569	 -0.436	 -0.324	  0.419	  0.170	 -0.215	 -9.782	 -0.004	  0.006	 -0.001	 33.200	 100.053	 -0.640
