Time	 MagX	 MagY	 MagZ	 AccelX	 AccelY	 AccelZ	 Yaw	 Pitch	 Roll	 Temperature	 Pressure	 Altitude
5338	 -0.424	 -0.330	  0.458	  0.128	  0.031	 -9.764	 -0.003	  0.003	 -0.000	 33.100	 100.096	 -99999.000
5388	 -0.425	 -0.322	  0.457	  0.138	  0.073	 -9.759	 -0.002	  0.003	  0.001	 33.200	 100.100	 -99999.000
5438	 -0.421	 -0.327	  0.457	  0.118	  0.057	 -9.742	 -0.003	  0.002	  0.001	 33.200	 100.096	 -99999.000
5489	 -0.422	 -0.325	  0.457	  0.125	  0.050	 -9.739	 -0.004	  0.002	  0.000	 33.200	 100.100	 -99999.000
5539	 -0.424	 -0.327	  0.457	  0.121	  0.032	 -9.760	 -0.003	  0.002	  0.001	 33.200	 100.100	 -99999.000
5589	 -0.423	 -0.327	  0.458	  0.137	  0.039	 -9.764	 -0.003	  0.001	 -0.000	 33.200	 100.100	 -99999.000
5639	 -0.424	 -0.326	  0.457	  0.142	  0.047	 -9.759	 -0.004	  0.002	  0.001	 33.200	 100.096	 -99999.000
5689	 -0.422	 -0.328	  0.452	  0.112	  0.054	 -9.773	 -0.003	  0.004	  0.001	 33.200	 100.100	 -99999.000
5739	 -0.424	 -0.325	  0.450	  0.106	  0.044	 -9.770	 -0.003	  0.003	  0.000	 33.200	 100.116	 -99999.000
5789	 -0.424	 -0.328	  0.456	  0.119	  0.048	 -9.749	 -0.003	  0.002	  0.001	 33.100	 100.096	 -99999.000
5839	 -0.421	 -0.324	  0.460	  0.122	  0.042	 -9.793	 -0.004	  0.002	  0.001	 33.200	 100.112	 -99999.000
5889	 -0.424	 -0.327	  0.460	  0.131	  0.054	 -9.760	 -0.003	  0.003	  0.001	 33.200	 100.100	 -99999.000
5939	 -0.425	 -0.328	  0.455	  0.120	  0.039	 -9.774	 -0.003	  0.002	  0.000	 33.200	 100.100	 -99999.000
5989	 -0.424	 -0.328	  0.462	  0.115	  0.048	 -9.760	 -0.004	  0.002	  0.001	 33.200	 100.100	 -99999.000
6039	 -0.423	 -0.318	  0.456	  0.120	  0.066	 -9.813	 -0.003	  0.001	  0.001	 33.200	 100.089	 -99999.000
6089	 -0.423	 -0.327	  0.454	  0.139	  0.054	 -9.780	 -0.004	  0.003	  0.001	 33.200	 100.089	 -99999.000
6139	 -0.423	 -0.329	  0.458	  0.150	  0.041	 -9.743	 -0.003	  0.003	  0.001	 33.200	 100.089	 -99999.000
6189	 -0.424	 -0.327	  0.456	  0.117	  0.052	 -9.777	 -0.003	  0.002	  0.002	 33.100	 100.096	 -99999.000
6239	 -0.423	 -0.327	  0.457	  0.118	  0.060	 -9.787	 -0.003	  0.002	  0.001	 33.200	 100.100	 -99999.000
6289	 -0.426	 -0.324	  0.455	  0.158	  0.049	 -9.797	 -0.003	  0.003	  0.000	 33.200	 100.100	 -99999.000
6339	 -0.421	 -0.324	  0.462	  0.119	  0.077	 -9.780	 -0.003	  0.002	  0.001	 33.200	 100.100	 -99999.000
6389	 -0.425	 -0.321	  0.457	  0.140	  0.053	 -9.754	 -0.003	  0.003	  0.000	 33.200	 100.089	 -99999.000
6439	 -0.424	 -0.325	  0.455	  0.125	  0.035	 -9.773	 -0.003	  0.001	  0.001	 33.200	 100.100	 -99999.000
6489	 -0.426	 -0.325	  0.456	  0.125	  0.036	 -9.769	 -0.003	  0.004	  0.001	 33.100	 100.096	 -99999.000
6538	 -0.425	 -0.327	  0.455	  0.144	  0.032	 -9.757	 -0.003	  0.003	  0.000	 33.200	 100.089	 -99999.000
6588	 -0.424	 -0.324	  0.457	  0.116	  0.049	 -9.786	 -0.002	  0.001	  0.001	 33.100	 100.085	 -99999.000
6638	 -0.427	 -0.322	  0.457	  0.107	  0.048	 -9.766	 -0.004	  0.002	 -0.000	 33.200	 100.100	 -99999.000
6688	 -0.422	 -0.326	  0.456	  0.128	  0.056	 -9.744	 -0.002	  0.003	  0.002	 33.200	 100.089	 -99999.000
6738	 -0.427	 -0.326	  0.453	  0.129	  0.060	 -9.766	 -0.002	  0.003	  0.001	 33.200	 100.100	 -99999.000
6788	 -0.424	 -0.326	  0.455	  0.125	  0.050	 -9.780	 -0.002	  0.002	  0.001	 33.100	 100.096	 -99999.000
6838	 -0.424	 -0.327	  0.453	  0.137	  0.045	 -9.762	 -0.003	  0.002	  0.002	 33.200	 100.100	 -99999.000
6889	 -0.424	 -0.326	  0.456	  0.132	  0.045	 -9.727	 -0.004	  0.002	  0.001	 33.200	 100.089	 -99999.000
6938	 -0.423	 -0.327	  0.455	  0.112	  0.059	 -9.772	 -0.004	  0.002	  0.001	 33.200	 100.100	 -99999.000
6988	 -0.424	 -0.328	  0.457	  0.129	  0.046	 -9.775	 -0.004	  0.002	  0.000	 33.200	 100.100	 -99999.000
7038	 -0.424	 -0.329	  0.456	  0.127	  0.037	 -9.739	 -0.004	  0.002	  0.001	 33.200	 100.100	 -99999.000
7088	 -0.424	 -0.325	  0.456	  0.135	  0.053	 -9.734	 -0.003	  0.002	  0.000	 33.200	 100.105	 -99999.000
7138	 -0.426	 -0.327	  0.457	  0.131	  0.062	 -9.805	 -0.004	  0.002	  0.001	 33.200	 100.100	 -99999.000
7188	 -0.424	 -0.323	  0.456	  0.124	  0.049	 -9.772	 -0.004	  0.001	  0.001	 33.200	 100.089	 -99999.000
7238	 -0.425	 -0.325	  0.458	  0.117	  0.065	 -9.768	 -0.003	  0.003	 -0.000	 33.200	 100.089	 -99999.000
7288	 -0.424	 -0.323	  0.456	  0.124	  0.052	 -9.778	 -0.003	  0.003	  0.001	 33.200	 100.100	 -99999.000
7338	 -0.422	 -0.327	  0.458	  0.161	  0.041	 -9.750	 -0.003	  0.003	  0.002	 33.200	 100.100	 -99999.000
7388	 -0.424	 -0.327	  0.457	  0.113	  0.044	 -9.783	 -0.004	  0.002	  0.001	 33.200	 100.100	 -99999.000
7438	 -0.426	 -0.325	  0.453	  0.132	  0.039	 -9.769	 -0.004	  0.001	  0.001	 33.200	 100.100	 -99999.000
7488	 -0.423	 -0.325	  0.457	  0.104	  0.039	 -9.759	 -0.003	  0.003	  0.002	 33.100	 100.085	 -99999.000
7538	 -0.426	 -0.328	  0.456	  0.112	  0.036	 -9.744	 -0.004	  0.001	  0.000	 33.200	 100.112	 -99999.000
7588	 -0.423	 -0.327	  0.456	  0.120	  0.047	 -9.781	 -0.003	  0.004	  0.000	 33.200	 100.100	 -99999.000
7638	 -0.423	 -0.324	  0.458	  0.131	  0.046	 -9.721	 -0.003	  0.002	  0.002	 33.200	 100.089	 -99999.000
7688	 -0.424	 -0.317	  0.458	  0.110	  0.062	 -9.752	 -0.002	  0.004	  0.001	 33.200	 100.100	 -99999.000
7738	 -0.423	 -0.325	  0.458	  0.124	  0.058	 -9.788	 -0.003	  0.003	  0.001	 33.200	 100.089	 -99999.000
7788	 -0.422	 -0.328	  0.448	  0.122	  0.053	 -9.751	 -0.003	  0.003	  0.001	 33.200	 100.089	 -99999.000
7838	 -0.425	 -0.327	  0.457	  0.115	  0.054	 -9.762	 -0.003	  0.002	  0.000	 33.200	 100.100	 -99999.000
7888	 -0.424	 -0.326	  0.460	  0.134	  0.053	 -9.811	 -0.003	  0.003	  0.001	 33.200	 100.100	 -99999.000
7938	 -0.424	 -0.326	  0.460	  0.121	  0.048	 -9.766	 -0.003	  0.003	  0.001	 33.200	 100.100	 -99999.000
7988	 -0.423	 -0.322	  0.462	  0.129	  0.049	 -9.762	 -0.003	  0.002	  0.001	 33.200	 100.089	 -99999.000
8038	 -0.425	 -0.327	  0.455	  0.135	  0.055	 -9.758	 -0.003	  0.003	  0.001	 33.200	 100.100	 -99999.000
8088	 -0.423	 -0.322	  0.455	  0.109	  0.042	 -9.781	 -0.003	  0.003	 -0.001	 33.100	 100.096	 -99999.000
8138	 -0.423	 -0.328	  0.455	  0.104	  0.051	 -9.770	 -0.003	  0.002	  0.001	 33.200	 100.100	 -99999.000
8188	 -0.425	 -0.328	  0.447	  0.129	  0.026	 -9.743	 -0.004	  0.002	  0.000	 33.100	 100.096	 -99999.000
8238	 -0.423	 -0.329	  0.457	  0.139	  0.033	 -9.750	 -0.003	  0.002	  0.001	 33.100	 100.108	 -99999.000
8288	 -0.423	 -0.329	  0.457	  0.125	  0.066	 -9.804	 -0.003	  0.002	  0.001	 33.200	 100.100	 -99999.000
8338	 -0.426	 -0.327	  0.458	  0.137	  0.042	 -9.747	 -0.003	  0.002	  0.000	 33.200	 100.112	 -99999.000
8388	 -0.424	 -0.325	  0.461	  0.130	  0.048	 -9.801	 -0.003	  0.003	 -0.000	 33.200	 100.100	 -99999.000
8438	 -0.425	 -0.325	  0.457	  0.117	  0.060	 -9.725	 -0.003	  0.003	  0.001	 33.200	 100.089	 -99999.000
8488	 -0.424	 -0.316	  0.460	  0.126	  0.036	 -9.762	 -0.003	  0.003	  0.001	 33.100	 100.096	 -99999.000
8538	 -0.425	 -0.327	  0.455	  0.135	  0.038	 -9.760	 -0.003	  0.002	  0.001	 33.200	 100.100	 -99999.000
8588	 -0.424	 -0.329	  0.454	  0.130	  0.055	 -9.753	 -0.004	  0.003	  0.001	 33.100	 100.096	 -99999.000
8638	 -0.422	 -0.323	  0.458	  0.123	  0.051	 -9.732	 -0.002	  0.002	  0.002	 33.100	 100.100	 -99999.000
8688	 -0.423	 -0.326	  0.460	  0.127	  0.057	 -9.735	 -0.002	  0.002	  0.000	 33.200	 100.100	 -99999.000
8738	 -0.423	 -0.325	  0.455	  0.130	  0.039	 -9.784	 -0.004	  0.003	  0.000	 33.200	 100.085	 -99999.000
8788	 -0.422	 -0.322	  0.456	  0.131	  0.066	 -9.753	 -0.003	  0.002	  0.001	 33.200	 100.089	 -99999.000
8838	 -0.424	 -0.328	  0.458	  0.128	  0.036	 -9.772	 -0.003	  0.003	  0.000	 33.200	 100.100	 -99999.000
8888	 -0.424	 -0.324	  0.457	  0.096	  0.052	 -9.730	 -0.002	  0.002	 -0.000	 33.200	 100.100	 -99999.000
8938	 -0.425	 -0.318	  0.458	  0.130	  0.057	 -9.758	 -0.004	  0.002	  0.001	 33.200	 100.100	 -99999.000
8988	 -0.422	 -0.325	  0.456	  0.111	  0.047	 -9.798	 -0.003	  0.003	  0.000	 33.100	 100.108	 -99999.000
9038	 -0.423	 -0.323	  0.462	  0.142	  0.065	 -9.767	 -0.002	  0.003	  0.001	 33.200	 100.100	 -99999.000
9088	 -0.423	 -0.329	  0.460	  0.127	  0.045	 -9.752	 -0.003	  0.002	 -0.000	 33.200	 100.100	 -99999.000
9138	 -0.427	 -0.329	  0.462	  0.139	  0.058	 -9.785	 -0.004	  0.003	 -0.000	 33.100	 100.100	 -99999.000
9188	 -0.425	 -0.323	  0.457	  0.115	  0.032	 -9.760	 -0.003	  0.002	  0.002	 33.200	 100.100	 -99999.000
9238	 -0.424	 -0.321	  0.461	  0.142	  0.050	 -9.735	 -0.003	  0.003	  0.002	 33.200	 100.100	 -99999.000
9288	 -0.421	 -0.327	  0.456	  0.111	  0.066	 -9.780	 -0.005	  0.002	  0.000	 33.200	 100.089	 -99999.000
9338	 -0.425	 -0.330	  0.456	  0.138	  0.040	 -9.742	 -0.003	  0.003	 -0.000	 33.200	 100.100	 -99999.000
9388	 -0.426	 -0.327	  0.461	  0.138	  0.060	 -9.778	 -0.003	  0.003	  0.000	 33.200	 100.100	 -99999.000
9438	 -0.422	 -0.328	  0.452	  0.139	  0.035	 -9.771	 -0.003	  0.003	  0.002	 33.200	 100.105	 -99999.000
9488	 -0.424	 -0.326	  0.455	  0.131	  0.037	 -9.756	 -0.003	  0.002	  0.002	 33.100	 100.096	 -99999.000
9538	 -0.424	 -0.326	  0.452	  0.122	  0.035	 -9.784	 -0.003	  0.003	  0.001	 33.200	 100.089	 -99999.000
9588	 -0.422	 -0.327	  0.457	  0.125	  0.037	 -9.761	 -0.002	  0.003	 -0.000	 33.200	 100.100	 -99999.000
9638	 -0.422	 -0.315	  0.456	  0.129	  0.027	 -9.766	 -0.004	  0.003	  0.001	 33.200	 100.108	 -99999.000
9688	 -0.426	 -0.329	  0.458	  0.106	  0.047	 -9.756	 -0.003	  0.002	  0.001	 33.200	 100.100	 -99999.000
9738	 -0.424	 -0.326	  0.453	  0.119	  0.057	 -9.780	 -0.003	  0.002	  0.001	 33.100	 100.100	 -99999.000
9788	 -0.423	 -0.329	  0.456	  0.102	  0.079	 -9.763	 -0.003	  0.004	  0.001	 33.200	 100.100	 -99999.000
9838	 -0.422	 -0.326	  0.456	  0.119	  0.045	 -9.740	 -0.004	  0.003	  0.000	 33.200	 100.100	 -99999.000
9888	 -0.425	 -0.327	  0.461	  0.096	  0.059	 -9.767	 -0.002	  0.002	  0.001	 33.200	 100.100	 -99999.000
9938	 -0.425	 -0.313	  0.457	  0.134	  0.055	 -9.748	 -0.003	  0.003	  0.000	 33.200	 100.100	 -99999.000
9988	 -0.424	 -0.328	  0.458	  0.104	  0.047	 -9.788	 -0.003	  0.002	  0.001	 33.200	 100.089	 -99999.000
10038	 -0.424	 -0.326	  0.458	  0.123	  0.037	 -9.783	 -0.002	  0.004	  0.002	 33.200	 100.100	 -99999.000
10088	 -0.421	 -0.325	  0.459	  0.123	  0.062	 -9.775	 -0.003	  0.002	  0.001	 33.200	 100.100	 -99999.000
10137	 -0.423	 -0.323	  0.457	  0.115	  0.058	 -9.772	 -0.003	  0.003	  0.002	 33.200	 100.100	 -99999.000
10187	 -0.424	 -0.327	  0.458	  0.126	  0.023	 -9.758	 -0.004	  0.002	  0.002	 33.200	 100.100	 -99999.000
10238	 -0.423	 -0.326	  0.457	  0.105	  0.051	 -9.745	 -0.004	  0.003	  0.000	 33.200	 100.096	 -99999.000
10288	 -0.426	 -0.319	  0.459	  0.129	  0.035	 -9.784	 -0.003	  0.002	  0.000	 33.200	 100.089	 -99999.000
10338	 -0.425	 -0.326	  0.464	  0.125	  0.055	 -9.762	 -0.003	  0.002	  0.000	 33.200	 100.100	 -99999.000
10388	 -0.426	 -0.322	  0.457	  0.127	  0.046	 -9.752	 -0.003	  0.001	  0.001	 33.200	 100.089	 -99999.000
10438	 -0.425	 -0.327	  0.458	  0.133	  0.043	 -9.786	 -0.003	  0.002	  0.000	 33.100	 100.100	 -99999.000
10488	 -0.423	 -0.325	  0.457	  0.118	  0.062	 -9.785	 -0.003	  0.002	  0.000	 33.200	 100.100	 -99999.000
10538	 -0.425	 -0.330	  0.457	  0.115	  0.036	 -9.753	 -0.003	  0.003	  0.001	 33.200	 100.100	 -99999.000
10588	 -0.423	 -0.328	  0.458	  0.112	  0.043	 -9.763	 -0.004	  0.002	  0.001	 33.200	 100.089	 -99999.000
10638	 -0.426	 -0.324	  0.458	  0.134	  0.068	 -9.781	 -0.004	  0.002	  0.001	 33.200	 100.100	 -99999.000
10688	 -0.424	 -0.326	  0.460	  0.118	  0.046	 -9.769	 -0.003	  0.002	  0.000	 33.200	 100.100	 -99999.000
10738	 -0.426	 -0.327	  0.456	  0.118	  0.049	 -9.765	 -0.004	  0.004	  0.000	 33.200	 100.089	 -99999.000
10788	 -0.423	 -0.323	  0.460	  0.100	  0.048	 -9.754	 -0.004	  0.003	  0.000	 33.200	 100.100	 -99999.000
10838	 -0.426	 -0.327	  0.456	  0.117	  0.052	 -9.787	 -0.004	  0.003	  0.000	 33.200	 100.100	 -99999.000
10888	 -0.427	 -0.326	  0.461	  0.136	  0.042	 -9.792	 -0.004	  0.003	  0.000	 33.200	 100.100	 -99999.000
10937	 -0.424	 -0.325	  0.455	  0.120	  0.060	 -9.752	 -0.003	  0.002	  0.000	 33.200	 100.100	 -99999.000
10988	 -0.423	 -0.328	  0.456	  0.130	  0.043	 -9.754	 -0.003	  0.002	  0.002	 33.200	 100.089	 -99999.000
11039	 -0.423	 -0.310	  0.458	  0.102	  0.035	 -9.749	 -0.004	  0.004	  0.002	 33.200	 100.100	 -99999.000
11089	 -0.423	 -0.331	  0.458	  0.136	  0.029	 -9.776	 -0.005	  0.002	  0.001	 33.200	 100.100	 -99999.000
11139	 -0.424	 -0.326	  0.449	  0.136	  0.043	 -9.770	 -0.003	  0.002	 -0.000	 33.200	 100.089	 -99999.000
11189	 -0.425	 -0.316	  0.455	  0.125	  0.034	 -9.765	 -0.002	  0.002	  0.001	 33.200	 100.100	 -99999.000
11239	 -0.422	 -0.328	  0.456	  0.112	  0.042	 -9.754	 -0.003	  0.003	  0.000	 33.200	 100.100	 -99999.000
11289	 -0.426	 -0.322	  0.455	  0.134	  0.044	 -9.751	 -0.002	  0.001	  0.001	 33.100	 100.096	 -99999.000
13513	 -0.424	 -0.326	  0.456	  0.112	  0.071	 -9.636	 -0.004	  0.002	  0.001	 33.200	 100.100	 -0.181
13563	 -0.429	 -0.327	  0.458	  0.130	  0.049	 -9.768	 -0.004	  0.001	  0.001	 33.200	 100.100	 -0.181
13613	 -0.422	 -0.326	  0.454	  0.114	  0.079	 -9.773	 -0.003	  0.002	  0.001	 33.200	 100.089	  0.808
13663	 -0.424	 -0.323	  0.456	  0.142	  0.042	 -9.723	 -0.003	  0.003	  0.002	 33.200	 100.100	 -0.181
13713	 -0.424	 -0.324	  0.457	  0.129	  0.049	 -9.769	 -0.003	  0.002	  0.000	 33.200	 100.100	 -0.181
13763	 -0.428	 -0.328	  0.459	  0.117	  0.061	 -9.764	 -0.004	  0.001	  0.000	 33.200	 100.100	 -0.181
13813	 -0.427	 -0.321	  0.458	  0.138	  0.040	 -9.789	 -0.004	  0.002	  0.002	 33.200	 100.100	 -0.181
13863	 -0.425	 -0.326	  0.458	  0.112	  0.027	 -9.761	 -0.004	  0.002	  0.002	 33.200	 100.100	 -0.181
13913	 -0.424	 -0.325	  0.458	  0.143	  0.039	 -9.750	 -0.002	  0.002	  0.001	 33.200	 100.100	 -0.181
13963	 -0.424	 -0.313	  0.458	  0.122	  0.050	 -9.777	 -0.003	  0.001	  0.001	 33.200	 100.100	 -0.181
14013	 -0.424	 -0.329	  0.460	  0.135	  0.071	 -9.734	 -0.004	  0.004	  0.002	 33.200	 100.112	 -1.261
14063	 -0.426	 -0.322	  0.457	  0.120	  0.017	 -9.751	 -0.003	  0.001	  0.002	 33.200	 100.100	 -0.181
14113	 -0.426	 -0.329	  0.462	  0.097	  0.060	 -9.790	 -0.004	  0.002	  0.000	 33.200	 100.100	 -0.181
14163	 -0.424	 -0.327	  0.451	  0.117	  0.063	 -9.748	 -0.003	  0.002	  0.001	 33.200	 100.089	  0.808
14213	 -0.426	 -0.324	  0.458	  0.120	  0.037	 -9.743	 -0.004	  0.003	  0.000	 33.200	 100.096	  0.178
14263	 -0.424	 -0.326	  0.460	  0.134	  0.045	 -9.755	 -0.003	  0.001	  0.002	 33.200	 100.089	  0.808
14313	 -0.424	 -0.329	  0.449	  0.113	  0.047	 -9.785	 -0.003	  0.001	 -0.000	 33.200	 100.100	 -0.181
14363	 -0.425	 -0.323	  0.458	  0.135	  0.042	 -9.787	 -0.003	  0.003	  0.001	 33.200	 100.089	  0.808
14413	 -0.424	 -0.325	  0.460	  0.111	  0.059	 -9.803	 -0.004	  0.002	  0.001	 33.200	 100.112	 -1.261
14463	 -0.425	 -0.323	  0.458	  0.155	  0.054	 -9.789	 -0.004	  0.001	  0.002	 33.200	 100.112	 -1.261
14513	 -0.422	 -0.329	  0.457	  0.122	  0.068	 -9.764	 -0.003	  0.001	  0.000	 33.200	 100.100	 -0.181
14563	 -0.425	 -0.325	  0.456	  0.134	  0.069	 -9.758	 -0.004	  0.002	  0.001	 33.200	 100.100	 -0.181
14613	 -0.422	 -0.327	  0.455	  0.115	  0.066	 -9.716	 -0.002	  0.003	  0.001	 33.200	 100.112	 -1.261
14663	 -0.424	 -0.327	  0.458	  0.139	  0.042	 -9.800	 -0.003	  0.002	  0.001	 33.200	 100.100	 -0.181
14713	 -0.423	 -0.325	  0.449	  0.119	  0.043	 -9.751	 -0.003	  0.002	  0.002	 33.200	 100.100	 -0.181
14763	 -0.423	 -0.325	  0.460	  0.137	  0.076	 -9.746	 -0.003	  0.003	  0.000	 33.200	 100.100	 -0.181
14813	 -0.423	 -0.326	  0.458	  0.115	  0.026	 -9.760	 -0.004	  0.003	  0.001	 33.200	 100.100	 -0.181
14863	 -0.425	 -0.328	  0.461	  0.071	  0.068	 -9.803	 -0.003	  0.004	  0.001	 33.200	 100.100	 -0.181
14913	 -0.426	 -0.315	  0.459	  0.129	  0.050	 -9.777	 -0.003	  0.002	  0.002	 33.200	 100.100	 -0.181
14963	 -0.424	 -0.330	  0.454	  0.117	  0.051	 -9.765	 -0.004	  0.003	  0.000	 33.200	 100.093	  0.448
15013	 -0.422	 -0.324	  0.457	  0.127	  0.061	 -9.745	 -0.004	  0.002	  0.001	 33.200	 100.112	 -1.261
15063	 -0.423	 -0.326	  0.458	  0.122	  0.044	 -9.776	 -0.004	  0.002	  0.001	 33.200	 100.089	  0.808
15113	 -0.424	 -0.320	  0.457	  0.137	  0.059	 -9.771	 -0.003	  0.003	  0.000	 33.200	 100.100	 -0.181
15163	 -0.422	 -0.322	  0.453	  0.124	  0.032	 -9.772	 -0.003	  0.003	  0.002	 33.200	 100.100	 -0.181
15213	 -0.424	 -0.330	  0.460	  0.118	  0.042	 -9.760	 -0.002	  0.002	  0.001	 33.200	 100.096	  0.178
15263	 -0.423	 -0.324	  0.458	  0.131	  0.027	 -9.720	 -0.003	  0.002	  0.002	 33.200	 100.089	  0.808
15313	 -0.425	 -0.327	  0.454	  0.132	  0.050	 -9.755	 -0.003	  0.003	  0.001	 33.200	 100.100	 -0.181
15363	 -0.428	 -0.326	  0.458	  0.135	  0.071	 -9.772	 -0.003	  0.002	 -0.000	 33.200	 100.100	 -0.181
15413	 -0.425	 -0.327	  0.460	  0.128	  0.059	 -9.754	 -0.004	  0.003	  0.001	 33.200	 100.089	  0.808
15463	 -0.425	 -0.325	  0.460	  0.121	  0.051	 -9.765	 -0.005	  0.002	  0.000	 33.200	 100.100	 -0.181
15513	 -0.425	 -0.326	  0.458	  0.138	  0.041	 -9.774	 -0.004	  0.004	  0.001	 33.200	 100.100	 -0.181
15564	 -0.424	 -0.323	  0.458	  0.172	  0.023	 -9.758	  0.003	 -0.008	 -0.003	 33.100	 100.108	 -0.900
15614	 -0.421	 -0.327	  0.455	  0.116	 -0.796	 -9.818	 -0.003	  0.006	 -0.014	 33.200	 100.100	 -0.181
15664	 -0.420	 -0.323	  0.453	 -0.798	 -0.423	 -9.669	 -0.139	  0.043	  0.572	 33.200	 100.100	 -0.181
15713	 -0.422	 -0.321	  0.448	  2.047	  2.701	 -10.619	 -0.307	 -0.033	 -0.001	 33.200	 100.089	  0.808
15763	 -0.420	 -0.338	  0.442	  0.733	 -0.985	 -9.070	 -0.289	 -0.225	 -0.520	 33.200	 100.100	 -0.181
15813	 -0.395	 -0.352	  0.433	 -1.760	  0.762	 -11.136	 -0.652	 -0.713	 -0.202	 33.200	 100.100	 -0.181
15863	 -0.374	 -0.385	  0.431	 -0.578	  0.392	 -10.315	 -0.793	 -0.067	  0.003	 33.200	 100.100	 -0.181
15913	 -0.364	 -0.405	  0.415	 -1.246	  0.412	 -12.724	 -0.684	 -0.222	  0.190	 33.200	 100.100	 -0.181
15963	 -0.324	 -0.425	  0.419	 -10.050	  3.014	 -16.728	 -0.326	 -1.319	  0.828	 33.200	 100.100	 -0.181
16013	 -0.323	 -0.416	  0.401	  8.121	  0.234	 -7.657	 -0.433	  5.100	  2.042	 33.200	 100.096	  0.178
16063	 -0.438	 -0.403	  0.306	  4.316	 -5.640	 24.140	  1.275	 -1.121	 -0.855	 33.200	 100.112	 -1.261
16114	 -0.333	 -0.380	  0.451	 -13.655	  3.321	 -44.612	  1.954	 -0.578	 -1.680	 33.200	 100.105	 -0.631
16163	 -0.418	 -0.366	  0.387	  5.689	 -2.120	  6.929	 -0.900	  1.934	  1.144	 33.200	 100.089	  0.808
16213	 -0.392	 -0.356	  0.423	 -3.133	  1.678	 -19.087	  1.037	 -1.633	 -0.360	 33.200	 100.100	 -0.181
16263	 -0.404	 -0.350	  0.408	  4.026	  0.478	 -3.963	 -0.298	  1.204	  0.377	 33.200	 100.089	  0.808
16313	 -0.401	 -0.343	  0.424	  1.304	  1.117	 -13.897	  0.850	 -0.350	 -0.714	 33.200	 100.100	 -0.181
16363	 -0.405	 -0.338	  0.424	  1.134	 -0.048	 -9.377	  0.450	  0.858	 -0.330	 33.200	 100.100	 -0.181
16413	 -0.413	 -0.343	  0.411	  1.687	 -0.162	 -6.719	  0.141	  0.479	 -0.388	 33.200	 100.100	 -0.181
16463	 -0.423	 -0.330	  0.410	  0.641	 -0.930	 -9.268	  0.492	  0.481	 -0.004	 33.200	 100.089	  0.808
16513	 -0.449	 -0.335	  0.391	  2.610	 -1.164	 -10.799	 -0.399	  0.756	 -0.583	 33.200	 100.100	 -0.181
16563	 -0.446	 -0.370	  0.369	  2.857	  0.155	 -8.095	 -0.784	  0.012	 -0.927	 33.200	 100.100	 -0.181
16613	 -0.437	 -0.395	  0.348	  1.504	  0.850	 -9.387	 -0.391	 -0.563	 -0.151	 33.200	 100.085	  1.168
16663	 -0.427	 -0.395	  0.363	  4.287	 -0.912	 -9.130	  0.461	 -0.224	 -0.609	 33.200	 100.100	 -0.181
16713	 -0.418	 -0.394	  0.366	 -2.542	  1.216	 -11.529	  0.434	 -0.993	 -0.044	 33.200	 100.096	  0.178
16763	 -0.410	 -0.381	  0.383	  3.070	 -1.077	 -11.457	 -0.439	  0.032	  0.468	 33.100	 100.096	  0.178
16813	 -0.418	 -0.395	  0.360	 -0.139	  1.430	 -9.395	 -0.452	  0.459	  0.056	 33.200	 100.112	 -1.261
16863	 -0.417	 -0.403	  0.355	  2.418	 -0.200	 -10.470	 -0.512	  0.045	  0.104	 33.200	 100.100	 -0.181
16913	 -0.420	 -0.408	  0.342	  0.658	  0.365	 -8.878	 -0.193	  0.410	  0.030	 33.200	 100.100	 -0.181
16963	 -0.421	 -0.403	  0.343	  3.285	  1.505	 -8.954	  0.280	  0.072	  0.296	 33.200	 100.100	 -0.181
17013	 -0.435	 -0.387	  0.340	  2.303	  0.177	 -7.423	  0.680	  0.422	  0.397	 33.200	 100.100	 -0.181
17063	 -0.440	 -0.367	  0.353	  2.890	 -0.624	 -10.153	  0.374	 -0.372	  0.139	 33.200	 100.089	  0.808
17113	 -0.431	 -0.375	  0.355	  3.193	 -0.919	 -9.629	 -0.089	 -0.272	 -0.597	 33.200	 100.100	 -0.181
17163	 -0.403	 -0.403	  0.338	 -0.908	  0.522	 -10.071	 -0.962	  0.022	 -1.007	 33.200	 100.100	 -0.181
17213	 -0.406	 -0.415	  0.320	  1.891	  1.041	 -9.330	 -0.233	  0.555	  0.299	 33.200	 100.089	  0.808
17263	 -0.408	 -0.421	  0.304	  2.428	  0.366	 -8.594	 -0.500	  0.056	 -0.324	 33.200	 100.112	 -1.261
17313	 -0.404	 -0.445	  0.294	  1.967	  0.841	 -9.948	 -0.385	  0.315	 -0.173	 33.200	 100.100	 -0.181
17363	 -0.400	 -0.461	  0.285	  2.898	  1.287	 -8.456	 -0.452	 -0.202	 -0.166	 33.200	 100.089	  0.808
17413	 -0.394	 -0.463	  0.286	  1.435	  1.516	 -9.675	  0.022	 -0.237	  0.219	 33.200	 100.100	 -0.181
17463	 -0.392	 -0.463	  0.289	  1.982	  0.879	 -9.582	  0.015	  0.394	 -0.236	 33.200	 100.100	 -0.181
17513	 -0.400	 -0.464	  0.282	  1.486	  2.352	 -10.101	 -0.785	 -0.491	  0.425	 33.200	 100.100	 -0.181
17563	 -0.402	 -0.468	  0.275	  1.672	  2.856	 -9.888	 -0.001	  0.555	 -0.028	 33.100	 100.096	  0.178
17613	 -0.400	 -0.473	  0.272	  1.755	  1.945	 -8.067	  0.163	  0.141	 -0.205	 33.200	 100.100	 -0.181
17663	 -0.396	 -0.465	  0.273	  2.077	  1.188	 -8.968	  0.590	 -0.334	 -0.117	 33.200	 100.089	  0.808
17713	 -0.393	 -0.463	  0.294	  2.195	  0.888	 -9.930	  0.091	 -0.033	 -0.184	 33.200	 100.100	 -0.181
17763	 -0.390	 -0.471	  0.292	  2.278	  1.529	 -8.863	 -0.069	  0.034	 -0.168	 33.200	 100.100	 -0.181
17813	 -0.388	 -0.455	  0.296	  1.906	  2.121	 -11.356	  0.443	  0.196	  0.068	 33.200	 100.100	 -0.181
17863	 -0.388	 -0.465	  0.289	  2.054	  0.843	 -8.289	 -0.206	 -0.091	 -0.033	 33.200	 100.100	 -0.181
17913	 -0.385	 -0.459	  0.302	  1.924	  0.974	 -9.575	  0.252	 -0.491	  0.003	 33.200	 100.100	 -0.181
17963	 -0.380	 -0.465	  0.311	  1.847	  1.298	 -9.847	 -0.062	 -0.223	 -0.044	 33.200	 100.100	 -0.181
18013	 -0.375	 -0.462	  0.318	  1.946	  0.863	 -9.765	  0.012	 -0.187	 -0.003	 33.200	 100.100	 -0.181
18063	 -0.373	 -0.460	  0.321	  1.745	  1.237	 -9.412	 -0.127	 -0.168	 -0.058	 33.200	 100.089	  0.808
18113	 -0.370	 -0.467	  0.317	  1.649	  1.581	 -9.473	 -0.048	 -0.193	  0.009	 33.200	 100.100	 -0.181
18163	 -0.368	 -0.468	  0.323	  1.550	  1.138	 -9.595	  0.003	 -0.101	 -0.003	 33.200	 100.089	  0.808
18213	 -0.368	 -0.465	  0.316	  1.423	  1.145	 -9.640	  0.043	 -0.100	 -0.002	 33.100	 100.100	 -0.181
18263	 -0.365	 -0.453	  0.324	  1.445	  1.113	 -9.422	 -0.137	 -0.104	 -0.036	 33.200	 100.100	 -0.181
18313	 -0.365	 -0.471	  0.325	  1.376	  1.810	 -9.538	 -0.032	 -0.262	 -0.025	 33.200	 100.100	 -0.181
18363	 -0.360	 -0.465	  0.326	  1.259	  1.267	 -10.114	  0.055	 -0.013	 -0.017	 33.200	 100.100	 -0.181
18413	 -0.364	 -0.467	  0.327	  1.181	  1.304	 -9.653	  0.015	  0.144	 -0.064	 33.200	 100.089	  0.808
18463	 -0.360	 -0.466	  0.324	  1.358	  1.392	 -9.185	 -0.096	  0.005	 -0.018	 33.200	 100.100	 -0.181
18513	 -0.362	 -0.477	  0.323	  1.291	  1.415	 -9.643	 -0.040	 -0.074	 -0.064	 33.200	 100.100	 -0.181
18562	 -0.358	 -0.463	  0.320	  1.255	  1.333	 -9.506	 -0.051	 -0.058	 -0.036	 33.200	 100.100	 -0.181
18612	 -0.359	 -0.476	  0.322	  1.211	  1.573	 -9.597	 -0.057	 -0.111	 -0.052	 33.200	 100.093	  0.448
18662	 -0.356	 -0.475	  0.323	  1.130	  1.563	 -9.839	  0.045	 -0.041	  0.001	 33.200	 100.100	 -0.181
18713	 -0.360	 -0.474	  0.323	  1.267	  1.340	 -9.109	 -0.036	 -0.005	  0.151	 33.200	 100.100	 -0.181
18763	 -0.356	 -0.472	  0.327	  1.017	  1.283	 -9.218	  0.047	 -0.410	  0.046	 33.200	 100.100	 -0.181
18813	 -0.354	 -0.467	  0.334	  0.713	  1.209	 -9.754	  0.105	 -0.446	  0.044	 33.100	 100.112	 -1.261
18863	 -0.348	 -0.472	  0.340	  0.638	  1.113	 -9.955	 -0.076	 -0.279	 -0.005	 33.200	 100.100	 -0.181
18913	 -0.343	 -0.470	  0.338	  0.490	  1.585	 -9.734	 -0.041	 -0.172	  0.003	 33.200	 100.112	 -1.261
18963	 -0.342	 -0.467	  0.343	  0.496	  1.469	 -9.743	  0.039	 -0.138	  0.016	 33.200	 100.100	 -0.181
19013	 -0.342	 -0.470	  0.342	  0.274	  1.269	 -9.665	 -0.054	 -0.093	  0.035	 33.200	 100.100	 -0.181
19062	 -0.341	 -0.462	  0.344	  0.381	  1.879	 -9.644	  0.232	  0.022	 -0.038	 33.200	 100.112	 -1.261
19112	 -0.342	 -0.462	  0.350	  0.129	  0.861	 -9.941	  0.385	 -0.113	  0.102	 33.100	 100.112	 -1.261
19162	 -0.343	 -0.453	  0.357	  1.002	  1.232	 -7.376	  0.006	 -0.214	 -0.257	 33.200	 100.100	 -0.181
19212	 -0.338	 -0.460	  0.364	  0.004	  0.281	 -9.120	  0.287	 -0.360	 -0.252	 33.200	 100.100	 -0.181
19262	 -0.317	 -0.461	  0.381	 -0.178	  0.859	 -9.622	  0.279	 -0.767	 -0.603	 33.100	 100.108	 -0.900
19312	 -0.293	 -0.463	  0.394	 -0.153	  1.520	 -11.059	  0.070	 -0.594	 -0.600	 33.200	 100.112	 -1.261
19362	 -0.283	 -0.463	  0.393	 -0.347	  0.917	 -10.383	  0.013	  0.240	 -0.070	 33.200	 100.100	 -0.181
19412	 -0.288	 -0.468	  0.392	 -0.315	  0.369	 -9.171	 -0.065	  0.113	 -0.303	 33.200	 100.100	 -0.181
19462	 -0.283	 -0.477	  0.383	 -0.414	  1.238	 -11.068	  0.106	 -0.286	 -0.080	 33.200	 100.100	 -0.181
19512	 -0.275	 -0.470	  0.397	 -0.456	  0.866	 -10.036	  0.297	 -0.221	  0.053	 33.200	 100.100	 -0.181
19562	 -0.274	 -0.465	  0.397	 -0.837	  0.361	 -9.757	 -0.001	  0.026	  0.109	 33.200	 100.100	 -0.181
19612	 -0.278	 -0.471	  0.386	 -1.074	  0.496	 -9.458	 -0.099	  0.113	 -0.010	 33.200	 100.100	 -0.181
19662	 -0.278	 -0.471	  0.397	 -0.793	  0.784	 -9.638	 -0.071	  0.113	 -0.083	 33.200	 100.100	 -0.181
19712	 -0.279	 -0.463	  0.395	 -0.508	  0.759	 -9.711	  0.014	  0.081	 -0.112	 33.200	 100.100	 -0.181
19762	 -0.276	 -0.472	  0.392	 -0.322	  0.297	 -9.763	  0.196	  0.026	 -0.177	 33.200	 100.112	 -1.261
19812	 -0.269	 -0.472	  0.403	 -0.569	  0.583	 -10.112	  0.201	  0.252	 -0.415	 33.200	 100.100	 -0.181
19862	 -0.270	 -0.470	  0.404	 -0.471	  0.541	 -8.979	  0.136	  0.025	  0.018	 33.200	 100.100	 -0.181
19912	 -0.262	 -0.463	  0.408	 -0.681	  0.586	 -10.441	 -0.135	 -0.014	 -0.032	 33.200	 100.100	 -0.181
19962	 -0.269	 -0.471	  0.402	  0.053	 -0.190	 -10.375	 -0.144	  0.395	 -0.073	 33.200	 100.089	  0.808
20012	 -0.272	 -0.475	  0.391	 -0.259	  0.899	 -9.283	 -0.147	  0.868	 -0.429	 33.200	 100.100	 -0.181
20062	 -0.278	 -0.483	  0.388	  0.047	  0.952	 -8.742	 -0.071	  0.465	 -0.283	 33.200	 100.100	 -0.181
20112	 -0.272	 -0.484	  0.385	  0.588	  1.236	 -9.141	 -0.087	 -0.196	 -0.147	 33.200	 100.100	 -0.181
20162	 -0.270	 -0.487	  0.385	  0.509	  0.453	 -10.862	 -0.010	  0.058	 -0.098	 33.200	 100.100	 -0.181
20212	 -0.275	 -0.487	  0.383	  0.145	  0.707	 -9.499	 -0.003	  0.271	 -0.051	 33.200	 100.100	 -0.181
20262	 -0.278	 -0.486	  0.381	  0.366	  0.762	 -9.992	 -0.036	  0.333	 -0.144	 33.200	 100.112	 -1.261
20312	 -0.281	 -0.489	  0.377	  0.590	  0.604	 -9.493	 -0.098	  0.415	 -0.237	 33.200	 100.112	 -1.261
20362	 -0.280	 -0.492	  0.371	  1.146	  0.945	 -10.065	 -0.030	  0.244	 -0.159	 33.100	 100.096	  0.178
20412	 -0.282	 -0.492	  0.372	  0.345	  0.883	 -8.147	  0.016	  0.308	 -0.062	 33.100	 100.096	  0.178
20462	 -0.285	 -0.493	  0.369	  1.450	  1.339	 -8.626	  0.064	  0.116	 -0.160	 33.200	 100.089	  0.808
20512	 -0.282	 -0.495	  0.368	  1.063	  1.450	 -9.421	  0.024	 -0.200	 -0.096	 33.200	 100.100	 -0.181
20562	 -0.277	 -0.496	  0.371	  0.888	  0.546	 -11.556	 -0.158	 -0.192	  0.090	 33.200	 100.112	 -1.261
20613	 -0.283	 -0.499	  0.368	  0.801	  0.698	 -9.033	 -0.051	  0.322	 -0.033	 33.200	 100.093	  0.448
20662	 -0.289	 -0.498	  0.366	  0.853	 -0.075	 -10.235	 -0.013	  0.316	  0.067	 33.100	 100.096	  0.178
20713	 -0.287	 -0.500	  0.362	  1.449	  0.967	 -9.515	 -0.030	  0.217	 -0.293	 33.200	 100.100	 -0.181
20762	 -0.288	 -0.507	  0.356	  1.399	  0.653	 -8.912	  0.043	 -0.162	  0.050	 33.200	 100.089	  0.808
20812	 -0.281	 -0.489	  0.364	  1.059	  0.883	 -9.313	  0.048	 -0.394	 -0.119	 33.200	 100.112	 -1.261
20862	 -0.275	 -0.506	  0.370	  1.025	  0.056	 -11.150	 -0.032	 -0.280	 -0.023	 33.200	 100.112	 -1.261
20912	 -0.269	 -0.501	  0.373	  0.883	  1.397	 -9.282	  0.423	 -0.115	 -0.202	 33.200	 100.100	 -0.181
20963	 -0.262	 -0.495	  0.380	  0.564	  0.264	 -10.833	  0.277	 -0.157	 -0.069	 33.200	 100.100	 -0.181
21013	 -0.249	 -0.488	  0.397	 -2.237	  2.267	  2.362	 -0.501	 -4.030	  1.623	 33.200	 100.112	 -1.261
21063	 -0.242	 -0.459	  0.420	  1.078	 -3.787	 -6.146	 -0.087	  0.009	  0.077	 33.200	 100.100	 -0.181
21113	 -0.225	 -0.439	  0.425	 -1.626	 -0.504	 -10.696	 -0.414	  0.335	 -0.053	 33.100	 100.105	 -0.631
21163	 -0.231	 -0.445	  0.409	 -0.479	  0.254	 -9.605	 -0.021	  0.073	  0.124	 33.200	 100.100	 -0.181
21213	 -0.236	 -0.450	  0.413	 -0.552	 -0.146	 -10.334	  0.273	  0.007	  0.114	 33.200	 100.100	 -0.181
21263	 -0.243	 -0.453	  0.420	 -0.009	  0.282	 -9.713	  0.035	 -0.044	  0.019	 33.200	 100.089	  0.808
21313	 -0.252	 -0.467	  0.433	 -0.228	 -0.071	 -9.727	 -0.080	  0.051	  0.078	 33.200	 100.100	 -0.181
21363	 -0.273	 -0.484	  0.404	 -0.213	  0.240	 -9.691	 -0.085	 -0.027	 -0.038	 33.100	 100.096	  0.178
21413	 -0.280	 -0.475	  0.393	 -0.854	 -0.021	 -9.873	 -0.095	  0.035	  0.088	 33.200	 100.100	 -0.181
21463	 -0.290	 -0.483	  0.418	 -1.136	  1.085	 -9.361	 -0.048	  0.019	 -0.066	 33.200	 100.100	 -0.181
21513	 -0.276	 -0.485	  0.414	 -0.017	  0.255	 -9.935	 -0.125	  0.003	  0.051	 33.100	 100.100	 -0.181
21563	 -0.271	 -0.482	  0.418	 -0.241	 -0.305	 -11.332	 -0.284	  0.055	 -0.027	 33.200	 100.100	 -0.181
21613	 -0.275	 -0.490	  0.406	 -0.469	  1.191	 -8.712	  0.484	 -0.117	 -0.000	 33.200	 100.100	 -0.181
21663	 -0.273	 -0.481	  0.419	  0.025	  0.073	 -9.872	  0.422	 -0.161	  0.075	 33.200	 100.100	 -0.181
21713	 -0.272	 -0.479	  0.424	 -0.109	 -0.805	 -10.806	 -0.347	  0.291	 -0.112	 33.200	 100.112	 -1.261
21763	 -0.275	 -0.490	  0.405	 -0.545	  1.899	 -8.944	 -0.277	  0.387	 -0.125	 33.200	 100.100	 -0.181
21813	 -0.276	 -0.498	  0.408	 -0.316	  0.003	 -11.741	 -0.042	  0.174	 -0.158	 33.200	 100.100	 -0.181
21863	 -0.284	 -0.501	  0.406	  0.119	 -0.531	 -11.050	  0.116	  0.463	 -0.225	 33.200	 100.089	  0.808
21913	 -0.301	 -0.505	  0.400	 -0.875	  0.990	 -8.188	  0.476	  0.959	 -0.295	 33.200	 100.100	 -0.181
21963	 -0.266	 -0.477	  0.436	  1.799	  3.038	 -26.042	  2.617	 -1.620	  0.722	 33.200	 100.078	  1.797
22013	 -0.268	 -0.477	  0.433	 -0.195	  0.118	 -9.276	  0.190	 -0.183	 -0.010	 33.200	 100.089	  0.808
22063	 -0.266	 -0.470	  0.431	 -0.389	 -0.212	 -10.098	 -0.057	  0.016	  0.030	 33.200	 100.100	 -0.181
22113	 -0.271	 -0.480	  0.421	 -0.338	  0.346	 -9.740	 -0.047	  0.110	  0.029	 33.200	 100.089	  0.808
22163	 -0.274	 -0.467	  0.425	 -0.807	 -0.056	 -9.888	 -0.084	  0.057	  0.070	 33.200	 100.100	 -0.181
22213	 -0.277	 -0.477	  0.425	 -0.269	 -0.015	 -9.703	 -0.139	  0.096	  0.120	 33.200	 100.100	 -0.181
22263	 -0.281	 -0.477	  0.425	 -0.129	  0.127	 -9.708	  0.125	 -0.066	 -0.025	 33.200	 100.100	 -0.181
22313	 -0.279	 -0.474	  0.427	 -0.221	 -0.157	 -9.848	 -0.046	  0.037	  0.018	 33.200	 100.100	 -0.181
22363	 -0.279	 -0.480	  0.426	 -0.268	  0.322	 -9.688	 -0.012	  0.018	 -0.020	 33.200	 100.112	 -1.261
22413	 -0.280	 -0.478	  0.424	 -0.253	  0.311	 -9.770	 -0.062	  0.036	 -0.023	 33.200	 100.100	 -0.181
22463	 -0.280	 -0.478	  0.426	 -0.707	  0.697	 -9.447	  0.054	 -0.037	  0.072	 33.200	 100.089	  0.808
22513	 -0.279	 -0.478	  0.421	  0.851	 -1.762	 -10.482	 -0.119	  0.074	 -0.116	 33.200	 100.112	 -1.261
22563	 -0.278	 -0.496	  0.406	 -0.076	  0.523	 -8.167	 -0.077	  0.145	 -0.511	 33.200	 100.089	  0.808
22613	 -0.263	 -0.491	  0.411	 -0.540	  0.453	 -9.623	  0.151	 -0.033	 -0.462	 33.200	 100.100	 -0.181
22663	 -0.258	 -0.498	  0.405	  0.263	  0.366	 -9.453	 -0.085	  0.047	 -0.117	 33.200	 100.089	  0.808
22713	 -0.255	 -0.502	  0.403	 -0.208	  0.075	 -9.578	 -0.366	  0.191	 -0.119	 33.200	 100.089	  0.808
22762	 -0.245	 -0.505	  0.393	  0.315	  1.475	 -8.908	  0.207	 -0.100	 -0.531	 33.200	 100.100	 -0.181
22812	 -0.238	 -0.499	  0.403	 -0.184	 -0.056	 -9.693	  0.075	 -0.026	 -0.154	 33.200	 100.100	 -0.181
22862	 -0.233	 -0.503	  0.404	 -0.367	  1.688	 -9.604	  0.084	 -0.040	 -0.233	 33.200	 100.100	 -0.181
22913	 -0.234	 -0.506	  0.404	  0.081	  0.703	 -9.286	 -0.070	  0.033	  0.082	 33.200	 100.100	 -0.181
22962	 -0.238	 -0.487	  0.423	 -1.414	 11.228	 -13.085	  1.714	 -0.982	  2.213	 33.200	 100.093	  0.448
23012	 -0.283	 -0.460	  0.438	  0.110	 -5.655	 -9.649	  0.657	 -0.209	  0.923	 33.200	 100.100	 -0.181
23062	 -0.295	 -0.454	  0.438	 -0.350	 -2.309	 -10.518	 -0.748	  0.223	 -0.118	 33.200	 100.089	  0.808
23112	 -0.285	 -0.462	  0.430	 -1.249	  2.603	 -10.039	 -0.174	  0.034	 -0.152	 33.200	 100.100	 -0.181
23162	 -0.293	 -0.472	  0.426	 -0.663	 -0.993	 -11.730	 -0.778	  0.414	  0.074	 33.200	 100.089	  0.808
23212	 -0.303	 -0.505	  0.395	 -0.230	  0.721	 -7.902	 -0.507	  0.090	 -0.271	 33.200	 100.105	 -0.631
23263	 -0.306	 -0.504	  0.396	 -1.200	  1.293	 -8.034	 -0.452	 -0.809	  0.838	 33.200	 100.089	  0.808
23313	 -0.307	 -0.482	  0.402	  0.509	 -0.074	 -14.483	 -0.472	 -0.304	  1.109	 33.200	 100.100	 -0.181
23363	 -0.316	 -0.477	  0.400	 -1.157	  1.621	 -9.443	  0.456	  0.909	 -0.236	 33.200	 100.100	 -0.181
23413	 -0.331	 -0.494	  0.398	 -1.077	  1.399	 -9.012	  0.175	  0.168	 -0.293	 33.200	 100.089	  0.808
23463	 -0.324	 -0.488	  0.403	 -0.735	 -1.168	 -8.825	  0.262	  0.294	 -0.220	 33.200	 100.089	  0.808
23513	 -0.326	 -0.486	  0.408	  0.301	 -0.238	 -10.047	  0.056	  0.110	 -0.070	 33.200	 100.100	 -0.181
23563	 -0.327	 -0.477	  0.406	 -0.059	  0.365	 -9.603	 -0.045	 -0.052	  0.141	 33.200	 100.100	 -0.181
23613	 -0.333	 -0.479	  0.410	 -0.507	  0.500	 -9.898	  0.013	  0.028	  0.161	 33.200	 100.089	  0.808
23663	 -0.344	 -0.475	  0.406	  0.586	  0.262	 -9.735	  0.147	  0.231	  0.207	 33.200	 100.089	  0.808
23713	 -0.354	 -0.469	  0.409	  0.554	  0.747	 -8.871	  0.452	  0.231	  0.047	 33.200	 100.100	 -0.181
23763	 -0.361	 -0.458	  0.415	 -0.560	 -1.504	 -11.841	  0.013	 -0.016	 -0.019	 33.200	 100.089	  0.808
23813	 -0.361	 -0.458	  0.414	  0.215	  0.156	 -9.506	 -0.001	  0.006	 -0.000	 33.200	 100.100	 -0.181
23863	 -0.358	 -0.451	  0.410	  0.192	  0.019	 -9.784	  0.000	 -0.001	  0.002	 33.200	 100.100	 -0.181
23913	 -0.358	 -0.458	  0.411	  0.184	  0.049	 -9.795	 -0.003	  0.001	  0.001	 33.200	 100.100	 -0.181
23963	 -0.361	 -0.451	  0.415	  0.204	  0.054	 -9.773	 -0.003	  0.002	  0.001	 33.200	 100.089	  0.808
24013	 -0.359	 -0.456	  0.410	  0.193	  0.053	 -9.738	 -0.004	  0.002	  0.001	 33.200	 100.100	 -0.181
24063	 -0.358	 -0.462	  0.405	  0.210	  0.031	 -9.761	 -0.002	  0.002	  0.001	 33.200	 100.100	 -0.181
24112	 -0.357	 -0.459	  0.407	  0.185	 -0.000	 -9.723	 -0.004	  0.003	  0.002	 33.200	 100.089	  0.808
24162	 -0.360	 -0.460	  0.408	  0.198	  0.039	 -9.755	 -0.002	  0.002	  0.001	 33.200	 100.100	 -0.181
24212	 -0.360	 -0.457	  0.411	  0.214	  0.014	 -9.719	 -0.004	  0.003	  0.000	 33.200	 100.089	  0.808
24262	 -0.356	 -0.454	  0.410	  0.185	  0.017	 -9.776	 -0.003	  0.002	  0.001	 33.200	 100.100	 -0.181
24312	 -0.358	 -0.458	  0.411	  0.203	  0.026	 -9.764	 -0.003	  0.001	  0.000	 33.200	 100.100	 -0.181
24362	 -0.360	 -0.456	  0.406	  0.213	  0.024	 -9.752	 -0.003	  0.003	  0.001	 33.200	 100.100	 -0.181
24412	 -0.361	 -0.458	  0.408	  0.200	  0.035	 -9.728	 -0.003	  0.002	 -0.000	 33.200	 100.105	 -0.631
24462	 -0.359	 -0.458	  0.404	  0.200	  0.037	 -9.773	 -0.003	  0.003	  0.002	 33.200	 100.100	 -0.181
24512	 -0.359	 -0.461	  0.408	  0.192	  0.021	 -9.766	 -0.003	  0.003	  0.002	 33.200	 100.100	 -0.181
24562	 -0.362	 -0.456	  0.407	  0.198	  0.033	 -9.735	 -0.002	  0.003	 -0.000	 33.200	 100.089	  0.808
24612	 -0.362	 -0.448	  0.410	  0.201	  0.041	 -9.749	 -0.002	  0.002	  0.000	 33.200	 100.100	 -0.181
24662	 -0.358	 -0.453	  0.408	  0.203	  0.050	 -9.777	 -0.002	  0.003	  0.001	 33.200	 100.105	 -0.631
24712	 -0.358	 -0.456	  0.402	  0.195	  0.026	 -9.740	 -0.003	  0.002	 -0.000	 33.200	 100.089	  0.808
24762	 -0.359	 -0.458	  0.412	  0.224	  0.023	 -9.768	 -0.004	  0.002	  0.001	 33.200	 100.100	 -0.181
24812	 -0.358	 -0.455	  0.406	  0.207	  0.026	 -9.778	 -0.003	  0.002	  0.001	 33.200	 100.100	 -0.181
24862	 -0.361	 -0.455	  0.407	  0.209	  0.043	 -9.784	 -0.002	  0.002	  0.001	 33.200	 100.089	  0.808
24912	 -0.360	 -0.441	  0.409	  0.227	  0.043	 -9.780	 -0.005	  0.002	  0.000	 33.200	 100.105	 -0.631
24962	 -0.358	 -0.454	  0.403	  0.201	  0.049	 -9.770	 -0.002	  0.002	  0.000	 33.200	 100.089	  0.808
25012	 -0.360	 -0.452	  0.405	  0.194	  0.021	 -9.751	 -0.003	  0.004	  0.001	 33.200	 100.100	 -0.181
25062	 -0.359	 -0.439	  0.407	  0.209	  0.039	 -9.759	 -0.004	  0.004	  0.000	 33.200	 100.100	 -0.181
25112	 -0.360	 -0.452	  0.399	  0.196	  0.038	 -9.732	 -0.003	  0.002	  0.002	 33.200	 100.093	  0.448
25162	 -0.356	 -0.435	  0.405	  0.178	  0.040	 -9.772	 -0.003	  0.003	  0.000	 33.200	 100.112	 -1.261
25212	 -0.360	 -0.454	  0.408	  0.196	  0.026	 -9.742	 -0.003	  0.002	  0.001	 33.200	 100.100	 -0.181
25262	 -0.359	 -0.448	  0.401	  0.194	  0.049	 -9.737	 -0.003	  0.003	  0.000	 33.200	 100.100	 -0.181
25312	 -0.357	 -0.453	  0.405	  0.189	  0.015	 -9.785	 -0.002	  0.004	  0.002	 33.200	 100.096	  0.178
25362	 -0.355	 -0.451	  0.405	  0.194	  0.028	 -9.781	 -0.003	  0.002	  0.000	 33.200	 100.105	 -0.631
25412	 -0.359	 -0.453	  0.405	  0.273	 -0.004	 -9.674	 -0.006	  0.008	  0.002	 33.200	 100.112	 -1.261
25462	 -0.357	 -0.448	  0.411	  0.201	  0.080	 -9.737	 -0.002	  0.001	 -0.001	 33.200	 100.100	 -0.181
25512	 -0.360	 -0.449	  0.416	  0.205	  0.098	 -9.622	  0.006	 -0.003	  0.001	 33.200	 100.112	 -1.261
25562	 -0.352	 -0.439	  0.414	  0.185	 -0.077	 -9.964	 -0.009	  0.002	  0.001	 33.200	 100.089	  0.808
25612	 -0.340	 -0.427	  0.400	  0.210	  0.082	 -9.688	 -0.000	  0.001	  0.002	 33.200	 100.089	  0.808
25662	 -0.328	 -0.428	  0.389	  0.197	  0.001	 -9.790	 -0.004	  0.001	  0.001	 33.200	 100.112	 -1.261
25712	 -0.318	 -0.422	  0.386	  0.185	  0.036	 -9.766	 -0.002	  0.003	  0.001	 33.200	 100.100	 -0.181
25762	 -0.314	 -0.422	  0.383	  0.194	  0.029	 -9.780	 -0.004	  0.002	  0.001	 33.200	 100.078	  1.797
25812	 -0.313	 -0.417	  0.380	  0.202	  0.031	 -9.748	 -0.003	  0.003	  0.001	 33.200	 100.089	  0.808
25862	 -0.312	 -0.418	  0.385	  0.191	  0.041	 -9.764	 -0.003	  0.002	  0.000	 33.200	 100.100	 -0.181
25912	 -0.308	 -0.415	  0.384	  0.191	  0.033	 -9.760	 -0.003	  0.003	  0.001	 33.200	 100.089	  0.808
25962	 -0.309	 -0.418	  0.383	  0.210	  0.030	 -9.772	 -0.002	  0.002	  0.000	 33.200	 100.100	 -0.181
26012	 -0.308	 -0.416	  0.388	  0.217	  0.045	 -9.807	 -0.002	  0.003	  0.002	 33.200	 100.089	  0.808
26062	 -0.309	 -0.413	  0.380	  0.186	  0.039	 -9.758	 -0.003	  0.002	  0.000	 33.200	 100.112	 -1.261
26112	 -0.311	 -0.409	  0.383	  0.196	  0.018	 -9.761	 -0.004	  0.003	  0.000	 33.200	 100.089	  0.808
26162	 -0.308	 -0.419	  0.373	  0.194	  0.038	 -9.778	 -0.003	  0.002	  0.001	 33.200	 100.100	 -0.181
26212	 -0.308	 -0.418	  0.386	  0.189	  0.066	 -9.772	 -0.004	  0.003	  0.000	 33.200	 100.100	 -0.181
26262	 -0.308	 -0.411	  0.383	  0.195	  0.020	 -9.760	 -0.004	  0.002	  0.001	 33.200	 100.100	 -0.181
26312	 -0.309	 -0.414	  0.381	  0.191	  0.027	 -9.786	 -0.002	  0.001	  0.000	 33.200	 100.100	 -0.181
26362	 -0.310	 -0.415	  0.381	  0.209	  0.033	 -9.746	 -0.004	  0.004	 -0.000	 33.200	 100.089	  0.808
26412	 -0.308	 -0.411	  0.385	  0.202	  0.039	 -9.749	 -0.002	  0.004	  0.001	 33.200	 100.100	 -0.181
26462	 -0.307	 -0.415	  0.382	  0.199	  0.041	 -9.769	 -0.003	  0.003	  0.001	 33.200	 100.100	 -0.181
26512	 -0.308	 -0.417	  0.383	  0.201	  0.073	 -9.744	 -0.002	  0.002	  0.002	 33.200	 100.100	 -0.181
26562	 -0.308	 -0.408	  0.383	  0.178	  0.023	 -9.734	 -0.003	  0.003	  0.000	 33.200	 100.100	 -0.181
26613	 -0.312	 -0.417	  0.384	  0.208	  0.018	 -9.760	 -0.004	  0.002	  0.001	 33.200	 100.100	 -0.181
26662	 -0.310	 -0.424	  0.383	  0.202	  0.024	 -9.747	 -0.003	  0.003	  0.001	 33.200	 100.100	 -0.181
26713	 -0.308	 -0.416	  0.381	  0.214	  0.036	 -9.764	 -0.004	  0.003	  0.001	 33.200	 100.100	 -0.181
26763	 -0.309	 -0.417	  0.387	  0.213	  0.027	 -9.760	 -0.003	  0.004	  0.000	 33.200	 100.100	 -0.181
26813	 -0.308	 -0.417	  0.386	  0.206	  0.038	 -9.755	 -0.003	  0.002	 -0.000	 33.200	 100.089	  0.808
26863	 -0.308	 -0.408	  0.387	  0.219	  0.034	 -9.752	 -0.004	  0.002	  0.000	 33.200	 100.100	 -0.181
26913	 -0.310	 -0.416	  0.379	  0.201	  0.045	 -9.747	 -0.004	  0.003	  0.001	 33.200	 100.116	 -1.621
26963	 -0.309	 -0.416	  0.382	  0.185	  0.019	 -9.741	 -0.002	  0.003	  0.000	 33.200	 100.100	 -0.181
27013	 -0.310	 -0.419	  0.375	  0.187	  0.028	 -9.768	 -0.002	  0.003	  0.000	 33.200	 100.100	 -0.181
27063	 -0.310	 -0.421	  0.381	  0.197	  0.025	 -9.799	 -0.004	  0.002	  0.001	 33.200	 100.100	 -0.181
27113	 -0.310	 -0.415	  0.385	  0.199	  0.019	 -9.787	 -0.003	  0.002	  0.001	 33.200	 100.100	 -0.181
27163	 -0.309	 -0.416	  0.382	  0.200	  0.027	 -9.728	 -0.003	  0.003	  0.001	 33.200	 100.089	  0.808
27213	 -0.307	 -0.416	  0.381	  0.184	  0.027	 -9.776	  0.003	 -0.000	  0.002	 33.200	 100.100	 -0.181
27263	 -0.309	 -0.415	  0.385	  0.197	  0.041	 -9.783	  0.002	  0.001	  0.007	 33.200	 100.089	  0.808
27313	 -0.309	 -0.421	  0.383	  0.197	  0.130	 -9.772	  0.004	 -0.000	  0.028	 33.200	 100.100	 -0.181
29862	 -0.269	 -0.206	  0.231	  4.453	  1.809	 -10.048	  0.429	  0.864	  0.331	 33.200	 100.105	 -0.631
29912	 -0.285	 -0.204	  0.229	  4.797	  2.512	 -8.834	  0.260	  0.509	  0.201	 33.200	 100.100	 -0.181
29962	 -0.291	 -0.200	  0.225	  4.686	  2.169	 -8.561	  0.353	  0.057	 -0.033	 33.200	 100.105	 -0.631
30012	 -0.289	 -0.202	  0.226	  3.649	  1.841	 -7.739	  0.253	  0.355	 -0.145	 33.200	 100.100	 -0.181
30062	 -0.299	 -0.202	  0.224	  3.642	  1.680	 -7.373	  0.061	  0.542	  0.021	 33.200	 100.089	  0.808
30112	 -0.307	 -0.207	  0.217	  4.227	  1.611	 -6.661	  0.144	  0.721	  0.055	 33.200	 100.112	 -1.261
30162	 -0.315	 -0.206	  0.207	  3.470	  2.278	 -6.900	 -0.098	  0.759	 -0.013	 33.200	 100.089	  0.808
30212	 -0.327	 -0.210	  0.204	  5.175	  2.776	 -5.576	  0.436	  0.313	  0.246	 33.200	 100.100	 -0.181
30262	 -0.327	 -0.206	  0.212	  5.447	  1.867	 -8.133	  0.661	 -0.189	 -0.552	 33.200	 100.112	 -1.261
30312	 -0.317	 -0.209	  0.216	  3.873	  2.192	 -9.442	  0.537	 -0.292	 -0.639	 33.200	 100.100	 -0.181
30362	 -0.317	 -0.208	  0.221	  4.653	  1.389	 -9.150	  0.899	  0.346	 -0.324	 33.200	 100.100	 -0.181
30412	 -0.316	 -0.200	  0.222	  7.587	 -0.574	 -11.368	  1.086	  0.105	 -0.331	 33.200	 100.112	 -1.261
30462	 -0.317	 -0.197	  0.240	  4.892	 -0.387	 -9.408	  0.793	 -0.141	 -0.359	 33.200	 100.089	  0.808
30512	 -0.310	 -0.193	  0.245	  4.370	  0.421	 -7.322	  0.384	 -0.521	 -0.712	 33.200	 100.105	 -0.631
30562	 -0.297	 -0.199	  0.256	  3.827	  0.336	 -7.096	  0.309	 -0.499	 -0.611	 33.200	 100.100	 -0.181
30612	 -0.297	 -0.204	  0.260	  3.248	  1.418	 -7.340	  0.227	  0.311	 -0.282	 33.200	 100.105	 -0.631
30662	 -0.300	 -0.209	  0.252	  4.531	  0.770	 -6.865	 -0.176	  0.273	 -0.216	 33.200	 100.100	 -0.181
30712	 -0.300	 -0.210	  0.250	  4.403	  0.824	 -7.520	 -0.350	 -0.134	 -0.262	 33.200	 100.112	 -1.261
30762	 -0.298	 -0.222	  0.246	  4.515	  1.035	 -8.396	 -0.124	  0.147	  0.204	 33.200	 100.089	  0.808
30812	 -0.309	 -0.213	  0.240	  4.823	  1.415	 -8.898	  0.097	  0.430	  0.515	 33.200	 100.112	 -1.261
30862	 -0.319	 -0.205	  0.236	  5.510	  1.375	 -9.166	  0.033	  0.365	  0.738	 33.200	 100.100	 -0.181
30912	 -0.327	 -0.187	  0.231	  6.033	  1.798	 -10.336	 -0.344	  0.015	  0.662	 33.200	 100.089	  0.808
30962	 -0.333	 -0.193	  0.226	  5.414	  1.439	 -9.824	 -0.460	 -0.055	  0.521	 33.200	 100.100	 -0.181
31012	 -0.331	 -0.189	  0.229	  4.866	  1.478	 -9.559	  0.117	 -0.374	  0.447	 33.200	 100.112	 -1.261
31062	 -0.326	 -0.177	  0.235	  4.394	  0.890	 -9.195	  0.123	 -0.364	  0.500	 33.200	 100.112	 -1.261
31112	 -0.329	 -0.177	  0.238	  3.955	  0.871	 -8.664	 -0.180	 -0.225	  0.354	 33.200	 100.100	 -0.181
31161	 -0.324	 -0.167	  0.243	  4.296	  0.322	 -7.608	 -0.400	 -0.340	  0.114	 33.200	 100.100	 -0.181
31211	 -0.320	 -0.179	  0.240	  2.972	  1.123	 -6.924	 -0.250	 -0.085	  0.027	 33.200	 100.100	 -0.181
31261	 -0.322	 -0.174	  0.242	  4.036	  0.727	 -7.094	  0.185	  0.285	  0.494	 33.200	 100.100	 -0.181
31311	 -0.328	 -0.167	  0.241	  4.840	  1.301	 -7.867	  0.461	  0.417	  0.282	 33.200	 100.105	 -0.631
31361	 -0.334	 -0.150	  0.236	  5.254	  0.003	 -7.750	  0.551	  0.048	  0.176	 33.200	 100.100	 -0.181
31411	 -0.333	 -0.140	  0.231	  5.491	  0.136	 -8.146	  0.729	  0.241	  0.029	 33.200	 100.089	  0.808
31461	 -0.340	 -0.132	  0.240	  5.623	 -0.512	 -8.816	  0.837	  0.393	 -0.136	 33.200	 100.100	 -0.181
31511	 -0.336	 -0.124	  0.241	  5.511	 -0.221	 -9.515	  0.486	 -0.145	 -0.395	 33.200	 100.105	 -0.631
31561	 -0.336	 -0.127	  0.244	  5.311	 -0.605	 -9.661	  0.296	  0.362	 -0.425	 33.200	 100.089	  0.808
31611	 -0.336	 -0.117	  0.248	  5.880	 -0.718	 -10.210	  0.264	 -0.098	 -0.667	 33.200	 100.100	 -0.181
31661	 -0.324	 -0.133	  0.256	  5.102	 -1.532	 -9.810	  0.194	 -0.369	 -0.860	 33.200	 100.100	 -0.181
31711	 -0.315	 -0.142	  0.263	  3.813	 -1.357	 -10.127	  0.548	 -0.198	 -0.885	 33.200	 100.100	 -0.181
31761	 -0.311	 -0.150	  0.273	  4.264	 -2.434	 -8.743	 -0.214	  0.113	 -0.701	 33.200	 100.100	 -0.181
31811	 -0.311	 -0.172	  0.275	  3.988	 -0.948	 -7.304	 -0.603	  0.239	 -0.960	 33.200	 100.089	  0.808
31861	 -0.308	 -0.185	  0.275	  4.049	 -0.191	 -6.760	 -0.502	  0.150	 -0.737	 33.200	 100.100	 -0.181
31911	 -0.308	 -0.206	  0.275	  4.048	  0.061	 -6.281	 -0.205	  0.367	 -0.673	 33.200	 100.105	 -0.631
31961	 -0.312	 -0.214	  0.281	  4.060	  0.272	 -6.387	  0.055	  0.315	 -0.596	 33.200	 100.100	 -0.181
32011	 -0.316	 -0.223	  0.294	  4.935	 -0.041	 -7.268	 -0.015	  0.233	 -0.440	 33.200	 100.089	  0.808
32061	 -0.320	 -0.230	  0.289	  4.905	  0.091	 -7.594	 -0.456	  0.143	 -0.532	 33.200	 100.105	 -0.631
32111	 -0.327	 -0.245	  0.310	  4.703	  0.694	 -8.241	 -0.503	 -0.095	 -0.492	 33.200	 100.100	 -0.181
32161	 -0.333	 -0.252	  0.326	  4.834	  2.280	 -8.339	  0.038	  0.169	 -0.374	 33.200	 100.100	 -0.181
32211	 -0.356	 -0.240	  0.341	  4.922	  1.480	 -8.817	  0.276	  0.499	 -0.141	 33.200	 100.100	 -0.181
32261	 -0.386	 -0.244	  0.348	  3.419	  1.649	 -9.064	  0.252	  0.523	 -0.529	 33.200	 100.100	 -0.181
32311	 -0.418	 -0.234	  0.356	  3.825	  2.123	 -8.675	  0.003	  0.091	 -0.185	 33.100	 100.096	  0.178
32361	 -0.429	 -0.232	  0.376	  4.718	  2.383	 -9.541	 -0.333	 -1.475	 -0.342	 33.200	 100.100	 -0.181
32412	 -0.427	 -0.226	  0.403	  2.740	  2.884	 -8.786	  0.684	 -0.364	 -0.523	 33.200	 100.112	 -1.261
32461	 -0.443	 -0.194	  0.421	  3.291	  2.284	 -9.493	  1.239	 -0.197	 -0.221	 33.200	 100.089	  0.808
32512	 -0.456	 -0.152	  0.435	  3.429	  1.437	 -9.587	  1.378	 -0.298	 -0.054	 33.200	 100.100	 -0.181
32561	 -0.463	 -0.112	  0.439	  3.653	  0.637	 -8.783	  1.003	 -0.299	 -0.031	 33.200	 100.105	 -0.631
32612	 -0.467	 -0.076	  0.456	  2.658	  0.168	 -8.019	  1.491	 -0.554	  0.143	 33.200	 100.100	 -0.181
32661	 -0.476	 -0.016	  0.463	  5.072	 -0.687	 -10.740	  1.821	  0.214	 -0.091	 33.200	 100.100	 -0.181
32712	 -0.503	  0.006	  0.444	  4.960	 -0.333	 -10.628	  0.088	  0.505	 -0.544	 33.200	 100.100	 -0.181
32762	 -0.521	 -0.001	  0.433	  5.267	 -0.933	 -9.020	 -0.325	  0.160	 -0.185	 33.200	 100.100	 -0.181
32812	 -0.522	  0.000	  0.432	  5.954	 -1.452	 -9.020	 -0.577	 -0.422	  0.015	 33.200	 100.100	 -0.181
32862	 -0.528	 -0.012	  0.432	  5.665	 -1.219	 -8.671	 -0.664	  0.221	 -0.852	 33.200	 100.089	  0.808
32912	 -0.548	 -0.033	  0.418	  2.979	 -0.111	 -7.112	 -0.706	  0.117	 -0.896	 33.200	 100.100	 -0.181
32962	 -0.565	 -0.065	  0.416	  1.559	 -0.392	 -6.610	 -0.452	  0.142	 -0.431	 33.100	 100.085	  1.168
33012	 -0.594	 -0.061	  0.400	  3.216	  1.271	 -7.060	  1.421	  1.234	  0.352	 33.200	 100.100	 -0.181
33062	 -0.631	 -0.000	  0.365	  2.699	  0.039	 -6.583	  3.272	  0.065	  0.890	 33.200	 100.100	 -0.181
33112	 -0.613	  0.094	  0.370	  4.154	 -1.813	 -5.194	  4.135	 -1.654	  1.776	 33.200	 100.089	  0.808
33162	 -0.579	  0.211	  0.373	  5.324	 -5.086	 -8.715	  3.728	 -1.676	  1.263	 33.200	 100.100	 -0.181
33212	 -0.557	  0.264	  0.380	  3.505	 -5.804	 -11.791	  2.288	 -2.171	  0.010	 33.100	 100.089	  0.808
33262	 -0.533	  0.265	  0.399	  3.218	 -5.422	 -9.345	 -0.752	 -0.536	  0.198	 33.200	 100.100	 -0.181
33312	 -0.540	  0.235	  0.409	  1.669	 -4.651	 -7.494	 -0.830	  0.397	 -0.127	 33.200	 100.089	  0.808
33362	 -0.554	  0.199	  0.399	  4.090	 -5.390	 -0.371	 -0.063	 -0.260	  0.227	 33.100	 100.096	  0.178
33412	 -0.545	  0.209	  0.394	  2.262	 -5.644	 -8.473	  0.806	 -0.533	  0.193	 33.200	 100.112	 -1.261
33462	 -0.548	  0.212	  0.379	 -0.129	 -5.158	 -7.226	  0.319	  0.039	  0.316	 33.200	 100.100	 -0.181
33512	 -0.562	  0.195	  0.353	  2.768	 -7.613	 -6.784	  0.221	  0.069	  0.655	 33.200	 100.112	 -1.261
33562	 -0.572	  0.209	  0.344	  0.553	 -6.144	 -4.739	  0.235	 -0.522	  0.595	 33.200	 100.100	 -0.181
33612	 -0.599	  0.185	  0.315	  1.673	 -6.370	 -6.368	  0.559	  0.707	  0.644	 33.200	 100.100	 -0.181
33662	 -0.614	  0.185	  0.303	  1.687	 -6.840	 -5.996	  0.688	 -0.697	  1.102	 33.200	 100.112	 -1.261
33712	 -0.615	  0.204	  0.318	  1.778	 -7.318	 -10.511	  0.799	 -0.523	  0.520	 33.200	 100.100	 -0.181
33762	 -0.633	  0.201	  0.334	  1.681	 -7.003	 -9.335	 -0.858	 -0.249	  0.751	 33.200	 100.112	 -1.261
33812	 -0.632	  0.188	  0.355	  1.357	 -6.238	 -8.360	 -0.820	 -0.534	  0.568	 33.200	 100.096	  0.178
33862	 -0.638	  0.169	  0.365	  0.934	 -5.901	 -8.181	 -0.691	 -0.419	 -0.253	 33.200	 100.100	 -0.181
33912	 -0.653	  0.132	  0.374	 -0.155	 -4.078	 -7.645	 -0.678	 -0.088	  0.114	 33.200	 100.123	 -2.250
33962	 -0.666	  0.104	  0.391	  0.478	 -7.154	 -7.883	 -0.497	 -0.744	 -0.040	 33.200	 100.100	 -0.181
34012	 -0.675	  0.082	  0.405	  0.562	 -6.797	 -9.156	 -0.640	  0.041	  0.117	 33.200	 100.100	 -0.181
34062	 -0.680	  0.055	  0.401	 -0.457	 -6.013	 -7.978	 -0.970	  0.033	  0.079	 33.200	 100.112	 -1.261
34112	 -0.681	  0.038	  0.404	 -0.367	 -4.938	 -8.572	 -0.530	  0.017	  0.345	 33.200	 100.089	  0.808
34162	 -0.684	  0.035	  0.405	 -0.509	 -4.946	 -8.864	 -0.604	  0.063	  0.249	 33.200	 100.112	 -1.261
34212	 -0.681	  0.039	  0.405	 -0.786	 -4.710	 -9.526	 -0.223	 -0.055	  0.003	 33.200	 100.100	 -0.181
34262	 -0.678	  0.007	  0.409	 -1.391	 -4.092	 -8.474	 -0.734	 -0.009	 -0.313	 33.200	 100.100	 -0.181
34312	 -0.682	 -0.009	  0.401	 -0.281	 -4.102	 -8.104	 -0.759	  0.255	 -0.051	 33.200	 100.096	  0.178
34362	 -0.691	 -0.032	  0.396	  0.190	 -4.073	 -9.495	 -1.216	  0.452	 -0.185	 33.200	 100.112	 -1.261
34412	 -0.693	 -0.054	  0.394	 -0.054	 -2.609	 -4.488	 -0.842	  0.094	  0.165	 33.200	 100.100	 -0.181
34462	 -0.691	 -0.064	  0.402	 -0.671	 -2.410	 -9.586	  0.140	 -0.086	 -0.040	 33.200	 100.112	 -1.261
34512	 -0.692	 -0.063	  0.398	  0.132	 -2.773	 -9.232	 -0.113	  0.066	  0.029	 33.200	 100.100	 -0.181
34562	 -0.691	 -0.065	  0.402	  0.074	 -2.767	 -9.275	  0.007	  0.066	 -0.015	 33.200	 100.089	  0.808
34612	 -0.692	 -0.065	  0.402	  0.211	 -2.793	 -9.321	  0.003	 -0.086	  0.003	 33.200	 100.100	 -0.181
34662	 -0.689	 -0.050	  0.405	  0.064	 -3.272	 -9.343	  0.042	 -0.172	 -0.036	 33.200	 100.112	 -1.261
34712	 -0.688	 -0.071	  0.407	  0.081	 -2.680	 -8.457	 -0.117	 -0.073	 -0.143	 33.100	 100.112	 -1.261
34762	 -0.684	 -0.071	  0.403	  0.125	 -2.908	 -10.358	 -0.104	 -0.227	  0.034	 33.200	 100.089	  0.808
34812	 -0.685	 -0.073	  0.404	  0.264	 -2.863	 -9.197	  0.041	 -0.010	 -0.038	 33.100	 100.112	 -1.261
34862	 -0.683	 -0.075	  0.405	 -0.153	 -2.890	 -9.237	 -0.013	  0.065	 -0.015	 33.200	 100.100	 -0.181
34912	 -0.685	 -0.077	  0.410	 -0.115	 -3.159	 -9.599	  0.059	 -0.028	  0.012	 33.200	 100.108	 -0.900
34962	 -0.686	 -0.074	  0.406	 -0.022	 -2.755	 -9.333	 -0.102	  0.109	  0.004	 33.200	 100.100	 -0.181
35012	 -0.686	 -0.066	  0.407	 -0.003	 -2.831	 -9.382	  0.018	  0.066	  0.004	 33.200	 100.105	 -0.631
35062	 -0.688	 -0.075	  0.401	 -0.000	 -2.913	 -9.595	  0.011	  0.087	 -0.009	 33.200	 100.100	 -0.181
35112	 -0.688	 -0.075	  0.403	  0.337	 -3.060	 -9.407	 -0.031	 -0.059	 -0.024	 33.200	 100.100	 -0.181
35162	 -0.687	 -0.079	  0.404	  0.164	 -2.955	 -9.440	  0.019	  0.034	 -0.013	 33.200	 100.100	 -0.181
35212	 -0.687	 -0.078	  0.400	  0.121	 -2.837	 -9.435	 -0.041	  0.053	 -0.022	 33.200	 100.100	 -0.181
35262	 -0.688	 -0.082	  0.403	  0.123	 -2.692	 -9.230	 -0.068	  0.091	  0.023	 33.200	 100.100	 -0.181
35312	 -0.686	 -0.082	  0.397	 -0.704	 -2.778	 -8.469	 -0.060	 -0.010	  0.001	 33.100	 100.100	 -0.181
35362	 -0.687	 -0.082	  0.399	  0.137	 -2.813	 -9.351	 -0.004	 -0.037	  0.002	 33.200	 100.100	 -0.181
35412	 -0.684	 -0.078	  0.401	  0.082	 -2.831	 -9.486	 -0.024	 -0.007	 -0.006	 33.200	 100.112	 -1.261
35462	 -0.687	 -0.078	  0.397	  0.051	 -2.757	 -9.321	  0.013	  0.020	  0.005	 33.100	 100.108	 -0.900
35512	 -0.688	 -0.079	  0.396	  0.110	 -2.775	 -9.381	 -0.019	 -0.002	 -0.002	 33.200	 100.100	 -0.181
35562	 -0.688	 -0.084	  0.404	 -0.050	 -2.626	 -9.491	  0.015	  0.013	  0.007	 33.200	 100.100	 -0.181
35612	 -0.688	 -0.080	  0.399	  0.150	 -2.835	 -9.434	  0.002	  0.009	 -0.001	 33.200	 100.100	 -0.181
35662	 -0.687	 -0.080	  0.398	  0.129	 -2.980	 -9.538	 -0.256	 -0.045	  0.052	 33.200	 100.112	 -1.261
35712	 -0.686	 -0.077	  0.402	 -0.165	 -2.410	 -9.095	  0.024	  0.042	  0.014	 33.200	 100.100	 -0.181
35762	 -0.684	 -0.082	  0.394	  0.180	 -2.813	 -9.491	 -0.007	  0.005	 -0.000	 33.200	 100.100	 -0.181
35812	 -0.685	 -0.084	  0.400	  0.130	 -2.760	 -9.322	 -0.015	 -0.006	 -0.002	 33.200	 100.100	 -0.181
35862	 -0.683	 -0.082	  0.401	 -0.040	 -2.543	 -9.470	 -0.014	 -0.015	 -0.001	 33.200	 100.112	 -1.261
35912	 -0.683	 -0.085	  0.405	 -0.055	 -2.579	 -9.384	  0.002	 -0.009	  0.008	 33.200	 100.112	 -1.261
35962	 -0.683	 -0.083	  0.404	  0.004	 -2.928	 -9.517	 -0.006	  0.004	 -0.005	 33.200	 100.112	 -1.261
36012	 -0.683	 -0.083	  0.406	  0.016	 -2.680	 -9.589	 -0.022	 -0.054	  0.002	 33.200	 100.100	 -0.181
36062	 -0.682	 -0.081	  0.408	  0.053	 -2.676	 -9.489	 -0.025	 -0.010	 -0.009	 33.200	 100.100	 -0.181
36112	 -0.683	 -0.088	  0.403	  0.096	 -2.644	 -9.588	  0.019	  0.017	  0.007	 33.200	 100.112	 -1.261
36162	 -0.682	 -0.085	  0.409	  0.026	 -2.642	 -9.536	 -0.073	 -0.102	 -0.018	 33.200	 100.112	 -1.261
36212	 -0.678	 -0.073	  0.412	 -0.042	 -2.419	 -8.891	 -0.140	  0.006	  0.051	 33.200	 100.112	 -1.261
36262	 -0.678	 -0.085	  0.403	 -0.015	 -2.739	 -10.303	 -0.256	 -0.078	  0.046	 33.200	 100.100	 -0.181
36312	 -0.675	 -0.088	  0.417	 -0.111	 -2.620	 -9.649	 -0.058	 -0.173	 -0.026	 33.200	 100.100	 -0.181
36362	 -0.670	 -0.091	  0.422	 -0.253	 -2.264	 -9.609	  0.090	 -0.091	  0.001	 33.100	 100.108	 -0.900
36412	 -0.673	 -0.088	  0.418	 -0.421	 -2.613	 -9.449	  0.044	 -0.034	  0.019	 33.100	 100.089	  0.808
36462	 -0.670	 -0.091	  0.419	  0.182	 -2.127	 -8.968	  0.132	  0.028	  0.005	 33.200	 100.100	 -0.181
36512	 -0.671	 -0.089	  0.423	 -0.318	 -2.576	 -9.443	 -0.001	 -0.043	 -0.001	 33.100	 100.123	 -2.250
36562	 -0.670	 -0.087	  0.425	 -0.389	 -2.499	 -9.490	  0.004	 -0.017	  0.004	 33.200	 100.100	 -0.181
36612	 -0.671	 -0.078	  0.426	 -0.274	 -2.596	 -9.427	  0.009	 -0.025	  0.004	 33.200	 100.100	 -0.181
36662	 -0.671	 -0.086	  0.429	 -0.315	 -2.586	 -9.381	  0.029	 -0.014	 -0.002	 33.100	 100.108	 -0.900
36711	 -0.671	 -0.087	  0.425	 -0.316	 -2.614	 -9.455	  0.055	 -0.019	 -0.020	 33.200	 100.112	 -1.261
36761	 -0.668	 -0.088	  0.426	 -0.456	 -2.645	 -9.431	 -0.024	 -0.018	  0.005	 33.200	 100.100	 -0.181
36811	 -0.668	 -0.089	  0.424	 -0.369	 -2.643	 -9.401	  0.018	 -0.029	  0.000	 33.100	 100.112	 -1.261
36861	 -0.669	 -0.082	  0.426	 -0.352	 -2.653	 -9.418	  0.004	 -0.006	  0.000	 33.200	 100.100	 -0.181
36911	 -0.668	 -0.091	  0.432	 -0.349	 -2.654	 -9.399	 -0.005	  0.000	  0.001	 33.200	 100.100	 -0.181
36961	 -0.668	 -0.086	  0.424	 -0.344	 -2.640	 -9.357	 -0.003	  0.003	  0.000	 33.200	 100.112	 -1.261
37012	 -0.666	 -0.088	  0.427	 -0.375	 -2.630	 -9.421	 -0.005	  0.003	  0.001	 33.200	 100.112	 -1.261
37061	 -0.669	 -0.087	  0.428	 -0.385	 -2.657	 -9.403	 -0.003	  0.003	  0.000	 33.100	 100.108	 -0.900
37111	 -0.668	 -0.081	  0.428	 -0.349	 -2.631	 -9.398	 -0.003	  0.000	  0.001	 33.200	 100.085	  1.168
37161	 -0.668	 -0.085	  0.429	 -0.364	 -2.674	 -9.404	 -0.004	  0.000	  0.001	 33.200	 100.100	 -0.181
37212	 -0.670	 -0.084	  0.420	 -0.391	 -2.637	 -9.388	 -0.002	  0.003	 -0.001	 33.200	 100.096	  0.178
37261	 -0.667	 -0.089	  0.430	 -0.367	 -2.649	 -9.422	 -0.003	  0.001	  0.001	 33.100	 100.096	  0.178
37311	 -0.670	 -0.086	  0.417	 -0.396	 -2.616	 -9.371	 -0.001	  0.003	 -0.001	 33.200	 100.096	  0.178
37361	 -0.668	 -0.083	  0.428	 -0.354	 -2.641	 -9.414	 -0.006	 -0.002	  0.001	 33.100	 100.085	  1.168
37411	 -0.669	 -0.087	  0.427	 -0.371	 -2.625	 -9.389	 -0.002	  0.003	  0.002	 33.100	 100.112	 -1.261
37461	 -0.668	 -0.087	  0.421	 -0.382	 -2.640	 -9.429	 -0.003	  0.002	  0.001	 33.100	 100.108	 -0.900
37511	 -0.670	 -0.087	  0.426	 -0.396	 -2.623	 -9.394	 -0.002	  0.001	  0.001	 33.200	 100.096	  0.178
37561	 -0.669	 -0.088	  0.428	 -0.354	 -2.603	 -9.373	  0.010	 -0.020	  0.003	 33.200	 100.100	 -0.181
37611	 -0.670	 -0.084	  0.426	 -0.332	 -2.676	 -9.421	  0.005	 -0.006	  0.000	 33.100	 100.096	  0.178
37661	 -0.669	 -0.082	  0.421	 -0.378	 -2.666	 -9.422	 -0.001	  0.003	  0.000	 33.200	 100.112	 -1.261
37711	 -0.667	 -0.089	  0.423	 -0.388	 -2.644	 -9.403	 -0.001	  0.005	 -0.001	 33.200	 100.100	 -0.181
37762	 -0.670	 -0.087	  0.423	 -0.373	 -2.635	 -9.382	 -0.003	  0.002	  0.001	 33.100	 100.119	 -1.890
37811	 -0.670	 -0.090	  0.429	 -0.375	 -2.633	 -9.391	 -0.004	  0.004	  0.002	 33.200	 100.112	 -1.261
37861	 -0.669	 -0.087	  0.420	 -0.377	 -2.660	 -9.412	 -0.004	  0.001	  0.001	 33.100	 100.108	 -0.900
37911	 -0.669	 -0.083	  0.426	 -0.391	 -2.649	 -9.380	 -0.003	  0.002	  0.001	 33.100	 100.108	 -0.900
37961	 -0.669	 -0.089	  0.430	 -0.390	 -2.654	 -9.375	 -0.004	  0.000	  0.001	 33.200	 100.112	 -1.261
38011	 -0.666	 -0.088	  0.424	 -0.391	 -2.662	 -9.405	 -0.001	  0.005	  0.001	 33.200	 100.112	 -1.261
38062	 -0.665	 -0.085	  0.421	 -0.352	 -2.654	 -9.397	 -0.004	  0.003	  0.000	 33.100	 100.108	 -0.900
38112	 -0.666	 -0.084	  0.424	 -0.380	 -2.663	 -9.362	 -0.003	  0.002	 -0.000	 33.100	 100.112	 -1.261
38162	 -0.665	 -0.091	  0.423	 -0.366	 -2.646	 -9.413	 -0.003	  0.002	  0.000	 33.200	 100.100	 -0.181
38212	 -0.667	 -0.084	  0.423	 -0.365	 -2.673	 -9.396	 -0.002	  0.005	 -0.000	 33.100	 100.096	  0.178
38261	 -0.669	 -0.090	  0.427	 -0.408	 -2.632	 -9.426	 -0.003	  0.002	  0.003	 33.100	 100.108	 -0.900
38312	 -0.668	 -0.088	  0.423	 -0.400	 -2.663	 -9.332	 -0.003	  0.003	  0.001	 33.200	 100.100	 -0.181
38362	 -0.668	 -0.089	  0.426	 -0.401	 -2.661	 -9.346	  0.000	  0.000	 -0.001	 33.200	 100.112	 -1.261
38412	 -0.668	 -0.088	  0.420	 -0.343	 -2.670	 -9.446	 -0.003	  0.001	  0.002	 33.100	 100.112	 -1.261
38462	 -0.671	 -0.083	  0.430	 -0.363	 -2.655	 -9.369	 -0.004	  0.001	  0.002	 33.200	 100.112	 -1.261
38512	 -0.668	 -0.088	  0.428	 -0.376	 -2.692	 -9.436	 -0.003	  0.002	  0.001	 33.200	 100.100	 -0.181
38562	 -0.670	 -0.088	  0.430	 -0.366	 -2.669	 -9.410	 -0.003	  0.002	  0.002	 33.100	 100.108	 -0.900
38612	 -0.669	 -0.085	  0.429	 -0.371	 -2.667	 -9.398	 -0.003	  0.004	  0.001	 33.100	 100.100	 -0.181
38662	 -0.668	 -0.088	  0.427	 -0.401	 -2.662	 -9.397	 -0.003	  0.003	  0.001	 33.100	 100.096	  0.178
38712	 -0.669	 -0.086	  0.428	 -0.385	 -2.621	 -9.367	 -0.005	 -0.000	  0.002	 33.100	 100.096	  0.178
38762	 -0.669	 -0.087	  0.428	 -0.373	 -2.662	 -9.390	 -0.002	  0.002	 -0.000	 33.200	 100.112	 -1.261
38812	 -0.672	 -0.089	  0.431	 -0.422	 -2.625	 -9.366	 -0.003	  0.002	  0.000	 33.200	 100.123	 -2.250
