Time	 MagX	 MagY	 MagZ	 AccelX	 AccelY	 AccelZ	 Yaw	 Pitch	 Roll	 Temperature	 Pressure	 Altitude
5275	 -0.421	 -0.327	  0.458	  0.107	  0.084	 -9.743	 -0.003	  0.003	  0.002	 33.100	 100.000	 -99999.000
5322	 -0.423	 -0.326	  0.460	  0.087	  0.063	 -9.755	 -0.004	  0.003	 -0.000	 33.000	 99.996	 -99999.000
5371	 -0.422	 -0.324	  0.460	  0.115	  0.040	 -9.784	 -0.003	  0.003	  0.001	 33.100	 99.996	 -99999.000
5421	 -0.425	 -0.329	  0.459	  0.115	  0.042	 -9.747	 -0.004	  0.003	  0.002	 33.100	 100.011	 -99999.000
5471	 -0.426	 -0.326	  0.459	  0.147	  0.054	 -9.773	 -0.003	  0.003	  0.001	 33.100	 100.007	 -99999.000
5521	 -0.423	 -0.326	  0.456	  0.115	  0.025	 -9.740	 -0.004	  0.003	  0.001	 33.000	 99.996	 -99999.000
5571	 -0.425	 -0.322	  0.459	  0.119	  0.041	 -9.725	 -0.003	  0.002	  0.000	 33.000	 99.996	 -99999.000
5621	 -0.422	 -0.326	  0.456	  0.129	  0.049	 -9.758	 -0.005	  0.002	  0.000	 33.100	 100.000	 -99999.000
5671	 -0.425	 -0.330	  0.457	  0.154	  0.062	 -9.816	 -0.003	  0.002	  0.001	 33.100	 100.000	 -99999.000
5721	 -0.425	 -0.323	  0.458	  0.119	  0.039	 -9.775	 -0.003	  0.003	  0.001	 33.100	 100.007	 -99999.000
5771	 -0.422	 -0.328	  0.452	  0.121	  0.050	 -9.792	 -0.003	  0.001	 -0.000	 33.100	 100.007	 -99999.000
5821	 -0.423	 -0.320	  0.462	  0.136	  0.043	 -9.762	 -0.003	  0.002	  0.003	 33.100	 99.996	 -99999.000
5871	 -0.423	 -0.327	  0.461	  0.127	  0.051	 -9.788	 -0.002	  0.002	  0.001	 33.100	 99.996	 -99999.000
5921	 -0.425	 -0.325	  0.459	  0.125	  0.074	 -9.762	 -0.003	  0.003	  0.001	 33.100	 100.000	 -99999.000
5971	 -0.423	 -0.328	  0.460	  0.115	  0.046	 -9.764	 -0.002	  0.003	  0.000	 33.100	 100.011	 -99999.000
6021	 -0.422	 -0.328	  0.458	  0.135	  0.060	 -9.751	 -0.003	  0.003	  0.001	 33.100	 100.011	 -99999.000
6071	 -0.425	 -0.325	  0.456	  0.108	  0.042	 -9.727	 -0.004	  0.002	  0.002	 33.100	 100.000	 -99999.000
6121	 -0.424	 -0.325	  0.462	  0.121	  0.037	 -9.776	 -0.003	  0.003	 -0.000	 33.100	 100.000	 -99999.000
6171	 -0.425	 -0.328	  0.456	  0.128	  0.038	 -9.751	 -0.003	  0.003	  0.002	 33.100	 100.000	 -99999.000
6221	 -0.424	 -0.331	  0.462	  0.123	  0.025	 -9.769	 -0.004	  0.002	  0.001	 33.000	 99.996	 -99999.000
6271	 -0.424	 -0.325	  0.459	  0.128	  0.058	 -9.754	 -0.003	  0.001	  0.001	 33.100	 100.011	 -99999.000
6321	 -0.422	 -0.327	  0.449	  0.121	  0.036	 -9.740	 -0.004	  0.000	  0.002	 33.000	 99.996	 -99999.000
6371	 -0.425	 -0.327	  0.461	  0.114	  0.054	 -9.799	 -0.003	  0.002	  0.002	 33.100	 100.000	 -99999.000
6421	 -0.424	 -0.327	  0.459	  0.118	  0.067	 -9.795	 -0.004	  0.002	  0.001	 33.000	 99.996	 -99999.000
6471	 -0.425	 -0.325	  0.457	  0.127	  0.022	 -9.765	 -0.004	  0.002	 -0.000	 33.000	 99.985	 -99999.000
6521	 -0.423	 -0.321	  0.462	  0.125	  0.044	 -9.781	 -0.004	  0.001	  0.000	 33.100	 100.007	 -99999.000
6571	 -0.424	 -0.323	  0.459	  0.123	  0.045	 -9.790	 -0.003	  0.001	  0.001	 33.000	 99.996	 -99999.000
6621	 -0.426	 -0.328	  0.458	  0.120	  0.060	 -9.748	 -0.003	  0.003	  0.001	 33.100	 100.011	 -99999.000
6671	 -0.425	 -0.329	  0.458	  0.117	  0.067	 -9.784	 -0.003	  0.002	  0.002	 33.100	 100.007	 -99999.000
6721	 -0.424	 -0.328	  0.454	  0.100	  0.045	 -9.783	 -0.003	  0.002	  0.002	 33.100	 99.996	 -99999.000
6771	 -0.424	 -0.324	  0.461	  0.120	  0.038	 -9.769	 -0.004	  0.001	 -0.000	 33.100	 99.985	 -99999.000
6821	 -0.424	 -0.330	  0.458	  0.136	  0.017	 -9.777	 -0.003	  0.002	  0.002	 33.100	 100.000	 -99999.000
6871	 -0.424	 -0.319	  0.461	  0.139	  0.058	 -9.756	 -0.002	  0.002	  0.001	 33.000	 100.019	 -99999.000
6921	 -0.424	 -0.319	  0.458	  0.094	  0.060	 -9.764	 -0.003	  0.001	  0.000	 33.100	 99.996	 -99999.000
6971	 -0.425	 -0.327	  0.457	  0.118	  0.048	 -9.757	 -0.003	  0.003	  0.001	 33.000	 100.007	 -99999.000
7021	 -0.422	 -0.328	  0.455	  0.115	  0.056	 -9.761	 -0.004	  0.003	  0.000	 33.100	 100.011	 -99999.000
7071	 -0.424	 -0.324	  0.458	  0.123	  0.056	 -9.785	 -0.004	  0.002	  0.001	 33.100	 100.011	 -99999.000
7121	 -0.423	 -0.323	  0.459	  0.123	  0.054	 -9.736	 -0.003	  0.003	  0.001	 33.100	 100.011	 -99999.000
7171	 -0.424	 -0.329	  0.453	  0.119	  0.047	 -9.790	 -0.003	  0.003	  0.001	 33.000	 100.007	 -99999.000
7221	 -0.423	 -0.327	  0.462	  0.107	  0.049	 -9.765	 -0.003	  0.002	  0.000	 33.000	 100.007	 -99999.000
7271	 -0.425	 -0.325	  0.457	  0.111	  0.039	 -9.773	 -0.003	  0.002	  0.002	 33.100	 100.000	 -99999.000
7321	 -0.424	 -0.327	  0.461	  0.095	  0.051	 -9.760	 -0.004	  0.003	  0.001	 33.100	 100.000	 -99999.000
7371	 -0.421	 -0.326	  0.458	  0.115	  0.039	 -9.795	 -0.003	  0.003	  0.001	 33.000	 99.996	 -99999.000
7421	 -0.423	 -0.326	  0.460	  0.119	  0.025	 -9.734	 -0.003	  0.002	  0.001	 33.100	 100.023	 -99999.000
7471	 -0.425	 -0.325	  0.461	  0.139	  0.032	 -9.739	 -0.003	  0.002	  0.001	 33.100	 100.011	 -99999.000
7521	 -0.422	 -0.329	  0.458	  0.111	  0.041	 -9.773	 -0.004	  0.003	  0.000	 33.100	 100.007	 -99999.000
7571	 -0.422	 -0.330	  0.449	  0.120	  0.057	 -9.784	 -0.003	  0.003	  0.001	 33.100	 100.011	 -99999.000
7621	 -0.425	 -0.324	  0.458	  0.137	  0.051	 -9.780	 -0.002	  0.002	  0.000	 33.100	 100.011	 -99999.000
7671	 -0.423	 -0.315	  0.459	  0.123	  0.044	 -9.777	 -0.004	  0.002	  0.002	 33.000	 100.007	 -99999.000
7721	 -0.425	 -0.327	  0.458	  0.107	  0.058	 -9.787	 -0.004	  0.003	  0.001	 33.100	 100.007	 -99999.000
7771	 -0.422	 -0.330	  0.455	  0.098	  0.019	 -9.761	 -0.003	  0.001	 -0.001	 33.100	 100.011	 -99999.000
7821	 -0.423	 -0.322	  0.462	  0.087	  0.025	 -9.766	 -0.003	  0.002	  0.000	 33.100	 100.011	 -99999.000
7871	 -0.422	 -0.328	  0.450	  0.123	  0.041	 -9.771	 -0.004	  0.003	 -0.001	 33.100	 100.011	 -99999.000
7921	 -0.425	 -0.327	  0.457	  0.139	  0.040	 -9.775	 -0.003	  0.003	  0.002	 33.100	 100.007	 -99999.000
7971	 -0.424	 -0.326	  0.459	  0.117	  0.039	 -9.762	 -0.002	  0.002	  0.001	 33.100	 100.011	 -99999.000
8021	 -0.425	 -0.328	  0.455	  0.137	  0.049	 -9.791	 -0.004	  0.003	  0.001	 33.000	 100.007	 -99999.000
8071	 -0.425	 -0.325	  0.457	  0.107	  0.036	 -9.755	 -0.003	  0.002	  0.000	 33.100	 100.000	 -99999.000
8121	 -0.424	 -0.323	  0.461	  0.112	  0.050	 -9.771	 -0.005	  0.003	  0.001	 33.100	 100.011	 -99999.000
8171	 -0.423	 -0.317	  0.456	  0.138	  0.048	 -9.757	 -0.004	  0.003	  0.001	 33.000	 100.007	 -99999.000
8221	 -0.422	 -0.328	  0.460	  0.127	  0.020	 -9.793	 -0.004	  0.004	 -0.000	 33.100	 100.007	 -99999.000
8272	 -0.426	 -0.327	  0.458	  0.122	  0.032	 -9.775	 -0.002	  0.003	 -0.000	 33.100	 100.007	 -99999.000
8321	 -0.424	 -0.328	  0.459	  0.140	  0.042	 -9.756	 -0.003	  0.003	  0.001	 33.000	 100.007	 -99999.000
8371	 -0.425	 -0.325	  0.459	  0.114	  0.051	 -9.750	 -0.003	  0.003	  0.001	 33.100	 100.011	 -99999.000
8421	 -0.425	 -0.327	  0.462	  0.126	  0.057	 -9.769	 -0.002	  0.003	  0.001	 33.100	 100.011	 -99999.000
8471	 -0.424	 -0.328	  0.458	  0.131	  0.051	 -9.771	 -0.004	  0.003	  0.001	 33.100	 100.011	 -99999.000
8522	 -0.423	 -0.325	  0.450	  0.134	  0.055	 -9.780	 -0.003	  0.003	  0.001	 33.100	 99.996	 -99999.000
8572	 -0.422	 -0.329	  0.456	  0.126	  0.031	 -9.787	 -0.003	  0.002	 -0.000	 33.100	 100.000	 -99999.000
8622	 -0.425	 -0.324	  0.459	  0.144	  0.043	 -9.770	 -0.003	  0.002	  0.000	 33.100	 100.011	 -99999.000
8671	 -0.424	 -0.322	  0.458	  0.114	  0.060	 -9.780	 -0.003	  0.001	  0.001	 33.000	 99.996	 -99999.000
8722	 -0.423	 -0.328	  0.461	  0.128	  0.055	 -9.763	 -0.004	  0.002	  0.001	 33.100	 100.000	 -99999.000
8772	 -0.423	 -0.318	  0.458	  0.134	  0.054	 -9.758	 -0.004	  0.002	  0.001	 33.100	 100.000	 -99999.000
8822	 -0.424	 -0.326	  0.458	  0.124	  0.063	 -9.775	 -0.002	  0.003	  0.000	 33.100	 100.007	 -99999.000
8872	 -0.425	 -0.324	  0.462	  0.132	  0.048	 -9.790	 -0.003	  0.002	  0.002	 33.100	 99.996	 -99999.000
8922	 -0.426	 -0.326	  0.459	  0.130	  0.047	 -9.787	 -0.003	  0.002	  0.001	 33.100	 100.000	 -99999.000
8972	 -0.423	 -0.326	  0.456	  0.085	  0.054	 -9.791	 -0.003	  0.002	  0.001	 33.100	 99.996	 -99999.000
9022	 -0.423	 -0.328	  0.458	  0.105	  0.062	 -9.777	 -0.003	  0.003	  0.001	 33.100	 100.007	 -99999.000
9072	 -0.425	 -0.328	  0.457	  0.106	  0.026	 -9.776	 -0.004	  0.001	  0.000	 33.100	 100.000	 -99999.000
9122	 -0.424	 -0.318	  0.458	  0.102	  0.068	 -9.777	 -0.003	  0.002	  0.001	 33.000	 99.996	 -99999.000
9172	 -0.423	 -0.327	  0.462	  0.137	  0.047	 -9.751	 -0.004	  0.002	  0.000	 33.000	 100.007	 -99999.000
9222	 -0.426	 -0.324	  0.459	  0.126	  0.041	 -9.801	 -0.003	  0.002	  0.001	 33.100	 100.000	 -99999.000
9272	 -0.424	 -0.327	  0.459	  0.146	  0.053	 -9.767	 -0.003	  0.003	  0.000	 33.100	 99.989	 -99999.000
9322	 -0.426	 -0.328	  0.458	  0.128	  0.035	 -9.783	 -0.004	  0.002	  0.001	 33.100	 99.996	 -99999.000
9372	 -0.423	 -0.325	  0.458	  0.134	  0.043	 -9.785	 -0.004	  0.000	  0.000	 33.100	 100.011	 -99999.000
9422	 -0.421	 -0.325	  0.460	  0.099	  0.052	 -9.776	 -0.004	  0.001	  0.000	 33.100	 100.011	 -99999.000
9472	 -0.424	 -0.325	  0.458	  0.124	  0.052	 -9.741	 -0.004	  0.001	  0.001	 33.100	 100.000	 -99999.000
9522	 -0.424	 -0.325	  0.450	  0.122	  0.051	 -9.755	 -0.004	  0.002	  0.001	 33.100	 100.011	 -99999.000
9572	 -0.424	 -0.326	  0.455	  0.108	  0.034	 -9.742	 -0.004	  0.002	  0.001	 33.100	 100.011	 -99999.000
9622	 -0.425	 -0.328	  0.458	  0.117	  0.051	 -9.775	 -0.003	  0.001	 -0.001	 33.100	 100.011	 -99999.000
9672	 -0.425	 -0.326	  0.461	  0.103	  0.048	 -9.787	 -0.003	  0.002	  0.000	 33.100	 100.011	 -99999.000
9722	 -0.424	 -0.327	  0.454	  0.115	  0.045	 -9.757	 -0.003	  0.002	  0.002	 33.100	 100.000	 -99999.000
9772	 -0.424	 -0.328	  0.459	  0.132	  0.060	 -9.766	 -0.003	  0.002	  0.002	 33.100	 100.000	 -99999.000
9822	 -0.425	 -0.327	  0.458	  0.136	  0.038	 -9.780	 -0.004	  0.002	  0.001	 33.000	 100.007	 -99999.000
9872	 -0.422	 -0.328	  0.457	  0.124	  0.054	 -9.769	 -0.005	  0.002	  0.001	 33.100	 100.011	 -99999.000
9922	 -0.423	 -0.326	  0.457	  0.135	  0.033	 -9.776	 -0.004	  0.002	  0.000	 33.100	 100.007	 -99999.000
9972	 -0.424	 -0.323	  0.456	  0.126	  0.052	 -9.742	 -0.003	  0.001	  0.000	 33.100	 100.011	 -99999.000
10022	 -0.424	 -0.328	  0.461	  0.140	  0.079	 -9.732	 -0.005	  0.003	  0.001	 33.000	 100.007	 -99999.000
10072	 -0.423	 -0.325	  0.461	  0.120	  0.045	 -9.749	 -0.003	  0.003	  0.001	 33.100	 100.011	 -99999.000
10122	 -0.421	 -0.329	  0.457	  0.114	  0.079	 -9.737	 -0.003	  0.002	  0.001	 33.000	 99.996	 -99999.000
10172	 -0.423	 -0.326	  0.461	  0.127	  0.033	 -9.755	 -0.003	  0.003	  0.000	 33.100	 99.989	 -99999.000
10221	 -0.423	 -0.326	  0.460	  0.123	  0.047	 -9.795	 -0.004	  0.002	  0.002	 33.100	 99.996	 -99999.000
10271	 -0.424	 -0.326	  0.456	  0.145	  0.060	 -9.769	 -0.004	  0.002	  0.001	 33.000	 100.007	 -99999.000
10322	 -0.422	 -0.325	  0.461	  0.118	  0.046	 -9.726	 -0.002	  0.003	  0.001	 33.100	 100.000	 -99999.000
10372	 -0.423	 -0.326	  0.451	  0.126	  0.050	 -9.764	 -0.003	  0.002	  0.002	 33.100	 100.000	 -99999.000
10422	 -0.422	 -0.321	  0.462	  0.145	  0.032	 -9.748	 -0.002	  0.002	  0.000	 33.100	 100.007	 -99999.000
10471	 -0.424	 -0.326	  0.462	  0.150	  0.076	 -9.738	 -0.003	  0.001	  0.001	 33.100	 100.011	 -99999.000
10521	 -0.425	 -0.324	  0.457	  0.113	  0.060	 -9.798	 -0.003	  0.003	  0.000	 33.100	 100.000	 -99999.000
10571	 -0.425	 -0.325	  0.450	  0.123	  0.042	 -9.727	 -0.004	  0.002	  0.000	 33.100	 100.000	 -99999.000
10621	 -0.425	 -0.327	  0.459	  0.124	  0.063	 -9.755	 -0.004	  0.003	  0.002	 33.100	 100.011	 -99999.000
10671	 -0.424	 -0.328	  0.458	  0.138	  0.047	 -9.789	 -0.004	  0.003	  0.002	 33.100	 100.011	 -99999.000
10721	 -0.422	 -0.327	  0.453	  0.108	  0.068	 -9.781	 -0.002	  0.003	  0.001	 33.100	 100.011	 -99999.000
10771	 -0.423	 -0.327	  0.458	  0.108	  0.027	 -9.765	 -0.003	  0.002	  0.001	 33.100	 100.011	 -99999.000
10822	 -0.424	 -0.325	  0.456	  0.135	  0.029	 -9.766	 -0.004	  0.003	  0.000	 33.100	 100.011	 -99999.000
10871	 -0.424	 -0.327	  0.453	  0.136	  0.033	 -9.788	 -0.003	  0.003	  0.000	 33.100	 100.011	 -99999.000
10921	 -0.423	 -0.328	  0.460	  0.130	  0.046	 -9.808	 -0.004	  0.002	  0.001	 33.100	 99.996	 -99999.000
10971	 -0.422	 -0.326	  0.461	  0.120	  0.067	 -9.784	 -0.004	  0.002	  0.002	 33.100	 100.000	 -99999.000
11021	 -0.425	 -0.328	  0.456	  0.140	  0.033	 -9.759	 -0.004	  0.001	  0.001	 33.100	 99.989	 -99999.000
11071	 -0.423	 -0.328	  0.463	  0.111	  0.037	 -9.780	 -0.003	  0.003	  0.001	 33.100	 99.996	 -99999.000
11121	 -0.427	 -0.328	  0.457	  0.127	  0.058	 -9.766	 -0.002	  0.002	  0.001	 33.100	 100.007	 -99999.000
11171	 -0.425	 -0.328	  0.461	  0.151	  0.056	 -9.738	 -0.003	  0.002	 -0.000	 33.100	 100.000	 -99999.000
11221	 -0.424	 -0.324	  0.461	  0.134	  0.056	 -9.776	 -0.003	  0.002	  0.001	 33.100	 99.996	 -99999.000
30546	 -0.424	 -0.326	  0.459	  0.129	  0.083	 -9.731	 -0.003	  0.003	  0.001	 33.100	 99.996	  0.691
30596	 -0.425	 -0.325	  0.455	  0.124	  0.018	 -9.761	 -0.004	  0.003	  0.002	 33.100	 100.011	 -0.658
30646	 -0.424	 -0.313	  0.462	  0.122	  0.063	 -9.784	 -0.004	  0.002	  0.001	 33.100	 100.011	 -0.658
30696	 -0.424	 -0.325	  0.459	  0.132	  0.043	 -9.752	 -0.002	  0.002	  0.000	 33.100	 100.011	 -0.658
30746	 -0.423	 -0.324	  0.458	  0.149	  0.048	 -9.796	 -0.002	  0.002	  0.001	 33.100	 100.000	  0.331
30796	 -0.424	 -0.325	  0.458	  0.133	  0.064	 -9.757	 -0.003	  0.003	  0.001	 33.100	 100.011	 -0.658
30847	 -0.424	 -0.330	  0.458	  0.143	  0.043	 -9.736	 -0.002	  0.001	  0.001	 33.100	 100.011	 -0.658
30896	 -0.422	 -0.327	  0.460	  0.116	  0.063	 -9.778	 -0.002	  0.002	  0.000	 33.100	 100.011	 -0.658
30947	 -0.422	 -0.327	  0.460	  0.141	  0.054	 -9.770	 -0.004	  0.003	  0.001	 33.100	 100.000	  0.331
30996	 -0.424	 -0.325	  0.459	  0.118	  0.048	 -9.794	 -0.003	  0.001	  0.001	 33.100	 100.011	 -0.658
31046	 -0.423	 -0.327	  0.457	  0.122	  0.049	 -9.789	 -0.003	  0.003	  0.001	 33.100	 100.000	  0.331
31096	 -0.423	 -0.324	  0.460	  0.141	  0.024	 -9.784	 -0.004	  0.004	  0.001	 33.000	 99.996	  0.691
31147	 -0.425	 -0.326	  0.461	  0.106	  0.063	 -9.869	 -0.004	  0.001	  0.001	 33.100	 100.000	  0.331
31197	 -0.423	 -0.326	  0.458	  0.118	  0.040	 -9.807	 -0.003	  0.002	  0.001	 33.100	 100.000	  0.331
31247	 -0.422	 -0.327	  0.460	  0.118	  0.051	 -9.715	 -0.003	  0.003	  0.001	 33.100	 99.989	  1.321
31297	 -0.423	 -0.319	  0.462	  0.097	  0.070	 -9.746	 -0.003	  0.002	  0.001	 33.100	 100.011	 -0.658
31347	 -0.425	 -0.317	  0.463	  0.144	  0.046	 -9.779	 -0.003	  0.003	  0.001	 33.100	 100.000	  0.331
31397	 -0.422	 -0.326	  0.453	  0.127	  0.058	 -9.762	 -0.003	  0.004	  0.001	 33.100	 100.000	  0.331
31447	 -0.426	 -0.326	  0.459	  0.130	  0.046	 -9.757	 -0.003	  0.002	  0.000	 33.100	 100.011	 -0.658
31497	 -0.422	 -0.315	  0.464	  0.122	  0.052	 -9.771	 -0.005	  0.001	  0.001	 33.100	 100.011	 -0.658
31547	 -0.423	 -0.328	  0.462	  0.109	  0.047	 -9.761	 -0.004	  0.002	  0.001	 33.100	 100.016	 -1.108
31597	 -0.421	 -0.326	  0.449	  0.123	  0.043	 -9.747	 -0.004	  0.003	 -0.000	 33.100	 100.000	  0.331
31647	 -0.422	 -0.329	  0.457	  0.113	  0.065	 -9.795	 -0.003	  0.002	  0.001	 33.100	 100.011	 -0.658
31697	 -0.422	 -0.312	  0.458	  0.141	  0.029	 -9.787	 -0.004	  0.002	  0.001	 33.100	 100.011	 -0.658
31747	 -0.423	 -0.322	  0.456	  0.121	  0.042	 -9.720	 -0.003	  0.002	  0.001	 33.100	 100.011	 -0.658
31797	 -0.422	 -0.327	  0.458	  0.143	  0.038	 -9.795	 -0.003	  0.001	  0.001	 33.100	 100.000	  0.331
31847	 -0.424	 -0.325	  0.459	  0.135	  0.074	 -9.777	 -0.002	  0.003	 -0.000	 33.100	 100.000	  0.331
31897	 -0.424	 -0.326	  0.459	  0.139	  0.038	 -9.743	 -0.003	  0.002	  0.001	 33.100	 100.011	 -0.658
31947	 -0.424	 -0.327	  0.457	  0.110	  0.048	 -9.762	 -0.004	  0.003	  0.001	 33.100	 99.996	  0.691
31997	 -0.422	 -0.319	  0.460	  0.139	  0.044	 -9.768	 -0.003	  0.003	  0.001	 33.100	 100.004	 -0.028
32047	 -0.424	 -0.322	  0.459	  0.108	  0.055	 -9.768	 -0.004	  0.003	 -0.001	 33.100	 100.011	 -0.658
32097	 -0.423	 -0.327	  0.455	  0.103	  0.038	 -9.792	 -0.002	  0.002	  0.001	 33.100	 100.011	 -0.658
32147	 -0.423	 -0.327	  0.455	  0.111	  0.045	 -9.765	 -0.004	  0.003	  0.001	 33.100	 100.011	 -0.658
32197	 -0.422	 -0.328	  0.460	  0.133	  0.039	 -9.766	 -0.004	  0.002	  0.001	 33.100	 100.011	 -0.658
32247	 -0.422	 -0.319	  0.458	  0.133	  0.058	 -9.736	 -0.005	  0.003	  0.001	 33.100	 100.000	  0.331
32297	 -0.421	 -0.320	  0.457	  0.131	  0.027	 -9.742	 -0.002	  0.003	  0.002	 33.100	 100.011	 -0.658
32347	 -0.425	 -0.329	  0.457	  0.128	  0.050	 -9.775	 -0.003	  0.004	  0.001	 33.100	 100.000	  0.331
32397	 -0.423	 -0.327	  0.461	  0.126	  0.037	 -9.757	 -0.004	  0.002	  0.002	 33.100	 100.000	  0.331
32447	 -0.422	 -0.329	  0.452	  0.111	  0.042	 -9.752	 -0.003	  0.002	  0.001	 33.100	 100.011	 -0.658
32497	 -0.420	 -0.326	  0.449	  0.111	  0.053	 -9.753	 -0.003	  0.002	  0.002	 33.100	 100.004	 -0.028
32547	 -0.422	 -0.328	  0.453	  0.122	  0.053	 -9.774	 -0.003	  0.002	 -0.000	 33.100	 100.000	  0.331
32597	 -0.424	 -0.327	  0.458	  0.139	  0.032	 -9.787	 -0.003	  0.002	  0.000	 33.100	 100.011	 -0.658
32647	 -0.423	 -0.328	  0.463	  0.126	  0.058	 -9.706	 -0.003	  0.003	  0.000	 33.100	 100.011	 -0.658
32697	 -0.423	 -0.327	  0.462	  0.110	  0.047	 -9.739	 -0.003	  0.002	  0.001	 33.100	 100.000	  0.331
32747	 -0.422	 -0.322	  0.460	  0.148	  0.061	 -9.758	 -0.003	  0.002	 -0.000	 33.100	 100.011	 -0.658
32797	 -0.423	 -0.324	  0.459	  0.121	  0.034	 -9.755	 -0.004	  0.001	  0.002	 33.100	 100.011	 -0.658
32847	 -0.423	 -0.325	  0.460	  0.122	  0.070	 -9.769	 -0.003	  0.002	  0.000	 33.100	 100.000	  0.331
32897	 -0.423	 -0.326	  0.458	  0.145	  0.039	 -9.749	 -0.004	  0.002	  0.001	 33.100	 100.000	  0.331
32947	 -0.421	 -0.328	  0.457	  0.123	  0.043	 -9.756	 -0.004	  0.003	  0.001	 33.100	 100.011	 -0.658
32997	 -0.424	 -0.328	  0.459	  0.112	  0.046	 -9.788	 -0.003	  0.002	  0.001	 33.100	 100.000	  0.331
33047	 -0.424	 -0.326	  0.459	  0.119	  0.069	 -9.721	 -0.003	  0.004	  0.000	 33.100	 100.011	 -0.658
33097	 -0.424	 -0.326	  0.451	  0.137	  0.047	 -9.734	 -0.003	  0.002	  0.001	 33.100	 100.011	 -0.658
33147	 -0.425	 -0.326	  0.452	  0.109	  0.040	 -9.780	 -0.003	  0.002	  0.001	 33.100	 100.000	  0.331
33197	 -0.425	 -0.328	  0.459	  0.126	  0.052	 -9.754	 -0.003	  0.003	  0.001	 33.100	 100.000	  0.331
33247	 -0.424	 -0.329	  0.457	  0.144	  0.060	 -9.760	 -0.003	  0.002	  0.001	 33.100	 100.011	 -0.658
33297	 -0.424	 -0.326	  0.455	  0.116	  0.037	 -9.783	 -0.002	  0.003	 -0.000	 33.100	 100.011	 -0.658
33347	 -0.424	 -0.327	  0.449	  0.143	  0.040	 -9.770	 -0.002	  0.003	  0.000	 33.100	 100.011	 -0.658
33397	 -0.422	 -0.316	  0.459	  0.121	  0.027	 -9.720	 -0.004	  0.002	 -0.000	 33.100	 100.011	 -0.658
33447	 -0.424	 -0.328	  0.458	  0.137	  0.030	 -9.761	 -0.003	  0.001	  0.001	 33.100	 100.011	 -0.658
33497	 -0.422	 -0.325	  0.460	  0.100	  0.045	 -9.782	 -0.003	  0.002	  0.001	 33.100	 100.000	  0.331
33547	 -0.421	 -0.326	  0.449	  0.093	  0.058	 -9.773	 -0.003	  0.003	 -0.000	 33.100	 100.011	 -0.658
33597	 -0.422	 -0.326	  0.457	  0.134	  0.067	 -9.789	 -0.004	  0.002	  0.001	 33.100	 100.000	  0.331
33647	 -0.423	 -0.324	  0.457	  0.115	  0.039	 -9.786	 -0.003	  0.003	  0.001	 33.100	 100.011	 -0.658
33697	 -0.424	 -0.327	  0.459	  0.127	  0.044	 -9.767	 -0.003	  0.002	  0.001	 33.100	 100.007	 -0.298
33747	 -0.421	 -0.327	  0.455	  0.115	  0.069	 -9.775	 -0.003	  0.003	  0.000	 33.100	 100.016	 -1.108
33797	 -0.423	 -0.327	  0.454	  0.132	  0.056	 -9.815	 -0.003	  0.003	  0.001	 33.100	 100.011	 -0.658
33847	 -0.425	 -0.323	  0.458	  0.134	  0.047	 -9.738	 -0.003	 -0.000	  0.001	 33.100	 100.011	 -0.658
33897	 -0.423	 -0.326	  0.461	  0.146	  0.058	 -9.715	 -0.003	  0.003	  0.001	 33.100	 100.011	 -0.658
33947	 -0.425	 -0.315	  0.458	  0.136	  0.044	 -9.717	 -0.004	  0.002	  0.001	 33.100	 100.000	  0.331
33997	 -0.422	 -0.327	  0.458	  2.738	 -3.549	 -9.765	 -0.005	 -0.005	 -0.065	 33.100	 100.000	  0.331
34047	 -0.418	 -0.324	  0.448	 -2.757	  3.069	 -11.680	  0.199	  0.005	  0.975	 33.100	 100.011	 -0.658
34097	 -0.395	 -0.319	  0.454	 -0.365	  0.261	 -20.709	 -1.707	 -1.452	  0.831	 33.100	 100.004	 -0.028
34147	 -0.424	 -0.381	  0.378	 -0.433	  1.357	 12.092	  0.440	  7.422	 -0.060	 33.100	 100.000	  0.331
34197	 -0.480	 -0.310	  0.402	  3.636	 -5.090	 -23.777	  0.982	 -4.433	 -0.233	 33.100	 100.011	 -0.658
34247	 -0.450	 -0.354	  0.386	 -0.570	  1.098	 -4.170	 -1.970	  2.795	  1.201	 33.100	 100.000	  0.331
34297	 -0.461	 -0.384	  0.348	  3.254	  1.282	 -16.495	 -1.716	 -0.956	 -0.423	 33.100	 100.011	 -0.658
34347	 -0.470	 -0.396	  0.303	  1.639	  2.223	  0.235	 -0.283	  0.432	  0.464	 33.100	 100.011	 -0.658
34397	 -0.443	 -0.409	  0.341	  2.601	  1.415	 -18.973	 -0.118	  0.052	 -0.220	 33.100	 100.011	 -0.658
34447	 -0.475	 -0.407	  0.299	  2.823	 -1.578	  5.727	 -0.241	  0.591	  0.515	 33.100	 100.000	  0.331
34497	 -0.443	 -0.392	  0.365	 -6.024	  8.404	 -34.206	  0.989	 -2.698	 -0.850	 33.100	 100.000	  0.331
34547	 -0.450	 -0.407	  0.308	  4.987	 -1.721	 10.041	 -1.073	  5.485	  1.140	 33.100	 100.023	 -1.737
34597	 -0.494	 -0.370	  0.332	  1.295	  0.652	 -8.829	  3.458	 -4.650	  0.554	 33.100	 100.000	  0.331
34647	 -0.456	 -0.333	  0.401	 -0.051	  0.902	 -24.326	 -1.705	  2.591	  0.175	 33.100	 100.011	 -0.658
34697	 -0.493	 -0.371	  0.317	  1.684	  0.605	 12.703	  0.697	 -1.511	  0.036	 33.100	 100.011	 -0.658
34747	 -0.447	 -0.358	  0.393	 -1.234	  2.543	 -34.501	 -1.039	  1.045	 -0.089	 33.100	 100.023	 -1.737
34797	 -0.503	 -0.382	  0.296	  4.512	 -0.341	 15.563	 -0.567	 -0.243	  1.224	 33.100	 100.000	  0.331
34847	 -0.479	 -0.323	  0.394	 -1.035	  1.071	 -23.166	  1.608	 -1.767	 -0.678	 33.100	 100.000	  0.331
34897	 -0.480	 -0.322	  0.398	  2.137	  0.171	 -4.595	  0.146	 -0.156	 -0.565	 33.100	 100.000	  0.331
34947	 -0.479	 -0.302	  0.415	  0.031	  2.453	 -10.950	  1.056	 -0.701	 -0.018	 33.100	 100.016	 -1.108
34997	 -0.474	 -0.304	  0.419	  0.536	  2.295	 -11.050	 -0.384	  0.866	 -0.190	 33.100	 100.000	  0.331
35047	 -0.506	 -0.304	  0.391	  1.141	  0.643	 -7.363	  0.688	  1.126	 -0.734	 33.100	 100.000	  0.331
35097	 -0.513	 -0.309	  0.393	  3.464	  0.242	 -9.662	  0.373	 -0.339	 -0.445	 33.100	 100.011	 -0.658
35147	 -0.507	 -0.307	  0.400	  1.750	  0.301	 -8.841	  0.209	 -0.652	 -0.010	 33.100	 100.000	  0.331
35197	 -0.494	 -0.289	  0.429	  1.498	 -0.656	 -11.389	  0.391	 -1.106	 -0.170	 33.100	 100.000	  0.331
35247	 -0.478	 -0.280	  0.444	  0.825	 -0.198	 -9.676	  0.007	 -0.710	 -0.116	 33.100	 100.000	  0.331
35297	 -0.463	 -0.276	  0.455	  0.339	  0.259	 -9.326	  0.243	 -0.881	 -0.024	 33.100	 100.000	  0.331
35347	 -0.441	 -0.284	  0.473	 -0.503	 -2.832	 -19.042	 -1.026	  0.055	 -0.003	 33.100	 100.000	  0.331
35397	 -0.443	 -0.290	  0.470	  0.015	  0.185	 -9.867	 -0.004	  0.029	 -0.002	 33.100	 100.011	 -0.658
35447	 -0.441	 -0.286	  0.467	  0.155	  0.044	 -9.787	 -0.001	 -0.005	  0.001	 33.100	 100.011	 -0.658
35497	 -0.440	 -0.288	  0.470	  0.121	  0.045	 -9.740	 -0.003	  0.003	  0.001	 33.100	 100.023	 -1.737
35547	 -0.441	 -0.288	  0.464	  0.130	  0.042	 -9.759	 -0.003	  0.004	  0.000	 33.100	 99.996	  0.691
35597	 -0.442	 -0.278	  0.467	  0.128	  0.051	 -9.771	 -0.002	  0.002	  0.001	 33.100	 100.016	 -1.108
35647	 -0.442	 -0.289	  0.471	  0.134	  0.051	 -9.761	 -0.004	  0.003	  0.000	 33.100	 100.011	 -0.658
35697	 -0.443	 -0.285	  0.472	  0.126	  0.013	 -9.779	 -0.003	  0.002	  0.000	 33.100	 100.004	 -0.028
35747	 -0.443	 -0.290	  0.470	  0.120	  0.029	 -9.769	 -0.004	  0.002	 -0.000	 33.100	 100.011	 -0.658
35797	 -0.441	 -0.292	  0.464	  0.131	  0.034	 -9.797	 -0.003	  0.002	  0.001	 33.100	 100.011	 -0.658
35846	 -0.440	 -0.284	  0.465	  0.128	  0.028	 -9.763	 -0.004	  0.003	  0.000	 33.100	 100.011	 -0.658
35896	 -0.443	 -0.290	  0.470	  0.121	  0.039	 -9.763	 -0.004	  0.002	  0.002	 33.100	 100.000	  0.331
35946	 -0.441	 -0.289	  0.470	  0.116	  0.045	 -9.734	 -0.003	  0.003	  0.001	 33.100	 100.011	 -0.658
35996	 -0.444	 -0.277	  0.472	  0.107	  0.058	 -9.739	 -0.002	  0.003	 -0.000	 33.100	 100.011	 -0.658
36046	 -0.444	 -0.283	  0.469	  0.106	  0.048	 -9.779	 -0.003	  0.002	  0.001	 33.100	 99.989	  1.321
36096	 -0.440	 -0.288	  0.463	  0.123	  0.052	 -9.819	 -0.002	  0.001	  0.001	 33.100	 100.011	 -0.658
36146	 -0.442	 -0.289	  0.463	  0.120	  0.065	 -9.753	 -0.003	  0.002	  0.001	 33.100	 100.011	 -0.658
36196	 -0.442	 -0.289	  0.471	  0.154	  0.048	 -9.783	 -0.003	  0.003	  0.001	 33.100	 100.000	  0.331
36246	 -0.442	 -0.286	  0.471	  0.086	  0.048	 -9.745	 -0.004	  0.002	  0.001	 33.100	 100.011	 -0.658
36298	 -0.447	 -0.290	  0.469	  0.131	  0.043	 -9.796	 -0.003	  0.002	  0.001	 33.100	 100.016	 -1.108
36346	 -0.442	 -0.292	  0.465	  0.106	  0.041	 -9.738	 -0.003	  0.003	  0.000	 33.100	 100.000	  0.331
36397	 -0.438	 -0.283	  0.474	  0.117	  0.040	 -9.748	 -0.003	  0.002	  0.000	 33.100	 100.011	 -0.658
36446	 -0.442	 -0.290	  0.466	  0.139	  0.045	 -9.738	 -0.004	  0.002	  0.000	 33.100	 100.011	 -0.658
36496	 -0.441	 -0.285	  0.471	  0.135	  0.034	 -9.760	 -0.003	  0.002	  0.001	 33.100	 100.011	 -0.658
36546	 -0.441	 -0.287	  0.468	  0.131	  0.031	 -9.772	 -0.003	  0.002	  0.000	 33.100	 100.000	  0.331
36596	 -0.440	 -0.284	  0.470	  0.112	  0.063	 -9.776	 -0.004	  0.002	  0.001	 33.100	 100.011	 -0.658
36646	 -0.441	 -0.289	  0.471	  0.147	  0.039	 -9.749	 -0.002	  0.002	  0.001	 33.100	 100.011	 -0.658
36697	 -0.440	 -0.287	  0.468	  0.130	  0.026	 -9.718	 -0.003	  0.003	  0.001	 33.100	 100.011	 -0.658
36747	 -0.443	 -0.294	  0.470	  0.161	  0.052	 -9.791	 -0.003	  0.004	 -0.000	 33.100	 100.011	 -0.658
36797	 -0.444	 -0.283	  0.470	  0.089	  0.039	 -9.753	 -0.003	  0.003	  0.000	 33.100	 100.016	 -1.108
36847	 -0.441	 -0.286	  0.468	  0.151	  0.044	 -9.778	 -0.002	  0.003	  0.001	 33.100	 100.011	 -0.658
36897	 -0.441	 -0.284	  0.471	  0.140	  0.041	 -9.753	 -0.003	  0.004	 -0.000	 33.100	 100.016	 -1.108
36947	 -0.442	 -0.292	  0.462	  0.147	  0.040	 -9.765	 -0.004	  0.002	  0.001	 33.100	 100.011	 -0.658
36997	 -0.440	 -0.288	  0.466	  0.124	  0.027	 -9.743	 -0.004	  0.003	  0.001	 33.100	 100.011	 -0.658
37047	 -0.444	 -0.293	  0.473	  0.122	  0.037	 -9.792	 -0.003	  0.002	  0.001	 33.100	 100.016	 -1.108
37097	 -0.440	 -0.290	  0.468	  0.114	  0.055	 -9.787	 -0.003	  0.001	  0.000	 33.100	 100.000	  0.331
37147	 -0.443	 -0.287	  0.472	  0.145	  0.050	 -9.770	 -0.002	  0.002	  0.001	 33.100	 100.011	 -0.658
37197	 -0.442	 -0.288	  0.470	  0.109	  0.048	 -9.741	 -0.002	  0.002	  0.001	 33.100	 100.016	 -1.108
37247	 -0.442	 -0.284	  0.467	  0.137	  0.043	 -9.782	 -0.004	  0.004	  0.002	 33.100	 100.011	 -0.658
37297	 -0.442	 -0.290	  0.466	  0.142	  0.057	 -9.780	 -0.003	  0.003	  0.000	 33.100	 100.000	  0.331
37347	 -0.442	 -0.288	  0.468	  0.138	  0.048	 -9.751	 -0.004	  0.003	  0.001	 33.100	 100.011	 -0.658
37397	 -0.443	 -0.282	  0.473	  0.117	  0.045	 -9.762	 -0.004	  0.002	  0.001	 33.100	 100.016	 -1.108
37447	 -0.440	 -0.288	  0.471	  0.112	  0.057	 -9.750	 -0.003	  0.003	  0.002	 33.100	 100.000	  0.331
37497	 -0.442	 -0.285	  0.470	  0.139	  0.039	 -9.746	 -0.003	  0.002	  0.001	 33.100	 100.011	 -0.658
37547	 -0.443	 -0.288	  0.470	  0.108	  0.037	 -9.789	 -0.003	  0.003	  0.001	 33.100	 100.027	 -2.098
37597	 -0.441	 -0.292	  0.470	  0.119	  0.048	 -9.740	 -0.003	  0.004	  0.001	 33.100	 100.011	 -0.658
37647	 -0.443	 -0.287	  0.472	  0.114	  0.047	 -9.774	 -0.004	  0.002	  0.001	 33.100	 100.016	 -1.108
37697	 -0.440	 -0.274	  0.472	  0.144	  0.045	 -9.798	 -0.004	  0.003	  0.001	 33.100	 100.000	  0.331
37747	 -0.442	 -0.291	  0.470	  0.126	  0.028	 -9.756	 -0.004	  0.002	  0.001	 33.100	 100.011	 -0.658
37797	 -0.441	 -0.279	  0.466	  0.110	  0.035	 -9.775	 -0.004	  0.002	  0.000	 33.100	 100.016	 -1.108
37847	 -0.442	 -0.287	  0.473	  0.128	  0.035	 -9.785	 -0.003	  0.004	  0.000	 33.100	 100.000	  0.331
37897	 -0.440	 -0.288	  0.463	  0.118	  0.022	 -9.755	 -0.003	  0.001	  0.000	 33.100	 100.016	 -1.108
37947	 -0.442	 -0.288	  0.468	  0.100	  0.035	 -9.788	 -0.002	  0.003	  0.002	 33.100	 100.011	 -0.658
37997	 -0.440	 -0.276	  0.470	  0.133	  0.055	 -9.737	 -0.005	  0.003	 -0.000	 33.100	 100.011	 -0.658
38047	 -0.441	 -0.285	  0.471	  0.117	  0.046	 -9.766	 -0.004	  0.003	 -0.000	 33.100	 100.000	  0.331
38097	 -0.445	 -0.289	  0.468	  0.133	  0.031	 -9.779	 -0.003	  0.002	  0.001	 33.100	 100.000	  0.331
38147	 -0.440	 -0.274	  0.468	  0.113	  0.058	 -9.768	 -0.004	  0.002	 -0.001	 33.100	 100.000	  0.331
38197	 -0.439	 -0.289	  0.467	  0.137	  0.041	 -9.758	 -0.003	  0.002	  0.000	 33.100	 100.011	 -0.658
38247	 -0.442	 -0.277	  0.466	  0.108	  0.043	 -9.780	 -0.003	  0.003	  0.002	 33.100	 100.011	 -0.658
38297	 -0.442	 -0.292	  0.464	  0.101	  0.070	 -9.786	 -0.004	  0.002	  0.002	 33.100	 100.000	  0.331
38347	 -0.442	 -0.280	  0.469	  0.109	  0.045	 -9.768	 -0.003	  0.002	  0.000	 33.100	 100.000	  0.331
38397	 -0.441	 -0.286	  0.467	  0.113	  0.061	 -9.788	 -0.003	  0.002	  0.002	 33.100	 100.011	 -0.658
38447	 -0.440	 -0.292	  0.471	  0.121	  0.058	 -9.733	 -0.003	  0.002	  0.001	 33.100	 100.000	  0.331
38497	 -0.443	 -0.287	  0.470	  0.140	  0.064	 -9.744	 -0.003	  0.003	  0.002	 33.100	 100.000	  0.331
38547	 -0.442	 -0.289	  0.466	  0.119	  0.036	 -9.761	 -0.000	  0.003	  0.001	 33.100	 100.000	  0.331
38597	 -0.440	 -0.289	  0.466	  0.130	  0.058	 -9.775	 -0.004	  0.001	  0.002	 33.100	 100.016	 -1.108
38647	 -0.440	 -0.290	  0.468	  0.135	  0.040	 -9.747	 -0.003	  0.002	  0.002	 33.100	 100.016	 -1.108
38697	 -0.441	 -0.289	  0.470	  0.127	  0.052	 -9.788	 -0.003	  0.002	 -0.001	 33.100	 100.011	 -0.658
38747	 -0.441	 -0.281	  0.470	  0.096	  0.050	 -9.768	 -0.003	  0.002	 -0.001	 33.100	 100.000	  0.331
38797	 -0.443	 -0.288	  0.468	  0.127	  0.054	 -9.757	 -0.004	  0.003	  0.002	 33.100	 100.000	  0.331
38847	 -0.441	 -0.286	  0.470	  0.131	  0.039	 -9.753	 -0.003	  0.001	 -0.000	 33.100	 100.011	 -0.658
38897	 -0.442	 -0.291	  0.471	  0.137	  0.072	 -9.757	 -0.003	  0.003	  0.001	 33.100	 100.011	 -0.658
38947	 -0.439	 -0.286	  0.463	  0.133	  0.048	 -9.780	 -0.003	  0.002	  0.000	 33.100	 100.000	  0.331
38997	 -0.442	 -0.288	  0.468	  0.147	  0.062	 -9.736	 -0.003	  0.002	  0.001	 33.100	 100.000	  0.331
39047	 -0.442	 -0.290	  0.467	  0.106	  0.062	 -9.757	 -0.002	  0.003	  0.002	 33.100	 100.000	  0.331
39097	 -0.442	 -0.286	  0.466	  0.118	  0.079	 -9.788	 -0.003	  0.002	  0.000	 33.100	 100.000	  0.331
39147	 -0.441	 -0.291	  0.470	  0.120	  0.055	 -9.734	 -0.004	  0.003	  0.001	 33.100	 100.000	  0.331
39197	 -0.442	 -0.289	  0.466	  0.109	  0.055	 -9.728	 -0.004	  0.003	  0.001	 33.100	 100.011	 -0.658
39247	 -0.441	 -0.287	  0.471	  0.120	  0.043	 -9.764	 -0.004	  0.003	 -0.000	 33.100	 100.004	 -0.028
39297	 -0.441	 -0.279	  0.470	  0.119	  0.047	 -9.745	 -0.002	  0.003	  0.002	 33.100	 100.011	 -0.658
39347	 -0.443	 -0.289	  0.465	  0.107	  0.062	 -9.789	 -0.004	  0.002	  0.001	 33.100	 100.011	 -0.658
39397	 -0.442	 -0.286	  0.470	  0.131	  0.041	 -9.775	 -0.003	  0.001	  0.000	 33.100	 100.016	 -1.108
39447	 -0.442	 -0.286	  0.472	  0.124	  0.053	 -9.758	 -0.002	  0.003	  0.001	 33.100	 100.000	  0.331
39497	 -0.442	 -0.290	  0.464	  0.105	  0.035	 -9.739	 -0.003	  0.003	  0.001	 33.100	 100.011	 -0.658
39547	 -0.443	 -0.287	  0.470	  0.115	  0.051	 -9.770	 -0.002	  0.002	  0.001	 33.100	 100.000	  0.331
39597	 -0.441	 -0.288	  0.471	  0.103	  0.050	 -9.772	 -0.004	  0.003	  0.000	 33.100	 100.023	 -1.737
39647	 -0.440	 -0.292	  0.470	  0.134	  0.065	 -9.762	 -0.004	  0.003	  0.001	 33.100	 100.000	  0.331
39697	 -0.442	 -0.289	  0.470	  0.122	  0.047	 -9.779	 -0.003	  0.002	  0.000	 33.100	 100.023	 -1.737
39747	 -0.441	 -0.289	  0.468	  0.145	  0.029	 -9.795	 -0.002	  0.003	  0.001	 33.100	 100.016	 -1.108
39796	 -0.441	 -0.287	  0.467	  0.146	  0.039	 -9.783	 -0.003	  0.001	 -0.000	 33.100	 100.000	  0.331
39846	 -0.441	 -0.286	  0.471	  0.134	  0.053	 -9.799	 -0.003	  0.002	  0.000	 33.100	 100.011	 -0.658
39896	 -0.443	 -0.278	  0.472	  0.126	  0.045	 -9.747	 -0.004	  0.002	  0.002	 33.100	 100.011	 -0.658
39946	 -0.441	 -0.278	  0.470	  0.133	  0.049	 -9.759	 -0.003	  0.002	  0.001	 33.100	 100.011	 -0.658
39997	 -0.442	 -0.284	  0.468	  0.127	  0.037	 -9.742	 -0.003	  0.001	 -0.000	 33.100	 100.000	  0.331
40047	 -0.441	 -0.289	  0.465	  0.139	  0.034	 -9.752	 -0.003	  0.002	  0.001	 33.100	 100.000	  0.331
40097	 -0.442	 -0.285	  0.468	  0.096	  0.059	 -9.800	 -0.003	  0.003	  0.000	 33.100	 100.000	  0.331
40146	 -0.442	 -0.290	  0.467	  0.129	  0.040	 -9.775	 -0.003	  0.002	  0.001	 33.100	 100.011	 -0.658
40196	 -0.441	 -0.288	  0.468	  0.129	  0.064	 -9.720	 -0.002	  0.003	  0.002	 33.100	 100.011	 -0.658
40246	 -0.441	 -0.292	  0.468	  0.113	  0.046	 -9.745	 -0.004	  0.002	  0.001	 33.100	 100.011	 -0.658
40296	 -0.442	 -0.277	  0.469	  0.132	  0.055	 -9.779	 -0.002	  0.003	  0.000	 33.100	 100.000	  0.331
40346	 -0.442	 -0.287	  0.463	  0.121	  0.036	 -9.769	 -0.003	  0.001	  0.001	 33.100	 100.000	  0.331
40396	 -0.441	 -0.287	  0.471	  0.142	  0.063	 -9.759	 -0.003	  0.002	  0.001	 33.100	 100.011	 -0.658
40446	 -0.443	 -0.288	  0.471	  0.133	  0.046	 -9.764	 -0.002	  0.002	 -0.001	 33.100	 100.004	 -0.028
40496	 -0.442	 -0.287	  0.471	  0.118	  0.032	 -9.810	 -0.003	  0.002	  0.002	 33.100	 100.016	 -1.108
40546	 -0.441	 -0.287	  0.470	  0.140	  0.042	 -9.735	 -0.003	  0.004	  0.001	 33.100	 100.011	 -0.658
40596	 -0.443	 -0.275	  0.472	  0.135	  0.053	 -9.787	 -0.003	  0.003	  0.001	 33.100	 100.011	 -0.658
40646	 -0.443	 -0.286	  0.467	  0.143	  0.053	 -9.758	 -0.003	  0.003	  0.001	 33.100	 100.000	  0.331
40696	 -0.443	 -0.290	  0.467	  0.134	  0.044	 -9.755	 -0.003	  0.003	  0.001	 33.100	 100.000	  0.331
40746	 -0.441	 -0.287	  0.472	  0.113	  0.042	 -9.730	 -0.003	  0.002	  0.002	 33.100	 100.011	 -0.658
40796	 -0.440	 -0.286	  0.467	  0.132	  0.033	 -9.776	 -0.003	  0.004	  0.000	 33.100	 100.000	  0.331
40846	 -0.441	 -0.290	  0.468	  0.110	  0.067	 -9.768	 -0.003	  0.002	  0.002	 33.100	 100.011	 -0.658
40896	 -0.443	 -0.288	  0.467	  0.138	  0.033	 -9.738	 -0.003	  0.003	  0.000	 33.100	 100.011	 -0.658
40946	 -0.440	 -0.285	  0.472	  0.123	  0.022	 -9.805	 -0.003	  0.003	  0.001	 33.100	 100.016	 -1.108
40996	 -0.441	 -0.290	  0.470	  0.116	  0.051	 -9.776	 -0.004	  0.002	  0.002	 33.100	 100.011	 -0.658
41046	 -0.443	 -0.290	  0.468	  0.147	  0.048	 -9.725	 -0.003	  0.003	  0.000	 33.100	 100.000	  0.331
41096	 -0.442	 -0.289	  0.470	  0.117	  0.049	 -9.742	 -0.003	  0.002	  0.000	 33.100	 100.011	 -0.658
41146	 -0.441	 -0.288	  0.468	  0.137	  0.039	 -9.759	 -0.003	  0.001	  0.000	 33.100	 100.016	 -1.108
41196	 -0.442	 -0.290	  0.466	  0.112	  0.036	 -9.762	 -0.004	  0.002	  0.000	 33.100	 100.011	 -0.658
41246	 -0.443	 -0.287	  0.469	  0.147	  0.039	 -9.744	 -0.003	  0.002	  0.000	 33.100	 100.000	  0.331
41296	 -0.439	 -0.290	  0.467	  0.113	  0.051	 -9.793	 -0.003	  0.003	  0.000	 33.100	 100.011	 -0.658
41346	 -0.441	 -0.287	  0.471	  0.132	  0.049	 -9.751	 -0.005	  0.003	  0.002	 33.100	 100.011	 -0.658
41396	 -0.440	 -0.289	  0.468	  0.119	  0.055	 -9.781	 -0.003	  0.002	  0.001	 33.100	 100.000	  0.331
41446	 -0.440	 -0.292	  0.468	  0.137	  0.026	 -9.770	 -0.004	  0.003	  0.001	 33.100	 100.011	 -0.658
41497	 -0.441	 -0.286	  0.468	  0.128	  0.039	 -9.803	 -0.002	  0.001	 -0.000	 33.100	 100.000	  0.331
41546	 -0.440	 -0.288	  0.473	  0.115	  0.035	 -9.750	 -0.002	  0.002	  0.002	 33.100	 100.011	 -0.658
41596	 -0.443	 -0.288	  0.468	  0.145	  0.061	 -9.786	 -0.002	  0.003	  0.002	 33.100	 100.011	 -0.658
41647	 -0.442	 -0.289	  0.465	  0.117	  0.053	 -9.743	 -0.003	  0.002	  0.000	 33.100	 100.011	 -0.658
41696	 -0.441	 -0.289	  0.462	  0.119	  0.054	 -9.768	 -0.003	  0.001	  0.000	 33.100	 100.011	 -0.658
41747	 -0.445	 -0.291	  0.470	  0.131	  0.052	 -9.795	 -0.003	  0.002	  0.001	 33.100	 100.004	 -0.028
41796	 -0.442	 -0.288	  0.463	  0.115	  0.048	 -9.805	 -0.003	  0.002	  0.000	 33.100	 100.016	 -1.108
41846	 -0.442	 -0.291	  0.473	  0.107	  0.057	 -9.748	 -0.003	  0.003	  0.002	 33.100	 100.004	 -0.028
41896	 -0.442	 -0.290	  0.464	  0.133	  0.047	 -9.759	 -0.003	  0.002	  0.001	 33.100	 100.011	 -0.658
41946	 -0.440	 -0.287	  0.463	  0.117	  0.037	 -9.781	 -0.003	  0.001	 -0.000	 33.100	 100.011	 -0.658
41996	 -0.442	 -0.288	  0.470	  0.153	  0.042	 -9.767	 -0.003	  0.003	  0.002	 33.100	 100.000	  0.331
42046	 -0.441	 -0.290	  0.462	  0.107	  0.047	 -9.758	 -0.002	  0.003	  0.001	 33.100	 100.011	 -0.658
42097	 -0.440	 -0.290	  0.468	  0.113	  0.029	 -9.769	 -0.003	  0.004	  0.000	 33.100	 100.011	 -0.658
42147	 -0.440	 -0.285	  0.463	  0.142	  0.055	 -9.766	 -0.004	  0.002	  0.001	 33.100	 100.011	 -0.658
42197	 -0.441	 -0.284	  0.467	  0.134	  0.054	 -9.766	 -0.003	  0.002	  0.001	 33.100	 100.011	 -0.658
42247	 -0.441	 -0.286	  0.470	  0.115	  0.061	 -9.770	 -0.003	  0.003	 -0.001	 33.100	 100.011	 -0.658
42297	 -0.442	 -0.286	  0.467	  0.127	  0.044	 -9.784	 -0.003	  0.002	  0.001	 33.100	 100.000	  0.331
42347	 -0.441	 -0.289	  0.466	  0.133	  0.043	 -9.758	 -0.002	  0.002	  0.001	 33.100	 100.011	 -0.658
42397	 -0.442	 -0.291	  0.475	  0.133	  0.035	 -9.785	 -0.003	  0.003	  0.001	 33.100	 100.011	 -0.658
42447	 -0.441	 -0.289	  0.472	  0.131	  0.038	 -9.750	 -0.003	  0.001	  0.001	 33.100	 100.011	 -0.658
42497	 -0.441	 -0.290	  0.465	  0.129	  0.043	 -9.790	 -0.003	  0.003	  0.000	 33.100	 100.011	 -0.658
42547	 -0.441	 -0.290	  0.471	  0.114	  0.038	 -9.775	 -0.004	  0.002	  0.001	 33.100	 100.000	  0.331
42597	 -0.440	 -0.286	  0.470	  0.143	  0.067	 -9.783	 -0.003	  0.003	  0.002	 33.100	 100.011	 -0.658
42647	 -0.442	 -0.284	  0.472	  0.121	  0.039	 -9.771	 -0.004	  0.002	  0.001	 33.100	 100.007	 -0.298
42697	 -0.443	 -0.275	  0.472	  0.131	  0.049	 -9.785	 -0.003	  0.002	  0.002	 33.100	 100.011	 -0.658
42747	 -0.443	 -0.287	  0.468	  0.112	  0.044	 -9.737	 -0.003	  0.002	 -0.001	 33.100	 100.011	 -0.658
42797	 -0.442	 -0.289	  0.471	  0.092	  0.048	 -9.776	 -0.002	  0.001	  0.000	 33.100	 100.000	  0.331
42847	 -0.441	 -0.292	  0.471	  0.137	  0.048	 -9.762	 -0.004	  0.003	  0.002	 33.100	 100.000	  0.331
42897	 -0.441	 -0.287	  0.468	  0.110	  0.050	 -9.763	 -0.002	  0.004	  0.001	 33.100	 100.011	 -0.658
42947	 -0.442	 -0.287	  0.472	  0.132	  0.033	 -9.759	 -0.003	  0.003	  0.001	 33.100	 100.000	  0.331
42997	 -0.443	 -0.290	  0.473	  0.120	  0.041	 -9.734	 -0.003	  0.003	  0.002	 33.100	 100.011	 -0.658
43047	 -0.439	 -0.289	  0.471	  0.107	  0.051	 -9.787	 -0.004	  0.003	  0.000	 33.100	 100.011	 -0.658
43098	 -0.442	 -0.285	  0.468	  0.110	  0.024	 -9.781	 -0.004	  0.002	  0.000	 33.100	 100.016	 -1.108
43147	 -0.442	 -0.285	  0.470	  0.114	  0.032	 -9.767	 -0.004	  0.002	  0.000	 33.100	 100.011	 -0.658
43197	 -0.442	 -0.294	  0.472	  0.105	  0.052	 -9.750	 -0.002	  0.002	  0.000	 33.100	 100.000	  0.331
43247	 -0.441	 -0.294	  0.473	  0.113	  0.048	 -9.737	 -0.003	  0.002	  0.001	 33.100	 100.011	 -0.658
43297	 -0.442	 -0.288	  0.470	  0.125	  0.037	 -9.739	 -0.004	  0.002	 -0.000	 33.100	 100.023	 -1.737
43347	 -0.441	 -0.286	  0.470	  0.106	  0.050	 -9.782	 -0.003	  0.002	  0.001	 33.100	 100.023	 -1.737
43397	 -0.441	 -0.287	  0.467	  0.128	  0.021	 -9.767	 -0.003	  0.002	  0.001	 33.100	 100.000	  0.331
43447	 -0.441	 -0.285	  0.465	  0.140	  0.048	 -9.757	 -0.005	  0.003	  0.001	 33.100	 100.011	 -0.658
43497	 -0.445	 -0.287	  0.470	  0.140	  0.052	 -9.754	 -0.005	  0.002	  0.000	 33.100	 100.011	 -0.658
43547	 -0.442	 -0.292	  0.470	  0.126	  0.044	 -9.768	 -0.004	  0.001	 -0.001	 33.100	 100.004	 -0.028
43597	 -0.442	 -0.290	  0.463	  0.134	  0.060	 -9.759	 -0.002	  0.002	  0.001	 33.100	 100.011	 -0.658
43647	 -0.442	 -0.288	  0.467	  0.132	  0.049	 -9.771	 -0.004	  0.003	  0.000	 33.100	 100.011	 -0.658
43697	 -0.443	 -0.284	  0.471	  0.117	  0.046	 -9.774	 -0.004	  0.002	  0.002	 33.100	 100.011	 -0.658
43747	 -0.442	 -0.286	  0.465	  0.119	  0.038	 -9.751	 -0.004	  0.002	  0.000	 33.100	 100.000	  0.331
43797	 -0.440	 -0.288	  0.472	  0.090	  0.031	 -9.769	 -0.004	  0.002	  0.001	 33.100	 100.011	 -0.658
43847	 -0.441	 -0.288	  0.466	  0.107	  0.054	 -9.779	 -0.003	  0.003	  0.001	 33.100	 100.011	 -0.658
43897	 -0.441	 -0.291	  0.472	  0.117	  0.046	 -9.738	 -0.003	  0.002	  0.000	 33.100	 100.011	 -0.658
43947	 -0.441	 -0.287	  0.466	  0.123	  0.049	 -9.747	 -0.002	  0.003	  0.000	 33.100	 100.011	 -0.658
43997	 -0.441	 -0.287	  0.470	  0.131	  0.053	 -9.750	 -0.004	  0.002	  0.001	 33.100	 100.011	 -0.658
44047	 -0.442	 -0.288	  0.467	  0.148	  0.062	 -9.781	 -0.003	  0.003	  0.001	 33.100	 100.000	  0.331
44097	 -0.443	 -0.278	  0.472	  0.120	  0.050	 -9.751	 -0.003	  0.003	  0.000	 33.100	 100.000	  0.331
44147	 -0.444	 -0.290	  0.468	  0.102	  0.065	 -9.761	 -0.003	  0.003	  0.001	 33.100	 100.011	 -0.658
44197	 -0.440	 -0.289	  0.467	  0.131	  0.036	 -9.768	 -0.002	  0.002	  0.001	 33.100	 100.011	 -0.658
44247	 -0.441	 -0.291	  0.470	  0.128	  0.034	 -9.742	 -0.003	  0.004	  0.001	 33.100	 100.000	  0.331
44297	 -0.442	 -0.279	  0.469	  0.140	  0.026	 -9.752	 -0.003	  0.002	  0.001	 33.100	 100.000	  0.331
44347	 -0.440	 -0.290	  0.466	  0.124	  0.042	 -9.733	 -0.003	  0.002	  0.001	 33.100	 100.000	  0.331
44397	 -0.439	 -0.288	  0.468	  0.122	  0.028	 -9.764	 -0.003	  0.002	  0.001	 33.100	 100.000	  0.331
44447	 -0.440	 -0.285	  0.473	  0.136	  0.060	 -9.772	 -0.004	  0.001	  0.001	 33.100	 100.000	  0.331
44497	 -0.441	 -0.283	  0.471	  0.141	  0.039	 -9.777	 -0.003	  0.003	  0.001	 33.100	 100.011	 -0.658
44547	 -0.441	 -0.289	  0.465	  0.139	  0.036	 -9.751	 -0.004	  0.002	  0.000	 33.100	 100.004	 -0.028
44597	 -0.441	 -0.277	  0.469	  0.136	  0.058	 -9.744	 -0.003	  0.001	  0.001	 33.100	 100.011	 -0.658
44647	 -0.441	 -0.284	  0.470	  0.142	  0.053	 -9.719	 -0.003	  0.003	  0.001	 33.100	 100.011	 -0.658
44697	 -0.443	 -0.288	  0.465	  0.130	  0.052	 -9.758	 -0.003	  0.002	  0.001	 33.100	 100.011	 -0.658
44747	 -0.443	 -0.287	  0.467	  0.145	  0.033	 -9.760	 -0.003	  0.001	  0.000	 33.100	 100.000	  0.331
44797	 -0.441	 -0.288	  0.468	  0.138	  0.063	 -9.770	 -0.003	  0.002	  0.001	 33.100	 100.000	  0.331
44847	 -0.440	 -0.290	  0.471	  0.133	  0.069	 -9.732	 -0.003	  0.002	  0.000	 33.100	 100.011	 -0.658
44897	 -0.444	 -0.290	  0.472	  0.136	  0.028	 -9.778	 -0.005	  0.002	  0.001	 33.100	 100.000	  0.331
44947	 -0.439	 -0.288	  0.471	  0.145	  0.032	 -9.775	 -0.003	  0.003	  0.001	 33.100	 100.011	 -0.658
44997	 -0.439	 -0.288	  0.467	  0.129	  0.051	 -9.738	 -0.003	  0.003	  0.000	 33.100	 100.011	 -0.658
45047	 -0.440	 -0.290	  0.471	  0.145	  0.046	 -9.775	 -0.003	  0.003	  0.001	 33.100	 100.016	 -1.108
45097	 -0.442	 -0.288	  0.467	  0.135	  0.042	 -9.783	 -0.002	  0.002	  0.001	 33.100	 100.011	 -0.658
45147	 -0.442	 -0.287	  0.464	  0.113	  0.042	 -9.759	 -0.002	  0.003	  0.000	 33.100	 100.000	  0.331
45197	 -0.440	 -0.289	  0.470	  0.117	  0.036	 -9.751	 -0.004	  0.003	  0.001	 33.100	 100.011	 -0.658
45247	 -0.440	 -0.286	  0.472	  0.127	  0.034	 -9.787	 -0.003	  0.002	  0.001	 33.100	 100.011	 -0.658
45297	 -0.441	 -0.287	  0.464	  0.113	  0.037	 -9.732	 -0.002	  0.003	  0.002	 33.100	 100.004	 -0.028
45347	 -0.441	 -0.291	  0.471	  0.112	  0.042	 -9.777	 -0.004	  0.002	  0.001	 33.100	 100.011	 -0.658
45397	 -0.442	 -0.289	  0.467	  0.129	  0.070	 -9.803	 -0.003	  0.003	  0.000	 33.100	 100.000	  0.331
45447	 -0.443	 -0.290	  0.470	  0.131	  0.048	 -9.769	 -0.004	  0.003	 -0.001	 33.100	 100.011	 -0.658
45497	 -0.442	 -0.278	  0.472	  0.120	  0.024	 -9.751	 -0.003	  0.002	  0.001	 33.100	 100.011	 -0.658
45547	 -0.441	 -0.288	  0.470	  0.133	  0.059	 -9.762	 -0.003	  0.002	  0.001	 33.100	 100.016	 -1.108
45597	 -0.444	 -0.286	  0.467	  0.109	  0.036	 -9.765	 -0.003	  0.002	  0.001	 33.100	 100.000	  0.331
45647	 -0.442	 -0.289	  0.465	  0.120	  0.038	 -9.795	 -0.003	  0.002	  0.001	 33.100	 100.011	 -0.658
45697	 -0.441	 -0.288	  0.467	  0.108	  0.051	 -9.735	 -0.003	  0.002	  0.001	 33.100	 100.016	 -1.108
45747	 -0.443	 -0.282	  0.468	  0.137	  0.062	 -9.755	 -0.004	  0.002	  0.001	 33.100	 100.016	 -1.108
45797	 -0.442	 -0.292	  0.473	  0.121	  0.056	 -9.758	 -0.003	  0.002	  0.001	 33.100	 100.011	 -0.658
45847	 -0.441	 -0.289	  0.466	  0.128	  0.020	 -9.783	 -0.003	  0.002	  0.001	 33.100	 100.011	 -0.658
45897	 -0.442	 -0.289	  0.470	  0.118	  0.068	 -9.769	 -0.004	  0.002	 -0.000	 33.100	 100.000	  0.331
45947	 -0.442	 -0.288	  0.470	  0.130	  0.050	 -9.774	 -0.003	  0.002	  0.000	 33.100	 100.004	 -0.028
45997	 -0.442	 -0.294	  0.468	  0.126	  0.042	 -9.802	 -0.004	  0.002	  0.001	 33.100	 100.011	 -0.658
46047	 -0.442	 -0.290	  0.471	  0.129	  0.043	 -9.743	 -0.002	  0.002	  0.001	 33.100	 100.000	  0.331
46097	 -0.442	 -0.286	  0.466	  0.105	  0.037	 -9.759	 -0.003	  0.002	  0.000	 33.100	 100.011	 -0.658
46147	 -0.441	 -0.290	  0.468	  0.142	  0.027	 -9.778	 -0.003	  0.002	  0.001	 33.100	 100.011	 -0.658
46197	 -0.443	 -0.290	  0.467	  0.129	  0.038	 -9.747	 -0.003	  0.002	  0.000	 33.100	 100.011	 -0.658
46247	 -0.442	 -0.286	  0.471	  0.107	  0.051	 -9.747	 -0.005	  0.002	  0.001	 33.100	 100.000	  0.331
46297	 -0.438	 -0.287	  0.467	  0.112	  0.063	 -9.753	 -0.003	  0.002	  0.001	 33.100	 100.016	 -1.108
46347	 -0.441	 -0.284	  0.471	  0.128	  0.068	 -9.814	 -0.003	  0.002	  0.001	 33.100	 100.004	 -0.028
46397	 -0.443	 -0.288	  0.470	  0.137	  0.055	 -9.768	 -0.003	  0.003	  0.001	 33.100	 100.016	 -1.108
46447	 -0.440	 -0.273	  0.470	  0.112	  0.036	 -9.738	 -0.004	  0.002	  0.000	 33.100	 100.011	 -0.658
46497	 -0.442	 -0.290	  0.468	  0.122	  0.045	 -9.816	 -0.003	  0.003	  0.000	 33.100	 100.011	 -0.658
46547	 -0.441	 -0.275	  0.467	  0.121	  0.050	 -9.753	 -0.004	  0.002	  0.001	 33.100	 100.016	 -1.108
46597	 -0.442	 -0.290	  0.465	  0.120	  0.037	 -9.750	 -0.004	  0.002	 -0.000	 33.100	 100.004	 -0.028
46647	 -0.442	 -0.289	  0.471	  0.119	  0.045	 -9.794	 -0.003	  0.003	  0.000	 33.100	 100.004	 -0.028
46697	 -0.442	 -0.290	  0.463	  0.134	  0.042	 -9.778	 -0.003	  0.002	  0.002	 33.100	 100.011	 -0.658
46747	 -0.443	 -0.279	  0.468	  0.123	  0.052	 -9.788	 -0.003	  0.002	  0.001	 33.100	 100.011	 -0.658
46797	 -0.443	 -0.289	  0.475	  0.124	  0.047	 -9.737	 -0.002	  0.002	  0.002	 33.100	 100.000	  0.331
46847	 -0.441	 -0.287	  0.472	  0.137	  0.039	 -9.752	 -0.003	  0.002	  0.001	 33.100	 100.000	  0.331
46897	 -0.443	 -0.286	  0.469	  0.110	  0.056	 -9.780	 -0.003	  0.002	  0.001	 33.100	 100.000	  0.331
46947	 -0.443	 -0.276	  0.470	  0.125	  0.037	 -9.768	 -0.004	  0.002	  0.001	 33.100	 100.000	  0.331
46997	 -0.441	 -0.288	  0.471	  0.133	  0.035	 -9.776	 -0.002	  0.003	  0.000	 33.100	 100.004	 -0.028
47048	 -0.440	 -0.285	  0.471	  0.129	  0.048	 -9.784	 -0.004	  0.003	  0.000	 33.100	 100.004	 -0.028
47097	 -0.441	 -0.286	  0.470	  0.139	  0.040	 -9.790	 -0.004	  0.001	  0.001	 33.100	 100.011	 -0.658
47148	 -0.440	 -0.290	  0.472	  0.131	  0.061	 -9.785	 -0.003	  0.002	  0.001	 33.100	 100.011	 -0.658
47197	 -0.443	 -0.288	  0.466	  0.125	  0.061	 -9.752	 -0.003	  0.002	  0.000	 33.100	 100.011	 -0.658
47248	 -0.444	 -0.293	  0.467	  0.145	  0.043	 -9.794	 -0.002	  0.003	  0.001	 33.100	 100.011	 -0.658
47297	 -0.444	 -0.288	  0.471	  0.129	  0.033	 -9.756	 -0.003	  0.003	  0.001	 33.100	 100.011	 -0.658
47347	 -0.442	 -0.286	  0.470	  0.145	  0.061	 -9.764	 -0.003	  0.002	  0.001	 33.100	 100.011	 -0.658
47397	 -0.441	 -0.288	  0.468	  0.149	  0.035	 -9.733	 -0.004	  0.003	  0.002	 33.100	 100.000	  0.331
47447	 -0.442	 -0.289	  0.467	  0.121	  0.058	 -9.768	 -0.002	  0.001	  0.001	 33.100	 100.016	 -1.108
47497	 -0.443	 -0.289	  0.467	  0.137	  0.029	 -9.758	 -0.005	  0.003	  0.001	 33.100	 100.016	 -1.108
47547	 -0.443	 -0.276	  0.469	  0.147	  0.043	 -9.787	 -0.004	  0.003	  0.000	 33.100	 100.011	 -0.658
47597	 -0.443	 -0.285	  0.469	  0.121	  0.050	 -9.770	 -0.004	  0.004	  0.001	 33.100	 100.000	  0.331
47648	 -0.443	 -0.289	  0.470	  0.120	  0.060	 -9.746	 -0.003	  0.003	  0.000	 33.100	 100.023	 -1.737
47698	 -0.441	 -0.292	  0.471	  0.131	  0.037	 -9.772	 -0.003	  0.002	  0.001	 33.100	 100.000	  0.331
47748	 -0.440	 -0.288	  0.468	  0.126	  0.027	 -9.766	 -0.003	  0.002	  0.001	 33.100	 100.011	 -0.658
47798	 -0.446	 -0.286	  0.468	  0.129	  0.054	 -9.770	 -0.003	  0.003	 -0.000	 33.100	 100.011	 -0.658
47848	 -0.441	 -0.290	  0.471	  0.108	  0.051	 -9.743	 -0.003	  0.003	  0.000	 33.100	 100.000	  0.331
47898	 -0.439	 -0.290	  0.470	  0.137	  0.043	 -9.761	 -0.004	  0.001	  0.000	 33.100	 100.011	 -0.658
47948	 -0.442	 -0.287	  0.473	  0.127	  0.041	 -9.758	 -0.003	  0.003	  0.000	 33.100	 100.011	 -0.658
47998	 -0.441	 -0.290	  0.465	  0.140	  0.044	 -9.770	 -0.004	  0.002	 -0.000	 33.100	 100.016	 -1.108
48048	 -0.442	 -0.290	  0.468	  0.122	  0.036	 -9.761	 -0.004	  0.002	  0.001	 33.100	 100.023	 -1.737
48098	 -0.441	 -0.289	  0.465	  0.130	  0.042	 -9.762	 -0.004	  0.003	  0.001	 33.100	 100.011	 -0.658
48148	 -0.441	 -0.287	  0.471	  0.138	  0.058	 -9.777	 -0.003	  0.003	 -0.000	 33.100	 100.011	 -0.658
48198	 -0.441	 -0.289	  0.471	  0.145	  0.047	 -9.769	 -0.004	  0.003	  0.000	 33.100	 100.011	 -0.658
48248	 -0.441	 -0.288	  0.466	  0.122	  0.065	 -9.766	 -0.003	  0.003	  0.001	 33.100	 100.011	 -0.658
48297	 -0.442	 -0.286	  0.475	  0.123	  0.029	 -9.774	 -0.003	  0.002	  0.001	 33.100	 100.011	 -0.658
48348	 -0.446	 -0.288	  0.469	  0.119	  0.064	 -9.807	 -0.003	  0.002	  0.000	 33.100	 100.000	  0.331
48397	 -0.442	 -0.292	  0.463	  0.122	  0.045	 -9.776	 -0.005	  0.003	 -0.000	 33.100	 100.004	 -0.028
48447	 -0.441	 -0.288	  0.470	  0.129	  0.036	 -9.765	 -0.003	  0.003	  0.002	 33.100	 100.000	  0.331
48497	 -0.442	 -0.286	  0.468	  0.144	  0.051	 -9.748	 -0.003	  0.002	  0.001	 33.100	 100.011	 -0.658
48548	 -0.444	 -0.283	  0.466	  0.138	  0.034	 -9.773	 -0.003	  0.003	  0.001	 33.100	 100.016	 -1.108
48597	 -0.443	 -0.289	  0.473	  0.136	  0.044	 -9.748	 -0.003	  0.002	  0.001	 33.100	 100.011	 -0.658
48647	 -0.441	 -0.288	  0.470	  0.133	  0.050	 -9.755	 -0.003	  0.003	  0.002	 33.100	 100.011	 -0.658
48697	 -0.445	 -0.286	  0.466	  0.133	  0.025	 -9.771	 -0.004	  0.003	  0.001	 33.100	 100.000	  0.331
48747	 -0.441	 -0.289	  0.472	  0.129	  0.031	 -9.764	 -0.003	  0.003	  0.001	 33.100	 100.011	 -0.658
48797	 -0.442	 -0.288	  0.466	  0.135	  0.055	 -9.774	 -0.004	  0.003	  0.000	 33.100	 100.000	  0.331
48847	 -0.440	 -0.279	  0.468	  0.126	  0.055	 -9.737	 -0.003	  0.001	  0.001	 33.100	 100.011	 -0.658
48897	 -0.442	 -0.287	  0.470	  0.118	  0.034	 -9.749	 -0.004	  0.001	  0.001	 33.100	 100.011	 -0.658
48947	 -0.441	 -0.283	  0.468	  0.111	  0.060	 -9.769	 -0.003	  0.003	  0.001	 33.100	 100.011	 -0.658
48997	 -0.443	 -0.288	  0.467	  0.128	  0.060	 -9.754	 -0.003	  0.001	  0.001	 33.100	 100.004	 -0.028
49047	 -0.441	 -0.292	  0.470	  0.138	  0.060	 -9.759	 -0.003	  0.003	  0.000	 33.100	 100.016	 -1.108
49097	 -0.442	 -0.290	  0.468	  0.137	  0.041	 -9.759	 -0.002	  0.002	  0.000	 33.100	 100.011	 -0.658
49147	 -0.444	 -0.278	  0.470	  0.122	  0.055	 -9.720	 -0.003	  0.003	  0.001	 33.100	 99.996	  0.691
49197	 -0.442	 -0.288	  0.472	  0.137	  0.026	 -9.755	 -0.003	  0.001	  0.001	 33.100	 100.011	 -0.658
49247	 -0.439	 -0.292	  0.471	  0.132	  0.041	 -9.768	 -0.003	  0.002	  0.001	 33.100	 100.000	  0.331
49297	 -0.443	 -0.291	  0.468	  0.139	  0.029	 -9.763	 -0.003	  0.002	  0.001	 33.100	 100.011	 -0.658
49347	 -0.441	 -0.292	  0.465	  0.113	  0.055	 -9.798	 -0.003	  0.003	  0.001	 33.100	 100.011	 -0.658
49397	 -0.440	 -0.278	  0.470	  0.116	  0.030	 -9.760	 -0.003	  0.002	  0.001	 33.100	 100.000	  0.331
49447	 -0.443	 -0.278	  0.469	  0.155	  0.027	 -9.756	 -0.003	  0.002	  0.002	 33.100	 100.016	 -1.108
49497	 -0.442	 -0.288	  0.467	  0.144	  0.039	 -9.773	 -0.003	  0.001	  0.001	 33.100	 100.011	 -0.658
49547	 -0.442	 -0.287	  0.473	  0.126	  0.043	 -9.769	 -0.003	  0.003	  0.001	 33.100	 99.989	  1.321
49597	 -0.441	 -0.283	  0.470	  0.138	  0.064	 -9.776	 -0.002	  0.003	  0.000	 33.100	 100.000	  0.331
49647	 -0.442	 -0.291	  0.468	  0.126	  0.032	 -9.754	 -0.003	  0.003	 -0.000	 33.100	 100.000	  0.331
49697	 -0.440	 -0.288	  0.471	  0.145	  0.067	 -9.764	 -0.004	  0.002	 -0.000	 33.100	 100.016	 -1.108
49747	 -0.442	 -0.287	  0.472	  0.136	  0.070	 -9.739	 -0.005	  0.002	  0.001	 33.100	 100.000	  0.331
49797	 -0.443	 -0.287	  0.467	  0.125	  0.056	 -9.767	 -0.004	  0.002	  0.001	 33.100	 100.000	  0.331
49847	 -0.440	 -0.289	  0.467	  0.146	  0.056	 -9.750	 -0.004	  0.003	  0.001	 33.100	 100.004	 -0.028
49897	 -0.441	 -0.288	  0.470	  0.130	  0.053	 -9.746	 -0.003	  0.002	  0.001	 33.100	 100.011	 -0.658
49947	 -0.442	 -0.285	  0.471	  0.153	  0.065	 -9.756	 -0.003	  0.002	  0.000	 33.100	 100.011	 -0.658
49997	 -0.442	 -0.286	  0.471	  0.117	  0.046	 -9.800	 -0.003	  0.002	  0.001	 33.100	 100.011	 -0.658
50047	 -0.440	 -0.292	  0.470	  0.138	  0.050	 -9.760	 -0.003	  0.002	  0.001	 33.100	 100.000	  0.331
50097	 -0.442	 -0.280	  0.471	  0.130	  0.045	 -9.765	 -0.003	  0.004	  0.001	 33.100	 100.016	 -1.108
50147	 -0.442	 -0.289	  0.468	  0.132	  0.051	 -9.772	 -0.003	  0.003	  0.000	 33.100	 100.016	 -1.108
50197	 -0.443	 -0.275	  0.470	  0.136	  0.070	 -9.794	 -0.003	  0.002	  0.001	 33.100	 100.000	  0.331
50247	 -0.442	 -0.292	  0.463	  0.127	  0.054	 -9.745	 -0.004	  0.003	  0.000	 33.100	 100.011	 -0.658
50297	 -0.443	 -0.289	  0.470	  0.121	  0.043	 -9.744	 -0.002	  0.001	  0.000	 33.100	 100.000	  0.331
50347	 -0.442	 -0.287	  0.470	  0.134	  0.053	 -9.789	 -0.003	  0.003	  0.001	 33.100	 100.000	  0.331
50397	 -0.441	 -0.287	  0.463	  0.114	  0.042	 -9.774	 -0.004	  0.002	  0.002	 33.100	 100.000	  0.331
50447	 -0.440	 -0.290	  0.473	  0.135	  0.043	 -9.746	 -0.004	  0.002	  0.000	 33.100	 100.000	  0.331
50497	 -0.442	 -0.290	  0.470	  0.141	  0.051	 -9.770	 -0.004	  0.002	 -0.000	 33.100	 100.004	 -0.028
50547	 -0.442	 -0.289	  0.468	  0.126	  0.031	 -9.761	 -0.003	  0.002	  0.000	 33.100	 100.000	  0.331
50597	 -0.442	 -0.286	  0.471	  0.143	  0.046	 -9.801	 -0.002	  0.003	  0.001	 33.100	 100.011	 -0.658
50647	 -0.442	 -0.291	  0.467	  0.124	  0.046	 -9.777	 -0.002	  0.002	  0.001	 33.100	 100.011	 -0.658
50697	 -0.441	 -0.284	  0.470	  0.130	  0.065	 -9.776	 -0.004	  0.001	  0.001	 33.100	 100.011	 -0.658
50747	 -0.444	 -0.287	  0.467	  0.119	  0.041	 -9.782	 -0.002	  0.002	  0.001	 33.100	 100.016	 -1.108
50797	 -0.443	 -0.290	  0.468	  0.125	  0.050	 -9.747	 -0.003	  0.003	  0.001	 33.100	 100.011	 -0.658
50847	 -0.440	 -0.283	  0.468	  0.165	  0.047	 -9.761	 -0.004	  0.004	  0.000	 33.100	 99.989	  1.321
50897	 -0.442	 -0.292	  0.472	  0.140	  0.037	 -9.750	 -0.003	  0.003	  0.001	 33.100	 100.000	  0.331
50947	 -0.444	 -0.288	  0.466	  0.132	  0.053	 -9.768	 -0.003	  0.002	  0.000	 33.100	 100.011	 -0.658
50997	 -0.442	 -0.288	  0.461	  0.115	  0.033	 -9.769	 -0.003	  0.002	  0.001	 33.100	 100.000	  0.331
51047	 -0.441	 -0.290	  0.468	  0.146	  0.051	 -9.756	 -0.002	  0.003	  0.002	 33.100	 100.011	 -0.658
51097	 -0.441	 -0.288	  0.473	  0.114	  0.055	 -9.733	 -0.004	  0.002	  0.001	 33.100	 100.011	 -0.658
51147	 -0.445	 -0.289	  0.467	  0.152	  0.050	 -9.782	 -0.004	  0.001	  0.000	 33.100	 100.000	  0.331
51197	 -0.439	 -0.283	  0.470	  0.140	  0.045	 -9.764	 -0.001	  0.002	  0.002	 33.100	 100.000	  0.331
51247	 -0.445	 -0.289	  0.472	  0.167	  0.060	 -9.759	 -0.003	  0.003	  0.001	 33.100	 100.000	  0.331
51297	 -0.443	 -0.288	  0.468	  0.111	  0.058	 -9.754	 -0.004	  0.002	  0.002	 33.100	 100.011	 -0.658
51347	 -0.442	 -0.292	  0.472	  0.149	  0.051	 -9.734	 -0.003	  0.002	  0.000	 33.100	 100.000	  0.331
51397	 -0.444	 -0.289	  0.468	  0.150	  0.047	 -9.775	 -0.002	  0.003	  0.000	 33.100	 100.016	 -1.108
