Time	 MagX	 MagY	 MagZ	 AccelX	 AccelY	 AccelZ	 Yaw	 Pitch	 Roll	 Temperature	 Pressure	 Altitude
23342	 -0.087	 -0.466	  0.338	  0.124	  0.031	 -9.759	 -0.003	  0.001	  0.000	 32.200	 100.892	 -99999.000
23392	 -0.090	 -0.460	  0.343	  0.147	  0.040	 -9.788	 -0.003	  0.002	 -0.000	 32.200	 100.892	 -99999.000
23442	 -0.089	 -0.465	  0.343	  0.139	  0.041	 -9.816	 -0.004	  0.003	 -0.000	 32.200	 100.892	 -99999.000
23492	 -0.089	 -0.461	  0.342	  0.121	  0.054	 -9.794	 -0.004	  0.003	 -0.000	 32.200	 100.892	 -99999.000
23542	 -0.088	 -0.460	  0.343	  0.148	  0.056	 -9.779	 -0.003	  0.002	  0.001	 32.200	 100.897	 -99999.000
23592	 -0.092	 -0.461	  0.339	  0.141	  0.047	 -9.839	 -0.003	  0.002	  0.001	 32.200	 100.892	 -99999.000
23642	 -0.091	 -0.461	  0.341	  0.123	  0.059	 -9.782	 -0.004	  0.003	  0.001	 32.200	 100.892	 -99999.000
23692	 -0.089	 -0.460	  0.341	  0.094	  0.032	 -9.792	 -0.003	  0.003	  0.000	 32.200	 100.892	 -99999.000
23742	 -0.090	 -0.462	  0.338	  0.128	  0.046	 -9.777	 -0.004	  0.002	  0.001	 32.200	 100.892	 -99999.000
23792	 -0.089	 -0.462	  0.340	  0.129	  0.052	 -9.807	 -0.004	  0.002	  0.000	 32.200	 100.892	 -99999.000
23842	 -0.086	 -0.453	  0.341	  0.131	  0.035	 -9.798	 -0.004	  0.002	  0.001	 32.200	 100.892	 -99999.000
23892	 -0.091	 -0.462	  0.339	  0.128	  0.047	 -9.783	 -0.004	  0.002	  0.000	 32.200	 100.881	 -99999.000
23942	 -0.089	 -0.462	  0.341	  0.139	  0.048	 -9.802	 -0.004	  0.003	  0.001	 32.200	 100.904	 -99999.000
23992	 -0.090	 -0.460	  0.339	  0.125	  0.044	 -9.801	 -0.002	  0.003	  0.001	 32.200	 100.892	 -99999.000
24042	 -0.089	 -0.458	  0.340	  0.136	  0.033	 -9.804	 -0.004	  0.001	  0.001	 32.200	 100.897	 -99999.000
24092	 -0.089	 -0.459	  0.337	  0.103	  0.052	 -9.801	 -0.003	  0.003	  0.001	 32.200	 100.897	 -99999.000
24142	 -0.089	 -0.465	  0.342	  0.141	  0.063	 -9.819	 -0.002	  0.002	  0.001	 32.200	 100.892	 -99999.000
24192	 -0.090	 -0.459	  0.339	  0.125	  0.048	 -9.791	 -0.005	  0.003	  0.000	 32.200	 100.897	 -99999.000
24242	 -0.090	 -0.458	  0.341	  0.116	  0.070	 -9.777	 -0.003	  0.002	  0.001	 32.200	 100.892	 -99999.000
24292	 -0.089	 -0.462	  0.338	  0.138	  0.055	 -9.785	 -0.003	  0.002	  0.001	 32.200	 100.904	 -99999.000
24342	 -0.090	 -0.463	  0.341	  0.121	  0.072	 -9.807	 -0.003	  0.003	  0.001	 32.200	 100.904	 -99999.000
24392	 -0.090	 -0.465	  0.342	  0.120	  0.064	 -9.781	 -0.003	  0.003	  0.001	 32.200	 100.885	 -99999.000
24442	 -0.090	 -0.461	  0.334	  0.122	  0.060	 -9.786	 -0.002	  0.002	  0.001	 32.200	 100.897	 -99999.000
24492	 -0.089	 -0.459	  0.334	  0.127	  0.047	 -9.812	 -0.003	  0.003	  0.000	 32.200	 100.904	 -99999.000
24542	 -0.090	 -0.462	  0.336	  0.125	  0.056	 -9.777	 -0.004	  0.002	  0.001	 32.200	 100.892	 -99999.000
24592	 -0.088	 -0.460	  0.343	  0.129	  0.040	 -9.800	 -0.004	  0.003	  0.001	 32.200	 100.881	 -99999.000
24642	 -0.090	 -0.462	  0.332	  0.127	  0.053	 -9.800	 -0.003	  0.003	  0.001	 32.200	 100.897	 -99999.000
24692	 -0.090	 -0.464	  0.337	  0.115	  0.039	 -9.797	 -0.003	  0.002	  0.000	 32.200	 100.892	 -99999.000
24742	 -0.088	 -0.460	  0.337	  0.136	  0.061	 -9.787	 -0.003	  0.002	  0.001	 32.200	 100.881	 -99999.000
24792	 -0.087	 -0.462	  0.338	  0.122	  0.048	 -9.793	 -0.003	  0.004	 -0.000	 32.200	 100.892	 -99999.000
24843	 -0.090	 -0.461	  0.338	  0.113	  0.043	 -9.811	 -0.003	  0.003	  0.001	 32.200	 100.892	 -99999.000
24892	 -0.087	 -0.459	  0.339	  0.132	  0.059	 -9.782	 -0.002	  0.004	  0.002	 32.200	 100.892	 -99999.000
24942	 -0.089	 -0.461	  0.337	  0.132	  0.057	 -9.821	 -0.003	  0.004	 -0.000	 32.200	 100.904	 -99999.000
24992	 -0.086	 -0.461	  0.343	  0.130	  0.038	 -9.771	 -0.004	  0.003	  0.001	 32.200	 100.892	 -99999.000
25042	 -0.089	 -0.462	  0.342	  0.133	  0.052	 -9.807	 -0.003	  0.001	 -0.000	 32.200	 100.892	 -99999.000
25092	 -0.090	 -0.461	  0.340	  0.139	  0.072	 -9.778	 -0.003	  0.003	 -0.000	 32.200	 100.892	 -99999.000
25142	 -0.089	 -0.460	  0.341	  0.132	  0.054	 -9.791	 -0.003	  0.001	 -0.000	 32.200	 100.897	 -99999.000
25193	 -0.087	 -0.465	  0.341	  0.148	  0.046	 -9.769	 -0.003	  0.002	  0.001	 32.200	 100.908	 -99999.000
25242	 -0.090	 -0.458	  0.341	  0.131	  0.016	 -9.789	 -0.004	  0.003	  0.002	 32.200	 100.897	 -99999.000
25293	 -0.091	 -0.460	  0.343	  0.128	  0.044	 -9.761	 -0.003	  0.002	  0.001	 32.200	 100.892	 -99999.000
25342	 -0.090	 -0.461	  0.340	  0.113	  0.028	 -9.804	 -0.003	  0.003	  0.001	 32.200	 100.892	 -99999.000
25392	 -0.089	 -0.459	  0.340	  0.104	  0.056	 -9.796	 -0.003	  0.001	  0.000	 32.200	 100.892	 -99999.000
25443	 -0.089	 -0.461	  0.333	  0.131	  0.041	 -9.786	 -0.003	  0.002	 -0.000	 32.200	 100.892	 -99999.000
25493	 -0.091	 -0.463	  0.338	  0.114	  0.027	 -9.787	 -0.003	  0.002	  0.001	 32.200	 100.892	 -99999.000
25543	 -0.089	 -0.463	  0.337	  0.110	  0.032	 -9.813	 -0.003	  0.003	  0.001	 32.200	 100.885	 -99999.000
25593	 -0.089	 -0.457	  0.340	  0.110	  0.046	 -9.783	 -0.003	  0.003	  0.001	 32.200	 100.892	 -99999.000
25643	 -0.092	 -0.462	  0.345	  0.117	  0.028	 -9.798	 -0.003	  0.001	  0.000	 32.200	 100.897	 -99999.000
25693	 -0.089	 -0.461	  0.338	  0.157	  0.048	 -9.792	 -0.003	  0.002	  0.000	 32.200	 100.892	 -99999.000
25743	 -0.090	 -0.462	  0.339	  0.128	  0.037	 -9.786	 -0.003	  0.003	  0.000	 32.200	 100.892	 -99999.000
25793	 -0.089	 -0.453	  0.339	  0.129	  0.027	 -9.777	 -0.002	  0.002	  0.001	 32.200	 100.892	 -99999.000
25843	 -0.090	 -0.467	  0.340	  0.126	  0.053	 -9.793	 -0.003	  0.002	 -0.000	 32.200	 100.892	 -99999.000
25893	 -0.088	 -0.459	  0.341	  0.140	  0.070	 -9.798	 -0.004	  0.002	  0.000	 32.200	 100.892	 -99999.000
25943	 -0.091	 -0.457	  0.341	  0.130	  0.043	 -9.783	 -0.004	  0.002	  0.001	 32.200	 100.897	 -99999.000
25993	 -0.088	 -0.456	  0.342	  0.121	  0.051	 -9.792	 -0.003	  0.004	 -0.001	 32.200	 100.892	 -99999.000
26043	 -0.088	 -0.463	  0.340	  0.131	  0.050	 -9.749	 -0.003	  0.001	  0.001	 32.200	 100.904	 -99999.000
26093	 -0.090	 -0.462	  0.334	  0.128	  0.050	 -9.818	 -0.003	  0.002	  0.000	 32.200	 100.892	 -99999.000
26143	 -0.088	 -0.453	  0.340	  0.108	  0.045	 -9.824	 -0.002	  0.002	  0.000	 32.200	 100.897	 -99999.000
26193	 -0.090	 -0.465	  0.337	  0.125	  0.047	 -9.794	 -0.004	  0.001	 -0.001	 32.200	 100.897	 -99999.000
26243	 -0.090	 -0.460	  0.337	  0.139	  0.048	 -9.779	 -0.002	  0.003	  0.001	 32.200	 100.897	 -99999.000
26293	 -0.091	 -0.460	  0.341	  0.131	  0.042	 -9.799	 -0.003	  0.002	  0.001	 32.200	 100.881	 -99999.000
26343	 -0.087	 -0.464	  0.340	  0.113	  0.048	 -9.799	 -0.003	  0.002	  0.000	 32.200	 100.881	 -99999.000
26393	 -0.090	 -0.462	  0.336	  0.128	  0.046	 -9.779	 -0.003	  0.003	  0.001	 32.200	 100.892	 -99999.000
26443	 -0.090	 -0.457	  0.342	  0.125	  0.041	 -9.803	 -0.003	  0.002	  0.002	 32.200	 100.892	 -99999.000
