Time	 MagX	 MagY	 MagZ	 AccelX	 AccelY	 AccelZ	 Yaw	 Pitch	 Roll	 Temperature	 Pressure	 Altitude
23338	 -0.087	 -0.459	  0.340	  0.129	  0.051	 -9.799	 -0.003	  0.001	  0.000	 32.200	 100.897	 -99999.000
23388	 -0.088	 -0.459	  0.336	  0.128	  0.043	 -9.813	 -0.002	  0.003	  0.002	 32.200	 100.890	 -99999.000
23438	 -0.088	 -0.457	  0.342	  0.130	  0.032	 -9.774	 -0.003	  0.002	  0.001	 32.300	 100.901	 -99999.000
23487	 -0.088	 -0.457	  0.334	  0.123	  0.062	 -9.810	 -0.002	  0.002	  0.000	 32.300	 100.901	 -99999.000
23537	 -0.085	 -0.463	  0.336	  0.133	  0.056	 -9.783	 -0.003	  0.004	  0.002	 32.200	 100.897	 -99999.000
23587	 -0.086	 -0.461	  0.337	  0.142	  0.030	 -9.764	 -0.003	  0.002	 -0.000	 32.300	 100.901	 -99999.000
23637	 -0.087	 -0.458	  0.339	  0.143	  0.049	 -9.787	 -0.003	  0.002	  0.001	 32.200	 100.897	 -99999.000
23687	 -0.087	 -0.457	  0.340	  0.124	  0.068	 -9.806	 -0.003	  0.002	  0.001	 32.200	 100.885	 -99999.000
23737	 -0.087	 -0.459	  0.338	  0.134	  0.058	 -9.774	 -0.003	  0.002	  0.001	 32.200	 100.885	 -99999.000
23787	 -0.085	 -0.460	  0.340	  0.129	  0.035	 -9.821	 -0.003	  0.003	  0.002	 32.300	 100.912	 -99999.000
23837	 -0.088	 -0.458	  0.341	  0.132	  0.052	 -9.807	 -0.002	  0.002	  0.000	 32.200	 100.901	 -99999.000
23887	 -0.086	 -0.459	  0.343	  0.131	  0.053	 -9.818	 -0.002	  0.002	  0.000	 32.200	 100.890	 -99999.000
23937	 -0.088	 -0.454	  0.342	  0.126	  0.042	 -9.811	 -0.003	  0.002	  0.001	 32.300	 100.901	 -99999.000
23987	 -0.088	 -0.462	  0.337	  0.128	  0.066	 -9.806	 -0.004	  0.003	  0.001	 32.200	 100.897	 -99999.000
24037	 -0.086	 -0.463	  0.340	  0.116	  0.066	 -9.785	 -0.003	  0.002	  0.000	 32.200	 100.897	 -99999.000
24087	 -0.086	 -0.460	  0.338	  0.131	  0.057	 -9.784	 -0.003	  0.002	  0.001	 32.300	 100.890	 -99999.000
24137	 -0.088	 -0.461	  0.345	  0.095	  0.050	 -9.803	 -0.003	  0.002	  0.001	 32.300	 100.901	 -99999.000
24187	 -0.088	 -0.461	  0.338	  0.118	  0.046	 -9.802	 -0.004	  0.003	  0.000	 32.200	 100.885	 -99999.000
24237	 -0.089	 -0.459	  0.333	  0.114	  0.021	 -9.764	 -0.004	  0.003	  0.002	 32.200	 100.885	 -99999.000
24287	 -0.087	 -0.462	  0.337	  0.132	  0.070	 -9.794	 -0.003	  0.003	  0.001	 32.200	 100.897	 -99999.000
24337	 -0.087	 -0.461	  0.339	  0.132	  0.070	 -9.809	 -0.003	  0.002	  0.001	 32.200	 100.885	 -99999.000
24387	 -0.087	 -0.461	  0.335	  0.143	  0.064	 -9.785	 -0.003	  0.002	 -0.001	 32.300	 100.901	 -99999.000
24437	 -0.087	 -0.462	  0.339	  0.123	  0.063	 -9.805	 -0.003	  0.002	  0.001	 32.300	 100.901	 -99999.000
24487	 -0.089	 -0.462	  0.342	  0.121	  0.032	 -9.760	 -0.003	  0.002	  0.001	 32.300	 100.901	 -99999.000
24537	 -0.085	 -0.454	  0.343	  0.122	  0.063	 -9.790	 -0.003	  0.001	  0.000	 32.300	 100.890	 -99999.000
24587	 -0.085	 -0.461	  0.338	  0.148	  0.067	 -9.831	 -0.003	  0.003	  0.001	 32.200	 100.897	 -99999.000
24637	 -0.088	 -0.454	  0.339	  0.117	  0.061	 -9.784	 -0.003	  0.001	  0.001	 32.300	 100.901	 -99999.000
24687	 -0.086	 -0.461	  0.337	  0.138	  0.056	 -9.820	 -0.003	  0.003	 -0.000	 32.300	 100.901	 -99999.000
24737	 -0.086	 -0.461	  0.341	  0.119	  0.049	 -9.780	 -0.005	  0.003	  0.001	 32.300	 100.901	 -99999.000
24787	 -0.088	 -0.460	  0.339	  0.126	  0.048	 -9.789	 -0.004	  0.003	  0.001	 32.300	 100.890	 -99999.000
24837	 -0.088	 -0.460	  0.340	  0.104	  0.055	 -9.808	 -0.004	  0.001	  0.001	 32.200	 100.897	 -99999.000
24887	 -0.087	 -0.460	  0.339	  0.141	  0.067	 -9.786	 -0.003	  0.002	  0.001	 32.200	 100.901	 -99999.000
24937	 -0.085	 -0.453	  0.340	  0.126	  0.043	 -9.792	 -0.003	  0.002	 -0.000	 32.300	 100.901	 -99999.000
24987	 -0.086	 -0.462	  0.338	  0.128	  0.072	 -9.784	 -0.003	  0.002	  0.001	 32.200	 100.885	 -99999.000
25037	 -0.085	 -0.459	  0.340	  0.120	  0.043	 -9.800	 -0.005	  0.003	  0.000	 32.300	 100.890	 -99999.000
25087	 -0.085	 -0.455	  0.339	  0.104	  0.038	 -9.791	 -0.002	  0.002	 -0.000	 32.200	 100.901	 -99999.000
25137	 -0.086	 -0.460	  0.339	  0.131	  0.053	 -9.772	 -0.004	  0.002	  0.000	 32.200	 100.901	 -99999.000
25187	 -0.086	 -0.462	  0.336	  0.135	  0.045	 -9.778	 -0.003	  0.003	  0.001	 32.300	 100.890	 -99999.000
25237	 -0.088	 -0.457	  0.338	  0.131	  0.063	 -9.798	 -0.003	  0.002	  0.001	 32.200	 100.890	 -99999.000
25287	 -0.085	 -0.460	  0.341	  0.136	  0.045	 -9.782	 -0.003	  0.002	  0.000	 32.200	 100.890	 -99999.000
25337	 -0.086	 -0.460	  0.335	  0.129	  0.040	 -9.823	 -0.004	  0.003	 -0.001	 32.200	 100.885	 -99999.000
25387	 -0.085	 -0.457	  0.340	  0.126	  0.059	 -9.784	 -0.002	  0.002	  0.001	 32.200	 100.885	 -99999.000
25437	 -0.087	 -0.457	  0.338	  0.137	  0.045	 -9.788	 -0.003	  0.002	  0.001	 32.200	 100.885	 -99999.000
25487	 -0.087	 -0.457	  0.336	  0.125	  0.057	 -9.822	 -0.003	  0.002	  0.001	 32.200	 100.885	 -99999.000
25537	 -0.088	 -0.461	  0.338	  0.128	  0.060	 -9.806	 -0.003	  0.002	  0.001	 32.300	 100.901	 -99999.000
25587	 -0.087	 -0.460	  0.337	  0.105	  0.024	 -9.810	 -0.004	  0.002	  0.000	 32.300	 100.890	 -99999.000
25637	 -0.086	 -0.461	  0.341	  0.108	  0.037	 -9.805	 -0.004	  0.002	  0.001	 32.300	 100.890	 -99999.000
25687	 -0.085	 -0.462	  0.338	  0.126	  0.061	 -9.767	 -0.002	  0.002	  0.000	 32.200	 100.901	 -99999.000
25737	 -0.086	 -0.460	  0.336	  0.123	  0.058	 -9.831	 -0.003	  0.002	  0.001	 32.300	 100.890	 -99999.000
25787	 -0.085	 -0.463	  0.338	  0.113	  0.063	 -9.784	 -0.003	  0.002	  0.001	 32.200	 100.897	 -99999.000
25837	 -0.087	 -0.460	  0.341	  0.126	  0.055	 -9.785	 -0.002	  0.003	  0.000	 32.300	 100.890	 -99999.000
25887	 -0.087	 -0.457	  0.337	  0.124	  0.050	 -9.810	 -0.004	  0.002	  0.001	 32.200	 100.901	 -99999.000
25937	 -0.086	 -0.460	  0.341	  0.121	  0.056	 -9.799	 -0.003	  0.002	  0.001	 32.200	 100.890	 -99999.000
25987	 -0.088	 -0.458	  0.339	  0.129	  0.055	 -9.801	 -0.002	  0.002	  0.001	 32.300	 100.890	 -99999.000
26037	 -0.087	 -0.456	  0.339	  0.125	  0.036	 -9.804	 -0.003	  0.003	  0.000	 32.300	 100.890	 -99999.000
26087	 -0.086	 -0.458	  0.339	  0.130	  0.054	 -9.821	 -0.002	  0.002	  0.001	 32.200	 100.878	 -99999.000
26137	 -0.087	 -0.456	  0.338	  0.149	  0.039	 -9.769	 -0.004	  0.002	  0.001	 32.300	 100.890	 -99999.000
26187	 -0.085	 -0.458	  0.341	  0.153	  0.075	 -9.808	 -0.003	  0.002	  0.002	 32.200	 100.885	 -99999.000
26237	 -0.088	 -0.463	  0.339	  0.146	  0.044	 -9.787	 -0.003	  0.002	 -0.001	 32.200	 100.885	 -99999.000
26287	 -0.086	 -0.461	  0.336	  0.128	  0.020	 -9.780	 -0.003	  0.002	  0.001	 32.300	 100.890	 -99999.000
26337	 -0.089	 -0.462	  0.334	  0.127	  0.045	 -9.790	 -0.003	  0.002	  0.000	 32.300	 100.890	 -99999.000
26387	 -0.088	 -0.456	  0.334	  0.154	  0.043	 -9.769	 -0.004	  0.002	  0.001	 32.300	 100.890	 -99999.000
26437	 -0.087	 -0.461	  0.335	  0.127	  0.052	 -9.769	 -0.004	  0.002	  0.000	 32.200	 100.885	 -99999.000
26487	 -0.087	 -0.460	  0.332	  0.107	  0.049	 -9.784	 -0.003	  0.002	  0.001	 32.200	 100.885	 -99999.000
26537	 -0.086	 -0.460	  0.337	  0.154	  0.053	 -9.791	 -0.004	  0.002	  0.000	 32.200	 100.885	 -99999.000
26587	 -0.088	 -0.456	  0.339	  0.123	  0.011	 -9.767	 -0.002	  0.001	 -0.000	 32.200	 100.885	 -99999.000
26637	 -0.088	 -0.460	  0.341	  0.132	  0.051	 -9.798	 -0.002	  0.002	  0.002	 32.300	 100.901	 -99999.000
26687	 -0.088	 -0.462	  0.338	  0.133	  0.047	 -9.827	 -0.004	  0.003	  0.001	 32.300	 100.901	 -99999.000
26737	 -0.088	 -0.460	  0.332	  0.136	  0.048	 -9.809	 -0.004	  0.002	  0.001	 32.300	 100.901	 -99999.000
26787	 -0.087	 -0.463	  0.343	  0.103	  0.040	 -9.790	 -0.003	  0.002	  0.001	 32.200	 100.901	 -99999.000
26837	 -0.087	 -0.461	  0.338	  0.120	  0.046	 -9.821	 -0.002	  0.003	  0.002	 32.300	 100.901	 -99999.000
26887	 -0.088	 -0.460	  0.340	  0.119	  0.054	 -9.815	 -0.003	  0.002	  0.000	 32.300	 100.901	 -99999.000
26937	 -0.088	 -0.459	  0.339	  0.150	  0.041	 -9.786	 -0.004	  0.002	  0.001	 32.300	 100.890	 -99999.000
26986	 -0.089	 -0.460	  0.341	  0.106	  0.045	 -9.774	 -0.003	  0.002	  0.002	 32.300	 100.901	 -99999.000
27037	 -0.087	 -0.462	  0.341	  0.125	  0.060	 -9.785	 -0.005	  0.002	  0.001	 32.300	 100.890	 -99999.000
27086	 -0.087	 -0.458	  0.340	  0.120	  0.044	 -9.783	 -0.002	  0.002	  0.001	 32.300	 100.901	 -99999.000
27136	 -0.087	 -0.457	  0.340	  0.140	  0.045	 -9.751	 -0.004	  0.002	  0.001	 32.200	 100.890	 -99999.000
27186	 -0.088	 -0.460	  0.339	  0.129	  0.059	 -9.779	 -0.003	  0.002	 -0.000	 32.200	 100.901	 -99999.000
27236	 -0.087	 -0.462	  0.340	  0.129	  0.043	 -9.803	 -0.004	  0.002	  0.001	 32.200	 100.901	 -99999.000
27286	 -0.087	 -0.461	  0.337	  0.115	  0.048	 -9.791	 -0.004	  0.000	 -0.000	 32.300	 100.901	 -99999.000
27336	 -0.087	 -0.451	  0.339	  0.128	  0.033	 -9.791	 -0.003	  0.002	  0.000	 32.200	 100.897	 -99999.000
27387	 -0.089	 -0.459	  0.338	  0.126	  0.036	 -9.764	 -0.004	  0.003	  0.000	 32.300	 100.890	 -99999.000
27437	 -0.091	 -0.458	  0.337	  0.137	  0.051	 -9.776	 -0.002	  0.002	  0.000	 32.300	 100.901	 -99999.000
27487	 -0.090	 -0.459	  0.339	  0.115	  0.064	 -9.786	 -0.003	  0.003	  0.000	 32.200	 100.897	 -99999.000
27537	 -0.089	 -0.458	  0.340	  0.123	  0.044	 -9.829	 -0.003	  0.001	  0.001	 32.300	 100.890	 -99999.000
27588	 -0.092	 -0.460	  0.336	  0.105	  0.041	 -9.791	 -0.003	  0.004	  0.000	 32.200	 100.897	 -99999.000
27637	 -0.090	 -0.458	  0.340	  0.121	  0.050	 -9.777	 -0.004	  0.002	  0.001	 32.300	 100.890	 -99999.000
27687	 -0.091	 -0.460	  0.339	  0.129	  0.060	 -9.788	 -0.002	  0.003	  0.001	 32.300	 100.890	 -99999.000
27737	 -0.090	 -0.463	  0.339	  0.126	  0.029	 -9.766	 -0.003	  0.001	  0.001	 32.300	 100.901	 -99999.000
27787	 -0.090	 -0.460	  0.343	  0.127	  0.031	 -9.740	 -0.004	  0.002	 -0.001	 32.300	 100.901	 -99999.000
27837	 -0.090	 -0.460	  0.342	  0.118	  0.050	 -9.786	 -0.003	  0.003	  0.001	 32.200	 100.901	 -99999.000
27887	 -0.092	 -0.460	  0.341	  0.123	  0.029	 -9.794	 -0.003	  0.002	  0.001	 32.300	 100.890	 -99999.000
27936	 -0.091	 -0.459	  0.345	  0.132	  0.029	 -9.805	 -0.004	  0.002	  0.001	 32.300	 100.901	 -99999.000
27987	 -0.091	 -0.461	  0.336	  0.149	  0.048	 -9.807	 -0.003	  0.003	  0.000	 32.300	 100.901	 -99999.000
28037	 -0.092	 -0.461	  0.341	  0.123	  0.040	 -9.801	 -0.003	  0.004	  0.001	 32.200	 100.874	 -99999.000
28087	 -0.092	 -0.460	  0.336	  0.123	  0.053	 -9.775	 -0.003	  0.002	  0.001	 32.200	 100.885	 -99999.000
28137	 -0.092	 -0.461	  0.343	  0.133	  0.049	 -9.770	 -0.002	  0.002	  0.001	 32.300	 100.912	 -99999.000
28187	 -0.093	 -0.460	  0.341	  0.122	  0.034	 -9.798	 -0.003	  0.002	  0.002	 32.200	 100.885	 -99999.000
28237	 -0.092	 -0.456	  0.339	  0.155	  0.048	 -9.811	 -0.003	  0.002	  0.002	 32.200	 100.908	 -99999.000
28287	 -0.092	 -0.460	  0.341	  0.113	  0.064	 -9.776	 -0.002	  0.002	 -0.000	 32.200	 100.885	 -99999.000
28337	 -0.091	 -0.459	  0.337	  0.137	  0.048	 -9.805	 -0.003	  0.001	 -0.000	 32.200	 100.890	 -99999.000
28387	 -0.092	 -0.460	  0.336	  0.095	  0.037	 -9.792	 -0.003	  0.002	  0.001	 32.300	 100.901	 -99999.000
28437	 -0.093	 -0.461	  0.340	  0.121	  0.062	 -9.752	 -0.002	  0.002	  0.000	 32.300	 100.901	 -99999.000
28488	 -0.092	 -0.460	  0.341	  0.132	  0.072	 -9.814	 -0.005	  0.002	  0.000	 32.300	 100.901	 -99999.000
28538	 -0.094	 -0.461	  0.336	  0.126	  0.047	 -9.814	 -0.004	  0.002	 -0.000	 32.200	 100.897	 -99999.000
28588	 -0.090	 -0.463	  0.340	  0.137	  0.041	 -9.797	 -0.003	  0.002	  0.000	 32.300	 100.901	 -99999.000
28638	 -0.091	 -0.461	  0.342	  0.120	  0.016	 -9.778	 -0.004	  0.002	 -0.000	 32.200	 100.901	 -99999.000
28688	 -0.091	 -0.462	  0.336	  0.127	  0.048	 -9.834	 -0.003	  0.004	  0.001	 32.200	 100.897	 -99999.000
28738	 -0.093	 -0.460	  0.340	  0.114	  0.051	 -9.797	 -0.003	  0.002	  0.001	 32.300	 100.901	 -99999.000
28788	 -0.092	 -0.459	  0.341	  0.141	  0.026	 -9.797	 -0.003	  0.003	  0.000	 32.300	 100.901	 -99999.000
28838	 -0.090	 -0.461	  0.338	  0.128	  0.038	 -9.783	 -0.003	  0.004	  0.000	 32.300	 100.901	 -99999.000
28888	 -0.089	 -0.457	  0.339	  0.143	  0.060	 -9.787	 -0.003	  0.002	  0.001	 32.300	 100.890	 -99999.000
28938	 -0.092	 -0.456	  0.341	  0.138	  0.030	 -9.756	 -0.004	  0.001	  0.001	 32.300	 100.901	 -99999.000
28988	 -0.093	 -0.460	  0.339	  0.135	  0.028	 -9.791	 -0.004	  0.001	  0.001	 32.200	 100.885	 -99999.000
29038	 -0.094	 -0.459	  0.341	  0.142	  0.034	 -9.772	 -0.003	  0.003	  0.001	 32.300	 100.901	 -99999.000
29088	 -0.090	 -0.459	  0.338	  0.130	  0.048	 -9.812	 -0.003	  0.003	  0.001	 32.300	 100.905	 -99999.000
29138	 -0.093	 -0.461	  0.339	  0.114	  0.082	 -9.767	 -0.003	  0.003	  0.001	 32.200	 100.890	 -99999.000
29188	 -0.090	 -0.461	  0.340	  0.139	  0.046	 -9.767	 -0.003	  0.003	 -0.000	 32.200	 100.897	 -99999.000
29238	 -0.091	 -0.457	  0.337	  0.104	  0.031	 -9.819	 -0.004	  0.001	 -0.000	 32.300	 100.890	 -99999.000
29288	 -0.091	 -0.458	  0.341	  0.118	  0.045	 -9.791	 -0.002	  0.001	  0.001	 32.200	 100.901	 -99999.000
39315	 -0.093	 -0.461	  0.343	  0.111	  0.052	 -9.872	 -0.003	  0.002	  0.001	 32.300	 100.890	  0.513
39362	 -0.091	 -0.458	  0.332	  0.115	  0.046	 -9.760	 -0.004	  0.003	  0.000	 32.300	 100.901	 -0.463
39413	 -0.093	 -0.459	  0.342	  0.143	  0.036	 -9.790	 -0.003	  0.001	  0.000	 32.300	 100.901	 -0.463
39463	 -0.092	 -0.458	  0.342	  0.142	  0.081	 -9.798	 -0.003	  0.003	  0.001	 32.300	 100.901	 -0.463
39513	 -0.091	 -0.461	  0.338	  0.126	  0.057	 -9.799	 -0.003	  0.000	  0.000	 32.300	 100.890	  0.513
39563	 -0.093	 -0.453	  0.338	  0.128	  0.045	 -9.791	 -0.002	  0.003	  0.002	 32.300	 100.901	 -0.463
39613	 -0.091	 -0.459	  0.339	  0.094	  0.041	 -9.779	 -0.003	  0.002	  0.000	 32.300	 100.890	  0.513
39663	 -0.091	 -0.460	  0.340	  0.143	  0.055	 -9.805	 -0.003	  0.002	  0.001	 32.300	 100.890	  0.513
39713	 -0.091	 -0.462	  0.340	  0.127	  0.045	 -9.795	 -0.004	  0.001	  0.001	 32.300	 100.890	  0.513
39763	 -0.092	 -0.462	  0.341	  0.153	  0.050	 -9.793	 -0.003	  0.003	  0.001	 32.300	 100.901	 -0.463
39813	 -0.093	 -0.457	  0.340	  0.099	  0.040	 -9.785	 -0.003	  0.003	 -0.000	 32.300	 100.890	  0.513
39863	 -0.090	 -0.461	  0.332	  0.135	  0.060	 -9.794	 -0.003	  0.003	  0.001	 32.300	 100.901	 -0.463
39913	 -0.090	 -0.458	  0.337	  0.133	  0.051	 -9.783	 -0.004	  0.002	 -0.001	 32.300	 100.890	  0.513
39963	 -0.092	 -0.461	  0.341	  0.116	  0.061	 -9.789	 -0.003	  0.003	  0.001	 32.300	 100.878	  1.578
40013	 -0.092	 -0.461	  0.341	  0.125	  0.041	 -9.779	 -0.003	  0.002	  0.000	 32.300	 100.890	  0.513
40063	 -0.091	 -0.452	  0.340	  0.124	  0.036	 -9.818	 -0.004	  0.002	  0.001	 32.300	 100.901	 -0.463
40112	 -0.093	 -0.463	  0.340	  0.137	  0.040	 -9.786	 -0.003	  0.002	  0.000	 32.300	 100.901	 -0.463
40163	 -0.091	 -0.459	  0.338	  0.127	  0.034	 -9.786	 -0.003	  0.003	  0.001	 32.300	 100.890	  0.513
40212	 -0.092	 -0.459	  0.340	  0.128	  0.052	 -9.743	 -0.003	  0.001	  0.001	 32.300	 100.894	  0.158
40262	 -0.093	 -0.459	  0.336	  0.130	  0.053	 -9.797	 -0.002	  0.002	 -0.000	 32.300	 100.905	 -0.818
40313	 -0.093	 -0.460	  0.336	  0.121	  0.035	 -9.797	 -0.003	  0.002	  0.001	 32.300	 100.890	  0.513
40363	 -0.093	 -0.462	  0.338	  0.118	  0.058	 -9.789	 -0.003	  0.002	  0.000	 32.300	 100.901	 -0.463
40413	 -0.091	 -0.460	  0.339	  0.130	  0.075	 -9.772	 -0.003	  0.001	  0.000	 32.300	 100.890	  0.513
40463	 -0.094	 -0.459	  0.339	  0.138	  0.056	 -9.825	 -0.004	  0.002	  0.001	 32.300	 100.901	 -0.463
40513	 -0.093	 -0.461	  0.340	  0.127	  0.041	 -9.805	 -0.003	  0.002	  0.001	 32.300	 100.890	  0.513
40563	 -0.090	 -0.463	  0.342	  0.124	  0.050	 -9.772	 -0.004	  0.002	 -0.000	 32.300	 100.901	 -0.463
40613	 -0.094	 -0.461	  0.340	  0.129	  0.027	 -9.776	 -0.003	  0.002	  0.000	 32.300	 100.901	 -0.463
40663	 -0.091	 -0.462	  0.342	  0.120	  0.037	 -9.771	 -0.003	  0.003	  0.000	 32.300	 100.890	  0.513
40713	 -0.092	 -0.463	  0.341	  0.112	  0.053	 -9.786	 -0.004	  0.002	  0.002	 32.300	 100.901	 -0.463
40763	 -0.092	 -0.457	  0.339	  0.117	  0.058	 -9.781	 -0.002	  0.003	  0.001	 32.300	 100.901	 -0.463
40813	 -0.092	 -0.463	  0.341	  0.116	  0.035	 -9.789	 -0.002	  0.003	  0.002	 32.300	 100.901	 -0.463
40863	 -0.094	 -0.461	  0.340	  0.135	  0.066	 -9.763	 -0.002	  0.001	  0.000	 32.300	 100.890	  0.513
40913	 -0.091	 -0.459	  0.341	  0.128	  0.074	 -9.792	 -0.002	  0.002	  0.000	 32.300	 100.901	 -0.463
40963	 -0.091	 -0.455	  0.342	  0.140	  0.055	 -9.739	 -0.006	  0.013	  0.001	 32.300	 100.901	 -0.463
41013	 -0.095	 -0.460	  0.342	  0.119	  0.058	 -9.745	 -0.001	  0.001	  0.001	 32.300	 100.890	  0.513
41063	 -0.095	 -0.461	  0.339	  0.119	  0.032	 -9.868	 -0.003	  0.005	  0.001	 32.300	 100.890	  0.513
41113	 -0.092	 -0.461	  0.342	  0.153	  0.038	 -9.752	 -0.003	  0.003	  0.001	 32.300	 100.894	  0.158
41163	 -0.091	 -0.462	  0.343	  0.150	  0.056	 -9.770	 -0.003	  0.002	  0.004	 32.300	 100.890	  0.513
41213	 -0.096	 -0.461	  0.336	 -0.231	 -0.043	 -9.761	 -0.006	 -0.000	  0.188	 32.300	 100.878	  1.578
41263	 -0.101	 -0.456	  0.341	 -0.139	 -0.066	 -9.676	 -0.008	 -0.033	  0.414	 32.300	 100.905	 -0.818
41313	 -0.108	 -0.458	  0.345	 -0.143	  0.099	 -10.051	 -0.086	 -0.034	  0.067	 32.300	 100.890	  0.513
41363	 -0.110	 -0.463	  0.341	 -1.099	  0.148	 -10.267	 -0.230	 -0.169	  0.538	 32.300	 100.901	 -0.463
41413	 -0.122	 -0.470	  0.327	  0.838	  0.165	 -9.631	 -0.576	 -0.267	  0.645	 32.300	 100.890	  0.513
41463	 -0.130	 -0.469	  0.328	  0.693	  0.393	 -8.718	  0.402	  0.220	  0.188	 32.300	 100.901	 -0.463
41513	 -0.136	 -0.464	  0.330	 -1.563	  1.009	 -10.787	 -0.233	  0.168	  0.204	 32.300	 100.890	  0.513
41563	 -0.142	 -0.461	  0.334	  1.072	  0.750	 -9.978	  0.062	 -0.088	  0.194	 32.300	 100.894	  0.158
41613	 -0.149	 -0.460	  0.333	 -0.614	  0.260	 -13.979	 -0.799	 -0.336	  0.446	 32.300	 100.901	 -0.463
41663	 -0.166	 -0.480	  0.315	  3.361	  0.346	 -5.971	 -0.777	  1.012	  0.286	 32.300	 100.901	 -0.463
41713	 -0.193	 -0.463	  0.319	  3.652	  3.280	 -17.447	  1.174	 -2.205	  0.953	 32.300	 100.901	 -0.463
41763	 -0.195	 -0.463	  0.318	  9.387	  2.549	 -11.677	 -0.837	  0.849	 -0.073	 32.300	 100.890	  0.513
41813	 -0.207	 -0.463	  0.316	  2.684	  0.581	 -11.237	  0.026	 -0.014	  0.645	 32.300	 100.890	  0.513
41863	 -0.208	 -0.458	  0.320	  0.059	  3.302	 -8.000	  0.827	  0.131	 -0.779	 32.300	 100.890	  0.513
41913	 -0.202	 -0.463	  0.325	  0.589	 -4.367	 -13.430	 -1.466	 -0.058	  0.845	 32.300	 100.890	  0.513
41963	 -0.209	 -0.479	  0.299	  1.929	  3.705	 -2.431	  0.443	  1.245	 -0.762	 32.300	 100.901	 -0.463
42013	 -0.194	 -0.455	  0.326	  0.187	 -4.004	 -16.711	  0.972	 -2.738	  0.401	 32.300	 100.905	 -0.818
42063	 -0.185	 -0.444	  0.340	  1.123	  3.332	 -8.547	 -0.047	  1.327	 -0.369	 32.300	 100.901	 -0.463
42113	 -0.189	 -0.449	  0.336	 -1.955	 -4.164	 -8.963	 -0.086	 -0.867	  0.273	 32.300	 100.901	 -0.463
42163	 -0.189	 -0.453	  0.337	  0.891	  5.417	 -9.646	 -0.150	  0.757	 -0.175	 32.300	 100.901	 -0.463
42212	 -0.198	 -0.439	  0.340	  1.727	 -2.040	 -8.788	  0.359	 -0.496	 -0.045	 32.300	 100.890	  0.513
42263	 -0.190	 -0.449	  0.342	 -2.181	  0.444	 -10.918	 -0.201	  0.149	  0.195	 32.300	 100.890	  0.513
42312	 -0.200	 -0.459	  0.317	  0.350	  0.924	 -10.334	 -0.696	 -0.064	  0.137	 32.300	 100.890	  0.513
42363	 -0.198	 -0.453	  0.323	  1.776	  1.300	 -8.028	  0.104	  0.091	 -0.307	 32.300	 100.901	 -0.463
42412	 -0.190	 -0.450	  0.326	 -0.425	 -0.133	 -9.988	  0.159	 -0.264	 -0.207	 32.300	 100.890	  0.513
42462	 -0.183	 -0.456	  0.330	 -0.987	  0.023	 -10.901	  0.249	 -0.154	  0.000	 32.300	 100.894	  0.158
42513	 -0.180	 -0.450	  0.340	 -1.296	  1.212	 -11.706	  0.392	 -0.117	  0.081	 32.300	 100.878	  1.578
42563	 -0.202	 -0.447	  0.334	  3.953	  0.066	 -3.547	 -0.191	  1.307	  0.393	 32.300	 100.901	 -0.463
42612	 -0.192	 -0.452	  0.335	 -0.555	 -3.180	 -10.361	 -0.287	 -1.837	  0.239	 32.300	 100.905	 -0.818
42662	 -0.187	 -0.452	  0.336	  1.055	 -0.480	 -13.491	 -1.275	  0.657	  0.153	 32.300	 100.890	  0.513
42712	 -0.224	 -0.464	  0.310	  0.371	  0.656	 -1.764	  0.618	  1.546	  0.426	 32.300	 100.901	 -0.463
42762	 -0.208	 -0.453	  0.329	 -4.150	  0.010	 -13.972	  0.351	 -1.859	  0.179	 32.300	 100.894	  0.158
42812	 -0.197	 -0.458	  0.332	  2.616	  3.559	 -12.115	 -1.580	  0.505	  0.584	 32.300	 100.901	 -0.463
42862	 -0.245	 -0.461	  0.307	 -0.025	  2.880	 -4.859	  2.829	  0.705	  0.387	 32.300	 100.890	  0.513
42912	 -0.199	 -0.458	  0.324	 -1.240	  0.245	 -18.292	 -1.017	 -0.447	  0.195	 32.300	 100.894	  0.158
42962	 -0.228	 -0.482	  0.281	 -2.911	  1.896	  1.038	 -0.035	  3.126	 -0.396	 32.300	 100.894	  0.158
43012	 -0.231	 -0.467	  0.296	 -1.323	 -0.527	 -16.362	  0.105	 -2.242	  0.288	 32.300	 100.890	  0.513
43062	 -0.223	 -0.479	  0.296	  0.125	  4.662	 -7.311	 -0.746	  0.824	  0.291	 32.300	 100.901	 -0.463
43112	 -0.240	 -0.474	  0.289	  3.776	  0.135	 -4.815	  1.233	  0.261	 -0.382	 32.200	 100.885	  0.957
43162	 -0.203	 -0.460	  0.321	 -4.968	  0.587	 -17.169	  0.278	 -1.817	 -0.098	 32.300	 100.890	  0.513
43212	 -0.211	 -0.495	  0.279	  2.714	  0.472	 -6.010	 -4.681	  1.189	  1.105	 32.300	 100.894	  0.158
43262	 -0.256	 -0.504	  0.237	 -0.615	  2.968	  1.616	  3.214	  2.368	 -0.166	 32.300	 100.890	  0.513
43312	 -0.240	 -0.469	  0.291	 -3.911	 -0.686	 -18.419	 -0.416	 -3.095	  0.253	 32.200	 100.897	 -0.108
43362	 -0.232	 -0.472	  0.290	 -0.107	  2.132	 -3.531	  0.461	  1.326	 -0.544	 32.300	 100.890	  0.513
43412	 -0.219	 -0.460	  0.313	 -3.477	  0.913	 -14.997	  0.321	 -1.998	 -0.231	 32.300	 100.890	  0.513
43462	 -0.213	 -0.474	  0.302	  3.182	  3.191	 -10.501	 -1.508	 -0.145	  0.369	 32.300	 100.890	  0.513
43512	 -0.217	 -0.474	  0.296	 -0.878	  0.927	 -0.375	  2.328	  1.553	 -0.757	 32.300	 100.894	  0.158
43562	 -0.197	 -0.455	  0.327	 -2.903	 -1.935	 -15.373	 -0.845	 -0.749	  0.927	 32.300	 100.890	  0.513
43612	 -0.201	 -0.470	  0.306	 -0.318	  3.764	 -1.933	  0.229	  1.579	 -0.949	 32.300	 100.890	  0.513
43662	 -0.202	 -0.454	  0.324	  0.821	 -1.313	 -16.834	  0.768	 -1.313	 -0.191	 32.300	 100.890	  0.513
43712	 -0.192	 -0.454	  0.319	 -1.275	  1.961	 -8.867	 -0.225	 -0.031	 -0.522	 32.300	 100.901	 -0.463
43762	 -0.186	 -0.458	  0.328	 -1.410	  0.527	 -9.423	  0.323	 -0.023	  0.194	 32.300	 100.890	  0.513
43812	 -0.192	 -0.440	  0.331	  0.060	  0.485	 -11.497	 -0.018	 -0.391	 -0.047	 32.300	 100.890	  0.513
43862	 -0.182	 -0.459	  0.322	 -0.236	  0.078	 -8.801	 -0.183	 -0.385	 -0.212	 32.300	 100.901	 -0.463
43912	 -0.163	 -0.457	  0.340	 -0.768	 -0.078	 -10.027	  0.457	 -0.292	 -0.552	 32.300	 100.901	 -0.463
43962	 -0.155	 -0.452	  0.347	 -0.586	  1.001	 -9.896	  0.290	  0.023	 -0.452	 32.300	 100.890	  0.513
44012	 -0.149	 -0.449	  0.351	 -1.011	  0.162	 -8.911	  0.172	 -0.243	 -0.031	 32.300	 100.890	  0.513
44062	 -0.144	 -0.444	  0.356	 -1.258	  0.004	 -9.794	  0.310	 -0.274	  0.021	 32.300	 100.890	  0.513
44112	 -0.141	 -0.440	  0.366	  0.811	  1.755	 -10.507	  0.042	 -0.026	 -0.422	 32.300	 100.901	 -0.463
44162	 -0.131	 -0.438	  0.368	 -1.350	 -0.257	 -9.097	  0.486	 -0.250	 -0.410	 32.300	 100.894	  0.158
44212	 -0.124	 -0.428	  0.375	 -2.188	 -1.645	 -7.175	  0.372	  0.020	  0.209	 32.300	 100.890	  0.513
44262	 -0.131	 -0.421	  0.383	 -1.198	 -0.725	 -9.734	  0.130	 -0.058	  0.022	 32.300	 100.890	  0.513
44312	 -0.125	 -0.423	  0.382	 -1.145	  0.447	 -9.373	  0.047	 -0.218	 -0.111	 32.300	 100.890	  0.513
44363	 -0.121	 -0.426	  0.388	 -0.827	 -0.537	 -9.596	 -0.090	 -0.088	  0.040	 32.300	 100.901	 -0.463
44412	 -0.122	 -0.426	  0.380	 -1.033	 -0.181	 -9.682	  0.099	 -0.012	  0.011	 32.300	 100.894	  0.158
44462	 -0.126	 -0.426	  0.382	 -0.945	 -0.000	 -9.465	  0.064	  0.180	  0.313	 32.200	 100.890	  0.513
44512	 -0.135	 -0.418	  0.378	 -3.761	 -2.095	 -9.060	  0.321	 -0.083	  0.417	 32.300	 100.894	  0.158
44562	 -0.153	 -0.414	  0.385	  1.316	 -1.501	 -14.154	 -0.279	  0.755	  0.659	 32.300	 100.905	 -0.818
44612	 -0.186	 -0.416	  0.375	  0.796	  3.340	 -9.919	 -0.384	  0.840	 -0.257	 32.300	 100.901	 -0.463
44662	 -0.169	 -0.414	  0.379	 -2.471	 -7.468	 -12.318	  1.172	 -1.157	 -0.207	 32.300	 100.901	 -0.463
44713	 -0.180	 -0.400	  0.391	  5.382	  5.924	 -7.662	 -0.545	  1.794	  0.582	 32.300	 100.890	  0.513
44762	 -0.184	 -0.386	  0.391	 -2.521	 -5.182	 -12.745	  2.661	 -1.611	 -2.017	 32.300	 100.890	  0.513
44813	 -0.140	 -0.390	  0.407	  1.078	  2.591	 -11.674	 -2.097	  0.590	  0.245	 32.300	 100.901	 -0.463
44862	 -0.149	 -0.413	  0.382	 -2.437	 -4.782	 -8.615	  1.240	 -0.704	 -0.732	 32.300	 100.901	 -0.463
44913	 -0.128	 -0.402	  0.406	  1.405	  4.191	 -14.127	 -1.195	  0.581	  0.904	 32.300	 100.890	  0.513
44963	 -0.164	 -0.421	  0.381	 -1.002	 -6.271	 -0.760	  1.127	  0.298	 -0.407	 32.300	 100.894	  0.158
45013	 -0.123	 -0.400	  0.406	  0.805	  6.124	 -18.333	 -0.873	 -0.247	 -0.084	 32.300	 100.905	 -0.818
45063	 -0.148	 -0.443	  0.366	  0.326	 -4.589	  0.466	 -0.676	  1.090	  0.269	 32.300	 100.890	  0.513
45113	 -0.128	 -0.423	  0.392	 -2.810	  1.055	 -16.900	  0.671	 -1.256	 -0.348	 32.300	 100.901	 -0.463
45163	 -0.140	 -0.435	  0.374	  1.421	 -1.595	 -3.749	 -1.185	  1.109	  0.507	 32.300	 100.890	  0.513
45213	 -0.139	 -0.425	  0.371	 -1.552	 -0.130	 -13.682	  0.222	 -0.708	 -0.377	 32.300	 100.890	  0.513
45263	 -0.118	 -0.425	  0.381	 -2.923	 -0.954	 -9.698	 -0.243	 -0.390	 -0.637	 32.300	 100.901	 -0.463
45313	 -0.109	 -0.436	  0.376	 -2.185	  0.539	 -12.784	 -0.587	 -0.318	  0.298	 32.300	 100.890	  0.513
45363	 -0.122	 -0.451	  0.367	  3.340	  1.381	 -6.574	 -1.109	  0.697	  0.854	 32.300	 100.890	  0.513
45413	 -0.161	 -0.433	  0.365	 -0.717	 -1.039	 -1.240	  2.774	  1.067	 -0.183	 32.300	 100.890	  0.513
45463	 -0.116	 -0.419	  0.387	 -3.365	 -2.707	 -19.091	 -1.624	 -1.596	  0.492	 32.300	 100.890	  0.513
45513	 -0.123	 -0.481	  0.341	  0.944	  3.522	 -9.268	 -3.054	  0.777	  0.147	 32.300	 100.890	  0.513
45563	 -0.159	 -0.478	  0.320	  0.576	 -0.444	  5.733	  3.143	  2.896	 -0.368	 32.300	 100.901	 -0.463
45613	 -0.141	 -0.418	  0.381	 -5.267	 -3.950	 -26.612	  0.285	 -4.466	 -0.552	 32.300	 100.901	 -0.463
45663	 -0.109	 -0.454	  0.362	 -0.550	  1.216	 -12.014	 -2.652	  0.967	  0.011	 32.300	 100.901	 -0.463
45713	 -0.156	 -0.473	  0.331	  0.055	  1.119	  2.463	  1.183	  2.237	  0.204	 32.300	 100.905	 -0.818
45763	 -0.132	 -0.438	  0.371	 -3.953	 -2.560	 -22.398	  0.473	 -3.147	 -0.042	 32.300	 100.901	 -0.463
45813	 -0.111	 -0.469	  0.353	 -1.199	  2.926	 -11.396	 -2.818	  0.657	  0.017	 32.300	 100.901	 -0.463
45863	 -0.148	 -0.491	  0.318	  1.736	 -0.387	  4.922	  1.221	  2.498	  0.181	 32.300	 100.901	 -0.463
45913	 -0.141	 -0.448	  0.359	 -1.238	 -1.709	 -18.602	  2.041	 -3.078	 -0.494	 32.300	 100.890	  0.513
45963	 -0.095	 -0.464	  0.363	 -0.445	  2.876	 -15.893	 -2.504	  0.104	  0.349	 32.300	 100.894	  0.158
46013	 -0.152	 -0.474	  0.323	  0.402	 -2.039	  8.532	  1.733	  3.281	  0.420	 32.300	 100.890	  0.513
46063	 -0.122	 -0.442	  0.367	 -4.803	 -2.883	 -21.197	 -0.142	 -3.427	  0.038	 32.300	 100.901	 -0.463
46113	 -0.104	 -0.481	  0.345	  0.048	  1.535	 -7.441	 -2.457	  1.562	 -0.308	 32.300	 100.882	  1.223
46163	 -0.144	 -0.478	  0.334	 -0.333	  1.526	  4.926	  2.673	  2.332	 -0.051	 32.300	 100.890	  0.513
46213	 -0.109	 -0.446	  0.372	 -5.121	 -4.496	 -23.910	 -0.634	 -4.542	  0.029	 32.300	 100.890	  0.513
46263	 -0.082	 -0.489	  0.343	  1.004	  5.150	 -6.033	 -2.189	  2.524	 -0.355	 32.300	 100.894	  0.158
46313	 -0.159	 -0.461	  0.335	  5.112	 -4.277	 -3.339	  2.962	  1.152	  0.248	 32.300	 100.890	  0.513
46363	 -0.090	 -0.472	  0.350	 -1.204	 -1.241	 -20.660	 -1.249	 -1.570	 -0.757	 32.300	 100.890	  0.513
46413	 -0.092	 -0.503	  0.317	  2.625	  1.093	  1.025	 -0.697	  2.394	 -0.032	 32.300	 100.894	  0.158
46463	 -0.132	 -0.457	  0.355	  7.731	 -2.473	 -20.384	  2.869	 -1.784	 -0.016	 32.300	 100.901	 -0.463
46513	 -0.071	 -0.477	  0.346	  0.423	 -2.425	 -21.048	 -2.671	 -0.900	  0.185	 32.300	 100.905	 -0.818
46563	 -0.111	 -0.495	  0.321	 -1.520	  2.224	  7.915	  2.355	  4.254	  0.238	 32.300	 100.890	  0.513
46613	 -0.097	 -0.460	  0.359	 -4.389	 -0.092	 -19.654	 -1.223	 -4.451	  0.598	 32.300	 100.901	 -0.463
46663	 -0.076	 -0.498	  0.326	  0.825	 -0.076	 -6.215	 -2.249	  1.470	  0.141	 32.300	 100.890	  0.513
46713	 -0.139	 -0.475	  0.332	 -1.479	  0.898	  4.146	  4.028	  2.547	  0.447	 32.300	 100.890	  0.513
46763	 -0.077	 -0.470	  0.351	  0.257	  1.454	 -26.272	 -2.256	 -3.099	 -0.072	 32.300	 100.901	 -0.463
46813	 -0.084	 -0.519	  0.297	  2.518	 -1.438	  5.873	 -0.513	  4.078	  0.279	 32.300	 100.905	 -0.818
46863	 -0.157	 -0.464	  0.336	  8.855	 -0.114	 -8.851	  3.818	 -1.739	  0.341	 32.300	 100.890	  0.513
46913	 -0.083	 -0.460	  0.355	 -0.506	 -4.317	 -14.772	  0.290	  0.381	 -0.314	 32.300	 100.901	 -0.463
46963	 -0.106	 -0.466	  0.347	  1.294	  0.675	 -7.115	 -0.628	  0.875	  0.047	 32.300	 100.890	  0.513
47013	 -0.106	 -0.471	  0.345	 -0.114	  0.347	 -9.472	  0.334	 -0.529	  0.104	 32.300	 100.901	 -0.463
47062	 -0.099	 -0.467	  0.349	  0.142	  0.032	 -11.039	  0.085	 -0.052	 -0.003	 32.300	 100.901	 -0.463
47112	 -0.104	 -0.467	  0.344	 -0.405	  0.464	 -9.506	 -0.009	  0.037	 -0.002	 32.300	 100.901	 -0.463
47162	 -0.101	 -0.466	  0.347	 -0.252	  0.384	 -9.769	 -0.042	 -0.063	  0.050	 32.300	 100.894	  0.158
47212	 -0.102	 -0.470	  0.343	 -0.168	  0.372	 -10.075	 -0.172	  0.053	  0.038	 32.300	 100.890	  0.513
47262	 -0.102	 -0.473	  0.344	  0.134	  0.453	 -9.524	 -0.001	 -0.114	 -0.019	 32.300	 100.894	  0.158
47312	 -0.094	 -0.464	  0.342	  0.038	  0.007	 -9.958	  0.044	 -0.197	 -0.099	 32.300	 100.901	 -0.463
47362	 -0.088	 -0.470	  0.341	 -0.686	  0.440	 -10.167	 -0.020	 -0.050	 -0.045	 32.300	 100.890	  0.513
47412	 -0.089	 -0.470	  0.340	 -0.454	  0.426	 -9.980	  0.022	 -0.032	  0.012	 32.300	 100.894	  0.158
47462	 -0.091	 -0.468	  0.343	  0.053	  0.397	 -9.143	  0.125	 -0.018	 -0.008	 32.300	 100.890	  0.513
47512	 -0.088	 -0.474	  0.345	 -0.378	  0.197	 -10.121	  0.019	 -0.003	 -0.067	 32.300	 100.894	  0.158
47562	 -0.087	 -0.470	  0.343	 -0.436	  0.297	 -10.075	 -0.058	  0.087	 -0.064	 32.300	 100.901	 -0.463
47612	 -0.087	 -0.473	  0.344	 -0.212	  0.372	 -9.666	 -0.027	  0.106	 -0.061	 32.300	 100.890	  0.513
47662	 -0.087	 -0.477	  0.339	  0.540	  0.418	 -10.124	 -0.099	  0.231	 -0.347	 32.300	 100.894	  0.158
47712	 -0.083	 -0.477	  0.330	 -1.577	  0.188	 -10.427	 -0.254	  0.085	  0.008	 32.300	 100.901	 -0.463
47762	 -0.091	 -0.483	  0.327	 -0.606	  0.616	 -9.096	 -0.258	  0.251	  0.093	 32.300	 100.901	 -0.463
47812	 -0.094	 -0.486	  0.320	  0.309	  0.781	 -9.876	 -0.039	  0.013	  0.074	 32.200	 100.885	  0.957
47862	 -0.099	 -0.486	  0.326	 -0.040	  0.655	 -9.874	 -0.034	  0.035	  0.098	 32.300	 100.901	 -0.463
47912	 -0.103	 -0.485	  0.327	  0.174	  0.549	 -9.933	 -0.010	  0.123	  0.105	 32.300	 100.905	 -0.818
47962	 -0.107	 -0.480	  0.329	  0.172	  0.856	 -9.007	  0.168	  0.095	  0.146	 32.300	 100.894	  0.158
48012	 -0.109	 -0.479	  0.327	  0.111	  0.317	 -10.019	  0.128	  0.019	  0.068	 32.300	 100.878	  1.578
48062	 -0.110	 -0.479	  0.331	  0.134	  0.627	 -9.445	  0.077	  0.043	 -0.033	 32.300	 100.901	 -0.463
48112	 -0.109	 -0.473	  0.337	 -0.348	  0.370	 -10.131	  0.493	 -0.048	  0.040	 32.300	 100.901	 -0.463
48162	 -0.109	 -0.467	  0.338	  0.255	  0.168	 -9.855	  0.010	  0.084	  0.004	 32.300	 100.901	 -0.463
48212	 -0.108	 -0.466	  0.342	  0.066	  0.258	 -9.653	  0.234	  0.013	  0.023	 32.300	 100.901	 -0.463
48262	 -0.108	 -0.463	  0.347	 -0.020	  0.065	 -10.055	  0.014	  0.006	 -0.019	 32.300	 100.890	  0.513
48312	 -0.108	 -0.462	  0.345	  0.109	  0.389	 -8.304	  0.459	 -0.091	  0.136	 32.300	 100.905	 -0.818
48362	 -0.110	 -0.459	  0.345	  0.085	  0.046	 -9.835	 -0.003	  0.003	  0.001	 32.300	 100.894	  0.158
48412	 -0.113	 -0.464	  0.348	  0.133	  0.071	 -9.768	 -0.003	  0.000	  0.000	 32.300	 100.905	 -0.818
48462	 -0.112	 -0.456	  0.348	  0.110	  0.064	 -9.791	 -0.003	  0.003	  0.001	 32.300	 100.901	 -0.463
48512	 -0.111	 -0.464	  0.348	  0.129	  0.037	 -9.829	 -0.003	  0.003	 -0.000	 32.300	 100.901	 -0.463
48562	 -0.111	 -0.461	  0.342	  0.125	  0.068	 -9.788	 -0.004	  0.003	  0.001	 32.300	 100.894	  0.158
48612	 -0.108	 -0.461	  0.347	  0.115	  0.047	 -9.821	 -0.004	  0.002	  0.001	 32.300	 100.894	  0.158
48662	 -0.110	 -0.462	  0.342	  0.118	  0.043	 -9.801	 -0.003	  0.002	  0.002	 32.300	 100.901	 -0.463
48712	 -0.110	 -0.461	  0.349	  0.127	  0.056	 -9.794	 -0.003	  0.003	  0.001	 32.300	 100.890	  0.513
48762	 -0.110	 -0.455	  0.347	  0.122	  0.050	 -9.747	 -0.002	  0.003	  0.001	 32.300	 100.890	  0.513
48812	 -0.110	 -0.460	  0.344	  0.134	  0.046	 -9.806	 -0.003	  0.002	  0.001	 32.300	 100.894	  0.158
48862	 -0.110	 -0.461	  0.345	  0.122	  0.042	 -9.757	 -0.003	  0.001	 -0.000	 32.300	 100.901	 -0.463
48912	 -0.112	 -0.462	  0.345	  0.122	  0.052	 -9.789	 -0.004	  0.002	  0.001	 32.300	 100.905	 -0.818
48962	 -0.112	 -0.459	  0.345	  0.120	  0.055	 -9.764	 -0.003	  0.002	  0.000	 32.300	 100.890	  0.513
49012	 -0.112	 -0.461	  0.347	  0.156	  0.038	 -9.817	 -0.004	  0.003	  0.001	 32.300	 100.890	  0.513
49062	 -0.111	 -0.463	  0.345	  0.131	  0.051	 -9.770	 -0.003	  0.002	  0.002	 32.300	 100.890	  0.513
49112	 -0.114	 -0.462	  0.341	  0.141	  0.050	 -9.788	 -0.002	  0.002	  0.000	 32.300	 100.905	 -0.818
49162	 -0.110	 -0.454	  0.343	  0.121	  0.030	 -9.806	 -0.003	  0.001	  0.001	 32.300	 100.901	 -0.463
49212	 -0.110	 -0.463	  0.347	  0.120	  0.034	 -9.800	 -0.003	  0.003	  0.001	 32.300	 100.901	 -0.463
49262	 -0.111	 -0.460	  0.345	  0.125	  0.050	 -9.782	 -0.003	  0.002	  0.001	 32.300	 100.890	  0.513
49312	 -0.109	 -0.454	  0.348	  0.119	  0.058	 -9.784	 -0.002	  0.003	 -0.000	 32.300	 100.890	  0.513
49362	 -0.109	 -0.461	  0.345	  0.111	  0.056	 -9.808	 -0.004	  0.003	  0.001	 32.300	 100.894	  0.158
49412	 -0.108	 -0.461	  0.344	  0.115	  0.037	 -9.809	 -0.004	  0.002	 -0.000	 32.300	 100.890	  0.513
49462	 -0.108	 -0.461	  0.344	  0.125	  0.056	 -9.788	 -0.003	  0.003	  0.001	 32.300	 100.890	  0.513
49512	 -0.110	 -0.457	  0.345	  0.123	  0.046	 -9.783	 -0.003	  0.002	 -0.000	 32.300	 100.912	 -1.440
49562	 -0.110	 -0.462	  0.349	  0.136	  0.049	 -9.744	 -0.004	  0.002	  0.001	 32.300	 100.905	 -0.818
49612	 -0.111	 -0.457	  0.348	  0.128	  0.065	 -9.772	 -0.003	  0.002	  0.001	 32.300	 100.890	  0.513
49662	 -0.111	 -0.461	  0.347	  0.116	  0.048	 -9.800	 -0.003	  0.002	  0.001	 32.300	 100.901	 -0.463
49713	 -0.108	 -0.462	  0.348	  0.135	  0.022	 -9.769	 -0.003	  0.002	  0.001	 32.300	 100.890	  0.513
49762	 -0.111	 -0.462	  0.348	  0.115	  0.039	 -9.802	 -0.003	  0.002	  0.001	 32.300	 100.890	  0.513
49812	 -0.109	 -0.461	  0.345	  0.117	  0.060	 -9.757	 -0.004	  0.002	 -0.001	 32.300	 100.894	  0.158
49862	 -0.110	 -0.461	  0.342	  0.127	  0.044	 -9.813	 -0.003	  0.002	  0.001	 32.300	 100.894	  0.158
49912	 -0.111	 -0.459	  0.345	  0.111	  0.039	 -9.795	 -0.003	  0.003	  0.001	 32.300	 100.894	  0.158
49963	 -0.109	 -0.460	  0.345	  0.116	  0.051	 -9.769	 -0.004	  0.003	  0.000	 32.300	 100.882	  1.223
50012	 -0.110	 -0.461	  0.344	  0.137	  0.050	 -9.807	 -0.003	  0.002	  0.001	 32.300	 100.901	 -0.463
50062	 -0.109	 -0.461	  0.348	  0.111	  0.032	 -9.801	 -0.003	  0.001	 -0.000	 32.300	 100.901	 -0.463
50112	 -0.112	 -0.462	  0.343	  0.115	  0.050	 -9.811	 -0.003	  0.002	  0.000	 32.300	 100.901	 -0.463
50162	 -0.110	 -0.459	  0.348	  0.138	  0.068	 -9.816	 -0.004	  0.001	  0.001	 32.300	 100.890	  0.513
50212	 -0.111	 -0.462	  0.348	  0.141	  0.050	 -9.776	 -0.003	  0.002	 -0.000	 32.300	 100.901	 -0.463
50262	 -0.111	 -0.461	  0.346	  0.115	  0.047	 -9.792	 -0.002	  0.002	  0.001	 32.300	 100.890	  0.513
50313	 -0.109	 -0.463	  0.345	  0.115	  0.057	 -9.813	 -0.003	  0.002	 -0.000	 32.300	 100.890	  0.513
50363	 -0.109	 -0.459	  0.347	  0.142	  0.049	 -9.811	 -0.003	  0.002	  0.001	 32.300	 100.905	 -0.818
50413	 -0.109	 -0.463	  0.346	  0.128	  0.053	 -9.767	 -0.004	  0.003	  0.001	 32.300	 100.894	  0.158
50463	 -0.109	 -0.459	  0.346	  0.153	  0.052	 -9.775	 -0.002	  0.002	  0.002	 32.300	 100.912	 -1.440
50513	 -0.109	 -0.462	  0.341	  0.121	  0.044	 -9.804	 -0.003	  0.002	  0.000	 32.300	 100.901	 -0.463
50562	 -0.110	 -0.462	  0.346	  0.130	  0.047	 -9.819	 -0.003	  0.002	 -0.000	 32.300	 100.901	 -0.463
50613	 -0.109	 -0.457	  0.344	  0.120	  0.049	 -9.806	 -0.004	  0.001	  0.001	 32.300	 100.905	 -0.818
50663	 -0.109	 -0.459	  0.349	  0.155	  0.056	 -9.755	 -0.003	  0.001	  0.001	 32.300	 100.901	 -0.463
50713	 -0.109	 -0.457	  0.348	  0.128	  0.050	 -9.773	 -0.003	  0.003	  0.001	 32.300	 100.890	  0.513
50763	 -0.109	 -0.459	  0.347	  0.126	  0.045	 -9.788	 -0.002	  0.002	  0.001	 32.300	 100.905	 -0.818
50813	 -0.109	 -0.458	  0.340	  0.120	  0.051	 -9.802	 -0.004	  0.003	  0.000	 32.300	 100.905	 -0.818
50863	 -0.110	 -0.461	  0.348	  0.142	  0.025	 -9.795	 -0.003	  0.003	  0.000	 32.300	 100.905	 -0.818
50913	 -0.108	 -0.461	  0.345	  0.132	  0.044	 -9.774	 -0.003	  0.002	  0.001	 32.300	 100.905	 -0.818
50963	 -0.109	 -0.462	  0.346	  0.138	  0.037	 -9.800	 -0.003	  0.002	  0.001	 32.300	 100.890	  0.513
51013	 -0.110	 -0.460	  0.347	  0.109	  0.060	 -9.789	 -0.003	  0.000	  0.001	 32.300	 100.890	  0.513
51063	 -0.111	 -0.461	  0.342	  0.119	  0.055	 -9.822	 -0.004	  0.002	  0.001	 32.300	 100.894	  0.158
51113	 -0.108	 -0.461	  0.347	  0.140	  0.061	 -9.827	 -0.004	  0.003	  0.001	 32.300	 100.890	  0.513
51163	 -0.110	 -0.451	  0.346	  0.137	  0.035	 -9.787	 -0.002	  0.004	  0.000	 32.300	 100.890	  0.513
51213	 -0.106	 -0.461	  0.347	  0.129	  0.040	 -9.798	 -0.003	  0.003	 -0.000	 32.300	 100.890	  0.513
51263	 -0.109	 -0.460	  0.347	  0.119	  0.041	 -9.807	 -0.004	  0.002	  0.001	 32.300	 100.901	 -0.463
51313	 -0.111	 -0.460	  0.343	  0.138	  0.045	 -9.779	 -0.004	  0.003	  0.000	 32.300	 100.905	 -0.818
51363	 -0.109	 -0.464	  0.348	  0.117	  0.068	 -9.768	 -0.004	  0.002	  0.001	 32.300	 100.890	  0.513
51413	 -0.108	 -0.459	  0.345	  0.116	  0.049	 -9.809	 -0.002	  0.003	  0.001	 32.300	 100.890	  0.513
51463	 -0.108	 -0.454	  0.347	  0.122	  0.084	 -9.779	 -0.003	  0.001	  0.001	 32.300	 100.905	 -0.818
51513	 -0.110	 -0.459	  0.348	  0.117	  0.040	 -9.780	 -0.004	  0.003	  0.002	 32.300	 100.890	  0.513
51563	 -0.111	 -0.462	  0.347	  0.115	  0.046	 -9.735	 -0.003	  0.002	  0.001	 32.300	 100.890	  0.513
51613	 -0.109	 -0.462	  0.348	  0.129	  0.057	 -9.784	 -0.003	  0.003	  0.000	 32.300	 100.901	 -0.463
51663	 -0.111	 -0.456	  0.348	  0.146	  0.062	 -9.800	 -0.003	  0.002	  0.001	 32.300	 100.901	 -0.463
51713	 -0.109	 -0.454	  0.347	  0.140	  0.054	 -9.782	 -0.003	  0.003	  0.001	 32.300	 100.890	  0.513
51763	 -0.111	 -0.460	  0.348	  0.160	  0.054	 -9.765	 -0.004	  0.003	  0.001	 32.300	 100.905	 -0.818
51813	 -0.109	 -0.458	  0.348	  0.142	  0.056	 -9.773	 -0.003	  0.003	  0.000	 32.300	 100.890	  0.513
51863	 -0.108	 -0.462	  0.344	  0.126	  0.061	 -9.774	 -0.002	  0.003	 -0.000	 32.300	 100.890	  0.513
51913	 -0.108	 -0.462	  0.344	  0.134	  0.042	 -9.795	 -0.004	  0.002	  0.001	 32.300	 100.890	  0.513
51963	 -0.111	 -0.461	  0.343	  0.119	  0.046	 -9.805	 -0.003	  0.002	  0.001	 32.300	 100.890	  0.513
52013	 -0.110	 -0.462	  0.345	  0.128	  0.071	 -9.820	 -0.003	  0.002	  0.000	 32.300	 100.894	  0.158
52063	 -0.110	 -0.461	  0.346	  0.116	  0.032	 -9.824	 -0.003	  0.002	  0.001	 32.300	 100.901	 -0.463
52113	 -0.109	 -0.461	  0.345	  0.111	  0.044	 -9.786	 -0.003	  0.002	  0.000	 32.300	 100.890	  0.513
52163	 -0.110	 -0.463	  0.345	  0.131	  0.039	 -9.806	 -0.003	  0.002	  0.000	 32.300	 100.901	 -0.463
52213	 -0.109	 -0.457	  0.347	  0.112	  0.046	 -9.816	 -0.002	  0.004	  0.001	 32.300	 100.890	  0.513
52263	 -0.112	 -0.461	  0.345	  0.136	  0.041	 -9.786	 -0.003	  0.003	  0.000	 32.300	 100.890	  0.513
52313	 -0.109	 -0.462	  0.347	  0.146	  0.057	 -9.797	 -0.003	  0.002	  0.002	 32.300	 100.890	  0.513
52363	 -0.108	 -0.455	  0.346	  0.132	  0.051	 -9.837	 -0.002	  0.003	  0.000	 32.300	 100.905	 -0.818
52413	 -0.109	 -0.464	  0.348	  0.139	  0.083	 -9.791	 -0.003	  0.003	 -0.000	 32.300	 100.890	  0.513
52463	 -0.109	 -0.460	  0.347	  0.122	  0.063	 -9.789	 -0.003	  0.002	 -0.000	 32.300	 100.890	  0.513
52513	 -0.110	 -0.456	  0.347	  0.139	  0.044	 -9.790	 -0.003	  0.003	  0.001	 32.300	 100.890	  0.513
52563	 -0.111	 -0.464	  0.347	  0.135	  0.057	 -9.801	 -0.003	  0.001	  0.001	 32.300	 100.890	  0.513
52613	 -0.109	 -0.461	  0.349	  0.121	  0.034	 -9.799	 -0.003	  0.002	  0.000	 32.300	 100.905	 -0.818
52663	 -0.110	 -0.462	  0.346	  0.133	  0.055	 -9.796	 -0.004	  0.003	  0.001	 32.300	 100.894	  0.158
52713	 -0.109	 -0.460	  0.347	  0.128	  0.045	 -9.794	 -0.004	  0.002	  0.002	 32.300	 100.890	  0.513
52763	 -0.110	 -0.465	  0.346	  0.137	  0.051	 -9.804	 -0.004	  0.002	  0.002	 32.300	 100.890	  0.513
52813	 -0.112	 -0.460	  0.348	  0.130	  0.054	 -9.816	 -0.003	  0.002	  0.001	 32.300	 100.890	  0.513
52863	 -0.109	 -0.461	  0.348	  0.122	  0.054	 -9.791	 -0.003	  0.002	  0.001	 32.300	 100.890	  0.513
52913	 -0.110	 -0.458	  0.347	  0.130	  0.055	 -9.768	 -0.003	  0.003	  0.001	 32.300	 100.905	 -0.818
52963	 -0.108	 -0.459	  0.347	  0.130	  0.036	 -9.792	 -0.003	  0.003	  0.001	 32.300	 100.890	  0.513
53013	 -0.111	 -0.461	  0.345	  0.152	  0.050	 -9.787	 -0.003	  0.002	  0.000	 32.300	 100.890	  0.513
53063	 -0.110	 -0.459	  0.344	  0.133	  0.055	 -9.768	 -0.003	  0.001	  0.000	 32.300	 100.894	  0.158
53113	 -0.109	 -0.462	  0.347	  0.127	  0.038	 -9.763	 -0.004	  0.003	 -0.000	 32.300	 100.890	  0.513
53163	 -0.108	 -0.456	  0.345	  0.102	  0.056	 -9.809	 -0.004	  0.004	  0.001	 32.300	 100.890	  0.513
53213	 -0.110	 -0.457	  0.346	  0.115	  0.052	 -9.812	 -0.002	  0.000	  0.001	 32.300	 100.890	  0.513
53263	 -0.110	 -0.462	  0.345	  0.149	  0.060	 -9.788	 -0.003	  0.004	  0.000	 32.300	 100.905	 -0.818
53313	 -0.112	 -0.456	  0.349	  0.130	  0.060	 -9.794	 -0.002	  0.002	  0.000	 32.300	 100.890	  0.513
53363	 -0.110	 -0.460	  0.346	  0.128	  0.061	 -9.790	 -0.002	  0.003	  0.001	 32.300	 100.890	  0.513
53413	 -0.112	 -0.461	  0.343	  0.137	  0.050	 -9.804	 -0.003	  0.002	  0.001	 32.300	 100.890	  0.513
53463	 -0.108	 -0.462	  0.345	  0.148	  0.042	 -9.782	 -0.003	  0.001	  0.000	 32.300	 100.905	 -0.818
53513	 -0.110	 -0.458	  0.347	  0.140	  0.065	 -9.806	 -0.004	  0.003	  0.001	 32.300	 100.894	  0.158
53563	 -0.108	 -0.459	  0.346	  0.122	  0.048	 -9.795	 -0.003	  0.001	 -0.001	 32.300	 100.901	 -0.463
53613	 -0.111	 -0.462	  0.348	  0.141	  0.061	 -9.790	 -0.002	  0.002	  0.002	 32.300	 100.901	 -0.463
53663	 -0.110	 -0.459	  0.345	  0.116	  0.045	 -9.797	 -0.003	  0.002	  0.002	 32.300	 100.901	 -0.463
53713	 -0.109	 -0.463	  0.347	  0.119	  0.057	 -9.799	 -0.003	  0.003	  0.002	 32.300	 100.894	  0.158
53763	 -0.110	 -0.462	  0.347	  0.135	  0.039	 -9.753	 -0.004	  0.002	  0.001	 32.300	 100.890	  0.513
53813	 -0.110	 -0.461	  0.350	  0.100	  0.048	 -9.792	 -0.003	  0.002	  0.000	 32.300	 100.890	  0.513
53863	 -0.110	 -0.457	  0.346	  0.131	  0.039	 -9.797	 -0.005	  0.002	  0.001	 32.300	 100.905	 -0.818
53913	 -0.112	 -0.462	  0.347	  0.117	  0.032	 -9.775	 -0.003	  0.002	  0.001	 32.300	 100.890	  0.513
53963	 -0.111	 -0.462	  0.347	  0.109	  0.066	 -9.817	 -0.004	  0.001	  0.001	 32.300	 100.894	  0.158
54013	 -0.111	 -0.458	  0.347	  0.151	  0.047	 -9.752	 -0.003	  0.002	  0.001	 32.300	 100.905	 -0.818
54063	 -0.111	 -0.458	  0.349	  0.138	  0.076	 -9.784	 -0.004	  0.002	  0.001	 32.300	 100.890	  0.513
54113	 -0.110	 -0.459	  0.347	  0.116	  0.026	 -9.757	 -0.003	  0.002	  0.001	 32.300	 100.894	  0.158
54163	 -0.109	 -0.460	  0.346	  0.131	  0.047	 -9.786	 -0.004	  0.003	  0.001	 32.300	 100.901	 -0.463
54213	 -0.111	 -0.461	  0.347	  0.138	  0.060	 -9.777	 -0.003	  0.002	 -0.000	 32.300	 100.905	 -0.818
54263	 -0.111	 -0.462	  0.343	  0.137	  0.030	 -9.804	 -0.004	  0.003	 -0.000	 32.300	 100.878	  1.578
54312	 -0.112	 -0.462	  0.339	  0.122	  0.045	 -9.785	 -0.004	  0.002	  0.002	 32.300	 100.905	 -0.818
54363	 -0.108	 -0.459	  0.346	  0.105	  0.053	 -9.807	 -0.003	  0.003	  0.000	 32.300	 100.890	  0.513
54412	 -0.110	 -0.457	  0.347	  0.146	  0.057	 -9.777	 -0.003	  0.001	  0.000	 32.300	 100.890	  0.513
54463	 -0.110	 -0.457	  0.347	  0.136	  0.046	 -9.771	 -0.003	  0.003	  0.001	 32.300	 100.890	  0.513
54512	 -0.110	 -0.461	  0.349	  0.128	  0.063	 -9.778	 -0.004	  0.003	  0.000	 32.300	 100.890	  0.513
54562	 -0.112	 -0.463	  0.346	  0.108	  0.045	 -9.817	 -0.003	  0.002	  0.001	 32.300	 100.890	  0.513
54612	 -0.110	 -0.455	  0.349	  0.156	  0.046	 -9.806	 -0.003	  0.003	 -0.001	 32.300	 100.901	 -0.463
54662	 -0.108	 -0.462	  0.345	  0.112	  0.054	 -9.777	 -0.003	  0.002	  0.000	 32.300	 100.894	  0.158
54712	 -0.111	 -0.461	  0.347	  0.121	  0.056	 -9.799	 -0.002	  0.003	  0.001	 32.300	 100.890	  0.513
54762	 -0.111	 -0.463	  0.343	  0.136	  0.046	 -9.786	 -0.003	  0.002	  0.000	 32.300	 100.890	  0.513
54812	 -0.111	 -0.457	  0.346	  0.116	  0.047	 -9.807	 -0.003	  0.002	  0.000	 32.300	 100.905	 -0.818
54862	 -0.111	 -0.459	  0.348	  0.117	  0.060	 -9.826	 -0.003	  0.002	  0.000	 32.300	 100.878	  1.578
54912	 -0.109	 -0.458	  0.348	  0.155	  0.051	 -9.803	 -0.004	  0.002	  0.001	 32.300	 100.905	 -0.818
54962	 -0.110	 -0.462	  0.347	  0.133	  0.048	 -9.776	 -0.004	  0.002	 -0.001	 32.300	 100.890	  0.513
55013	 -0.111	 -0.456	  0.348	  0.146	  0.044	 -9.773	 -0.002	  0.002	  0.001	 32.300	 100.894	  0.158
55062	 -0.108	 -0.461	  0.349	  0.134	  0.046	 -9.797	 -0.003	  0.002	 -0.000	 32.300	 100.890	  0.513
55112	 -0.111	 -0.461	  0.346	  0.140	  0.059	 -9.764	 -0.003	  0.002	  0.001	 32.300	 100.890	  0.513
55162	 -0.112	 -0.462	  0.347	  0.118	  0.055	 -9.787	 -0.003	  0.002	  0.001	 32.300	 100.901	 -0.463
55212	 -0.108	 -0.455	  0.350	  0.138	  0.066	 -9.775	 -0.003	  0.002	  0.001	 32.300	 100.894	  0.158
55262	 -0.109	 -0.460	  0.347	  0.131	  0.035	 -9.821	 -0.002	  0.002	  0.001	 32.300	 100.890	  0.513
55313	 -0.112	 -0.460	  0.347	  0.134	  0.058	 -9.787	 -0.003	  0.002	 -0.000	 32.300	 100.894	  0.158
55362	 -0.110	 -0.460	  0.346	  0.131	  0.039	 -9.771	 -0.002	  0.002	  0.002	 32.300	 100.890	  0.513
55412	 -0.111	 -0.455	  0.346	  0.126	  0.060	 -9.817	 -0.004	  0.003	  0.000	 32.300	 100.890	  0.513
55462	 -0.111	 -0.461	  0.347	  0.138	  0.042	 -9.732	 -0.002	  0.003	  0.002	 32.300	 100.890	  0.513
55512	 -0.110	 -0.462	  0.346	  0.120	  0.061	 -9.788	 -0.003	  0.002	  0.001	 32.300	 100.894	  0.158
55562	 -0.110	 -0.463	  0.344	  0.141	  0.070	 -9.800	 -0.004	  0.001	  0.001	 32.300	 100.890	  0.513
55612	 -0.107	 -0.460	  0.347	  0.111	  0.041	 -9.783	 -0.003	  0.002	  0.001	 32.300	 100.905	 -0.818
55663	 -0.109	 -0.460	  0.348	  0.130	  0.046	 -9.804	 -0.003	  0.003	  0.000	 32.300	 100.901	 -0.463
55712	 -0.110	 -0.461	  0.344	  0.144	  0.048	 -9.836	 -0.003	  0.002	  0.000	 32.300	 100.894	  0.158
55762	 -0.109	 -0.459	  0.349	  0.111	  0.039	 -9.792	 -0.004	  0.002	  0.001	 32.300	 100.890	  0.513
55812	 -0.113	 -0.460	  0.345	  0.129	  0.063	 -9.775	 -0.004	  0.002	  0.000	 32.300	 100.890	  0.513
55862	 -0.114	 -0.462	  0.346	  0.137	  0.033	 -9.793	 -0.003	  0.002	  0.001	 32.300	 100.905	 -0.818
55912	 -0.110	 -0.464	  0.345	  0.144	  0.039	 -9.769	 -0.004	  0.003	  0.000	 32.300	 100.890	  0.513
55963	 -0.110	 -0.460	  0.347	  0.129	  0.068	 -9.776	 -0.003	  0.001	  0.001	 32.300	 100.890	  0.513
56013	 -0.112	 -0.460	  0.347	  0.099	  0.051	 -9.816	 -0.003	  0.002	  0.001	 32.300	 100.890	  0.513
56063	 -0.112	 -0.455	  0.348	  0.120	  0.043	 -9.751	 -0.003	  0.002	  0.000	 32.300	 100.890	  0.513
56113	 -0.111	 -0.465	  0.344	  0.146	  0.051	 -9.810	 -0.003	  0.001	  0.000	 32.300	 100.890	  0.513
56163	 -0.112	 -0.461	  0.347	  0.138	  0.055	 -9.770	 -0.003	  0.002	  0.001	 32.300	 100.890	  0.513
56213	 -0.110	 -0.460	  0.345	  0.144	  0.052	 -9.775	 -0.003	  0.003	  0.001	 32.300	 100.890	  0.513
56263	 -0.108	 -0.460	  0.345	  0.116	  0.047	 -9.798	 -0.002	  0.001	  0.000	 32.300	 100.916	 -1.794
56313	 -0.110	 -0.457	  0.348	  0.119	  0.057	 -9.800	 -0.002	  0.003	  0.002	 32.300	 100.890	  0.513
56363	 -0.111	 -0.462	  0.346	  0.118	  0.035	 -9.816	 -0.004	  0.002	  0.002	 32.300	 100.890	  0.513
56413	 -0.110	 -0.459	  0.345	  0.137	  0.052	 -9.784	 -0.003	  0.002	 -0.000	 32.300	 100.890	  0.513
56463	 -0.108	 -0.457	  0.349	  0.149	  0.038	 -9.804	 -0.004	  0.003	  0.001	 32.300	 100.905	 -0.818
56513	 -0.111	 -0.459	  0.346	  0.141	  0.057	 -9.773	 -0.003	  0.002	  0.001	 32.300	 100.905	 -0.818
56563	 -0.111	 -0.460	  0.346	  0.134	  0.042	 -9.782	 -0.004	  0.002	  0.001	 32.300	 100.905	 -0.818
56613	 -0.109	 -0.454	  0.347	  0.117	  0.024	 -9.807	 -0.005	  0.002	  0.002	 32.300	 100.890	  0.513
56663	 -0.109	 -0.461	  0.346	  0.136	  0.033	 -9.772	 -0.003	  0.003	  0.001	 32.300	 100.901	 -0.463
56713	 -0.109	 -0.459	  0.348	  0.137	  0.043	 -9.803	 -0.003	  0.001	  0.001	 32.300	 100.878	  1.578
56763	 -0.108	 -0.461	  0.346	  0.107	  0.045	 -9.769	 -0.003	  0.003	  0.000	 32.300	 100.890	  0.513
56813	 -0.109	 -0.462	  0.344	  0.154	  0.061	 -9.830	 -0.004	  0.002	  0.001	 32.300	 100.894	  0.158
56863	 -0.108	 -0.460	  0.344	  0.103	  0.019	 -9.780	 -0.002	  0.002	  0.000	 32.300	 100.890	  0.513
56913	 -0.108	 -0.462	  0.346	  0.136	  0.033	 -9.769	 -0.003	  0.003	  0.001	 32.300	 100.894	  0.158
56963	 -0.111	 -0.463	  0.345	  0.131	  0.060	 -9.772	 -0.003	  0.002	 -0.000	 32.300	 100.890	  0.513
57013	 -0.111	 -0.455	  0.347	  0.149	  0.035	 -9.795	 -0.004	  0.002	  0.001	 32.300	 100.890	  0.513
57063	 -0.109	 -0.458	  0.346	  0.112	  0.038	 -9.817	 -0.003	  0.002	  0.001	 32.300	 100.905	 -0.818
57113	 -0.109	 -0.460	  0.347	  0.146	  0.048	 -9.779	 -0.003	  0.002	  0.001	 32.300	 100.890	  0.513
57163	 -0.112	 -0.463	  0.343	  0.147	  0.035	 -9.779	 -0.002	  0.002	  0.001	 32.300	 100.882	  1.223
57213	 -0.109	 -0.459	  0.347	  0.111	  0.061	 -9.780	 -0.005	  0.003	  0.001	 32.300	 100.878	  1.578
57263	 -0.110	 -0.460	  0.344	  0.120	  0.061	 -9.784	 -0.004	  0.001	  0.001	 32.300	 100.901	 -0.463
57313	 -0.109	 -0.461	  0.347	  0.130	  0.064	 -9.809	 -0.003	  0.003	  0.001	 32.300	 100.890	  0.513
57363	 -0.109	 -0.463	  0.346	  0.123	  0.028	 -9.811	 -0.003	  0.003	 -0.000	 32.300	 100.894	  0.158
57413	 -0.110	 -0.456	  0.347	  0.131	  0.044	 -9.812	 -0.003	  0.003	  0.000	 32.300	 100.890	  0.513
57463	 -0.109	 -0.461	  0.348	  0.149	  0.061	 -9.785	 -0.004	  0.002	  0.002	 32.300	 100.905	 -0.818
57513	 -0.109	 -0.461	  0.346	  0.126	  0.051	 -9.798	 -0.003	  0.002	  0.001	 32.300	 100.901	 -0.463
57563	 -0.110	 -0.460	  0.345	  0.123	  0.059	 -9.792	 -0.004	  0.003	  0.001	 32.300	 100.890	  0.513
57613	 -0.112	 -0.462	  0.348	  0.111	  0.062	 -9.794	 -0.003	  0.002	 -0.000	 32.300	 100.890	  0.513
57663	 -0.110	 -0.458	  0.347	  0.134	  0.040	 -9.809	 -0.003	  0.002	  0.002	 32.300	 100.882	  1.223
57713	 -0.110	 -0.462	  0.344	  0.124	  0.078	 -9.775	 -0.004	  0.002	  0.001	 32.300	 100.901	 -0.463
57763	 -0.110	 -0.461	  0.345	  0.142	  0.043	 -9.782	 -0.004	  0.003	  0.000	 32.300	 100.901	 -0.463
57813	 -0.107	 -0.457	  0.349	  0.123	  0.028	 -9.803	 -0.003	  0.002	  0.000	 32.300	 100.894	  0.158
57863	 -0.108	 -0.462	  0.344	  0.115	  0.047	 -9.788	 -0.004	  0.002	  0.001	 32.300	 100.894	  0.158
57913	 -0.108	 -0.462	  0.345	  0.130	  0.077	 -9.783	 -0.003	  0.002	  0.001	 32.300	 100.890	  0.513
57963	 -0.108	 -0.462	  0.347	  0.123	  0.055	 -9.795	 -0.004	  0.004	 -0.000	 32.300	 100.894	  0.158
58013	 -0.109	 -0.462	  0.344	  0.141	  0.036	 -9.782	 -0.003	  0.003	  0.000	 32.300	 100.890	  0.513
58063	 -0.108	 -0.455	  0.349	  0.117	  0.072	 -9.784	 -0.003	  0.001	  0.001	 32.300	 100.894	  0.158
58113	 -0.108	 -0.459	  0.348	  0.110	  0.052	 -9.769	 -0.004	  0.003	  0.001	 32.300	 100.901	 -0.463
58163	 -0.108	 -0.462	  0.347	  0.138	  0.032	 -9.801	 -0.004	  0.002	  0.001	 32.300	 100.890	  0.513
58213	 -0.109	 -0.464	  0.345	  0.131	  0.052	 -9.756	 -0.003	  0.001	  0.000	 32.300	 100.890	  0.513
58263	 -0.109	 -0.459	  0.347	  0.129	  0.035	 -9.799	 -0.003	  0.002	  0.001	 32.300	 100.878	  1.578
58313	 -0.111	 -0.460	  0.343	  0.132	  0.051	 -9.771	 -0.003	  0.002	  0.001	 32.300	 100.890	  0.513
58363	 -0.110	 -0.461	  0.348	  0.121	  0.041	 -9.767	 -0.004	  0.003	  0.002	 32.300	 100.901	 -0.463
58413	 -0.106	 -0.463	  0.345	  0.112	  0.060	 -9.790	 -0.003	  0.002	  0.001	 32.300	 100.882	  1.223
58463	 -0.109	 -0.463	  0.345	  0.141	  0.033	 -9.794	 -0.004	  0.003	  0.001	 32.300	 100.890	  0.513
58513	 -0.109	 -0.462	  0.345	  0.133	  0.033	 -9.786	 -0.004	  0.003	  0.000	 32.300	 100.894	  0.158
58563	 -0.109	 -0.463	  0.339	  0.158	  0.035	 -9.783	 -0.003	  0.003	  0.001	 32.300	 100.912	 -1.440
58613	 -0.108	 -0.461	  0.347	  0.135	  0.051	 -9.772	 -0.004	  0.003	  0.001	 32.300	 100.894	  0.158
58663	 -0.108	 -0.460	  0.347	  0.128	  0.058	 -9.800	 -0.003	  0.002	  0.002	 32.300	 100.890	  0.513
58713	 -0.110	 -0.460	  0.345	  0.128	  0.056	 -9.770	 -0.003	  0.002	  0.001	 32.300	 100.905	 -0.818
58763	 -0.108	 -0.461	  0.347	  0.120	  0.047	 -9.768	 -0.002	  0.002	 -0.000	 32.300	 100.901	 -0.463
58813	 -0.109	 -0.461	  0.343	  0.131	  0.030	 -9.801	 -0.003	  0.002	  0.001	 32.300	 100.905	 -0.818
58863	 -0.108	 -0.461	  0.348	  0.109	  0.043	 -9.804	 -0.003	  0.002	  0.001	 32.300	 100.894	  0.158
58912	 -0.109	 -0.463	  0.344	  0.143	  0.036	 -9.797	 -0.002	  0.001	  0.001	 32.300	 100.890	  0.513
58962	 -0.109	 -0.459	  0.347	  0.128	  0.054	 -9.795	 -0.004	  0.003	  0.002	 32.300	 100.901	 -0.463
59012	 -0.109	 -0.454	  0.348	  0.144	  0.041	 -9.805	 -0.003	  0.003	  0.001	 32.300	 100.890	  0.513
59062	 -0.109	 -0.462	  0.345	  0.151	  0.057	 -9.812	 -0.003	  0.002	  0.002	 32.300	 100.894	  0.158
59112	 -0.110	 -0.461	  0.347	  0.127	  0.052	 -9.817	 -0.003	  0.003	  0.001	 32.300	 100.894	  0.158
59163	 -0.108	 -0.462	  0.345	  0.128	  0.051	 -9.809	 -0.003	  0.003	  0.001	 32.300	 100.894	  0.158
59212	 -0.110	 -0.460	  0.346	  0.124	  0.056	 -9.795	 -0.003	  0.002	  0.001	 32.300	 100.905	 -0.818
59262	 -0.111	 -0.460	  0.342	  0.111	  0.051	 -9.785	 -0.004	  0.002	  0.001	 32.300	 100.894	  0.158
59312	 -0.111	 -0.459	  0.343	  0.124	  0.044	 -9.801	 -0.004	  0.003	  0.000	 32.300	 100.905	 -0.818
59362	 -0.108	 -0.458	  0.345	  0.129	  0.055	 -9.820	 -0.004	  0.002	  0.001	 32.300	 100.894	  0.158
59412	 -0.109	 -0.455	  0.347	  0.126	  0.034	 -9.784	 -0.003	  0.002	  0.001	 32.300	 100.894	  0.158
59462	 -0.107	 -0.459	  0.347	  0.145	  0.043	 -9.803	 -0.004	  0.001	  0.001	 32.300	 100.905	 -0.818
59512	 -0.110	 -0.461	  0.341	  0.117	  0.058	 -9.793	 -0.003	  0.002	  0.000	 32.300	 100.890	  0.513
59562	 -0.109	 -0.458	  0.346	  0.116	  0.060	 -9.782	 -0.004	  0.002	  0.001	 32.300	 100.882	  1.223
59612	 -0.110	 -0.464	  0.344	  0.135	  0.049	 -9.777	 -0.003	  0.002	  0.001	 32.300	 100.890	  0.513
59662	 -0.109	 -0.456	  0.346	  0.109	  0.054	 -9.814	 -0.004	  0.001	  0.000	 32.300	 100.912	 -1.440
59712	 -0.107	 -0.460	  0.347	  0.137	  0.058	 -9.786	 -0.003	  0.003	  0.000	 32.300	 100.890	  0.513
59762	 -0.109	 -0.457	  0.345	  0.133	  0.033	 -9.771	 -0.003	  0.002	  0.002	 32.300	 100.882	  1.223
59812	 -0.109	 -0.460	  0.347	  0.128	  0.062	 -9.796	 -0.002	  0.002	  0.001	 32.300	 100.878	  1.578
59862	 -0.108	 -0.461	  0.344	  0.129	  0.058	 -9.798	 -0.003	  0.003	  0.001	 32.300	 100.890	  0.513
59912	 -0.108	 -0.462	  0.344	  0.131	  0.045	 -9.759	 -0.003	  0.003	  0.001	 32.300	 100.894	  0.158
59962	 -0.109	 -0.462	  0.345	  0.130	  0.044	 -9.780	 -0.004	  0.003	 -0.000	 32.300	 100.905	 -0.818
60012	 -0.109	 -0.462	  0.345	  0.136	  0.038	 -9.821	 -0.004	  0.002	  0.001	 32.300	 100.894	  0.158
60062	 -0.108	 -0.464	  0.346	  0.131	  0.066	 -9.771	 -0.003	  0.002	  0.001	 32.300	 100.890	  0.513
60112	 -0.110	 -0.462	  0.344	  0.134	  0.033	 -9.812	 -0.004	  0.002	  0.000	 32.300	 100.894	  0.158
60162	 -0.108	 -0.461	  0.345	  0.140	  0.018	 -9.816	 -0.003	  0.002	  0.001	 32.300	 100.905	 -0.818
60212	 -0.108	 -0.463	  0.347	  0.139	  0.053	 -9.784	 -0.004	  0.002	  0.002	 32.300	 100.894	  0.158
60262	 -0.108	 -0.459	  0.347	  0.138	  0.038	 -9.756	 -0.004	  0.003	  0.001	 32.300	 100.901	 -0.463
60312	 -0.110	 -0.462	  0.352	  0.141	  0.059	 -9.812	 -0.003	  0.003	  0.001	 32.300	 100.890	  0.513
60362	 -0.106	 -0.460	  0.349	  0.102	  0.040	 -9.796	 -0.004	  0.002	  0.000	 32.300	 100.890	  0.513
60412	 -0.109	 -0.466	  0.348	  0.123	  0.034	 -9.800	 -0.003	  0.003	  0.000	 32.300	 100.905	 -0.818
60462	 -0.111	 -0.454	  0.343	  0.139	  0.053	 -9.796	 -0.002	  0.002	 -0.000	 32.300	 100.890	  0.513
60512	 -0.110	 -0.462	  0.350	  0.117	  0.062	 -9.789	 -0.003	  0.002	  0.001	 32.300	 100.905	 -0.818
60562	 -0.108	 -0.462	  0.346	  0.130	  0.039	 -9.813	 -0.004	  0.003	  0.000	 32.300	 100.890	  0.513
60612	 -0.107	 -0.455	  0.349	  0.136	  0.025	 -9.814	 -0.003	  0.002	  0.001	 32.300	 100.894	  0.158
60662	 -0.111	 -0.466	  0.345	  0.133	  0.070	 -9.798	 -0.003	  0.003	  0.001	 32.300	 100.905	 -0.818
60712	 -0.108	 -0.461	  0.344	  0.109	  0.061	 -9.759	 -0.003	  0.002	  0.001	 32.300	 100.894	  0.158
60762	 -0.111	 -0.465	  0.347	  0.106	  0.037	 -9.773	 -0.003	  0.004	  0.001	 32.200	 100.890	  0.513
60812	 -0.109	 -0.461	  0.345	  0.120	  0.058	 -9.789	 -0.005	  0.002	 -0.000	 32.300	 100.890	  0.513
60862	 -0.109	 -0.458	  0.345	  0.143	  0.063	 -9.789	 -0.003	  0.002	  0.001	 32.200	 100.901	 -0.463
60912	 -0.108	 -0.461	  0.343	  0.146	  0.055	 -9.803	 -0.004	  0.003	  0.000	 32.300	 100.894	  0.158
60962	 -0.108	 -0.462	  0.348	  0.151	  0.034	 -9.797	 -0.004	  0.002	  0.001	 32.300	 100.905	 -0.818
61012	 -0.109	 -0.464	  0.347	  0.111	  0.050	 -9.807	 -0.002	  0.003	  0.002	 32.300	 100.890	  0.513
61062	 -0.108	 -0.455	  0.347	  0.141	  0.076	 -9.794	 -0.002	  0.002	  0.001	 32.300	 100.894	  0.158
61113	 -0.108	 -0.461	  0.345	  0.130	  0.043	 -9.781	 -0.002	  0.002	  0.001	 32.300	 100.905	 -0.818
61162	 -0.109	 -0.463	  0.344	  0.129	  0.047	 -9.788	 -0.003	  0.001	  0.000	 32.300	 100.894	  0.158
61212	 -0.108	 -0.462	  0.347	  0.128	  0.030	 -9.796	 -0.004	  0.003	  0.000	 32.300	 100.894	  0.158
61262	 -0.111	 -0.462	  0.347	  0.117	  0.046	 -9.772	 -0.003	  0.003	  0.001	 32.300	 100.894	  0.158
61312	 -0.109	 -0.463	  0.347	  0.118	  0.036	 -9.794	 -0.003	  0.003	  0.001	 32.300	 100.905	 -0.818
61362	 -0.109	 -0.463	  0.346	  0.159	  0.041	 -9.805	 -0.004	  0.002	  0.001	 32.300	 100.905	 -0.818
61412	 -0.108	 -0.461	  0.344	  0.125	  0.051	 -9.797	 -0.002	  0.003	  0.000	 32.300	 100.890	  0.513
61463	 -0.109	 -0.463	  0.349	  0.105	  0.069	 -9.771	 -0.003	  0.002	  0.001	 32.300	 100.894	  0.158
61513	 -0.110	 -0.463	  0.345	  0.121	  0.066	 -9.772	 -0.004	  0.002	  0.001	 32.300	 100.894	  0.158
61563	 -0.108	 -0.460	  0.346	  0.143	  0.045	 -9.756	 -0.002	  0.003	  0.001	 32.300	 100.894	  0.158
61613	 -0.109	 -0.462	  0.346	  0.135	  0.036	 -9.798	 -0.003	  0.002	  0.000	 32.300	 100.890	  0.513
61663	 -0.108	 -0.462	  0.347	  0.120	  0.042	 -9.823	 -0.002	  0.002	  0.001	 32.300	 100.905	 -0.818
61713	 -0.109	 -0.463	  0.341	  0.142	  0.047	 -9.755	 -0.003	  0.002	  0.000	 32.300	 100.905	 -0.818
61763	 -0.109	 -0.461	  0.348	  0.125	  0.060	 -9.807	 -0.002	  0.003	  0.000	 32.300	 100.894	  0.158
61813	 -0.109	 -0.463	  0.347	  0.121	  0.052	 -9.781	 -0.003	  0.004	  0.001	 32.300	 100.905	 -0.818
61863	 -0.110	 -0.461	  0.346	  0.131	  0.035	 -9.777	 -0.004	  0.002	  0.000	 32.300	 100.905	 -0.818
61913	 -0.108	 -0.460	  0.346	  0.131	  0.056	 -9.789	 -0.003	  0.002	  0.000	 32.300	 100.894	  0.158
61963	 -0.110	 -0.461	  0.342	  0.121	  0.053	 -9.773	 -0.003	  0.002	  0.001	 32.300	 100.901	 -0.463
62013	 -0.106	 -0.461	  0.345	  0.130	  0.040	 -9.800	 -0.003	  0.001	  0.001	 32.300	 100.882	  1.223
62063	 -0.109	 -0.459	  0.343	  0.128	  0.046	 -9.757	 -0.004	  0.002	  0.001	 32.300	 100.912	 -1.440
