Time	 MagX	 MagY	 MagZ	 AccelX	 AccelY	 AccelZ	 Yaw	 Pitch	 Roll	 Temperature	 Pressure	 Altitude
23314	 -0.365	 -0.329	  0.361	  0.110	  0.028	 -9.771	 -0.003	  0.002	  0.001	 31.600	 100.884	 -99999.000
23364	 -0.364	 -0.327	  0.370	  0.139	  0.030	 -9.763	 -0.003	  0.003	  0.000	 31.600	 100.888	 -99999.000
23414	 -0.361	 -0.328	  0.370	  0.157	  0.025	 -9.802	 -0.003	  0.002	  0.001	 31.600	 100.888	 -99999.000
23464	 -0.363	 -0.326	  0.371	  0.142	  0.026	 -9.771	 -0.003	  0.002	  0.000	 31.600	 100.888	 -99999.000
23514	 -0.360	 -0.317	  0.368	  0.156	  0.040	 -9.795	 -0.002	  0.001	  0.001	 31.600	 100.888	 -99999.000
23564	 -0.363	 -0.329	  0.370	  0.130	  0.039	 -9.796	 -0.004	  0.002	  0.001	 31.600	 100.888	 -99999.000
23614	 -0.363	 -0.327	  0.370	  0.174	  0.032	 -9.800	 -0.003	  0.003	  0.001	 31.600	 100.900	 -99999.000
23664	 -0.361	 -0.316	  0.370	  0.142	  0.065	 -9.795	 -0.003	  0.002	  0.001	 31.600	 100.888	 -99999.000
23714	 -0.364	 -0.329	  0.367	  0.166	  0.027	 -9.782	 -0.003	  0.002	  0.000	 31.600	 100.893	 -99999.000
23764	 -0.363	 -0.326	  0.362	  0.170	  0.033	 -9.798	 -0.003	  0.003	  0.002	 31.600	 100.888	 -99999.000
23814	 -0.365	 -0.326	  0.367	  0.145	  0.056	 -9.770	 -0.003	  0.002	  0.001	 31.600	 100.888	 -99999.000
23864	 -0.362	 -0.329	  0.368	  0.159	  0.036	 -9.811	 -0.003	  0.003	  0.000	 31.600	 100.888	 -99999.000
23914	 -0.362	 -0.328	  0.358	  0.167	  0.032	 -9.817	 -0.004	  0.002	  0.000	 31.600	 100.888	 -99999.000
23964	 -0.363	 -0.326	  0.371	  0.144	  0.044	 -9.769	 -0.003	  0.003	  0.001	 31.600	 100.888	 -99999.000
24014	 -0.366	 -0.323	  0.369	  0.151	  0.024	 -9.790	 -0.003	  0.003	  0.000	 31.600	 100.900	 -99999.000
24064	 -0.364	 -0.329	  0.362	  0.141	  0.030	 -9.790	 -0.004	  0.002	  0.000	 31.600	 100.888	 -99999.000
24115	 -0.363	 -0.329	  0.370	  0.145	  0.037	 -9.781	 -0.002	  0.002	 -0.001	 31.600	 100.888	 -99999.000
24164	 -0.361	 -0.322	  0.370	  0.137	  0.032	 -9.802	 -0.004	  0.002	  0.001	 31.600	 100.888	 -99999.000
24215	 -0.362	 -0.331	  0.371	  0.144	  0.035	 -9.790	 -0.002	  0.003	  0.001	 31.600	 100.888	 -99999.000
24264	 -0.362	 -0.326	  0.370	  0.140	  0.045	 -9.782	 -0.003	  0.002	  0.000	 31.600	 100.900	 -99999.000
24314	 -0.364	 -0.327	  0.367	  0.151	  0.058	 -9.782	 -0.003	  0.003	  0.000	 31.600	 100.900	 -99999.000
24364	 -0.365	 -0.331	  0.365	  0.146	  0.050	 -9.820	 -0.003	  0.002	 -0.000	 31.600	 100.900	 -99999.000
24415	 -0.363	 -0.329	  0.370	  0.139	  0.044	 -9.811	 -0.003	  0.002	  0.001	 31.600	 100.888	 -99999.000
24465	 -0.361	 -0.315	  0.371	  0.145	  0.003	 -9.760	 -0.005	  0.002	  0.001	 31.600	 100.888	 -99999.000
24514	 -0.361	 -0.322	  0.368	  0.124	  0.023	 -9.784	 -0.003	  0.002	  0.000	 31.600	 100.888	 -99999.000
24565	 -0.364	 -0.329	  0.368	  0.156	  0.038	 -9.793	 -0.004	  0.002	  0.001	 31.600	 100.900	 -99999.000
24615	 -0.365	 -0.326	  0.365	  0.134	  0.057	 -9.793	 -0.003	  0.002	  0.001	 31.600	 100.888	 -99999.000
24665	 -0.361	 -0.330	  0.371	  0.131	  0.026	 -9.775	 -0.003	  0.002	  0.002	 31.600	 100.900	 -99999.000
24715	 -0.364	 -0.318	  0.369	  0.155	  0.033	 -9.750	 -0.004	  0.003	  0.000	 31.600	 100.888	 -99999.000
24765	 -0.363	 -0.326	  0.367	  0.150	  0.036	 -9.808	 -0.003	  0.003	  0.000	 31.600	 100.888	 -99999.000
24815	 -0.365	 -0.326	  0.366	  0.149	  0.034	 -9.768	 -0.003	  0.004	  0.000	 31.600	 100.877	 -99999.000
24865	 -0.364	 -0.319	  0.368	  0.109	  0.050	 -9.789	 -0.003	  0.002	  0.000	 31.600	 100.888	 -99999.000
24915	 -0.363	 -0.326	  0.365	  0.142	  0.063	 -9.800	 -0.003	  0.003	  0.001	 31.600	 100.888	 -99999.000
24965	 -0.362	 -0.329	  0.371	  0.149	  0.025	 -9.799	 -0.004	  0.001	  0.001	 31.600	 100.900	 -99999.000
25015	 -0.365	 -0.329	  0.366	  0.129	  0.039	 -9.780	 -0.003	  0.002	  0.001	 31.600	 100.888	 -99999.000
25065	 -0.363	 -0.329	  0.368	  0.137	  0.038	 -9.776	 -0.002	  0.002	  0.001	 31.700	 100.893	 -99999.000
25115	 -0.359	 -0.328	  0.373	  0.145	  0.033	 -9.802	 -0.003	  0.001	 -0.000	 31.600	 100.896	 -99999.000
25165	 -0.364	 -0.323	  0.369	  0.168	  0.021	 -9.786	 -0.004	  0.001	  0.000	 31.600	 100.888	 -99999.000
25215	 -0.365	 -0.331	  0.371	  0.129	  0.037	 -9.781	 -0.003	  0.002	  0.001	 31.700	 100.888	 -99999.000
25265	 -0.366	 -0.327	  0.361	  0.154	  0.067	 -9.772	 -0.003	  0.001	  0.001	 31.600	 100.888	 -99999.000
25315	 -0.363	 -0.324	  0.370	  0.150	  0.022	 -9.793	 -0.003	  0.002	  0.002	 31.700	 100.888	 -99999.000
25365	 -0.361	 -0.329	  0.368	  0.138	  0.028	 -9.797	 -0.003	  0.003	  0.001	 31.600	 100.900	 -99999.000
25415	 -0.363	 -0.329	  0.370	  0.143	  0.052	 -9.830	 -0.003	  0.001	  0.002	 31.600	 100.888	 -99999.000
25465	 -0.363	 -0.326	  0.367	  0.160	  0.053	 -9.783	 -0.003	  0.002	  0.000	 31.600	 100.888	 -99999.000
25514	 -0.361	 -0.331	  0.368	  0.135	  0.033	 -9.804	 -0.004	  0.002	  0.001	 31.600	 100.888	 -99999.000
25564	 -0.362	 -0.326	  0.370	  0.142	  0.028	 -9.820	 -0.003	  0.002	  0.000	 31.600	 100.888	 -99999.000
25614	 -0.362	 -0.331	  0.363	  0.143	  0.027	 -9.780	 -0.004	  0.003	  0.000	 31.600	 100.888	 -99999.000
25664	 -0.363	 -0.329	  0.371	  0.128	  0.049	 -9.782	 -0.002	  0.002	  0.002	 31.600	 100.877	 -99999.000
25714	 -0.363	 -0.329	  0.370	  0.152	  0.037	 -9.765	 -0.002	  0.002	  0.000	 31.600	 100.888	 -99999.000
25764	 -0.363	 -0.327	  0.367	  0.143	  0.019	 -9.779	 -0.003	  0.003	  0.001	 31.600	 100.900	 -99999.000
25814	 -0.365	 -0.329	  0.368	  0.146	  0.040	 -9.801	 -0.002	  0.002	  0.001	 31.600	 100.888	 -99999.000
25864	 -0.364	 -0.323	  0.367	  0.151	  0.046	 -9.806	 -0.003	  0.002	  0.001	 31.600	 100.900	 -99999.000
25914	 -0.361	 -0.328	  0.368	  0.156	  0.046	 -9.818	 -0.004	  0.001	  0.001	 31.600	 100.888	 -99999.000
25964	 -0.365	 -0.329	  0.365	  0.148	  0.036	 -9.800	 -0.004	  0.002	  0.001	 31.600	 100.900	 -99999.000
26014	 -0.362	 -0.329	  0.364	  0.160	  0.044	 -9.796	 -0.004	  0.002	  0.001	 31.600	 100.881	 -99999.000
26064	 -0.364	 -0.326	  0.370	  0.166	  0.044	 -9.784	 -0.004	  0.002	  0.000	 31.600	 100.900	 -99999.000
26114	 -0.364	 -0.327	  0.366	  0.147	  0.015	 -9.766	 -0.003	  0.002	  0.001	 31.700	 100.888	 -99999.000
26164	 -0.363	 -0.327	  0.370	  0.129	  0.029	 -9.804	 -0.003	  0.001	  0.000	 31.700	 100.893	 -99999.000
26214	 -0.362	 -0.326	  0.371	  0.163	  0.036	 -9.800	 -0.003	  0.003	 -0.000	 31.700	 100.900	 -99999.000
26264	 -0.366	 -0.327	  0.372	  0.147	  0.037	 -9.779	 -0.004	  0.003	  0.001	 31.600	 100.900	 -99999.000
26314	 -0.361	 -0.329	  0.367	  0.149	  0.034	 -9.802	 -0.003	  0.002	  0.002	 31.600	 100.900	 -99999.000
26364	 -0.364	 -0.318	  0.369	  0.161	  0.023	 -9.816	 -0.003	  0.003	  0.000	 31.600	 100.877	 -99999.000
26414	 -0.365	 -0.330	  0.361	  0.144	  0.046	 -9.788	 -0.003	  0.002	  0.001	 31.600	 100.900	 -99999.000
26464	 -0.363	 -0.327	  0.366	  0.148	  0.038	 -9.769	 -0.004	  0.002	  0.000	 31.600	 100.900	 -99999.000
26514	 -0.361	 -0.328	  0.367	  0.147	  0.034	 -9.796	 -0.003	  0.002	  0.001	 31.700	 100.888	 -99999.000
26564	 -0.362	 -0.329	  0.367	  0.148	  0.041	 -9.769	 -0.004	  0.002	  0.002	 31.700	 100.893	 -99999.000
26614	 -0.364	 -0.326	  0.370	  0.130	  0.060	 -9.805	 -0.004	  0.003	 -0.000	 31.700	 100.900	 -99999.000
26664	 -0.361	 -0.328	  0.370	  0.145	  0.051	 -9.769	 -0.004	  0.002	  0.000	 31.600	 100.888	 -99999.000
26714	 -0.364	 -0.329	  0.365	  0.131	  0.053	 -9.793	 -0.003	  0.003	  0.000	 31.600	 100.888	 -99999.000
26764	 -0.364	 -0.326	  0.367	  0.155	  0.045	 -9.821	 -0.004	  0.002	 -0.000	 31.700	 100.893	 -99999.000
26814	 -0.363	 -0.326	  0.366	  0.117	  0.020	 -9.792	 -0.003	  0.002	  0.001	 31.700	 100.900	 -99999.000
26864	 -0.365	 -0.331	  0.368	  0.157	  0.020	 -9.811	 -0.004	  0.002	  0.000	 31.600	 100.888	 -99999.000
26914	 -0.364	 -0.330	  0.366	  0.135	  0.051	 -9.792	 -0.003	  0.003	  0.001	 31.600	 100.877	 -99999.000
26964	 -0.362	 -0.326	  0.368	  0.157	  0.076	 -9.754	 -0.004	  0.002	  0.001	 31.600	 100.900	 -99999.000
27014	 -0.363	 -0.329	  0.365	  0.154	  0.054	 -9.833	 -0.003	  0.001	  0.000	 31.600	 100.893	 -99999.000
27064	 -0.364	 -0.324	  0.368	  0.161	  0.057	 -9.777	 -0.004	  0.003	 -0.000	 31.600	 100.900	 -99999.000
27114	 -0.365	 -0.329	  0.366	  0.145	  0.055	 -9.813	 -0.003	  0.002	  0.001	 31.600	 100.888	 -99999.000
27164	 -0.363	 -0.330	  0.365	  0.155	  0.039	 -9.801	 -0.003	  0.003	  0.001	 31.600	 100.900	 -99999.000
27214	 -0.363	 -0.332	  0.366	  0.134	  0.020	 -9.786	 -0.003	  0.003	  0.001	 31.600	 100.888	 -99999.000
27264	 -0.363	 -0.328	  0.363	  0.128	  0.047	 -9.817	 -0.003	  0.003	  0.000	 31.600	 100.888	 -99999.000
27314	 -0.364	 -0.329	  0.370	  0.141	  0.029	 -9.798	 -0.003	  0.001	  0.001	 31.700	 100.888	 -99999.000
27364	 -0.362	 -0.328	  0.364	  0.129	 -0.004	 -9.826	 -0.003	  0.001	  0.001	 31.600	 100.888	 -99999.000
27414	 -0.364	 -0.330	  0.364	  0.125	  0.054	 -9.787	 -0.003	  0.003	  0.001	 31.700	 100.888	 -99999.000
27464	 -0.362	 -0.330	  0.368	  0.160	  0.049	 -9.783	 -0.002	  0.002	  0.001	 31.700	 100.893	 -99999.000
27514	 -0.362	 -0.330	  0.368	  0.152	  0.037	 -9.807	 -0.003	  0.002	 -0.000	 31.700	 100.888	 -99999.000
27564	 -0.364	 -0.317	  0.366	  0.148	  0.038	 -9.776	 -0.003	  0.002	  0.001	 31.700	 100.893	 -99999.000
27614	 -0.362	 -0.330	  0.368	  0.148	  0.025	 -9.772	 -0.003	  0.003	  0.000	 31.700	 100.900	 -99999.000
27664	 -0.364	 -0.327	  0.365	  0.149	  0.047	 -9.801	 -0.004	  0.003	  0.000	 31.700	 100.904	 -99999.000
27714	 -0.363	 -0.331	  0.365	  0.136	  0.022	 -9.796	 -0.003	  0.003	  0.000	 31.700	 100.888	 -99999.000
27764	 -0.363	 -0.327	  0.368	  0.162	  0.042	 -9.745	 -0.003	  0.002	  0.000	 31.700	 100.893	 -99999.000
27814	 -0.362	 -0.324	  0.365	  0.144	  0.042	 -9.762	 -0.003	  0.001	  0.001	 31.700	 100.888	 -99999.000
27864	 -0.363	 -0.321	  0.371	  0.139	  0.046	 -9.799	 -0.003	  0.002	  0.002	 31.600	 100.900	 -99999.000
27914	 -0.363	 -0.329	  0.367	  0.152	  0.034	 -9.800	 -0.003	  0.002	  0.001	 31.600	 100.888	 -99999.000
27964	 -0.365	 -0.332	  0.370	  0.149	  0.051	 -9.812	 -0.004	  0.003	  0.000	 31.600	 100.877	 -99999.000
28014	 -0.363	 -0.326	  0.366	  0.122	  0.057	 -9.817	 -0.003	  0.002	 -0.000	 31.700	 100.893	 -99999.000
28064	 -0.363	 -0.330	  0.363	  0.151	  0.051	 -9.795	 -0.004	  0.002	  0.001	 31.600	 100.888	 -99999.000
28114	 -0.364	 -0.332	  0.368	  0.136	  0.036	 -9.803	 -0.003	  0.003	  0.001	 31.700	 100.877	 -99999.000
28164	 -0.365	 -0.329	  0.372	  0.144	  0.034	 -9.772	 -0.002	  0.002	  0.001	 31.700	 100.893	 -99999.000
28214	 -0.363	 -0.329	  0.367	  0.132	  0.024	 -9.804	 -0.003	  0.002	 -0.000	 31.700	 100.904	 -99999.000
28264	 -0.367	 -0.331	  0.367	  0.152	  0.042	 -9.766	 -0.003	  0.002	  0.000	 31.600	 100.888	 -99999.000
28314	 -0.361	 -0.328	  0.368	  0.130	  0.028	 -9.799	 -0.003	  0.003	  0.002	 31.700	 100.888	 -99999.000
28364	 -0.363	 -0.322	  0.368	  0.139	  0.016	 -9.783	 -0.003	  0.002	  0.000	 31.600	 100.888	 -99999.000
28414	 -0.363	 -0.329	  0.373	  0.157	  0.032	 -9.806	 -0.003	  0.002	  0.001	 31.700	 100.888	 -99999.000
28464	 -0.364	 -0.326	  0.364	  0.147	  0.042	 -9.779	 -0.003	  0.003	  0.001	 31.700	 100.881	 -99999.000
28514	 -0.361	 -0.330	  0.366	  0.164	  0.035	 -9.829	 -0.003	  0.001	  0.001	 31.600	 100.900	 -99999.000
28564	 -0.363	 -0.316	  0.369	  0.143	  0.044	 -9.763	 -0.002	  0.003	  0.000	 31.600	 100.888	 -99999.000
28614	 -0.363	 -0.327	  0.368	  0.135	  0.031	 -9.802	 -0.003	  0.003	  0.001	 31.600	 100.888	 -99999.000
28664	 -0.362	 -0.329	  0.370	  0.124	  0.040	 -9.785	 -0.003	  0.002	  0.002	 31.600	 100.888	 -99999.000
28714	 -0.364	 -0.332	  0.365	  0.152	  0.044	 -9.791	 -0.003	  0.001	 -0.000	 31.700	 100.900	 -99999.000
28764	 -0.364	 -0.329	  0.365	  0.152	  0.035	 -9.784	 -0.003	  0.002	  0.001	 31.700	 100.893	 -99999.000
28814	 -0.365	 -0.326	  0.366	  0.168	  0.026	 -9.778	 -0.004	  0.001	  0.000	 31.600	 100.888	 -99999.000
28864	 -0.363	 -0.329	  0.367	  0.166	  0.028	 -9.780	 -0.003	  0.002	  0.001	 31.600	 100.888	 -99999.000
28914	 -0.362	 -0.331	  0.362	  0.145	  0.030	 -9.758	 -0.004	  0.003	  0.000	 31.600	 100.888	 -99999.000
28964	 -0.364	 -0.329	  0.366	  0.141	  0.027	 -9.769	 -0.004	  0.003	  0.000	 31.700	 100.893	 -99999.000
29014	 -0.364	 -0.326	  0.368	  0.148	  0.040	 -9.816	 -0.003	  0.002	  0.001	 31.700	 100.904	 -99999.000
29064	 -0.364	 -0.330	  0.364	  0.138	  0.045	 -9.776	 -0.004	  0.002	  0.000	 31.700	 100.893	 -99999.000
29114	 -0.365	 -0.326	  0.366	  0.144	  0.049	 -9.803	 -0.003	  0.002	  0.001	 31.700	 100.893	 -99999.000
29164	 -0.363	 -0.321	  0.370	  0.133	  0.035	 -9.811	 -0.003	  0.004	  0.000	 31.700	 100.893	 -99999.000
29214	 -0.363	 -0.320	  0.367	  0.158	  0.031	 -9.802	 -0.003	  0.002	  0.000	 31.700	 100.881	 -99999.000
29264	 -0.364	 -0.327	  0.371	  0.140	  0.042	 -9.770	 -0.004	  0.003	  0.000	 31.700	 100.893	 -99999.000
54565	 -0.364	 -0.333	  0.368	  0.153	  0.006	 -9.825	 -0.004	  0.003	  0.000	 31.700	 100.894	 -0.229
54615	 -0.362	 -0.326	  0.370	  0.137	  0.036	 -9.775	 -0.003	  0.002	  0.001	 31.700	 100.894	 -0.229
54665	 -0.363	 -0.327	  0.372	  0.160	  0.049	 -9.753	 -0.003	  0.002	 -0.000	 31.700	 100.894	 -0.229
54715	 -0.365	 -0.328	  0.367	  0.135	  0.028	 -9.826	 -0.003	  0.002	  0.000	 31.700	 100.894	 -0.229
54765	 -0.363	 -0.328	  0.367	  0.138	  0.045	 -9.746	 -0.003	  0.001	 -0.000	 31.700	 100.883	  0.744
54815	 -0.363	 -0.325	  0.367	  0.143	  0.050	 -9.787	 -0.002	  0.003	  0.001	 31.700	 100.883	  0.744
54865	 -0.362	 -0.330	  0.371	  0.140	  0.041	 -9.784	 -0.003	  0.002	 -0.000	 31.700	 100.894	 -0.229
54915	 -0.363	 -0.327	  0.366	  0.142	  0.033	 -9.781	 -0.003	  0.002	  0.001	 31.700	 100.894	 -0.229
54965	 -0.362	 -0.328	  0.368	  0.144	  0.048	 -9.776	 -0.003	  0.003	  0.001	 31.700	 100.894	 -0.229
55015	 -0.361	 -0.330	  0.368	  0.141	  0.018	 -9.765	 -0.002	  0.002	  0.001	 31.700	 100.894	 -0.229
55065	 -0.365	 -0.328	  0.371	  0.126	  0.041	 -9.780	 -0.004	  0.002	 -0.000	 31.700	 100.894	 -0.229
55115	 -0.360	 -0.329	  0.369	  0.144	  0.038	 -9.776	 -0.003	  0.002	  0.001	 31.700	 100.894	 -0.229
55165	 -0.362	 -0.326	  0.365	  0.140	  0.024	 -9.781	 -0.004	  0.002	  0.001	 31.700	 100.890	  0.125
55215	 -0.361	 -0.331	  0.371	  0.136	  0.039	 -9.793	 -0.004	  0.003	  0.001	 31.700	 100.894	 -0.229
55265	 -0.364	 -0.328	  0.370	  0.136	  0.022	 -9.796	 -0.003	  0.001	  0.001	 31.700	 100.894	 -0.229
55315	 -0.361	 -0.327	  0.366	  0.147	  0.020	 -9.785	 -0.003	  0.003	  0.000	 31.700	 100.894	 -0.229
55365	 -0.362	 -0.323	  0.365	  0.144	  0.039	 -9.779	 -0.003	  0.002	 -0.000	 31.700	 100.887	  0.390
55415	 -0.361	 -0.328	  0.370	  0.150	  0.028	 -9.779	 -0.003	  0.001	  0.001	 31.700	 100.894	 -0.229
55465	 -0.367	 -0.324	  0.366	  0.138	  0.052	 -9.774	 -0.003	  0.003	 -0.000	 31.700	 100.883	  0.744
55515	 -0.362	 -0.324	  0.370	  0.147	  0.015	 -9.829	 -0.003	  0.002	  0.002	 31.700	 100.894	 -0.229
55565	 -0.364	 -0.324	  0.370	  0.133	  0.051	 -9.801	 -0.003	  0.002	  0.000	 31.700	 100.894	 -0.229
55615	 -0.361	 -0.326	  0.367	  0.158	  0.032	 -9.769	 -0.003	  0.003	  0.000	 31.700	 100.894	 -0.229
55665	 -0.363	 -0.329	  0.365	  0.142	  0.045	 -9.778	 -0.004	  0.002	  0.001	 31.700	 100.894	 -0.229
55715	 -0.364	 -0.329	  0.365	  0.160	  0.037	 -9.801	 -0.003	  0.002	  0.001	 31.700	 100.894	 -0.229
55765	 -0.360	 -0.327	  0.361	  0.144	  0.014	 -9.794	 -0.002	  0.003	  0.002	 31.700	 100.879	  1.099
55815	 -0.365	 -0.324	  0.368	  0.146	  0.061	 -9.816	 -0.004	  0.003	  0.001	 31.700	 100.883	  0.744
55865	 -0.363	 -0.329	  0.366	  0.144	  0.022	 -9.764	 -0.003	  0.002	  0.001	 31.700	 100.894	 -0.229
55915	 -0.363	 -0.327	  0.363	  0.151	  0.060	 -9.813	 -0.003	  0.003	  0.002	 31.700	 100.883	  0.744
55965	 -0.364	 -0.329	  0.364	  0.136	  0.038	 -9.774	 -0.004	  0.003	 -0.000	 31.700	 100.894	 -0.229
56015	 -0.362	 -0.329	  0.370	  0.136	  0.007	 -9.811	 -0.002	  0.002	  0.002	 31.700	 100.894	 -0.229
56065	 -0.362	 -0.328	  0.367	  0.136	  0.042	 -9.784	 -0.003	  0.003	  0.001	 31.700	 100.894	 -0.229
56115	 -0.361	 -0.322	  0.367	  0.148	  0.036	 -9.812	 -0.004	  0.002	  0.000	 31.700	 100.905	 -1.203
56165	 -0.362	 -0.328	  0.366	  0.139	  0.028	 -9.818	 -0.003	  0.003	  0.001	 31.700	 100.894	 -0.229
56215	 -0.361	 -0.327	  0.367	  0.138	  0.031	 -9.802	 -0.002	  0.002	  0.001	 31.700	 100.894	 -0.229
56265	 -0.362	 -0.330	  0.366	  0.136	  0.025	 -9.766	 -0.003	  0.003	 -0.000	 31.700	 100.879	  1.099
56315	 -0.362	 -0.330	  0.370	  0.133	  0.026	 -9.775	 -0.003	  0.002	  0.001	 31.700	 100.894	 -0.229
56365	 -0.363	 -0.328	  0.371	  0.143	  0.038	 -9.757	 -0.003	  0.003	  0.001	 31.700	 100.905	 -1.203
56415	 -0.363	 -0.326	  0.368	  0.141	  0.045	 -9.779	 -0.003	  0.002	  0.001	 31.700	 100.894	 -0.229
56465	 -0.363	 -0.327	  0.367	  0.121	  0.039	 -9.801	 -0.003	  0.003	  0.001	 31.700	 100.905	 -1.203
56515	 -0.362	 -0.326	  0.365	  0.132	  0.029	 -9.797	 -0.003	  0.003	  0.000	 31.700	 100.883	  0.744
56565	 -0.365	 -0.328	  0.368	  0.131	  0.039	 -9.807	 -0.003	  0.002	  0.000	 31.700	 100.894	 -0.229
56615	 -0.362	 -0.325	  0.366	  0.148	  0.045	 -9.811	 -0.004	  0.001	  0.000	 31.700	 100.894	 -0.229
56665	 -0.362	 -0.323	  0.368	  0.136	  0.031	 -9.814	 -0.004	  0.002	  0.001	 31.700	 100.883	  0.744
56715	 -0.365	 -0.328	  0.368	  0.130	  0.029	 -9.809	 -0.003	  0.002	  0.001	 31.700	 100.894	 -0.229
56765	 -0.361	 -0.324	  0.365	  0.135	  0.057	 -9.777	 -0.002	  0.001	  0.000	 31.700	 100.894	 -0.229
56815	 -0.362	 -0.324	  0.371	  0.148	  0.056	 -9.766	 -0.005	  0.001	  0.000	 31.700	 100.894	 -0.229
56865	 -0.361	 -0.330	  0.368	  0.160	  0.037	 -9.777	 -0.003	  0.001	  0.001	 31.700	 100.894	 -0.229
56915	 -0.362	 -0.329	  0.372	  0.138	  0.029	 -9.787	 -0.003	  0.003	 -0.000	 31.700	 100.894	 -0.229
56965	 -0.363	 -0.326	  0.367	  0.166	  0.036	 -9.807	 -0.003	  0.002	  0.001	 31.700	 100.887	  0.390
57015	 -0.363	 -0.324	  0.367	  0.144	  0.063	 -9.805	 -0.002	  0.001	 -0.000	 31.700	 100.894	 -0.229
57065	 -0.363	 -0.326	  0.368	  0.141	  0.018	 -9.761	 -0.003	  0.001	  0.002	 31.700	 100.894	 -0.229
57115	 -0.363	 -0.322	  0.370	  0.148	  0.057	 -9.803	 -0.004	  0.003	  0.001	 31.700	 100.894	 -0.229
57165	 -0.363	 -0.330	  0.370	  0.141	  0.034	 -9.776	 -0.003	  0.001	  0.001	 31.700	 100.894	 -0.229
57215	 -0.363	 -0.330	  0.372	  0.165	  0.052	 -9.813	 -0.003	  0.002	  0.001	 31.700	 100.883	  0.744
57265	 -0.363	 -0.327	  0.367	  0.162	  0.048	 -9.801	 -0.003	  0.002	  0.001	 31.700	 100.894	 -0.229
57315	 -0.363	 -0.329	  0.364	  0.172	  0.047	 -9.820	 -0.002	  0.003	  0.001	 31.700	 100.883	  0.744
57366	 -0.360	 -0.327	  0.370	  0.165	  0.032	 -9.819	 -0.002	  0.003	  0.001	 31.700	 100.898	 -0.584
57415	 -0.365	 -0.330	  0.366	  0.149	  0.049	 -9.816	 -0.003	  0.002	  0.000	 31.700	 100.894	 -0.229
57466	 -0.363	 -0.329	  0.365	  0.140	  0.030	 -9.816	 -0.003	  0.001	  0.001	 31.700	 100.905	 -1.203
57515	 -0.363	 -0.327	  0.372	  0.146	  0.046	 -9.799	 -0.003	  0.003	  0.001	 31.700	 100.894	 -0.229
57566	 -0.362	 -0.328	  0.366	  0.134	  0.076	 -9.787	 -0.003	  0.002	  0.001	 31.700	 100.894	 -0.229
57616	 -0.365	 -0.326	  0.367	  0.126	  0.054	 -9.787	 -0.003	  0.003	  0.001	 31.700	 100.894	 -0.229
57666	 -0.365	 -0.328	  0.370	  0.140	  0.036	 -9.766	 -0.004	  0.002	  0.002	 31.700	 100.883	  0.744
57716	 -0.363	 -0.329	  0.362	  0.124	  0.019	 -9.785	 -0.002	  0.002	  0.001	 31.700	 100.894	 -0.229
57766	 -0.363	 -0.332	  0.368	  0.139	  0.054	 -9.801	 -0.002	  0.002	  0.000	 31.700	 100.894	 -0.229
57816	 -0.364	 -0.328	  0.364	  0.151	  0.043	 -9.809	 -0.004	  0.003	 -0.000	 31.700	 100.894	 -0.229
57865	 -0.361	 -0.323	  0.368	  0.156	  0.049	 -9.792	 -0.004	  0.004	  0.000	 31.700	 100.894	 -0.229
57915	 -0.362	 -0.324	  0.367	  0.163	  0.034	 -9.785	 -0.003	  0.003	  0.000	 31.700	 100.905	 -1.203
57965	 -0.363	 -0.327	  0.366	  0.128	  0.075	 -9.803	 -0.003	  0.001	  0.001	 31.700	 100.894	 -0.229
58015	 -0.366	 -0.329	  0.364	  0.174	  0.035	 -9.803	 -0.004	  0.002	  0.001	 31.700	 100.894	 -0.229
58065	 -0.362	 -0.327	  0.370	  0.136	  0.022	 -9.823	 -0.003	  0.002	 -0.000	 31.700	 100.894	 -0.229
58115	 -0.362	 -0.329	  0.366	  0.155	  0.040	 -9.778	 -0.003	  0.002	 -0.000	 31.700	 100.894	 -0.229
58165	 -0.363	 -0.322	  0.370	  0.136	  0.022	 -9.807	 -0.003	  0.002	 -0.000	 31.700	 100.894	 -0.229
58215	 -0.363	 -0.328	  0.370	  0.143	  0.032	 -9.781	 -0.003	  0.002	  0.000	 31.700	 100.894	 -0.229
58265	 -0.363	 -0.326	  0.367	  0.152	  0.042	 -9.785	 -0.004	  0.002	  0.001	 31.700	 100.894	 -0.229
58315	 -0.361	 -0.326	  0.366	  0.162	  0.061	 -9.805	 -0.003	  0.001	  0.001	 31.700	 100.898	 -0.584
58365	 -0.362	 -0.329	  0.369	  0.140	  0.047	 -9.783	 -0.003	  0.002	  0.000	 31.700	 100.894	 -0.229
58415	 -0.361	 -0.329	  0.365	  0.150	  0.054	 -9.778	 -0.002	  0.003	  0.001	 31.700	 100.887	  0.390
58465	 -0.362	 -0.327	  0.368	  0.150	  0.034	 -9.797	 -0.003	  0.002	  0.001	 31.700	 100.894	 -0.229
58515	 -0.362	 -0.329	  0.371	  0.146	  0.046	 -9.809	 -0.003	  0.003	  0.001	 31.700	 100.898	 -0.584
58565	 -0.365	 -0.326	  0.373	  0.129	  0.021	 -9.849	 -0.003	  0.002	  0.001	 31.700	 100.894	 -0.229
58615	 -0.361	 -0.330	  0.369	  0.153	  0.029	 -9.835	 -0.003	  0.003	  0.001	 31.700	 100.898	 -0.584
58665	 -0.362	 -0.327	  0.364	  0.152	  0.048	 -9.777	 -0.003	  0.002	  0.001	 31.700	 100.894	 -0.229
58715	 -0.363	 -0.328	  0.368	  0.148	  0.049	 -9.782	 -0.003	  0.001	  0.001	 31.700	 100.883	  0.744
58765	 -0.363	 -0.329	  0.363	  0.155	  0.050	 -9.825	 -0.002	  0.003	  0.000	 31.700	 100.894	 -0.229
58815	 -0.365	 -0.330	  0.363	  0.145	  0.042	 -9.792	 -0.003	  0.002	  0.001	 31.700	 100.894	 -0.229
58865	 -0.364	 -0.327	  0.365	  0.137	  0.057	 -9.767	 -0.003	  0.003	  0.000	 31.700	 100.894	 -0.229
58915	 -0.360	 -0.319	  0.367	  0.144	  0.041	 -9.779	 -0.004	  0.002	  0.000	 31.700	 100.894	 -0.229
58965	 -0.363	 -0.328	  0.366	  0.162	  0.035	 -9.809	 -0.003	  0.001	  0.001	 31.700	 100.898	 -0.584
59015	 -0.362	 -0.324	  0.365	  0.136	  0.032	 -9.788	 -0.003	  0.002	  0.001	 31.700	 100.883	  0.744
59065	 -0.362	 -0.327	  0.359	  0.142	  0.026	 -9.770	 -0.003	  0.002	  0.000	 31.700	 100.883	  0.744
59115	 -0.361	 -0.323	  0.368	  0.141	  0.027	 -9.787	 -0.003	  0.003	  0.001	 31.700	 100.883	  0.744
59165	 -0.362	 -0.328	  0.367	  0.146	  0.056	 -9.784	 -0.003	  0.001	 -0.001	 31.700	 100.894	 -0.229
59215	 -0.364	 -0.330	  0.365	  0.144	  0.033	 -9.748	 -0.004	  0.003	  0.002	 31.700	 100.894	 -0.229
59265	 -0.362	 -0.331	  0.370	  0.136	  0.061	 -9.804	 -0.003	  0.003	  0.001	 31.700	 100.894	 -0.229
59315	 -0.363	 -0.323	  0.367	  0.154	  0.056	 -9.797	 -0.003	  0.002	  0.001	 31.700	 100.887	  0.390
59365	 -0.366	 -0.329	  0.364	  0.121	  0.052	 -9.781	 -0.003	  0.002	  0.000	 31.700	 100.898	 -0.584
59415	 -0.362	 -0.329	  0.367	  0.153	  0.043	 -9.811	 -0.004	  0.002	  0.001	 31.700	 100.894	 -0.229
59465	 -0.363	 -0.319	  0.368	  0.130	  0.042	 -9.795	 -0.003	  0.002	  0.001	 31.700	 100.894	 -0.229
59515	 -0.362	 -0.328	  0.363	  0.114	  0.028	 -9.766	 -0.003	  0.002	  0.001	 31.700	 100.887	  0.390
59565	 -0.363	 -0.328	  0.370	  0.129	  0.031	 -9.792	 -0.003	  0.003	  0.002	 31.700	 100.898	 -0.584
59615	 -0.364	 -0.325	  0.367	  0.140	  0.042	 -9.791	 -0.003	  0.001	  0.000	 31.700	 100.883	  0.744
59665	 -0.364	 -0.326	  0.365	  0.126	  0.026	 -9.767	 -0.002	  0.002	  0.001	 31.700	 100.883	  0.744
59715	 -0.360	 -0.328	  0.368	  0.131	  0.030	 -9.767	 -0.003	  0.003	  0.000	 31.700	 100.894	 -0.229
59765	 -0.364	 -0.327	  0.368	  0.138	  0.041	 -9.827	 -0.003	  0.003	  0.001	 31.700	 100.894	 -0.229
59815	 -0.362	 -0.327	  0.370	  0.163	  0.032	 -9.773	 -0.003	  0.002	  0.001	 31.700	 100.898	 -0.584
59865	 -0.362	 -0.327	  0.368	  0.163	  0.065	 -9.787	 -0.003	  0.001	  0.001	 31.700	 100.905	 -1.203
59915	 -0.364	 -0.324	  0.368	  0.143	  0.018	 -9.792	 -0.003	  0.002	 -0.000	 31.700	 100.898	 -0.584
59965	 -0.361	 -0.326	  0.366	  0.143	  0.029	 -9.783	 -0.004	  0.002	  0.000	 31.700	 100.883	  0.744
60015	 -0.362	 -0.328	  0.368	  0.158	  0.051	 -9.800	 -0.004	  0.002	 -0.000	 31.700	 100.883	  0.744
60065	 -0.363	 -0.329	  0.368	  0.138	  0.038	 -9.837	 -0.002	  0.003	  0.001	 31.700	 100.883	  0.744
60115	 -0.363	 -0.326	  0.367	  0.150	  0.059	 -9.808	 -0.002	  0.003	  0.000	 31.700	 100.898	 -0.584
60165	 -0.363	 -0.328	  0.368	  0.146	  0.053	 -9.797	 -0.003	  0.002	  0.001	 31.700	 100.905	 -1.203
60215	 -0.363	 -0.324	  0.368	  0.148	  0.053	 -9.799	 -0.004	  0.002	  0.001	 31.700	 100.894	 -0.229
60265	 -0.362	 -0.328	  0.365	  0.171	  0.018	 -9.781	 -0.003	  0.002	  0.000	 31.700	 100.894	 -0.229
60315	 -0.363	 -0.329	  0.363	  0.139	  0.051	 -9.794	 -0.003	  0.003	  0.001	 31.700	 100.898	 -0.584
60365	 -0.363	 -0.327	  0.363	  0.132	  0.041	 -9.792	 -0.004	  0.002	  0.001	 31.700	 100.898	 -0.584
60415	 -0.364	 -0.329	  0.363	  0.152	  0.051	 -9.798	 -0.003	  0.003	  0.001	 31.700	 100.894	 -0.229
60465	 -0.363	 -0.328	  0.366	  0.158	  0.004	 -9.758	 -0.003	  0.002	  0.001	 31.700	 100.883	  0.744
60515	 -0.364	 -0.328	  0.371	  0.150	  0.031	 -9.826	 -0.003	  0.002	  0.003	 31.700	 100.894	 -0.229
68115	 -0.363	 -0.330	  0.366	  0.123	  0.049	 -9.797	 -0.002	  0.003	 -0.000	 31.700	 100.887	  0.523
68166	 -0.361	 -0.331	  0.368	  0.128	  0.046	 -9.815	 -0.003	  0.002	  0.000	 31.700	 100.876	  1.497
68215	 -0.362	 -0.330	  0.366	  0.148	  0.038	 -9.786	 -0.003	  0.002	  0.001	 31.700	 100.898	 -0.452
68266	 -0.364	 -0.328	  0.370	  0.140	  0.063	 -9.793	 -0.003	  0.002	  0.002	 31.700	 100.891	  0.169
68315	 -0.363	 -0.323	  0.370	  0.129	  0.038	 -9.791	 -0.003	  0.003	  0.001	 31.700	 100.898	 -0.452
68366	 -0.362	 -0.328	  0.370	  0.141	  0.037	 -9.762	 -0.003	  0.002	  0.001	 31.700	 100.887	  0.523
68416	 -0.360	 -0.328	  0.364	  0.149	  0.042	 -9.794	 -0.003	  0.003	  0.002	 31.700	 100.891	  0.169
68466	 -0.361	 -0.324	  0.371	  0.167	  0.051	 -9.785	 -0.004	  0.002	  0.001	 31.700	 100.898	 -0.452
68516	 -0.362	 -0.328	  0.369	  0.156	  0.032	 -9.782	 -0.003	  0.001	  0.001	 31.700	 100.887	  0.523
68565	 -0.361	 -0.328	  0.366	  0.121	  0.009	 -9.803	 -0.003	  0.002	  0.001	 31.700	 100.891	  0.169
68616	 -0.362	 -0.330	  0.369	  0.147	  0.043	 -9.767	 -0.003	  0.002	  0.001	 31.700	 100.887	  0.523
68665	 -0.360	 -0.329	  0.368	  0.139	  0.012	 -9.767	 -0.003	  0.002	  0.002	 31.700	 100.891	  0.169
68716	 -0.363	 -0.328	  0.372	  0.158	  0.029	 -9.819	 -0.003	  0.003	  0.001	 31.700	 100.903	 -0.893
68766	 -0.363	 -0.331	  0.371	  0.150	  0.045	 -9.824	 -0.004	  0.003	  0.001	 31.700	 100.898	 -0.452
68816	 -0.359	 -0.329	  0.369	  0.144	  0.067	 -9.785	 -0.002	  0.002	  0.001	 31.700	 100.887	  0.523
68866	 -0.361	 -0.327	  0.369	  0.161	  0.051	 -9.764	 -0.003	  0.003	  0.001	 31.700	 100.891	  0.169
68916	 -0.361	 -0.329	  0.370	  0.151	  0.043	 -9.814	 -0.003	  0.002	  0.001	 31.700	 100.903	 -0.893
68966	 -0.363	 -0.328	  0.367	  0.134	  0.035	 -9.781	 -0.003	  0.002	  0.000	 31.700	 100.903	 -0.893
69016	 -0.360	 -0.329	  0.371	  0.143	  0.045	 -9.789	 -0.003	  0.002	  0.000	 31.700	 100.891	  0.169
69066	 -0.360	 -0.329	  0.370	  0.153	  0.045	 -9.824	 -0.003	  0.002	  0.000	 31.700	 100.898	 -0.452
69116	 -0.362	 -0.331	  0.369	  0.140	  0.047	 -9.781	 -0.003	  0.002	  0.002	 31.700	 100.898	 -0.452
69166	 -0.361	 -0.328	  0.370	  0.124	  0.042	 -9.810	 -0.003	  0.003	  0.001	 31.700	 100.891	  0.169
69216	 -0.361	 -0.329	  0.370	  0.163	  0.040	 -9.773	 -0.003	  0.002	  0.001	 31.700	 100.898	 -0.452
69266	 -0.363	 -0.330	  0.368	  0.132	  0.027	 -9.786	 -0.004	  0.003	  0.001	 31.700	 100.891	  0.169
69316	 -0.364	 -0.329	  0.366	  0.126	  0.047	 -9.813	 -0.003	  0.003	  0.002	 31.700	 100.887	  0.523
69366	 -0.362	 -0.327	  0.365	  0.144	  0.024	 -9.779	 -0.005	  0.001	  0.001	 31.700	 100.887	  0.523
69416	 -0.362	 -0.330	  0.368	  0.106	  0.050	 -9.801	 -0.003	  0.002	  0.001	 31.700	 100.891	  0.169
69466	 -0.362	 -0.329	  0.369	  0.127	  0.026	 -9.804	 -0.004	  0.002	 -0.000	 31.700	 100.891	  0.169
69516	 -0.359	 -0.327	  0.371	  0.163	  0.039	 -9.797	 -0.003	  0.002	  0.001	 31.700	 100.891	  0.169
69566	 -0.360	 -0.325	  0.368	  0.170	  0.057	 -9.792	 -0.003	  0.002	  0.001	 31.700	 100.891	  0.169
69616	 -0.360	 -0.330	  0.368	  0.138	  0.037	 -9.814	 -0.003	  0.002	 -0.001	 31.700	 100.891	  0.169
69666	 -0.360	 -0.326	  0.371	  0.149	  0.051	 -9.763	 -0.003	  0.003	 -0.000	 31.700	 100.891	  0.169
69716	 -0.363	 -0.330	  0.366	  0.132	  0.045	 -9.805	 -0.002	  0.002	  0.001	 31.700	 100.898	 -0.452
69766	 -0.361	 -0.331	  0.369	  0.135	  0.058	 -9.799	 -0.004	  0.001	  0.000	 31.700	 100.898	 -0.452
69816	 -0.363	 -0.328	  0.366	  0.129	  0.035	 -9.787	 -0.002	  0.003	 -0.001	 31.700	 100.898	 -0.452
69866	 -0.361	 -0.329	  0.368	  0.143	  0.043	 -9.798	 -0.003	  0.003	  0.000	 31.700	 100.891	  0.169
69916	 -0.359	 -0.328	  0.368	  0.159	  0.047	 -9.752	 -0.002	  0.003	  0.001	 31.700	 100.891	  0.169
69966	 -0.363	 -0.328	  0.370	  0.143	  0.023	 -9.777	 -0.003	  0.000	  0.000	 31.700	 100.898	 -0.452
70016	 -0.362	 -0.329	  0.371	  0.177	  0.050	 -9.813	 -0.003	  0.003	  0.000	 31.700	 100.903	 -0.893
70066	 -0.363	 -0.328	  0.365	  0.159	  0.044	 -9.815	 -0.004	  0.003	  0.002	 31.700	 100.898	 -0.452
70116	 -0.360	 -0.331	  0.365	  0.147	  0.033	 -9.792	 -0.004	  0.002	  0.001	 31.700	 100.887	  0.523
70165	 -0.362	 -0.330	  0.364	  0.141	  0.043	 -9.788	 -0.004	  0.002	  0.001	 31.700	 100.891	  0.169
70216	 -0.359	 -0.326	  0.372	  0.145	  0.027	 -9.765	 -0.003	  0.002	  0.000	 31.700	 100.891	  0.169
70265	 -0.362	 -0.327	  0.370	  0.134	  0.025	 -9.767	 -0.003	  0.002	  0.000	 31.700	 100.887	  0.523
70315	 -0.364	 -0.326	  0.368	  0.172	  0.037	 -9.794	 -0.003	  0.001	  0.001	 31.700	 100.898	 -0.452
70365	 -0.362	 -0.330	  0.368	  0.144	  0.026	 -9.833	 -0.003	  0.002	  0.001	 31.700	 100.903	 -0.893
70415	 -0.363	 -0.329	  0.367	  0.163	  0.055	 -9.747	 -0.003	  0.004	  0.001	 31.700	 100.898	 -0.452
70466	 -0.363	 -0.328	  0.371	  0.157	  0.026	 -9.789	 -0.004	  0.002	  0.001	 31.700	 100.887	  0.523
70515	 -0.363	 -0.327	  0.367	  0.129	  0.051	 -9.747	 -0.003	  0.006	  0.000	 31.700	 100.891	  0.169
70565	 -0.363	 -0.328	  0.368	  0.127	  0.033	 -9.782	 -0.004	  0.001	  0.002	 31.700	 100.891	  0.169
70615	 -0.362	 -0.327	  0.366	  0.147	  0.029	 -9.820	 -0.003	  0.001	  0.001	 31.700	 100.891	  0.169
70665	 -0.364	 -0.322	  0.368	  0.131	  0.022	 -9.773	 -0.003	  0.002	  0.000	 31.700	 100.887	  0.523
70715	 -0.366	 -0.328	  0.360	  0.131	  0.055	 -9.753	 -0.004	  0.003	 -0.000	 31.700	 100.891	  0.169
70765	 -0.363	 -0.323	  0.365	  0.152	  0.021	 -9.798	 -0.002	  0.001	  0.002	 31.700	 100.891	  0.169
70815	 -0.364	 -0.329	  0.370	  0.163	  0.037	 -9.792	 -0.003	  0.003	  0.001	 31.700	 100.903	 -0.893
70865	 -0.362	 -0.325	  0.366	  0.136	  0.018	 -9.754	 -0.002	  0.003	  0.002	 31.700	 100.887	  0.523
70915	 -0.364	 -0.327	  0.365	  0.167	  0.051	 -9.792	 -0.004	  0.002	  0.001	 31.700	 100.891	  0.169
70965	 -0.361	 -0.330	  0.370	  0.122	  0.050	 -9.752	 -0.004	  0.001	  0.001	 31.700	 100.903	 -0.893
71015	 -0.363	 -0.329	  0.365	  0.173	  0.016	 -9.766	 -0.003	  0.002	  0.001	 31.700	 100.891	  0.169
71065	 -0.363	 -0.325	  0.371	  0.175	  0.035	 -9.784	 -0.003	  0.003	  0.001	 31.700	 100.903	 -0.893
71115	 -0.362	 -0.331	  0.369	  0.178	 -0.072	 -9.784	 -0.002	  0.004	 -0.050	 31.700	 100.891	  0.169
71165	 -0.365	 -0.331	  0.366	  0.155	  0.050	 -9.767	 -0.003	  0.001	 -0.094	 31.700	 100.891	  0.169
71215	 -0.362	 -0.334	  0.370	  0.171	  0.008	 -9.765	 -0.004	  0.004	 -0.020	 31.700	 100.903	 -0.893
71265	 -0.362	 -0.334	  0.368	  0.219	 -0.111	 -9.792	 -0.006	  0.004	 -0.057	 31.700	 100.887	  0.523
71315	 -0.359	 -0.337	  0.370	  0.127	  0.066	 -9.812	 -0.002	  0.003	 -0.107	 31.700	 100.887	  0.523
71365	 -0.357	 -0.336	  0.368	  0.064	  0.119	 -9.800	 -0.003	  0.004	 -0.074	 31.700	 100.891	  0.169
71415	 -0.354	 -0.339	  0.366	  0.237	 -0.033	 -9.749	 -0.000	  0.001	 -0.174	 31.700	 100.887	  0.523
71465	 -0.353	 -0.336	  0.366	  0.222	 -0.087	 -9.807	  0.002	  0.000	 -0.267	 31.700	 100.898	 -0.452
71515	 -0.347	 -0.347	  0.366	  0.089	  0.119	 -9.775	 -0.001	  0.002	 -0.204	 31.700	 100.903	 -0.893
71565	 -0.341	 -0.350	  0.364	  0.090	  0.220	 -9.791	 -0.002	  0.002	 -0.196	 31.700	 100.891	  0.169
71615	 -0.342	 -0.357	  0.365	  0.085	  0.049	 -9.769	 -0.002	  0.002	 -0.035	 31.700	 100.887	  0.523
71665	 -0.341	 -0.351	  0.364	  0.123	  0.052	 -9.782	 -0.004	 -0.000	  0.003	 31.700	 100.903	 -0.893
71715	 -0.343	 -0.351	  0.370	  0.129	  0.064	 -9.787	 -0.003	  0.005	  0.003	 31.700	 100.887	  0.523
71765	 -0.340	 -0.347	  0.368	  0.163	  0.013	 -9.793	 -0.003	  0.002	  0.012	 31.700	 100.880	  1.143
71815	 -0.343	 -0.349	  0.364	  0.142	  0.021	 -9.785	 -0.003	  0.001	  0.000	 31.700	 100.891	  0.169
71865	 -0.344	 -0.349	  0.371	  0.146	  0.043	 -9.810	 -0.003	  0.002	  0.001	 31.700	 100.891	  0.169
71915	 -0.343	 -0.353	  0.365	  0.139	  0.071	 -9.763	 -0.002	  0.002	  0.001	 31.700	 100.887	  0.523
71965	 -0.342	 -0.353	  0.369	  0.137	  0.036	 -9.809	 -0.003	  0.002	  0.001	 31.700	 100.891	  0.169
72015	 -0.343	 -0.348	  0.365	  0.093	  0.041	 -9.803	 -0.003	  0.003	  0.001	 31.700	 100.903	 -0.893
72065	 -0.341	 -0.351	  0.366	  0.106	  0.055	 -9.922	 -0.002	  0.003	  0.001	 31.700	 100.898	 -0.452
72115	 -0.342	 -0.347	  0.364	  0.125	  0.059	 -9.843	 -0.003	  0.004	  0.002	 31.700	 100.887	  0.523
72165	 -0.341	 -0.354	  0.368	  0.131	  0.064	 -9.796	 -0.004	  0.001	  0.000	 31.700	 100.891	  0.169
72215	 -0.342	 -0.350	  0.366	  0.140	  0.050	 -9.824	 -0.004	  0.000	 -0.001	 31.700	 100.887	  0.523
72265	 -0.343	 -0.350	  0.363	  0.141	  0.030	 -9.783	 -0.002	  0.004	  0.001	 31.700	 100.903	 -0.893
72315	 -0.341	 -0.351	  0.368	  0.162	  0.030	 -9.797	 -0.003	  0.002	  0.001	 31.700	 100.891	  0.169
72365	 -0.343	 -0.352	  0.368	  0.148	  0.034	 -9.821	 -0.005	  0.003	  0.001	 31.700	 100.903	 -0.893
72415	 -0.343	 -0.350	  0.363	  0.162	  0.048	 -9.777	 -0.001	  0.002	  0.001	 31.700	 100.903	 -0.893
72465	 -0.343	 -0.349	  0.364	  0.146	  0.054	 -9.780	 -0.003	  0.002	  0.000	 31.700	 100.891	  0.169
72515	 -0.342	 -0.351	  0.364	  0.130	  0.050	 -9.795	 -0.002	  0.001	  0.000	 31.700	 100.891	  0.169
72565	 -0.340	 -0.351	  0.366	  0.152	  0.058	 -9.795	 -0.004	  0.001	  0.002	 31.700	 100.891	  0.169
72615	 -0.344	 -0.354	  0.365	  0.141	  0.042	 -9.767	 -0.003	  0.002	  0.000	 31.700	 100.891	  0.169
72665	 -0.341	 -0.352	  0.363	  0.120	  0.028	 -9.800	 -0.001	  0.005	  0.002	 31.800	 100.895	 -0.185
72715	 -0.343	 -0.351	  0.369	  0.094	  0.069	 -9.832	 -0.005	  0.004	  0.039	 31.700	 100.903	 -0.893
72765	 -0.344	 -0.352	  0.364	  0.212	 -0.032	 -9.796	 -0.004	  0.001	  0.036	 31.700	 100.903	 -0.893
72815	 -0.344	 -0.347	  0.365	  0.144	  0.030	 -9.815	 -0.004	  0.005	  0.017	 31.700	 100.903	 -0.893
72865	 -0.344	 -0.354	  0.368	  0.137	  0.032	 -9.760	 -0.004	  0.003	  0.001	 31.700	 100.903	 -0.893
72915	 -0.345	 -0.352	  0.367	  0.135	  0.034	 -9.823	 -0.002	  0.003	  0.000	 31.700	 100.891	  0.169
72965	 -0.342	 -0.343	  0.369	  0.108	  0.102	 -9.778	 -0.003	  0.002	  0.014	 31.800	 100.895	 -0.185
73015	 -0.345	 -0.347	  0.367	  0.148	  0.031	 -9.812	 -0.002	  0.002	  0.032	 31.700	 100.891	  0.169
73065	 -0.346	 -0.347	  0.368	  0.158	  0.029	 -9.791	 -0.003	  0.002	  0.014	 31.700	 100.898	 -0.452
73115	 -0.346	 -0.349	  0.370	  0.153	  0.039	 -9.781	 -0.004	 -0.000	  0.030	 31.700	 100.903	 -0.893
73165	 -0.346	 -0.347	  0.366	  0.132	  0.030	 -9.821	 -0.003	  0.001	  0.012	 31.700	 100.880	  1.143
73215	 -0.348	 -0.349	  0.366	  0.136	  0.047	 -9.815	 -0.003	  0.002	  0.007	 31.700	 100.891	  0.169
73265	 -0.344	 -0.345	  0.367	  0.100	 -0.022	 -9.710	 -0.005	  0.002	  0.002	 31.700	 100.891	  0.169
73315	 -0.345	 -0.347	  0.366	  0.209	 -0.042	 -9.746	 -0.003	  0.001	  0.027	 31.700	 100.891	  0.169
73365	 -0.346	 -0.345	  0.364	  0.168	  0.015	 -9.785	 -0.004	  0.003	  0.002	 31.700	 100.891	  0.169
73415	 -0.347	 -0.349	  0.362	  0.151	  0.030	 -9.815	 -0.003	  0.001	  0.000	 31.700	 100.891	  0.169
73465	 -0.347	 -0.350	  0.366	  0.140	  0.019	 -9.778	 -0.004	  0.001	  0.000	 31.700	 100.903	 -0.893
73515	 -0.348	 -0.346	  0.368	  0.129	  0.045	 -9.830	 -0.004	  0.003	  0.001	 31.700	 100.891	  0.169
73565	 -0.347	 -0.345	  0.366	  0.143	  0.047	 -9.816	 -0.003	  0.004	  0.001	 31.700	 100.891	  0.169
73615	 -0.346	 -0.339	  0.366	  0.127	  0.018	 -9.814	 -0.005	 -0.002	 -0.001	 31.700	 100.891	  0.169
73665	 -0.347	 -0.343	  0.368	  0.140	  0.042	 -9.789	 -0.005	  0.003	 -0.001	 31.700	 100.891	  0.169
73715	 -0.346	 -0.347	  0.366	  0.139	  0.050	 -9.766	  0.003	  0.006	  0.002	 31.700	 100.891	  0.169
73766	 -0.347	 -0.343	  0.368	  0.050	  0.198	 -9.804	  0.002	  0.007	  0.025	 31.700	 100.891	  0.169
73815	 -0.347	 -0.344	  0.365	  0.152	  0.026	 -9.773	 -0.005	  0.002	  0.001	 31.700	 100.891	  0.169
73865	 -0.349	 -0.349	  0.365	  0.144	  0.057	 -9.795	 -0.003	  0.002	  0.002	 31.700	 100.891	  0.169
73916	 -0.346	 -0.345	  0.363	  0.040	  0.130	 -9.774	 -0.004	  0.000	  0.017	 31.700	 100.891	  0.169
73966	 -0.347	 -0.345	  0.364	  0.187	  0.012	 -9.778	 -0.004	  0.002	  0.032	 31.700	 100.903	 -0.893
74016	 -0.348	 -0.347	  0.365	  0.031	  0.066	 -9.816	 -0.004	  0.001	  0.043	 31.700	 100.898	 -0.452
74066	 -0.349	 -0.345	  0.361	  0.375	  0.005	 -9.754	 -0.008	  0.001	  0.020	 31.700	 100.880	  1.143
74116	 -0.349	 -0.344	  0.367	  0.139	  0.053	 -9.793	 -0.003	  0.000	 -0.002	 31.700	 100.891	  0.169
74166	 -0.349	 -0.343	  0.366	  0.135	  0.027	 -9.789	 -0.003	  0.004	  0.001	 31.700	 100.891	  0.169
74216	 -0.349	 -0.344	  0.366	  0.153	  0.037	 -9.758	 -0.003	  0.003	  0.001	 31.700	 100.903	 -0.893
74266	 -0.351	 -0.344	  0.361	  0.138	  0.035	 -9.784	 -0.003	  0.002	  0.001	 31.800	 100.895	 -0.185
74316	 -0.349	 -0.347	  0.366	  0.158	  0.036	 -9.788	 -0.004	  0.002	  0.001	 31.700	 100.903	 -0.893
74366	 -0.350	 -0.343	  0.367	  0.126	  0.054	 -9.820	 -0.002	  0.003	  0.007	 31.700	 100.891	  0.169
74416	 -0.348	 -0.343	  0.368	  0.119	 -0.008	 -9.772	 -0.005	  0.003	  0.010	 31.700	 100.907	 -1.248
74466	 -0.349	 -0.339	  0.368	  0.188	  0.058	 -9.802	 -0.004	  0.001	  0.012	 31.700	 100.891	  0.169
74516	 -0.349	 -0.344	  0.367	  0.179	  0.044	 -9.777	 -0.003	  0.003	  0.015	 31.700	 100.891	  0.169
74565	 -0.348	 -0.339	  0.372	  0.141	  0.032	 -9.781	 -0.003	  0.003	  0.008	 31.700	 100.891	  0.169
74615	 -0.350	 -0.344	  0.369	  0.204	  0.040	 -9.769	 -0.001	  0.002	  0.003	 31.700	 100.891	  0.169
74666	 -0.351	 -0.338	  0.369	  0.133	  0.033	 -9.817	 -0.004	 -0.000	  0.008	 31.800	 100.895	 -0.185
74716	 -0.351	 -0.343	  0.367	  0.172	  0.030	 -9.786	 -0.004	  0.002	  0.006	 31.700	 100.891	  0.169
74765	 -0.351	 -0.343	  0.366	  0.130	  0.068	 -9.800	 -0.003	  0.001	  0.002	 31.700	 100.891	  0.169
74815	 -0.349	 -0.336	  0.368	  0.112	  0.029	 -9.803	 -0.001	  0.001	  0.003	 31.700	 100.891	  0.169
74865	 -0.348	 -0.341	  0.369	  0.133	  0.014	 -9.766	 -0.003	  0.001	  0.016	 31.700	 100.891	  0.169
74915	 -0.351	 -0.342	  0.360	  0.234	  0.134	 -9.815	  0.001	  0.003	 -0.002	 31.700	 100.903	 -0.893
74965	 -0.351	 -0.343	  0.368	  0.157	  0.020	 -9.807	 -0.004	  0.002	  0.001	 31.700	 100.891	  0.169
75015	 -0.349	 -0.339	  0.368	  0.138	  0.043	 -9.806	  0.002	  0.008	  0.005	 31.700	 100.891	  0.169
75065	 -0.352	 -0.341	  0.364	  0.309	 -0.016	 -9.813	 -0.005	  0.004	  0.046	 31.700	 100.891	  0.169
75115	 -0.352	 -0.343	  0.369	  0.166	  0.078	 -9.798	 -0.005	 -0.000	 -0.001	 31.800	 100.891	  0.169
75165	 -0.350	 -0.335	  0.372	  0.154	  0.014	 -9.815	 -0.004	  0.002	 -0.008	 31.700	 100.880	  1.143
75215	 -0.351	 -0.344	  0.369	  0.152	  0.054	 -9.776	 -0.005	  0.004	 -0.002	 31.700	 100.891	  0.169
75265	 -0.354	 -0.343	  0.365	  0.123	  0.038	 -9.796	 -0.003	  0.002	  0.000	 31.700	 100.891	  0.169
75315	 -0.352	 -0.344	  0.368	  0.151	  0.027	 -9.810	 -0.002	  0.003	  0.000	 31.700	 100.891	  0.169
75365	 -0.350	 -0.340	  0.367	  0.152	  0.049	 -9.765	 -0.003	  0.002	  0.001	 31.700	 100.891	  0.169
75415	 -0.355	 -0.345	  0.367	  0.151	  0.025	 -9.806	 -0.002	  0.002	  0.001	 31.700	 100.891	  0.169
75465	 -0.353	 -0.341	  0.368	  0.156	  0.015	 -9.755	 -0.001	  0.004	  0.002	 31.700	 100.891	  0.169
75515	 -0.352	 -0.343	  0.367	  0.156	  0.004	 -9.795	 -0.004	  0.001	 -0.000	 31.700	 100.891	  0.169
75565	 -0.350	 -0.341	  0.370	  0.131	  0.052	 -9.806	 -0.002	  0.003	  0.000	 31.800	 100.895	 -0.185
75616	 -0.354	 -0.343	  0.366	  0.147	  0.040	 -9.764	 -0.005	  0.003	 -0.000	 31.800	 100.891	  0.169
75666	 -0.352	 -0.343	  0.366	  0.133	  0.034	 -9.817	 -0.003	  0.003	 -0.000	 31.700	 100.891	  0.169
75716	 -0.350	 -0.341	  0.370	  0.135	  0.049	 -9.759	 -0.004	  0.003	  0.000	 31.700	 100.891	  0.169
75766	 -0.353	 -0.345	  0.369	  0.115	  0.049	 -9.775	 -0.003	  0.002	  0.001	 31.700	 100.891	  0.169
75816	 -0.351	 -0.340	  0.370	  0.147	  0.022	 -9.758	 -0.001	  0.001	  0.001	 31.700	 100.884	  0.789
75866	 -0.350	 -0.336	  0.368	  0.123	  0.004	 -9.829	 -0.004	  0.003	 -0.000	 31.800	 100.895	 -0.185
75916	 -0.350	 -0.341	  0.368	  0.155	  0.025	 -9.810	 -0.002	 -0.003	  0.001	 31.800	 100.907	 -1.248
75966	 -0.350	 -0.342	  0.369	  0.140	  0.015	 -9.810	 -0.005	  0.005	 -0.000	 31.700	 100.880	  1.143
76016	 -0.351	 -0.344	  0.366	  0.149	  0.031	 -9.768	 -0.004	  0.003	  0.001	 31.700	 100.880	  1.143
76066	 -0.352	 -0.342	  0.368	  0.117	  0.023	 -9.762	 -0.002	  0.003	  0.001	 31.700	 100.891	  0.169
76116	 -0.351	 -0.344	  0.372	  0.150	  0.035	 -9.786	 -0.003	  0.003	 -0.000	 31.700	 100.891	  0.169
76166	 -0.349	 -0.344	  0.369	  0.174	  0.034	 -9.780	 -0.004	  0.002	  0.000	 31.700	 100.891	  0.169
76216	 -0.351	 -0.344	  0.366	  0.119	  0.038	 -9.793	 -0.003	  0.002	  0.002	 31.700	 100.884	  0.789
76266	 -0.352	 -0.342	  0.368	  0.157	  0.060	 -9.809	 -0.004	  0.003	  0.001	 31.800	 100.895	 -0.185
76316	 -0.352	 -0.343	  0.369	  0.139	  0.048	 -9.814	 -0.003	  0.003	  0.000	 31.700	 100.895	 -0.185
76366	 -0.353	 -0.346	  0.368	  0.163	  0.040	 -9.806	 -0.004	  0.002	  0.001	 31.700	 100.891	  0.169
76416	 -0.352	 -0.338	  0.366	  0.151	  0.048	 -9.801	 -0.004	  0.002	  0.001	 31.700	 100.891	  0.169
76466	 -0.352	 -0.341	  0.364	  0.165	  0.041	 -9.796	 -0.003	  0.002	  0.001	 31.800	 100.895	 -0.185
76516	 -0.350	 -0.338	  0.369	  0.136	  0.023	 -9.771	 -0.003	  0.003	  0.000	 31.800	 100.880	  1.143
76566	 -0.352	 -0.341	  0.369	  0.144	  0.071	 -9.786	 -0.004	  0.002	  0.001	 31.700	 100.891	  0.169
76616	 -0.351	 -0.341	  0.364	  0.194	  0.031	 -9.788	 -0.003	  0.002	  0.002	 31.700	 100.903	 -0.893
76665	 -0.350	 -0.340	  0.368	  0.144	  0.026	 -9.778	 -0.000	 -0.001	  0.000	 31.700	 100.891	  0.169
76715	 -0.353	 -0.341	  0.370	  0.137	  0.030	 -9.796	 -0.003	  0.000	  0.001	 31.800	 100.891	  0.169
76765	 -0.353	 -0.338	  0.366	  0.140	  0.055	 -9.772	 -0.001	  0.000	 -0.000	 31.700	 100.891	  0.169
76815	 -0.351	 -0.341	  0.369	  0.150	  0.040	 -9.785	 -0.003	  0.001	  0.000	 31.800	 100.880	  1.143
76865	 -0.351	 -0.343	  0.369	  0.150	  0.038	 -9.803	 -0.003	  0.003	  0.001	 31.700	 100.891	  0.169
76915	 -0.352	 -0.341	  0.370	  0.137	  0.057	 -9.776	 -0.003	  0.002	  0.000	 31.700	 100.891	  0.169
76965	 -0.353	 -0.343	  0.359	  0.134	  0.044	 -9.798	 -0.002	  0.003	  0.001	 31.700	 100.880	  1.143
77016	 -0.351	 -0.341	  0.369	  0.161	  0.047	 -9.827	 -0.003	  0.001	 -0.000	 31.800	 100.895	 -0.185
77065	 -0.350	 -0.350	  0.366	  0.145	  0.069	 -9.771	 -0.003	  0.005	 -0.001	 31.700	 100.891	  0.169
77115	 -0.351	 -0.343	  0.364	  0.147	  0.025	 -9.800	 -0.003	  0.003	  0.001	 31.800	 100.891	  0.169
77165	 -0.351	 -0.343	  0.368	  0.142	  0.046	 -9.795	 -0.003	  0.003	  0.001	 31.700	 100.887	  0.523
77215	 -0.350	 -0.346	  0.369	  0.155	  0.044	 -9.825	 -0.003	  0.004	  0.001	 31.800	 100.884	  0.789
77265	 -0.353	 -0.342	  0.370	  0.147	  0.058	 -9.788	 -0.003	  0.002	  0.000	 31.700	 100.903	 -0.893
77315	 -0.352	 -0.343	  0.367	  0.143	  0.037	 -9.805	 -0.004	  0.001	  0.000	 31.700	 100.895	 -0.185
77365	 -0.351	 -0.340	  0.366	  0.132	  0.045	 -9.768	 -0.003	  0.004	  0.000	 31.700	 100.891	  0.169
77415	 -0.350	 -0.338	  0.367	  0.148	  0.034	 -9.778	 -0.004	  0.003	  0.000	 31.800	 100.884	  0.789
77465	 -0.352	 -0.342	  0.369	  0.147	  0.047	 -9.784	 -0.004	  0.002	  0.000	 31.700	 100.891	  0.169
77515	 -0.351	 -0.343	  0.366	  0.148	  0.049	 -9.796	 -0.003	  0.003	  0.000	 31.800	 100.891	  0.169
77565	 -0.351	 -0.341	  0.368	  0.159	  0.030	 -9.773	 -0.004	  0.003	  0.001	 31.700	 100.903	 -0.893
77615	 -0.351	 -0.340	  0.368	  0.148	  0.040	 -9.807	 -0.002	  0.001	  0.002	 31.800	 100.891	  0.169
77665	 -0.347	 -0.342	  0.368	  0.162	  0.044	 -9.764	 -0.003	  0.001	 -0.000	 31.800	 100.907	 -1.248
77715	 -0.350	 -0.340	  0.369	  0.135	  0.042	 -9.785	 -0.004	  0.002	  0.001	 31.700	 100.895	 -0.185
77765	 -0.351	 -0.344	  0.368	  0.163	  0.003	 -9.800	 -0.004	  0.003	  0.000	 31.700	 100.891	  0.169
77815	 -0.350	 -0.342	  0.366	  0.151	  0.061	 -9.781	 -0.002	  0.002	  0.000	 31.800	 100.880	  1.143
77865	 -0.351	 -0.341	  0.366	  0.140	  0.021	 -9.787	 -0.003	  0.002	  0.000	 31.800	 100.895	 -0.185
77915	 -0.349	 -0.341	  0.364	  0.155	  0.042	 -9.780	 -0.004	  0.003	  0.000	 31.800	 100.895	 -0.185
77965	 -0.350	 -0.344	  0.369	  0.136	  0.016	 -9.770	 -0.004	  0.002	  0.001	 31.700	 100.891	  0.169
78015	 -0.352	 -0.342	  0.361	  0.127	  0.023	 -9.797	 -0.002	  0.001	  0.001	 31.700	 100.891	  0.169
78065	 -0.351	 -0.344	  0.366	  0.145	  0.044	 -9.769	 -0.002	  0.000	  0.001	 31.800	 100.895	 -0.185
78115	 -0.351	 -0.338	  0.370	  0.141	  0.021	 -9.796	 -0.004	  0.001	  0.000	 31.800	 100.891	  0.169
78165	 -0.351	 -0.341	  0.361	  0.153	  0.050	 -9.801	 -0.004	  0.003	  0.001	 31.700	 100.891	  0.169
78215	 -0.350	 -0.342	  0.369	  0.133	  0.029	 -9.811	 -0.004	  0.002	  0.001	 31.800	 100.895	 -0.185
78265	 -0.351	 -0.339	  0.368	  0.164	  0.045	 -9.789	 -0.001	  0.004	 -0.001	 31.800	 100.895	 -0.185
78315	 -0.350	 -0.340	  0.365	  0.177	  0.034	 -9.773	 -0.003	  0.003	  0.001	 31.800	 100.891	  0.169
78365	 -0.350	 -0.344	  0.364	  0.235	  0.051	 -9.645	  0.000	 -0.021	  0.004	 31.800	 100.895	 -0.185
78415	 -0.351	 -0.339	  0.370	  0.365	  0.305	 -9.899	  0.013	 -0.058	  0.424	 31.800	 100.891	  0.169
78465	 -0.356	 -0.329	  0.367	 -0.223	 -0.163	 -9.928	 -0.012	  0.027	  0.300	 31.700	 100.891	  0.169
78515	 -0.356	 -0.328	  0.364	  0.168	  0.089	 -9.794	 -0.008	 -0.005	 -0.121	 31.800	 100.895	 -0.185
78565	 -0.359	 -0.332	  0.365	  0.155	  0.065	 -9.726	 -0.002	  0.008	  0.001	 31.800	 100.895	 -0.185
78615	 -0.362	 -0.334	  0.364	  0.104	  0.042	 -9.829	 -0.005	  0.011	  0.003	 31.800	 100.895	 -0.185
78665	 -0.358	 -0.335	  0.369	  0.154	  0.010	 -9.787	 -0.004	  0.000	  0.001	 31.700	 100.891	  0.169
78715	 -0.356	 -0.330	  0.366	  0.133	  0.017	 -9.823	 -0.005	  0.003	  0.002	 31.800	 100.895	 -0.185
78765	 -0.357	 -0.336	  0.367	  0.067	  0.049	 -9.799	 -0.002	  0.007	 -0.097	 31.800	 100.884	  0.789
78815	 -0.355	 -0.329	  0.366	  0.099	  0.106	 -9.790	 -0.006	 -0.001	  0.045	 31.700	 100.884	  0.789
78865	 -0.359	 -0.328	  0.366	  0.279	 -0.109	 -9.770	 -0.002	  0.006	  0.027	 31.800	 100.895	 -0.185
78916	 -0.356	 -0.329	  0.368	  0.169	  0.036	 -9.762	 -0.002	  0.003	 -0.001	 31.800	 100.895	 -0.185
78965	 -0.358	 -0.326	  0.369	  0.158	  0.019	 -9.806	 -0.002	  0.003	 -0.006	 31.800	 100.895	 -0.185
79015	 -0.358	 -0.334	  0.368	  0.100	  0.030	 -9.840	 -0.001	 -0.000	 -0.110	 31.800	 100.895	 -0.185
79065	 -0.357	 -0.335	  0.369	  0.160	  0.040	 -9.820	 -0.003	  0.003	 -0.001	 31.800	 100.895	 -0.185
79115	 -0.355	 -0.334	  0.364	  0.093	  0.056	 -9.816	 -0.005	  0.004	 -0.069	 31.800	 100.895	 -0.185
79166	 -0.355	 -0.331	  0.371	  0.174	  0.047	 -9.796	 -0.004	  0.002	  0.001	 31.700	 100.891	  0.169
79215	 -0.357	 -0.333	  0.368	  0.080	 -0.019	 -9.927	 -0.008	  0.020	 -0.001	 31.800	 100.891	  0.169
79265	 -0.354	 -0.334	  0.362	  0.203	 -0.066	 -9.763	  0.001	  0.000	 -0.059	 31.800	 100.895	 -0.185
79315	 -0.353	 -0.334	  0.367	  0.180	  0.009	 -9.761	 -0.003	  0.001	 -0.020	 31.800	 100.895	 -0.185
79366	 -0.353	 -0.335	  0.368	  0.138	  0.020	 -9.794	 -0.002	  0.001	  0.000	 31.800	 100.907	 -1.248
79416	 -0.354	 -0.336	  0.367	  0.138	  0.233	 -9.729	 -0.002	 -0.003	 -0.134	 31.800	 100.895	 -0.185
79466	 -0.352	 -0.341	  0.369	  0.032	  0.213	 -9.846	 -0.006	 -0.017	  0.054	 31.800	 100.895	 -0.185
79516	 -0.357	 -0.323	  0.366	  0.646	  1.287	 -9.796	 -0.016	  0.008	  1.017	 31.800	 100.884	  0.789
79566	 -0.372	 -0.309	  0.368	  0.093	 -0.929	 -9.787	 -0.011	 -0.018	  0.195	 31.800	 100.895	 -0.185
79616	 -0.373	 -0.311	  0.367	  0.159	  0.050	 -9.773	 -0.006	  0.015	  0.003	 31.800	 100.895	 -0.185
79666	 -0.373	 -0.312	  0.364	  0.160	  0.054	 -9.764	 -0.001	  0.001	 -0.000	 31.800	 100.895	 -0.185
79716	 -0.371	 -0.312	  0.369	  0.159	  0.020	 -9.779	 -0.002	 -0.001	 -0.001	 31.800	 100.895	 -0.185
79766	 -0.372	 -0.314	  0.363	  0.155	  0.014	 -9.796	 -0.003	  0.003	  0.001	 31.700	 100.891	  0.169
79816	 -0.371	 -0.311	  0.366	  0.139	  0.024	 -9.788	 -0.003	  0.003	  0.001	 31.800	 100.884	  0.789
79866	 -0.373	 -0.312	  0.358	  0.157	  0.046	 -9.777	 -0.004	  0.002	  0.001	 31.800	 100.895	 -0.185
79916	 -0.372	 -0.314	  0.363	  0.127	 -0.008	 -9.863	 -0.002	 -0.003	  0.001	 31.800	 100.884	  0.789
79966	 -0.373	 -0.316	  0.361	  0.146	  0.038	 -9.790	 -0.004	  0.001	  0.000	 31.800	 100.895	 -0.185
80016	 -0.373	 -0.314	  0.362	  0.134	  0.035	 -9.793	 -0.003	  0.002	  0.001	 31.800	 100.891	  0.169
80066	 -0.375	 -0.312	  0.366	  0.201	  0.155	 -9.720	 -0.001	  0.001	 -0.000	 31.800	 100.907	 -1.248
80116	 -0.375	 -0.313	  0.363	  0.165	  0.025	 -9.804	 -0.004	  0.001	  0.001	 31.800	 100.907	 -1.248
80166	 -0.373	 -0.314	  0.361	  0.226	 -0.013	 -9.763	 -0.003	  0.015	 -0.002	 31.800	 100.884	  0.789
80216	 -0.371	 -0.310	  0.360	  0.152	  0.054	 -9.754	 -0.004	  0.001	  0.001	 31.800	 100.891	  0.169
80266	 -0.374	 -0.315	  0.363	  0.142	  0.056	 -9.788	 -0.003	  0.001	  0.001	 31.800	 100.895	 -0.185
80316	 -0.373	 -0.316	  0.362	  0.126	  0.037	 -9.792	 -0.003	  0.003	  0.000	 31.800	 100.895	 -0.185
80366	 -0.373	 -0.311	  0.362	  0.141	  0.033	 -9.807	 -0.004	  0.005	  0.000	 31.800	 100.895	 -0.185
80416	 -0.371	 -0.311	  0.362	  0.156	  0.023	 -9.784	 -0.004	  0.010	 -0.001	 31.800	 100.895	 -0.185
80466	 -0.372	 -0.313	  0.362	  0.229	 -0.185	 -9.792	 -0.000	 -0.001	 -0.269	 31.800	 100.907	 -1.248
80516	 -0.368	 -0.324	  0.361	 -0.020	  0.496	 -9.777	  0.001	 -0.002	 -0.213	 31.800	 100.891	  0.169
80566	 -0.366	 -0.326	  0.363	  0.177	 -0.111	 -9.831	  0.000	  0.004	 -0.152	 31.800	 100.895	 -0.185
80616	 -0.366	 -0.325	  0.362	  0.156	  0.082	 -9.792	 -0.006	  0.022	 -0.072	 31.800	 100.907	 -1.248
80666	 -0.364	 -0.325	  0.362	  0.155	 -0.042	 -9.830	 -0.004	  0.023	 -0.008	 31.800	 100.884	  0.789
80716	 -0.361	 -0.329	  0.362	 -0.133	  0.070	 -9.767	 -0.000	 -0.001	 -0.259	 31.800	 100.891	  0.169
80765	 -0.357	 -0.331	  0.362	 -0.014	  0.282	 -9.766	 -0.001	 -0.004	 -0.106	 31.700	 100.880	  1.143
80815	 -0.364	 -0.327	  0.365	  0.895	  2.571	 -10.052	 -0.029	  0.033	  1.303	 31.800	 100.900	 -0.628
80865	 -0.379	 -0.307	  0.364	  0.894	 -1.273	 -9.855	 -0.012	 -0.030	  0.199	 31.800	 100.895	 -0.185
80915	 -0.377	 -0.311	  0.361	  0.170	  0.005	 -9.755	 -0.001	 -0.013	 -0.001	 31.800	 100.895	 -0.185
80966	 -0.376	 -0.309	  0.362	  0.155	  0.070	 -9.786	  0.000	  0.003	 -0.001	 31.700	 100.880	  1.143
81016	 -0.378	 -0.309	  0.364	  0.110	  0.058	 -9.813	 -0.001	  0.000	 -0.003	 31.800	 100.903	 -0.893
81066	 -0.377	 -0.308	  0.365	  0.155	  0.085	 -9.788	 -0.002	 -0.004	 -0.025	 31.800	 100.895	 -0.185
81115	 -0.376	 -0.306	  0.364	  0.167	  0.019	 -9.771	 -0.004	  0.003	 -0.002	 31.800	 100.884	  0.789
81166	 -0.377	 -0.311	  0.365	  0.148	  0.036	 -9.773	 -0.002	  0.003	 -0.000	 31.800	 100.895	 -0.185
81216	 -0.375	 -0.310	  0.358	  0.196	  0.010	 -9.786	 -0.003	  0.006	 -0.002	 31.800	 100.884	  0.789
81266	 -0.377	 -0.313	  0.364	  0.154	  0.024	 -9.773	 -0.003	  0.001	  0.001	 31.800	 100.884	  0.789
81316	 -0.375	 -0.311	  0.363	  0.131	  0.056	 -9.813	 -0.004	  0.006	 -0.000	 31.800	 100.895	 -0.185
81365	 -0.376	 -0.303	  0.366	  0.123	  0.020	 -9.786	 -0.005	 -0.003	  0.001	 31.800	 100.895	 -0.185
81415	 -0.380	 -0.304	  0.363	  0.157	  0.036	 -9.811	 -0.003	  0.003	  0.001	 31.800	 100.895	 -0.185
81465	 -0.377	 -0.308	  0.361	  0.141	  0.025	 -9.808	 -0.004	  0.002	  0.001	 31.800	 100.884	  0.789
81515	 -0.375	 -0.309	  0.366	  0.151	  0.042	 -9.792	 -0.002	  0.003	  0.001	 31.800	 100.895	 -0.185
81565	 -0.378	 -0.312	  0.363	  0.164	  0.033	 -9.812	 -0.004	  0.002	  0.001	 31.800	 100.884	  0.789
81615	 -0.381	 -0.311	  0.363	  0.122	  0.043	 -9.814	 -0.003	  0.002	  0.000	 31.800	 100.884	  0.789
81665	 -0.378	 -0.304	  0.365	  0.142	  0.035	 -9.790	 -0.005	  0.004	  0.002	 31.800	 100.895	 -0.185
81715	 -0.379	 -0.308	  0.363	  0.151	  0.028	 -9.808	 -0.002	  0.003	  0.001	 31.800	 100.895	 -0.185
81765	 -0.377	 -0.302	  0.366	  0.134	  0.067	 -9.772	 -0.002	  0.007	  0.000	 31.800	 100.895	 -0.185
81815	 -0.377	 -0.309	  0.364	  0.156	  0.016	 -9.804	 -0.007	 -0.000	  0.000	 31.800	 100.895	 -0.185
81865	 -0.380	 -0.310	  0.365	  0.173	 -0.011	 -9.797	 -0.005	  0.002	 -0.003	 31.800	 100.895	 -0.185
81915	 -0.378	 -0.309	  0.365	  0.164	  0.036	 -9.783	 -0.002	  0.003	  0.001	 31.800	 100.895	 -0.185
81965	 -0.376	 -0.307	  0.364	  0.148	  0.028	 -9.762	 -0.004	  0.003	  0.000	 31.800	 100.895	 -0.185
82015	 -0.381	 -0.308	  0.359	  0.167	  0.008	 -9.794	 -0.003	  0.001	 -0.001	 31.800	 100.895	 -0.185
82065	 -0.378	 -0.310	  0.365	  0.129	  0.076	 -9.812	 -0.004	  0.002	  0.001	 31.800	 100.895	 -0.185
82115	 -0.378	 -0.309	  0.366	  0.108	  0.037	 -9.795	 -0.004	  0.002	 -0.000	 31.800	 100.884	  0.789
82165	 -0.377	 -0.304	  0.369	  0.162	  0.042	 -9.826	 -0.002	  0.002	  0.001	 31.800	 100.895	 -0.185
82215	 -0.380	 -0.302	  0.363	  0.137	  0.018	 -9.786	 -0.002	  0.002	 -0.000	 31.800	 100.895	 -0.185
82265	 -0.378	 -0.309	  0.364	  0.160	  0.042	 -9.803	 -0.003	  0.003	  0.001	 31.800	 100.895	 -0.185
82315	 -0.378	 -0.312	  0.360	  0.143	  0.021	 -9.809	 -0.004	  0.001	  0.001	 31.800	 100.900	 -0.628
82365	 -0.378	 -0.307	  0.362	  0.135	  0.009	 -9.784	 -0.001	  0.003	 -0.001	 31.700	 100.891	  0.169
82415	 -0.379	 -0.310	  0.364	  0.149	  0.054	 -9.787	 -0.004	  0.003	  0.001	 31.800	 100.895	 -0.185
82465	 -0.377	 -0.309	  0.362	  0.143	  0.025	 -9.810	 -0.003	  0.002	  0.001	 31.800	 100.895	 -0.185
82515	 -0.377	 -0.305	  0.364	  0.126	  0.040	 -9.779	 -0.002	  0.002	  0.001	 31.800	 100.884	  0.789
82565	 -0.377	 -0.309	  0.365	  0.142	  0.042	 -9.794	 -0.004	  0.002	  0.000	 31.800	 100.884	  0.789
82615	 -0.377	 -0.305	  0.364	  0.149	  0.031	 -9.779	 -0.004	  0.002	  0.000	 31.800	 100.884	  0.789
82665	 -0.378	 -0.310	  0.357	  0.131	  0.014	 -9.816	 -0.003	  0.002	  0.001	 31.800	 100.895	 -0.185
82715	 -0.379	 -0.304	  0.365	  0.148	  0.026	 -9.794	 -0.003	  0.003	 -0.000	 31.800	 100.884	  0.789
82765	 -0.378	 -0.309	  0.364	  0.150	  0.035	 -9.765	 -0.005	  0.002	 -0.000	 31.800	 100.895	 -0.185
82815	 -0.376	 -0.310	  0.367	  0.124	  0.024	 -9.766	 -0.006	  0.003	  0.000	 31.800	 100.895	 -0.185
82865	 -0.377	 -0.304	  0.366	  0.085	  0.077	 -9.783	 -0.009	  0.002	  0.006	 31.800	 100.895	 -0.185
82915	 -0.380	 -0.306	  0.365	 -0.016	  0.023	 -10.005	 -0.038	  0.033	  0.124	 31.800	 100.884	  0.789
82965	 -0.380	 -0.303	  0.362	  0.225	 -0.014	 -10.166	 -0.128	  0.115	  0.068	 31.800	 100.884	  0.789
83015	 -0.384	 -0.304	  0.358	  0.368	  0.116	 -9.846	 -0.281	  0.214	  0.102	 31.800	 100.884	  0.789
83065	 -0.387	 -0.315	  0.352	  0.180	  0.427	 -9.906	 -0.303	 -0.026	  0.084	 31.800	 100.884	  0.789
83115	 -0.387	 -0.319	  0.353	  0.178	  0.320	 -10.158	 -0.507	 -0.208	  0.091	 31.800	 100.900	 -0.628
83165	 -0.378	 -0.329	  0.356	 -0.371	  1.171	 -9.833	 -0.537	 -0.171	 -0.007	 31.800	 100.895	 -0.185
83215	 -0.377	 -0.338	  0.350	 -0.416	  1.072	 -9.266	 -0.161	 -0.154	  0.149	 31.800	 100.884	  0.789
83265	 -0.379	 -0.336	  0.361	  0.408	  0.850	 -10.498	  0.053	  0.132	  0.125	 31.800	 100.895	 -0.185
83315	 -0.385	 -0.326	  0.364	  0.585	  1.095	 -9.282	  0.365	  0.223	 -0.012	 31.800	 100.895	 -0.185
83365	 -0.385	 -0.318	  0.374	  0.193	  1.569	 -10.138	  0.410	 -0.042	 -0.027	 31.800	 100.895	 -0.185
83415	 -0.387	 -0.314	  0.382	  0.184	  0.963	 -9.820	  0.016	  0.233	  0.036	 31.800	 100.900	 -0.628
83465	 -0.395	 -0.310	  0.377	  1.440	 -1.388	 -9.444	  0.357	  0.387	  0.098	 31.800	 100.895	 -0.185
83515	 -0.401	 -0.297	  0.377	  0.444	  0.983	 -10.687	  0.203	  0.221	  0.124	 31.800	 100.895	 -0.185
83565	 -0.399	 -0.302	  0.373	 -0.365	  1.487	 -9.998	 -0.355	 -0.367	  0.195	 31.800	 100.895	 -0.185
83615	 -0.394	 -0.300	  0.389	  0.812	  0.333	 -10.100	 -0.222	 -0.288	  0.730	 31.800	 100.895	 -0.185
83665	 -0.395	 -0.281	  0.393	 -0.272	  0.834	 -10.187	 -0.161	  0.069	  0.750	 31.800	 100.895	 -0.185
83715	 -0.400	 -0.276	  0.397	  0.471	 -0.151	 -9.986	 -0.081	  0.249	  0.785	 31.800	 100.895	 -0.185
83765	 -0.405	 -0.264	  0.395	  1.226	 -0.326	 -9.895	  0.057	  0.306	  0.334	 31.800	 100.895	 -0.185
83815	 -0.412	 -0.262	  0.382	  0.467	  0.698	 -9.058	  0.104	  0.569	  0.180	 31.800	 100.873	  1.763
83865	 -0.417	 -0.261	  0.374	  0.844	  0.664	 -9.677	 -0.082	  0.696	  0.066	 31.800	 100.888	  0.434
83915	 -0.416	 -0.269	  0.365	  1.196	  0.427	 -9.847	 -0.208	  0.278	 -0.103	 31.800	 100.895	 -0.185
83965	 -0.410	 -0.281	  0.359	  1.406	  0.805	 -9.212	 -0.181	  0.037	 -0.139	 31.800	 100.895	 -0.185
84015	 -0.401	 -0.284	  0.363	  0.852	  0.258	 -8.484	  0.076	 -0.364	  0.030	 31.800	 100.900	 -0.628
84065	 -0.392	 -0.282	  0.377	  1.611	  0.349	 -10.220	 -0.146	 -0.420	  0.080	 31.800	 100.895	 -0.185
84115	 -0.372	 -0.289	  0.388	  0.975	  0.302	 -10.511	  0.036	 -0.884	 -0.181	 31.800	 100.895	 -0.185
84165	 -0.362	 -0.282	  0.409	  0.479	  0.426	 -10.201	  0.213	 -0.387	 -0.007	 31.800	 100.873	  1.763
84215	 -0.356	 -0.281	  0.416	  0.317	  0.517	 -9.069	 -0.029	 -0.472	  0.093	 31.800	 100.895	 -0.185
84265	 -0.350	 -0.286	  0.428	 -0.135	  0.417	 -9.651	 -0.109	 -0.390	 -0.224	 31.800	 100.884	  0.789
84315	 -0.347	 -0.286	  0.434	 -0.451	  0.567	 -10.858	 -0.054	 -0.058	 -0.260	 31.800	 100.900	 -0.628
84365	 -0.353	 -0.289	  0.433	 -0.259	  1.059	 -10.367	 -0.182	  0.213	 -0.232	 31.800	 100.895	 -0.185
84415	 -0.354	 -0.297	  0.439	  0.270	  0.548	 -10.130	  0.072	 -0.054	 -0.148	 31.800	 100.888	  0.434
84465	 -0.352	 -0.298	  0.441	  0.217	  0.819	 -10.089	  0.051	  0.011	 -0.229	 31.800	 100.884	  0.789
84515	 -0.351	 -0.299	  0.439	  0.308	  1.035	 -10.005	 -0.057	  0.284	 -0.034	 31.800	 100.900	 -0.628
84565	 -0.357	 -0.301	  0.435	  0.465	  0.938	 -9.643	  0.089	  0.212	  0.014	 31.800	 100.884	  0.789
84615	 -0.366	 -0.297	  0.427	  0.379	  0.929	 -10.191	 -0.115	  0.366	  0.172	 31.800	 100.895	 -0.185
84665	 -0.378	 -0.303	  0.414	  0.430	  0.637	 -9.938	 -0.078	  0.568	  0.186	 31.800	 100.895	 -0.185
84715	 -0.387	 -0.296	  0.406	  0.510	  1.387	 -9.566	 -0.103	  0.103	  0.151	 31.800	 100.888	  0.434
84766	 -0.388	 -0.303	  0.398	  1.699	  1.927	 -7.451	 -0.454	  0.114	  0.272	 31.800	 100.900	 -0.628
84815	 -0.395	 -0.303	  0.394	  0.870	  0.398	 -9.464	  0.074	 -0.020	  0.077	 31.800	 100.888	  0.434
84865	 -0.399	 -0.300	  0.391	 -0.444	  1.810	 -10.698	  0.002	  0.376	 -0.072	 31.800	 100.900	 -0.628
