Time	 MagX	 MagY	 MagZ	 AccelX	 AccelY	 AccelZ	 Yaw	 Pitch	 Roll	 Temperature	 Pressure	 Altitude
5355	 -0.387	 -0.327	  0.408	  0.627	 -0.239	 -9.763	 -0.003	  0.003	  0.000	 32.300	 99.962	 -99999.000
5404	 -0.387	 -0.327	  0.413	  0.606	 -0.229	 -9.745	 -0.002	  0.002	  0.002	 32.300	 99.950	 -99999.000
5454	 -0.387	 -0.327	  0.411	  0.638	 -0.224	 -9.726	 -0.003	  0.002	  0.001	 32.200	 99.946	 -99999.000
5504	 -0.388	 -0.327	  0.414	  0.615	 -0.233	 -9.740	 -0.003	  0.003	  0.000	 32.200	 99.950	 -99999.000
5554	 -0.386	 -0.317	  0.412	  0.616	 -0.232	 -9.764	 -0.002	  0.001	  0.001	 32.300	 99.950	 -99999.000
5604	 -0.386	 -0.328	  0.412	  0.607	 -0.235	 -9.761	 -0.002	  0.001	  0.001	 32.200	 99.946	 -99999.000
5654	 -0.387	 -0.330	  0.414	  0.633	 -0.232	 -9.703	 -0.003	  0.002	  0.001	 32.300	 99.939	 -99999.000
5704	 -0.386	 -0.324	  0.410	  0.630	 -0.249	 -9.765	 -0.004	  0.003	  0.001	 32.300	 99.950	 -99999.000
5754	 -0.386	 -0.323	  0.411	  0.637	 -0.240	 -9.794	 -0.003	  0.002	  0.000	 32.300	 99.950	 -99999.000
5804	 -0.384	 -0.324	  0.412	  0.621	 -0.224	 -9.734	 -0.003	  0.002	  0.000	 32.200	 99.950	 -99999.000
5854	 -0.387	 -0.328	  0.410	  0.628	 -0.223	 -9.750	 -0.003	  0.003	  0.002	 32.200	 99.935	 -99999.000
5904	 -0.386	 -0.324	  0.410	  0.610	 -0.228	 -9.756	 -0.002	  0.003	  0.001	 32.300	 99.950	 -99999.000
5954	 -0.387	 -0.328	  0.411	  0.622	 -0.234	 -9.745	 -0.002	  0.002	  0.001	 32.300	 99.950	 -99999.000
6004	 -0.387	 -0.327	  0.412	  0.613	 -0.236	 -9.757	 -0.003	  0.002	 -0.000	 32.200	 99.950	 -99999.000
6054	 -0.386	 -0.324	  0.411	  0.623	 -0.228	 -9.747	 -0.003	  0.003	  0.001	 32.300	 99.950	 -99999.000
6104	 -0.387	 -0.329	  0.415	  0.615	 -0.253	 -9.774	 -0.003	  0.002	 -0.000	 32.300	 99.950	 -99999.000
6154	 -0.387	 -0.327	  0.411	  0.589	 -0.248	 -9.766	 -0.003	  0.003	  0.000	 32.200	 99.946	 -99999.000
6204	 -0.388	 -0.326	  0.409	  0.604	 -0.253	 -9.736	 -0.002	  0.001	  0.001	 32.300	 99.950	 -99999.000
6254	 -0.387	 -0.327	  0.411	  0.606	 -0.232	 -9.749	 -0.002	  0.002	  0.001	 32.300	 99.950	 -99999.000
6304	 -0.386	 -0.329	  0.415	  0.613	 -0.208	 -9.749	 -0.002	  0.002	  0.000	 32.200	 99.950	 -99999.000
6354	 -0.387	 -0.328	  0.408	  0.609	 -0.234	 -9.733	 -0.003	  0.002	  0.001	 32.300	 99.939	 -99999.000
6404	 -0.384	 -0.326	  0.412	  0.607	 -0.239	 -9.778	 -0.004	  0.001	  0.000	 32.200	 99.950	 -99999.000
6454	 -0.387	 -0.327	  0.413	  0.615	 -0.231	 -9.760	 -0.003	  0.003	  0.001	 32.300	 99.950	 -99999.000
6504	 -0.387	 -0.325	  0.412	  0.630	 -0.219	 -9.737	 -0.002	  0.002	  0.001	 32.200	 99.950	 -99999.000
6554	 -0.389	 -0.324	  0.413	  0.620	 -0.229	 -9.712	 -0.002	  0.003	  0.001	 32.300	 99.939	 -99999.000
6604	 -0.389	 -0.331	  0.413	  0.611	 -0.232	 -9.732	 -0.002	  0.001	  0.000	 32.300	 99.950	 -99999.000
6654	 -0.386	 -0.326	  0.415	  0.603	 -0.231	 -9.738	 -0.004	  0.002	  0.000	 32.200	 99.946	 -99999.000
6704	 -0.388	 -0.328	  0.411	  0.618	 -0.227	 -9.769	 -0.004	  0.002	 -0.001	 32.300	 99.950	 -99999.000
6754	 -0.386	 -0.326	  0.413	  0.604	 -0.254	 -9.728	 -0.003	  0.002	  0.001	 32.300	 99.950	 -99999.000
6804	 -0.387	 -0.329	  0.408	  0.624	 -0.245	 -9.730	 -0.003	  0.003	  0.001	 32.300	 99.950	 -99999.000
6854	 -0.387	 -0.328	  0.411	  0.601	 -0.251	 -9.734	 -0.003	  0.001	  0.001	 32.300	 99.962	 -99999.000
6904	 -0.388	 -0.324	  0.411	  0.589	 -0.239	 -9.760	 -0.003	  0.003	  0.000	 32.200	 99.950	 -99999.000
6954	 -0.387	 -0.329	  0.412	  0.632	 -0.218	 -9.760	 -0.004	  0.002	  0.000	 32.200	 99.946	 -99999.000
7004	 -0.387	 -0.329	  0.408	  0.612	 -0.259	 -9.755	 -0.003	  0.002	  0.001	 32.300	 99.962	 -99999.000
7054	 -0.388	 -0.328	  0.413	  0.614	 -0.217	 -9.728	 -0.003	  0.002	  0.000	 32.300	 99.950	 -99999.000
7104	 -0.386	 -0.320	  0.414	  0.619	 -0.259	 -9.760	 -0.002	  0.002	 -0.000	 32.200	 99.939	 -99999.000
7154	 -0.387	 -0.327	  0.410	  0.605	 -0.252	 -9.761	 -0.002	  0.004	  0.000	 32.300	 99.950	 -99999.000
7204	 -0.387	 -0.324	  0.413	  0.619	 -0.237	 -9.715	 -0.002	  0.002	  0.000	 32.200	 99.946	 -99999.000
7254	 -0.387	 -0.326	  0.412	  0.622	 -0.233	 -9.713	 -0.003	  0.002	  0.001	 32.300	 99.939	 -99999.000
7304	 -0.387	 -0.326	  0.412	  0.611	 -0.244	 -9.756	 -0.002	  0.001	  0.001	 32.200	 99.946	 -99999.000
7354	 -0.387	 -0.327	  0.418	  0.610	 -0.246	 -9.752	 -0.004	  0.004	  0.001	 32.300	 99.939	 -99999.000
7404	 -0.388	 -0.324	  0.412	  0.617	 -0.245	 -9.724	 -0.002	  0.002	  0.001	 32.300	 99.950	 -99999.000
7454	 -0.388	 -0.326	  0.411	  0.622	 -0.247	 -9.758	 -0.003	  0.003	  0.001	 32.300	 99.950	 -99999.000
7504	 -0.387	 -0.326	  0.410	  0.610	 -0.222	 -9.709	 -0.002	  0.002	  0.001	 32.200	 99.958	 -99999.000
7554	 -0.388	 -0.326	  0.413	  0.611	 -0.236	 -9.748	 -0.002	  0.002	  0.001	 32.300	 99.950	 -99999.000
7604	 -0.386	 -0.324	  0.413	  0.647	 -0.237	 -9.708	 -0.002	  0.002	  0.000	 32.300	 99.950	 -99999.000
7654	 -0.385	 -0.319	  0.411	  0.597	 -0.230	 -9.766	 -0.003	  0.002	  0.000	 32.300	 99.950	 -99999.000
7704	 -0.387	 -0.327	  0.412	  0.620	 -0.231	 -9.743	 -0.003	  0.003	  0.001	 32.200	 99.939	 -99999.000
7754	 -0.387	 -0.328	  0.410	  0.636	 -0.241	 -9.760	 -0.002	  0.002	  0.000	 32.300	 99.950	 -99999.000
7804	 -0.387	 -0.329	  0.412	  0.607	 -0.225	 -9.766	 -0.003	  0.002	  0.000	 32.200	 99.958	 -99999.000
7854	 -0.387	 -0.322	  0.410	  0.628	 -0.221	 -9.762	 -0.002	  0.002	 -0.000	 32.300	 99.962	 -99999.000
7904	 -0.390	 -0.327	  0.407	  0.622	 -0.237	 -9.729	 -0.003	  0.003	  0.001	 32.300	 99.950	 -99999.000
7954	 -0.387	 -0.329	  0.413	  0.601	 -0.235	 -9.770	 -0.003	  0.002	  0.001	 32.300	 99.950	 -99999.000
8004	 -0.388	 -0.324	  0.413	  0.632	 -0.244	 -9.759	 -0.003	  0.002	  0.000	 32.300	 99.939	 -99999.000
8055	 -0.387	 -0.328	  0.411	  0.617	 -0.245	 -9.731	 -0.004	  0.002	  0.001	 32.300	 99.962	 -99999.000
8104	 -0.390	 -0.324	  0.414	  0.626	 -0.260	 -9.738	 -0.001	  0.004	  0.002	 32.300	 99.950	 -99999.000
8155	 -0.388	 -0.328	  0.414	  0.628	 -0.216	 -9.744	 -0.002	  0.001	  0.001	 32.300	 99.950	 -99999.000
8204	 -0.389	 -0.322	  0.412	  0.619	 -0.227	 -9.769	 -0.003	  0.002	  0.001	 32.300	 99.950	 -99999.000
8254	 -0.390	 -0.327	  0.410	  0.614	 -0.228	 -9.750	 -0.003	  0.002	  0.000	 32.300	 99.950	 -99999.000
8304	 -0.388	 -0.326	  0.413	  0.629	 -0.230	 -9.711	 -0.003	  0.003	  0.000	 32.300	 99.950	 -99999.000
8354	 -0.386	 -0.325	  0.411	  0.600	 -0.236	 -9.745	 -0.001	  0.002	  0.000	 32.200	 99.935	 -99999.000
8404	 -0.391	 -0.324	  0.410	  0.609	 -0.236	 -9.740	 -0.003	  0.003	 -0.000	 32.200	 99.950	 -99999.000
8454	 -0.388	 -0.326	  0.413	  0.625	 -0.264	 -9.773	 -0.002	  0.003	  0.001	 32.300	 99.939	 -99999.000
8505	 -0.387	 -0.327	  0.416	  0.625	 -0.235	 -9.770	 -0.002	  0.003	  0.002	 32.300	 99.939	 -99999.000
8554	 -0.386	 -0.324	  0.412	  0.604	 -0.244	 -9.734	 -0.003	  0.003	  0.000	 32.300	 99.950	 -99999.000
8604	 -0.386	 -0.320	  0.413	  0.623	 -0.224	 -9.800	 -0.004	  0.000	  0.001	 32.300	 99.950	 -99999.000
8654	 -0.389	 -0.327	  0.405	  0.620	 -0.225	 -9.763	 -0.003	  0.001	  0.002	 32.300	 99.950	 -99999.000
8704	 -0.387	 -0.328	  0.415	  0.627	 -0.256	 -9.733	 -0.004	  0.001	  0.001	 32.300	 99.950	 -99999.000
8755	 -0.386	 -0.323	  0.412	  0.600	 -0.249	 -9.744	 -0.002	  0.001	  0.001	 32.300	 99.950	 -99999.000
8805	 -0.386	 -0.326	  0.411	  0.607	 -0.248	 -9.767	 -0.002	  0.003	  0.001	 32.300	 99.950	 -99999.000
8855	 -0.388	 -0.328	  0.413	  0.632	 -0.242	 -9.732	 -0.003	  0.003	  0.001	 32.300	 99.939	 -99999.000
8905	 -0.387	 -0.325	  0.411	  0.609	 -0.240	 -9.738	 -0.003	  0.002	 -0.001	 32.300	 99.950	 -99999.000
8955	 -0.387	 -0.327	  0.412	  0.595	 -0.213	 -9.741	 -0.002	  0.003	 -0.001	 32.300	 99.950	 -99999.000
9005	 -0.388	 -0.320	  0.409	  0.599	 -0.232	 -9.784	 -0.002	  0.003	 -0.001	 32.300	 99.950	 -99999.000
9055	 -0.387	 -0.317	  0.415	  0.613	 -0.222	 -9.752	 -0.003	  0.001	  0.001	 32.300	 99.939	 -99999.000
9105	 -0.386	 -0.320	  0.411	  0.602	 -0.225	 -9.769	 -0.003	  0.002	  0.001	 32.200	 99.950	 -99999.000
9155	 -0.387	 -0.329	  0.409	  0.613	 -0.225	 -9.725	 -0.002	  0.002	  0.000	 32.300	 99.939	 -99999.000
9205	 -0.387	 -0.326	  0.411	  0.635	 -0.239	 -9.785	 -0.003	  0.002	 -0.000	 32.300	 99.950	 -99999.000
9255	 -0.388	 -0.322	  0.414	  0.626	 -0.258	 -9.720	 -0.003	  0.002	  0.001	 32.300	 99.950	 -99999.000
9305	 -0.387	 -0.317	  0.414	  0.619	 -0.229	 -9.767	 -0.003	  0.002	 -0.000	 32.200	 99.935	 -99999.000
9355	 -0.388	 -0.324	  0.411	  0.637	 -0.228	 -9.736	 -0.004	  0.001	 -0.000	 32.300	 99.939	 -99999.000
9405	 -0.387	 -0.326	  0.411	  0.611	 -0.234	 -9.765	 -0.003	  0.002	  0.000	 32.300	 99.939	 -99999.000
9455	 -0.387	 -0.328	  0.411	  0.600	 -0.226	 -9.767	 -0.003	  0.002	  0.001	 32.300	 99.939	 -99999.000
9505	 -0.389	 -0.326	  0.413	  0.627	 -0.237	 -9.769	 -0.002	  0.003	  0.001	 32.300	 99.939	 -99999.000
9555	 -0.389	 -0.327	  0.411	  0.613	 -0.225	 -9.772	 -0.002	  0.002	  0.001	 32.300	 99.950	 -99999.000
9605	 -0.387	 -0.324	  0.412	  0.607	 -0.229	 -9.711	 -0.003	  0.001	  0.001	 32.300	 99.939	 -99999.000
9655	 -0.389	 -0.328	  0.410	  0.601	 -0.244	 -9.771	 -0.004	  0.003	  0.000	 32.300	 99.950	 -99999.000
9705	 -0.386	 -0.322	  0.414	  0.612	 -0.235	 -9.734	 -0.002	  0.002	  0.000	 32.300	 99.950	 -99999.000
9755	 -0.387	 -0.327	  0.414	  0.622	 -0.211	 -9.735	 -0.004	  0.002	  0.000	 32.300	 99.939	 -99999.000
9805	 -0.387	 -0.324	  0.412	  0.608	 -0.247	 -9.746	 -0.002	  0.002	  0.001	 32.300	 99.939	 -99999.000
9855	 -0.389	 -0.326	  0.409	  0.622	 -0.233	 -9.776	 -0.002	  0.002	 -0.000	 32.300	 99.950	 -99999.000
9904	 -0.384	 -0.329	  0.410	  0.612	 -0.256	 -9.752	 -0.003	  0.002	  0.002	 32.200	 99.946	 -99999.000
9955	 -0.387	 -0.326	  0.413	  0.584	 -0.228	 -9.731	 -0.002	  0.003	  0.001	 32.200	 99.946	 -99999.000
10004	 -0.389	 -0.324	  0.410	  0.612	 -0.244	 -9.763	 -0.003	  0.003	  0.001	 32.300	 99.950	 -99999.000
10055	 -0.388	 -0.326	  0.413	  0.610	 -0.224	 -9.788	 -0.003	  0.002	  0.001	 32.300	 99.950	 -99999.000
10105	 -0.389	 -0.328	  0.412	  0.614	 -0.230	 -9.763	 -0.002	  0.002	  0.000	 32.300	 99.950	 -99999.000
10154	 -0.389	 -0.328	  0.411	  0.612	 -0.226	 -9.740	 -0.002	  0.003	  0.001	 32.300	 99.962	 -99999.000
10205	 -0.388	 -0.326	  0.411	  0.613	 -0.242	 -9.742	 -0.003	  0.002	  0.002	 32.300	 99.962	 -99999.000
10255	 -0.389	 -0.319	  0.411	  0.619	 -0.238	 -9.757	 -0.004	  0.002	  0.001	 32.300	 99.939	 -99999.000
10305	 -0.389	 -0.328	  0.412	  0.598	 -0.241	 -9.742	 -0.003	  0.001	  0.001	 32.300	 99.950	 -99999.000
10355	 -0.389	 -0.327	  0.405	  0.604	 -0.230	 -9.737	 -0.003	  0.003	  0.000	 32.300	 99.950	 -99999.000
10405	 -0.388	 -0.322	  0.415	  0.635	 -0.226	 -9.760	 -0.004	  0.003	  0.001	 32.300	 99.939	 -99999.000
10455	 -0.386	 -0.327	  0.410	  0.623	 -0.226	 -9.745	 -0.003	  0.003	 -0.001	 32.300	 99.955	 -99999.000
10505	 -0.388	 -0.326	  0.413	  0.608	 -0.233	 -9.744	 -0.002	  0.001	  0.002	 32.300	 99.950	 -99999.000
10554	 -0.386	 -0.328	  0.415	  0.636	 -0.234	 -9.741	 -0.003	  0.001	  0.002	 32.300	 99.950	 -99999.000
10604	 -0.387	 -0.328	  0.412	  0.600	 -0.221	 -9.760	 -0.002	  0.002	 -0.000	 32.300	 99.939	 -99999.000
10654	 -0.387	 -0.329	  0.415	  0.596	 -0.233	 -9.730	 -0.002	  0.002	  0.001	 32.300	 99.950	 -99999.000
10704	 -0.387	 -0.326	  0.408	  0.606	 -0.279	 -9.758	 -0.002	  0.001	  0.001	 32.200	 99.946	 -99999.000
10754	 -0.387	 -0.327	  0.413	  0.640	 -0.252	 -9.712	 -0.002	  0.002	  0.000	 32.200	 99.946	 -99999.000
10804	 -0.387	 -0.326	  0.411	  0.604	 -0.221	 -9.727	 -0.003	  0.002	  0.000	 32.300	 99.950	 -99999.000
10854	 -0.388	 -0.316	  0.414	  0.633	 -0.243	 -9.734	 -0.003	  0.002	  0.000	 32.200	 99.946	 -99999.000
10904	 -0.387	 -0.328	  0.411	  0.635	 -0.233	 -9.727	 -0.003	  0.001	  0.001	 32.300	 99.950	 -99999.000
10954	 -0.389	 -0.329	  0.412	  0.635	 -0.219	 -9.701	 -0.003	  0.002	  0.000	 32.300	 99.939	 -99999.000
11004	 -0.388	 -0.324	  0.414	  0.610	 -0.249	 -9.741	 -0.003	  0.002	  0.000	 32.300	 99.950	 -99999.000
11054	 -0.387	 -0.325	  0.414	  0.605	 -0.239	 -9.738	 -0.002	  0.003	  0.001	 32.300	 99.950	 -99999.000
11104	 -0.388	 -0.326	  0.411	  0.614	 -0.235	 -9.740	 -0.003	  0.002	  0.000	 32.300	 99.939	 -99999.000
11154	 -0.388	 -0.324	  0.413	  0.621	 -0.237	 -9.774	 -0.002	  0.003	 -0.000	 32.300	 99.950	 -99999.000
11204	 -0.388	 -0.326	  0.411	  0.629	 -0.230	 -9.725	 -0.002	  0.002	  0.001	 32.300	 99.955	 -99999.000
11254	 -0.389	 -0.328	  0.408	  0.630	 -0.231	 -9.745	 -0.002	  0.001	  0.001	 32.300	 99.939	 -99999.000
11304	 -0.387	 -0.324	  0.413	  0.613	 -0.220	 -9.727	 -0.003	  0.003	  0.000	 32.200	 99.946	 -99999.000
12904	 -0.387	 -0.327	  0.408	  0.598	 -0.192	 -9.758	 -0.008	  0.004	  0.000	 32.300	 99.950	 -0.326
12954	 -0.389	 -0.324	  0.410	  0.601	 -0.240	 -9.695	 -0.002	  0.002	  0.002	 32.300	 99.950	 -0.326
13004	 -0.388	 -0.327	  0.412	  0.619	 -0.218	 -9.705	 -0.005	  0.002	  0.001	 32.300	 99.939	  0.661
13054	 -0.387	 -0.322	  0.410	  0.610	 -0.247	 -9.745	 -0.003	  0.003	 -0.000	 32.300	 99.950	 -0.326
13104	 -0.389	 -0.328	  0.410	  0.649	 -0.246	 -9.776	 -0.001	  0.002	  0.001	 32.300	 99.950	 -0.326
13154	 -0.387	 -0.329	  0.413	  0.603	 -0.227	 -9.759	 -0.004	  0.003	  0.001	 32.300	 99.950	 -0.326
13204	 -0.387	 -0.327	  0.414	  0.626	 -0.238	 -9.726	 -0.001	  0.003	 -0.001	 32.300	 99.950	 -0.326
13254	 -0.387	 -0.327	  0.411	  0.631	 -0.247	 -9.733	 -0.003	  0.004	  0.001	 32.200	 99.950	 -0.326
13304	 -0.388	 -0.326	  0.412	  0.616	 -0.229	 -9.730	 -0.003	  0.003	  0.000	 32.300	 99.962	 -1.403
13354	 -0.388	 -0.329	  0.410	  0.640	 -0.232	 -9.749	 -0.003	  0.002	  0.001	 32.300	 99.950	 -0.326
13404	 -0.387	 -0.328	  0.410	  0.628	 -0.238	 -9.744	 -0.004	  0.003	  0.001	 32.300	 99.950	 -0.326
13454	 -0.387	 -0.328	  0.418	  0.612	 -0.220	 -9.736	 -0.002	  0.002	  0.001	 32.300	 99.939	  0.661
13504	 -0.384	 -0.327	  0.414	  0.600	 -0.247	 -9.769	 -0.004	  0.002	  0.001	 32.200	 99.946	  0.033
13554	 -0.385	 -0.330	  0.415	  0.614	 -0.245	 -9.761	 -0.002	  0.003	 -0.000	 32.300	 99.939	  0.661
13605	 -0.387	 -0.328	  0.411	  0.619	 -0.229	 -9.748	 -0.003	  0.004	 -0.000	 32.300	 99.939	  0.661
13654	 -0.387	 -0.324	  0.413	  0.631	 -0.215	 -9.740	 -0.003	  0.002	  0.000	 32.300	 99.962	 -1.403
13704	 -0.383	 -0.329	  0.414	  0.624	 -0.235	 -9.750	 -0.003	  0.002	  0.001	 32.300	 99.939	  0.661
13754	 -0.387	 -0.328	  0.404	  0.614	 -0.225	 -9.756	 -0.002	  0.003	 -0.000	 32.300	 99.939	  0.661
13804	 -0.387	 -0.327	  0.414	  0.603	 -0.222	 -9.740	 -0.003	  0.003	  0.001	 32.300	 99.950	 -0.326
13854	 -0.387	 -0.329	  0.410	  0.619	 -0.225	 -9.748	 -0.004	  0.002	  0.000	 32.300	 99.950	 -0.326
13904	 -0.386	 -0.328	  0.412	  0.625	 -0.256	 -9.756	 -0.001	  0.001	  0.001	 32.300	 99.950	 -0.326
13955	 -0.387	 -0.325	  0.414	  0.625	 -0.222	 -9.736	 -0.001	  0.001	  0.001	 32.300	 99.939	  0.661
14004	 -0.387	 -0.330	  0.411	  0.604	 -0.235	 -9.746	 -0.001	  0.003	 -0.000	 32.300	 99.939	  0.661
14055	 -0.385	 -0.322	  0.416	  0.617	 -0.235	 -9.709	 -0.003	  0.002	  0.001	 32.300	 99.939	  0.661
14105	 -0.386	 -0.327	  0.411	  0.617	 -0.226	 -9.742	 -0.004	  0.002	  0.000	 32.300	 99.962	 -1.403
14155	 -0.387	 -0.320	  0.413	  0.635	 -0.217	 -9.759	 -0.003	  0.002	  0.001	 32.300	 99.950	 -0.326
14205	 -0.386	 -0.328	  0.411	  0.606	 -0.234	 -9.726	 -0.003	  0.001	  0.001	 32.300	 99.950	 -0.326
14255	 -0.384	 -0.327	  0.411	  0.629	 -0.261	 -9.766	 -0.002	  0.003	  0.001	 32.300	 99.939	  0.661
14305	 -0.387	 -0.329	  0.413	  0.608	 -0.228	 -9.726	 -0.002	  0.001	  0.002	 32.300	 99.950	 -0.326
14355	 -0.388	 -0.327	  0.412	  0.611	 -0.245	 -9.780	 -0.003	  0.002	  0.002	 32.300	 99.955	 -0.775
14405	 -0.386	 -0.324	  0.411	  0.616	 -0.228	 -9.786	 -0.004	  0.002	  0.001	 32.300	 99.950	 -0.326
14455	 -0.387	 -0.328	  0.410	  0.622	 -0.232	 -9.756	 -0.003	  0.003	  0.001	 32.300	 99.943	  0.302
14505	 -0.386	 -0.324	  0.412	  0.592	 -0.219	 -9.772	 -0.003	  0.001	  0.001	 32.300	 99.950	 -0.326
14555	 -0.387	 -0.327	  0.413	  0.617	 -0.233	 -9.741	 -0.004	  0.001	  0.001	 32.300	 99.939	  0.661
14605	 -0.387	 -0.326	  0.413	  0.596	 -0.238	 -9.709	 -0.003	  0.002	  0.001	 32.300	 99.950	 -0.326
14655	 -0.387	 -0.329	  0.407	  0.627	 -0.229	 -9.728	 -0.002	  0.002	  0.000	 32.200	 99.946	  0.033
14705	 -0.386	 -0.329	  0.411	  0.609	 -0.245	 -9.719	 -0.002	  0.002	  0.001	 32.300	 99.950	 -0.326
14755	 -0.387	 -0.327	  0.411	  0.612	 -0.238	 -9.747	 -0.002	  0.002	  0.001	 32.300	 99.950	 -0.326
14805	 -0.387	 -0.326	  0.410	  0.654	 -0.307	 -9.739	  0.084	 -0.001	  0.001	 32.300	 99.950	 -0.326
14855	 -0.387	 -0.326	  0.407	  0.539	 -0.041	 -9.545	  0.004	  0.009	  0.054	 32.300	 99.950	 -0.326
14905	 -0.389	 -0.327	  0.413	  0.632	 -0.228	 -9.707	  0.043	 -0.001	 -0.002	 32.300	 99.950	 -0.326
14955	 -0.387	 -0.322	  0.410	  0.594	 -0.220	 -9.772	 -0.033	  0.005	  0.000	 32.300	 99.939	  0.661
15005	 -0.387	 -0.328	  0.413	  0.607	 -0.259	 -9.776	  0.004	  0.002	  0.000	 32.300	 99.950	 -0.326
15055	 -0.388	 -0.325	  0.408	  0.629	 -0.306	 -9.800	  0.018	  0.004	 -0.000	 32.300	 99.939	  0.661
15105	 -0.387	 -0.331	  0.416	  0.591	 -0.161	 -9.582	 -0.034	  0.005	  0.034	 32.300	 99.950	 -0.326
15155	 -0.387	 -0.326	  0.411	  0.607	 -0.206	 -9.815	 -0.017	  0.003	  0.012	 32.300	 99.939	  0.661
15205	 -0.389	 -0.329	  0.410	  0.608	 -0.297	 -9.755	 -0.008	 -0.000	  0.020	 32.300	 99.962	 -1.403
15255	 -0.388	 -0.327	  0.408	  0.573	 -0.098	 -9.796	  0.046	  0.003	  0.030	 32.300	 99.950	 -0.326
15305	 -0.387	 -0.325	  0.411	  0.842	 -0.069	 -9.318	 -0.036	 -0.054	  0.158	 32.300	 99.950	 -0.326
15355	 -0.386	 -0.323	  0.417	 -0.907	 -0.898	 -15.879	  0.304	 -0.812	  0.051	 32.300	 99.950	 -0.326
15405	 -0.381	 -0.312	  0.425	  0.318	 -0.777	 -9.972	  0.094	  0.008	 -0.008	 32.300	 99.939	  0.661
15455	 -0.384	 -0.309	  0.429	  0.573	 -0.463	 -9.695	  0.267	 -0.183	  0.075	 32.300	 99.950	 -0.326
15505	 -0.378	 -0.302	  0.430	  0.034	 -0.268	 -10.067	  0.138	 -0.167	 -0.020	 32.300	 99.950	 -0.326
15555	 -0.376	 -0.299	  0.433	  0.055	 -0.637	 -9.677	  0.211	 -0.131	 -0.027	 32.300	 99.962	 -1.403
15605	 -0.372	 -0.287	  0.435	  0.059	 -1.218	 -10.214	  0.080	  0.027	 -0.015	 32.300	 99.962	 -1.403
15655	 -0.380	 -0.292	  0.438	 -0.614	 -1.083	 -9.719	  0.102	  0.321	  0.209	 32.300	 99.950	 -0.326
15705	 -0.396	 -0.276	  0.437	  0.816	 -0.561	 -10.344	  0.000	  0.599	  0.535	 32.300	 99.950	 -0.326
15755	 -0.416	 -0.267	  0.421	  1.327	 -0.422	 -10.072	 -0.106	  0.927	  0.238	 32.300	 99.955	 -0.775
15805	 -0.425	 -0.278	  0.414	  1.502	 -0.673	 -8.733	 -0.191	  0.278	 -0.258	 32.300	 99.962	 -1.403
15855	 -0.417	 -0.274	  0.418	  1.246	 -0.674	 -9.605	  0.044	 -0.691	 -0.102	 32.300	 99.950	 -0.326
15905	 -0.393	 -0.294	  0.437	  0.999	 -1.436	 -10.868	 -0.199	 -0.786	 -0.207	 32.300	 99.950	 -0.326
15955	 -0.367	 -0.311	  0.427	  0.825	 -2.812	 -13.022	 -0.948	 -0.235	 -0.159	 32.300	 99.950	 -0.326
16005	 -0.342	 -0.368	  0.394	  0.212	 -1.225	 -12.084	 -2.453	  0.476	 -0.306	 32.300	 99.962	 -1.403
16055	 -0.332	 -0.434	  0.347	 -1.120	  0.037	 -11.512	 -2.392	  1.532	 -0.288	 32.300	 99.939	  0.661
16105	 -0.340	 -0.506	  0.254	  1.477	  3.570	 -10.453	 -4.271	  1.686	 -0.414	 32.300	 99.950	 -0.326
16155	 -0.321	 -0.567	  0.142	  0.546	  8.009	 -2.067	 -3.078	  1.260	 -0.571	 32.300	 99.950	 -0.326
16205	 -0.315	 -0.573	  0.122	  2.871	  7.453	  0.569	  2.242	  0.128	  0.593	 32.300	 99.955	 -0.775
16255	 -0.339	 -0.492	  0.239	  4.483	  2.120	 -0.654	  7.056	  0.078	  1.051	 32.300	 99.939	  0.661
16305	 -0.345	 -0.318	  0.388	  0.224	 -2.828	 -6.186	  8.818	 -2.109	  0.659	 32.300	 99.939	  0.661
16355	 -0.315	 -0.127	  0.485	 -0.130	 -6.663	 -15.434	  4.832	 -1.462	  0.446	 32.300	 99.939	  0.661
16405	 -0.338	 -0.039	  0.481	  0.737	 -8.459	 -9.904	  1.090	  0.808	  1.761	 32.300	 99.950	 -0.326
16455	 -0.348	 -0.040	  0.479	 -0.782	 -11.574	 -13.847	 -4.299	  0.444	  2.347	 32.300	 99.955	 -0.775
16505	 -0.356	 -0.188	  0.436	  0.747	 -10.153	 -11.184	 -7.759	  1.679	 -0.052	 32.300	 99.950	 -0.326
16555	 -0.352	 -0.387	  0.306	  1.941	  2.389	 -8.298	 -5.989	  2.631	 -1.175	 32.300	 99.939	  0.661
16605	 -0.363	 -0.463	  0.188	  3.234	  4.955	 -10.695	 -3.368	  1.634	 -1.602	 32.300	 99.950	 -0.326
16655	 -0.356	 -0.502	  0.099	 -3.541	  7.730	 -4.051	 -1.570	  2.560	 -0.159	 32.300	 99.950	 -0.326
16705	 -0.395	 -0.472	  0.076	 -2.573	  9.828	  0.140	  2.674	  2.830	  2.241	 32.300	 99.950	 -0.326
16755	 -0.442	 -0.404	  0.113	  1.426	  1.472	  3.538	  4.027	  0.378	  2.582	 32.200	 99.935	  1.020
16805	 -0.468	 -0.332	  0.215	  6.068	 -2.774	 -2.381	  3.729	 -3.208	  0.978	 32.300	 99.939	  0.661
16855	 -0.440	 -0.275	  0.350	  1.912	 -3.330	 -11.057	  1.457	 -5.091	  1.157	 32.300	 99.950	 -0.326
16905	 -0.348	 -0.212	  0.513	 -0.851	 -4.979	 -18.298	 -0.986	 -6.158	  1.877	 32.300	 99.939	  0.661
16955	 -0.197	 -0.213	  0.631	 -3.061	 -1.165	 -17.358	 -1.606	 -3.791	  1.276	 32.300	 99.962	 -1.403
17005	 -0.102	 -0.306	  0.617	 -0.848	 -2.578	 -13.416	 -2.499	 -1.163	  0.573	 32.300	 99.950	 -0.326
17055	 -0.121	 -0.387	  0.548	 -0.537	  0.339	 -10.402	 -1.804	  1.300	 -0.338	 32.300	 99.939	  0.661
17105	 -0.159	 -0.423	  0.485	 -4.553	  2.139	 -7.531	 -0.716	  1.416	 -0.659	 32.300	 99.966	 -1.762
17155	 -0.175	 -0.442	  0.440	 -2.771	  2.325	 -7.648	 -0.690	  0.206	 -0.160	 32.300	 99.950	 -0.326
17205	 -0.186	 -0.428	  0.440	 -0.690	  0.050	 -4.297	  2.232	  1.235	 -1.063	 32.300	 99.955	 -0.775
17255	 -0.225	 -0.367	  0.480	 -2.850	  1.717	 -10.540	  1.861	  1.496	 -0.296	 32.300	 99.950	 -0.326
17305	 -0.255	 -0.336	  0.481	 -1.285	  2.604	 -13.522	 -0.345	  0.108	 -0.052	 32.300	 99.950	 -0.326
17355	 -0.263	 -0.353	  0.469	 -1.888	  1.031	 -9.369	 -0.104	  0.641	 -0.186	 32.200	 99.935	  1.020
17405	 -0.276	 -0.350	  0.462	  0.459	  0.528	 -9.138	  0.216	  0.491	  0.134	 32.300	 99.950	 -0.326
17455	 -0.289	 -0.341	  0.456	 -0.952	  0.828	 -8.600	  0.254	  0.236	  0.107	 32.300	 99.950	 -0.326
17505	 -0.288	 -0.327	  0.460	 -2.319	 -1.077	 -18.114	  0.632	 -1.118	  0.215	 32.300	 99.950	 -0.326
17554	 -0.260	 -0.311	  0.468	 -7.060	 -3.702	 -30.352	 -0.319	  2.286	  0.153	 32.300	 99.950	 -0.326
17604	 -0.354	 -0.368	  0.319	 -4.093	 -1.199	 -0.592	 -3.194	  7.691	  0.326	 32.300	 99.950	 -0.326
17655	 -0.437	 -0.388	  0.171	  3.704	  6.683	 22.274	 -1.201	  3.330	  1.000	 32.300	 99.962	 -1.403
17705	 -0.424	 -0.371	  0.268	  3.967	 -6.490	 -10.397	  1.639	 -12.561	 -0.983	 32.300	 99.950	 -0.326
17754	 -0.249	 -0.349	  0.455	 -20.939	 10.321	 -50.036	  1.252	 -0.505	  0.035	 32.300	 99.950	 -0.326
17804	 -0.354	 -0.329	  0.374	 -3.552	  0.862	 -9.443	 -0.044	  6.698	  0.883	 32.300	 99.950	 -0.326
17854	 -0.417	 -0.337	  0.286	  7.988	 -1.924	 10.463	 -0.494	  2.386	 -0.076	 32.300	 99.939	  0.661
17904	 -0.433	 -0.339	  0.261	  6.486	  0.915	 15.387	  0.865	 -1.909	 -1.031	 32.300	 99.950	 -0.326
17954	 -0.330	 -0.349	  0.389	 -16.863	 -0.542	 -33.648	 -0.279	 -8.297	 -0.662	 32.300	 99.955	 -0.775
18004	 -0.285	 -0.352	  0.414	 -10.488	  4.087	 -34.746	  1.016	  6.131	  0.349	 32.300	 99.950	 -0.326
18054	 -0.413	 -0.338	  0.283	  4.971	  0.930	 15.362	 -0.453	  6.721	  0.383	 32.300	 99.950	 -0.326
18105	 -0.445	 -0.331	  0.250	  8.337	 -1.559	 20.330	  0.871	 -3.304	  0.017	 32.300	 99.939	  0.661
18154	 -0.365	 -0.333	  0.362	 -8.176	  1.175	 -27.964	  0.345	 -5.219	 -0.674	 32.300	 99.955	 -0.775
18204	 -0.386	 -0.305	  0.367	 -2.562	  0.442	 -17.597	  0.372	  2.616	  0.716	 32.200	 99.950	 -0.326
18255	 -0.413	 -0.303	  0.339	  3.094	 -0.248	 -4.789	  0.102	  0.586	 -0.167	 32.300	 99.950	 -0.326
18304	 -0.415	 -0.308	  0.339	  3.640	 -0.467	 -6.192	  0.084	  0.062	 -0.404	 32.300	 99.950	 -0.326
18354	 -0.409	 -0.307	  0.349	  1.965	  0.064	 -7.460	  0.074	 -1.181	 -0.278	 32.300	 99.950	 -0.326
18404	 -0.383	 -0.311	  0.380	  0.459	  0.155	 -11.028	  0.286	 -1.714	 -0.250	 32.300	 99.939	  0.661
18454	 -0.360	 -0.313	  0.405	  0.151	  0.387	 -11.274	 -0.022	 -0.623	 -0.339	 32.300	 99.939	  0.661
18504	 -0.355	 -0.319	  0.415	  0.681	 -0.011	 -10.143	 -0.538	 -0.406	 -0.085	 32.300	 99.950	 -0.326
18554	 -0.340	 -0.322	  0.432	  0.383	 -0.307	 -8.408	  0.422	 -0.917	 -0.180	 32.300	 99.950	 -0.326
18604	 -0.315	 -0.312	  0.453	 -1.008	 -0.111	 -10.633	  0.124	 -1.336	 -0.440	 32.300	 99.950	 -0.326
18654	 -0.299	 -0.331	  0.462	 -0.829	  0.785	 -11.206	 -0.855	 -0.149	 -0.363	 32.300	 99.950	 -0.326
18704	 -0.313	 -0.355	  0.446	 -0.269	  0.073	 -9.763	 -1.016	  0.938	 -0.371	 32.300	 99.950	 -0.326
18754	 -0.324	 -0.369	  0.435	  1.127	  0.305	 -8.176	  0.514	  0.015	 -0.061	 32.300	 99.950	 -0.326
18804	 -0.331	 -0.345	  0.440	  0.815	 -0.376	 -10.670	  0.639	 -0.112	 -0.328	 32.300	 99.939	  0.661
18854	 -0.319	 -0.348	  0.447	 -0.695	 -0.096	 -9.958	  0.134	 -0.351	 -0.157	 32.300	 99.962	 -1.403
18905	 -0.322	 -0.352	  0.435	 -1.255	 -0.893	 -7.562	  0.157	  0.724	  0.101	 32.300	 99.950	 -0.326
18954	 -0.334	 -0.339	  0.429	 -1.582	  1.696	 -12.216	 -0.386	 -0.448	 -0.549	 32.300	 99.950	 -0.326
19004	 -0.324	 -0.342	  0.428	  0.366	  0.143	 -10.820	 -0.073	  0.108	 -0.666	 32.300	 99.955	 -0.775
19054	 -0.315	 -0.379	  0.399	 -1.220	 -0.437	 -11.098	 -0.894	  0.436	 -0.653	 32.300	 99.962	 -1.403
19104	 -0.326	 -0.384	  0.390	 -0.376	  1.455	 -11.924	 -0.562	  1.169	  0.250	 32.300	 99.950	 -0.326
19154	 -0.357	 -0.365	  0.385	  1.392	 -0.339	 -5.252	  1.859	 -0.342	  0.308	 32.300	 99.950	 -0.326
19204	 -0.341	 -0.337	  0.417	 -0.471	 -1.085	 -10.642	  0.407	  0.248	  0.097	 32.300	 99.950	 -0.326
19255	 -0.350	 -0.347	  0.409	  0.490	 -0.194	 -9.338	 -0.362	  0.489	  0.150	 32.300	 99.950	 -0.326
19305	 -0.352	 -0.345	  0.403	  0.472	 -0.146	 -9.477	  0.141	 -0.175	 -0.044	 32.300	 99.950	 -0.326
19354	 -0.349	 -0.346	  0.409	  0.136	 -0.359	 -10.089	  0.005	 -0.011	 -0.003	 32.300	 99.950	 -0.326
19404	 -0.352	 -0.345	  0.402	  0.402	 -0.259	 -9.606	 -0.049	  0.055	  0.009	 32.300	 99.950	 -0.326
19454	 -0.350	 -0.349	  0.405	  0.287	 -0.287	 -9.798	  0.027	 -0.033	 -0.005	 32.300	 99.950	 -0.326
19504	 -0.350	 -0.344	  0.406	  0.271	 -0.290	 -9.765	 -0.012	  0.014	  0.003	 32.300	 99.950	 -0.326
19555	 -0.352	 -0.346	  0.404	  0.288	 -0.287	 -9.774	 -0.001	  0.002	 -0.000	 32.300	 99.950	 -0.326
19605	 -0.353	 -0.345	  0.407	  0.289	 -0.291	 -9.720	 -0.001	  0.001	  0.002	 32.300	 99.943	  0.302
19654	 -0.350	 -0.344	  0.405	  0.298	 -0.306	 -9.792	 -0.004	  0.002	  0.000	 32.300	 99.955	 -0.775
19705	 -0.352	 -0.346	  0.409	  0.306	 -0.283	 -9.775	 -0.002	  0.003	  0.001	 32.300	 99.950	 -0.326
19754	 -0.349	 -0.344	  0.403	  0.320	 -0.270	 -9.715	 -0.004	  0.003	  0.000	 32.300	 99.950	 -0.326
19805	 -0.353	 -0.345	  0.408	  0.295	 -0.300	 -9.766	 -0.002	  0.003	  0.001	 32.300	 99.950	 -0.326
19855	 -0.350	 -0.343	  0.398	  0.297	 -0.263	 -9.719	 -0.003	  0.004	  0.002	 32.300	 99.950	 -0.326
19905	 -0.353	 -0.344	  0.405	  0.313	 -0.284	 -9.768	 -0.003	  0.004	 -0.000	 32.300	 99.950	 -0.326
19955	 -0.351	 -0.345	  0.404	  0.308	 -0.274	 -9.729	 -0.003	  0.002	  0.000	 32.300	 99.950	 -0.326
20005	 -0.348	 -0.341	  0.406	  0.273	 -0.282	 -9.794	 -0.004	  0.005	  0.001	 32.300	 99.950	 -0.326
20055	 -0.350	 -0.341	  0.409	  0.295	 -0.263	 -9.769	 -0.003	  0.003	  0.002	 32.300	 99.939	  0.661
20105	 -0.350	 -0.344	  0.400	  0.280	 -0.272	 -9.745	 -0.002	  0.002	  0.001	 32.300	 99.950	 -0.326
20155	 -0.352	 -0.345	  0.401	  0.274	 -0.281	 -9.778	 -0.004	  0.003	  0.001	 32.300	 99.962	 -1.403
20205	 -0.352	 -0.341	  0.405	  0.298	 -0.270	 -9.764	 -0.003	  0.002	 -0.000	 32.300	 99.962	 -1.403
20255	 -0.352	 -0.344	  0.410	  0.304	 -0.283	 -9.769	 -0.004	  0.001	  0.001	 32.300	 99.955	 -0.775
20305	 -0.351	 -0.345	  0.403	  0.278	 -0.293	 -9.794	 -0.003	  0.003	  0.001	 32.300	 99.950	 -0.326
20355	 -0.351	 -0.346	  0.406	  0.303	 -0.276	 -9.753	 -0.003	  0.002	  0.001	 32.300	 99.950	 -0.326
20405	 -0.350	 -0.344	  0.405	  0.313	 -0.287	 -9.760	 -0.003	  0.003	  0.002	 32.300	 99.950	 -0.326
20455	 -0.351	 -0.343	  0.403	  0.294	 -0.291	 -9.776	 -0.003	  0.002	  0.001	 32.300	 99.939	  0.661
20505	 -0.349	 -0.342	  0.407	  0.289	 -0.278	 -9.728	 -0.003	  0.003	 -0.000	 32.300	 99.943	  0.302
20555	 -0.353	 -0.343	  0.403	  0.303	 -0.277	 -9.776	 -0.004	  0.003	  0.001	 32.300	 99.950	 -0.326
20605	 -0.350	 -0.343	  0.405	  0.313	 -0.275	 -9.717	 -0.003	  0.003	  0.002	 32.300	 99.950	 -0.326
20655	 -0.353	 -0.346	  0.404	  0.313	 -0.278	 -9.756	 -0.004	  0.002	  0.001	 32.300	 99.939	  0.661
20705	 -0.349	 -0.337	  0.409	  0.268	 -0.300	 -9.760	 -0.002	  0.002	  0.001	 32.300	 99.939	  0.661
20755	 -0.349	 -0.345	  0.403	  0.304	 -0.281	 -9.743	 -0.004	  0.002	  0.001	 32.300	 99.950	 -0.326
20805	 -0.351	 -0.342	  0.404	  0.301	 -0.278	 -9.746	 -0.003	  0.003	  0.001	 32.300	 99.962	 -1.403
20855	 -0.351	 -0.344	  0.404	  0.290	 -0.289	 -9.761	 -0.003	  0.002	  0.001	 32.300	 99.955	 -0.775
20905	 -0.351	 -0.342	  0.407	  0.303	 -0.272	 -9.753	 -0.003	  0.003	  0.001	 32.300	 99.950	 -0.326
20955	 -0.351	 -0.341	  0.406	  0.303	 -0.273	 -9.785	 -0.003	  0.002	  0.001	 32.300	 99.962	 -1.403
21005	 -0.350	 -0.344	  0.403	  0.313	 -0.299	 -9.753	 -0.004	  0.004	  0.001	 32.300	 99.950	 -0.326
21055	 -0.350	 -0.345	  0.404	  0.305	 -0.283	 -9.744	 -0.002	  0.003	  0.002	 32.300	 99.950	 -0.326
21105	 -0.351	 -0.346	  0.405	  0.285	 -0.276	 -9.747	 -0.002	  0.003	  0.001	 32.300	 99.950	 -0.326
21155	 -0.352	 -0.341	  0.405	  0.312	 -0.268	 -9.774	 -0.002	  0.003	 -0.000	 32.300	 99.950	 -0.326
21205	 -0.350	 -0.349	  0.401	  0.298	 -0.276	 -9.757	 -0.004	  0.003	 -0.000	 32.300	 99.939	  0.661
21255	 -0.349	 -0.344	  0.406	  0.306	 -0.290	 -9.749	 -0.002	  0.003	  0.001	 32.300	 99.950	 -0.326
21305	 -0.352	 -0.347	  0.401	  0.306	 -0.266	 -9.770	 -0.003	  0.002	  0.000	 32.300	 99.950	 -0.326
21355	 -0.349	 -0.336	  0.405	  0.293	 -0.290	 -9.759	 -0.002	  0.003	  0.001	 32.300	 99.950	 -0.326
21405	 -0.353	 -0.348	  0.404	  0.307	 -0.267	 -9.767	 -0.003	  0.002	  0.001	 32.300	 99.955	 -0.775
21455	 -0.352	 -0.346	  0.409	  0.297	 -0.283	 -9.777	 -0.001	  0.003	  0.002	 32.300	 99.950	 -0.326
21505	 -0.352	 -0.343	  0.397	  0.289	 -0.238	 -9.745	 -0.003	  0.004	  0.001	 32.300	 99.955	 -0.775
21555	 -0.348	 -0.343	  0.402	  0.299	 -0.291	 -9.750	 -0.002	  0.003	  0.000	 32.300	 99.955	 -0.775
21605	 -0.350	 -0.346	  0.402	  0.292	 -0.258	 -9.760	 -0.004	  0.002	 -0.000	 32.300	 99.950	 -0.326
21655	 -0.349	 -0.339	  0.406	  0.285	 -0.285	 -9.751	 -0.003	  0.004	  0.001	 32.300	 99.950	 -0.326
21705	 -0.350	 -0.336	  0.406	  0.305	 -0.277	 -9.740	 -0.003	  0.003	  0.001	 32.300	 99.955	 -0.775
21755	 -0.349	 -0.341	  0.409	  0.292	 -0.309	 -9.745	 -0.003	  0.003	  0.001	 32.300	 99.962	 -1.403
21805	 -0.352	 -0.344	  0.400	  0.304	 -0.284	 -9.783	 -0.003	  0.004	 -0.000	 32.300	 99.950	 -0.326
21855	 -0.354	 -0.345	  0.406	  0.292	 -0.285	 -9.774	 -0.003	  0.002	  0.001	 32.300	 99.962	 -1.403
21905	 -0.350	 -0.344	  0.403	  0.288	 -0.288	 -9.774	 -0.003	  0.002	  0.000	 32.300	 99.950	 -0.326
21955	 -0.350	 -0.344	  0.403	  0.312	 -0.267	 -9.775	 -0.004	  0.002	  0.002	 32.300	 99.955	 -0.775
22005	 -0.351	 -0.341	  0.402	  0.310	 -0.298	 -9.763	 -0.002	  0.003	  0.001	 32.300	 99.966	 -1.762
22055	 -0.348	 -0.346	  0.407	  0.296	 -0.283	 -9.777	 -0.004	  0.001	  0.001	 32.300	 99.950	 -0.326
22105	 -0.350	 -0.345	  0.404	  0.293	 -0.287	 -9.767	 -0.003	  0.002	  0.001	 32.300	 99.962	 -1.403
22155	 -0.349	 -0.339	  0.405	  0.305	 -0.287	 -9.759	 -0.003	  0.002	  0.001	 32.300	 99.962	 -1.403
22205	 -0.350	 -0.346	  0.406	  0.314	 -0.292	 -9.718	 -0.003	  0.002	  0.002	 32.300	 99.950	 -0.326
22255	 -0.349	 -0.345	  0.402	  0.297	 -0.288	 -9.778	 -0.003	  0.003	  0.000	 32.300	 99.950	 -0.326
22305	 -0.350	 -0.346	  0.404	  0.300	 -0.283	 -9.750	 -0.002	  0.002	  0.000	 32.300	 99.950	 -0.326
22354	 -0.352	 -0.344	  0.403	  0.301	 -0.281	 -9.751	 -0.003	  0.003	  0.001	 32.300	 99.950	 -0.326
22405	 -0.349	 -0.345	  0.403	  0.315	 -0.282	 -9.763	 -0.003	  0.003	  0.000	 32.300	 99.939	  0.661
22455	 -0.351	 -0.345	  0.404	  0.299	 -0.271	 -9.778	 -0.004	  0.003	  0.001	 32.300	 99.950	 -0.326
22505	 -0.351	 -0.342	  0.407	  0.319	 -0.262	 -9.732	 -0.003	  0.003	  0.001	 32.300	 99.950	 -0.326
22555	 -0.350	 -0.345	  0.402	  0.314	 -0.289	 -9.742	 -0.004	  0.003	  0.001	 32.300	 99.950	 -0.326
22605	 -0.351	 -0.346	  0.402	  0.284	 -0.270	 -9.763	 -0.003	  0.003	 -0.000	 32.300	 99.962	 -1.403
22655	 -0.349	 -0.345	  0.402	  0.305	 -0.274	 -9.790	 -0.004	  0.002	  0.001	 32.300	 99.939	  0.661
22704	 -0.349	 -0.344	  0.398	  0.305	 -0.270	 -9.744	 -0.003	  0.003	  0.001	 32.300	 99.950	 -0.326
22754	 -0.350	 -0.342	  0.405	  0.318	 -0.296	 -9.766	 -0.003	  0.003	 -0.000	 32.300	 99.962	 -1.403
22804	 -0.349	 -0.342	  0.404	  0.294	 -0.278	 -9.784	 -0.003	  0.003	  0.001	 32.300	 99.973	 -2.390
22854	 -0.349	 -0.345	  0.402	  0.317	 -0.279	 -9.768	 -0.003	  0.003	  0.001	 32.300	 99.962	 -1.403
22904	 -0.351	 -0.348	  0.403	  0.293	 -0.268	 -9.767	 -0.002	  0.002	  0.001	 32.200	 99.950	 -0.326
22954	 -0.349	 -0.344	  0.405	  0.313	 -0.285	 -9.739	 -0.003	  0.002	  0.000	 32.300	 99.962	 -1.403
23004	 -0.350	 -0.344	  0.407	  0.304	 -0.271	 -9.741	 -0.002	  0.002	  0.001	 32.300	 99.950	 -0.326
23054	 -0.350	 -0.340	  0.405	  0.300	 -0.258	 -9.741	 -0.003	  0.003	  0.000	 32.300	 99.950	 -0.326
23104	 -0.350	 -0.344	  0.400	  0.277	 -0.267	 -9.779	 -0.004	  0.003	 -0.000	 32.300	 99.950	 -0.326
23154	 -0.352	 -0.344	  0.400	  0.295	 -0.298	 -9.764	 -0.003	  0.002	  0.000	 32.300	 99.955	 -0.775
23204	 -0.348	 -0.345	  0.407	  0.307	 -0.256	 -9.775	 -0.004	  0.002	 -0.000	 32.300	 99.962	 -1.403
23254	 -0.351	 -0.343	  0.404	  0.295	 -0.267	 -9.754	 -0.003	  0.002	  0.001	 32.300	 99.950	 -0.326
23304	 -0.349	 -0.343	  0.397	  0.306	 -0.300	 -9.741	 -0.004	  0.002	 -0.000	 32.300	 99.955	 -0.775
23354	 -0.349	 -0.346	  0.400	  0.304	 -0.280	 -9.774	 -0.002	  0.003	  0.001	 32.300	 99.950	 -0.326
23404	 -0.350	 -0.341	  0.403	  0.317	 -0.289	 -9.755	 -0.003	  0.001	  0.001	 32.300	 99.966	 -1.762
23454	 -0.349	 -0.343	  0.403	  0.301	 -0.268	 -9.760	 -0.003	  0.003	  0.001	 32.300	 99.950	 -0.326
23504	 -0.352	 -0.342	  0.401	  0.292	 -0.281	 -9.818	 -0.003	  0.003	  0.001	 32.300	 99.962	 -1.403
23554	 -0.351	 -0.346	  0.401	  0.289	 -0.298	 -9.765	 -0.003	  0.002	  0.000	 32.300	 99.950	 -0.326
23604	 -0.349	 -0.339	  0.405	  0.321	 -0.261	 -9.753	 -0.002	  0.003	  0.001	 32.300	 99.950	 -0.326
23654	 -0.349	 -0.344	  0.406	  0.315	 -0.271	 -9.754	 -0.003	  0.002	 -0.000	 32.300	 99.939	  0.661
23704	 -0.349	 -0.343	  0.406	  0.315	 -0.290	 -9.765	 -0.002	  0.002	  0.001	 32.300	 99.962	 -1.403
23754	 -0.349	 -0.343	  0.406	  0.295	 -0.270	 -9.779	 -0.003	  0.002	 -0.000	 32.300	 99.962	 -1.403
23804	 -0.351	 -0.342	  0.406	  0.307	 -0.283	 -9.753	 -0.004	  0.004	  0.001	 32.300	 99.950	 -0.326
23854	 -0.349	 -0.343	  0.404	  0.313	 -0.300	 -9.764	 -0.004	  0.002	  0.001	 32.300	 99.950	 -0.326
23904	 -0.353	 -0.346	  0.398	  0.319	 -0.276	 -9.767	 -0.003	  0.001	 -0.001	 32.300	 99.962	 -1.403
23954	 -0.348	 -0.344	  0.404	  0.280	 -0.267	 -9.776	 -0.003	  0.002	 -0.000	 32.300	 99.962	 -1.403
24004	 -0.349	 -0.338	  0.404	  0.291	 -0.264	 -9.780	 -0.003	  0.003	  0.000	 32.300	 99.955	 -0.775
24054	 -0.349	 -0.346	  0.402	  0.289	 -0.261	 -9.741	 -0.003	  0.004	  0.000	 32.300	 99.950	 -0.326
24104	 -0.350	 -0.348	  0.406	  0.299	 -0.271	 -9.759	 -0.002	  0.001	  0.001	 32.300	 99.962	 -1.403
24154	 -0.350	 -0.334	  0.403	  0.306	 -0.252	 -9.758	 -0.003	  0.003	  0.002	 32.300	 99.950	 -0.326
24204	 -0.350	 -0.339	  0.406	  0.304	 -0.260	 -9.741	 -0.003	  0.003	 -0.001	 32.300	 99.950	 -0.326
24254	 -0.348	 -0.344	  0.403	  0.306	 -0.282	 -9.786	 -0.004	  0.002	  0.001	 32.300	 99.950	 -0.326
24304	 -0.351	 -0.343	  0.404	  0.306	 -0.284	 -9.736	 -0.003	  0.002	  0.002	 32.300	 99.950	 -0.326
24354	 -0.351	 -0.345	  0.405	  0.318	 -0.267	 -9.766	 -0.003	  0.003	  0.001	 32.300	 99.950	 -0.326
24404	 -0.349	 -0.344	  0.398	  0.302	 -0.273	 -9.746	 -0.000	  0.002	  0.000	 32.300	 99.939	  0.661
24455	 -0.350	 -0.344	  0.405	  0.306	 -0.281	 -9.755	 -0.004	  0.001	  0.001	 32.300	 99.950	 -0.326
24504	 -0.348	 -0.344	  0.402	  0.294	 -0.267	 -9.755	 -0.002	  0.003	 -0.000	 32.300	 99.950	 -0.326
24554	 -0.348	 -0.346	  0.407	  0.299	 -0.268	 -9.752	 -0.003	  0.003	  0.001	 32.300	 99.950	 -0.326
24604	 -0.349	 -0.344	  0.398	  0.312	 -0.268	 -9.798	 -0.002	  0.003	  0.001	 32.300	 99.966	 -1.762
24654	 -0.349	 -0.341	  0.403	  0.301	 -0.266	 -9.775	 -0.004	  0.002	  0.001	 32.300	 99.962	 -1.403
24704	 -0.350	 -0.344	  0.404	  0.305	 -0.262	 -9.760	 -0.003	  0.002	 -0.000	 32.300	 99.962	 -1.403
24754	 -0.350	 -0.341	  0.403	  0.315	 -0.284	 -9.762	 -0.002	  0.003	  0.000	 32.300	 99.966	 -1.762
24804	 -0.347	 -0.342	  0.404	  0.294	 -0.262	 -9.744	 -0.003	  0.002	  0.002	 32.300	 99.950	 -0.326
24854	 -0.349	 -0.342	  0.403	  0.309	 -0.278	 -9.783	 -0.004	  0.002	  0.001	 32.300	 99.966	 -1.762
24904	 -0.349	 -0.347	  0.405	  0.279	 -0.289	 -9.741	 -0.002	  0.003	  0.001	 32.300	 99.966	 -1.762
24954	 -0.350	 -0.342	  0.400	  0.323	 -0.287	 -9.730	 -0.003	  0.002	  0.001	 32.300	 99.962	 -1.403
25005	 -0.349	 -0.345	  0.408	  0.298	 -0.277	 -9.745	 -0.003	  0.002	  0.001	 32.300	 99.950	 -0.326
25054	 -0.350	 -0.341	  0.406	  0.308	 -0.269	 -9.790	 -0.004	  0.002	  0.002	 32.300	 99.950	 -0.326
25104	 -0.351	 -0.342	  0.404	  0.308	 -0.274	 -9.764	 -0.003	  0.004	  0.001	 32.300	 99.950	 -0.326
25154	 -0.350	 -0.342	  0.405	  0.305	 -0.264	 -9.765	 -0.002	  0.003	  0.001	 32.300	 99.950	 -0.326
25204	 -0.347	 -0.343	  0.408	  0.320	 -0.253	 -9.774	 -0.004	  0.002	  0.001	 32.300	 99.966	 -1.762
25254	 -0.352	 -0.345	  0.397	  0.283	 -0.280	 -9.766	 -0.002	  0.003	  0.001	 32.300	 99.962	 -1.403
25305	 -0.351	 -0.341	  0.405	  0.300	 -0.284	 -9.787	 -0.003	  0.002	  0.000	 32.300	 99.950	 -0.326
25355	 -0.353	 -0.346	  0.406	  0.301	 -0.245	 -9.760	 -0.002	  0.003	  0.000	 32.300	 99.962	 -1.403
25405	 -0.351	 -0.344	  0.404	  0.299	 -0.268	 -9.782	 -0.003	  0.002	  0.001	 32.300	 99.962	 -1.403
25455	 -0.350	 -0.342	  0.405	  0.310	 -0.255	 -9.766	 -0.002	  0.002	  0.000	 32.300	 99.950	 -0.326
25505	 -0.351	 -0.345	  0.403	  0.292	 -0.278	 -9.783	 -0.003	  0.002	  0.001	 32.300	 99.962	 -1.403
25555	 -0.349	 -0.342	  0.406	  0.306	 -0.269	 -9.763	 -0.003	  0.001	  0.000	 32.300	 99.962	 -1.403
25605	 -0.350	 -0.346	  0.406	  0.334	 -0.288	 -9.779	 -0.004	  0.002	  0.000	 32.300	 99.950	 -0.326
25655	 -0.350	 -0.342	  0.403	  0.320	 -0.264	 -9.759	 -0.003	  0.002	 -0.002	 32.300	 99.962	 -1.403
25705	 -0.352	 -0.341	  0.407	  0.336	 -0.266	 -9.768	 -0.003	  0.003	  0.002	 32.300	 99.962	 -1.403
25755	 -0.350	 -0.336	  0.405	  0.299	 -0.267	 -9.751	 -0.002	  0.002	  0.001	 32.300	 99.950	 -0.326
25805	 -0.349	 -0.339	  0.405	  0.305	 -0.269	 -9.770	 -0.003	  0.003	  0.001	 32.300	 99.962	 -1.403
25855	 -0.349	 -0.347	  0.398	  0.327	 -0.270	 -9.731	 -0.002	  0.002	  0.001	 32.300	 99.962	 -1.403
25905	 -0.349	 -0.344	  0.406	  0.297	 -0.262	 -9.801	 -0.004	  0.002	  0.001	 32.300	 99.950	 -0.326
25955	 -0.351	 -0.344	  0.403	  0.278	 -0.276	 -9.756	 -0.003	  0.003	  0.001	 32.300	 99.950	 -0.326
26005	 -0.348	 -0.343	  0.404	  0.323	 -0.275	 -9.761	 -0.003	  0.002	  0.001	 32.300	 99.962	 -1.403
26055	 -0.349	 -0.346	  0.404	  0.304	 -0.269	 -9.754	 -0.003	  0.003	  0.001	 32.300	 99.950	 -0.326
26105	 -0.352	 -0.345	  0.396	  0.314	 -0.278	 -9.760	 -0.003	  0.002	  0.000	 32.300	 99.962	 -1.403
26155	 -0.350	 -0.343	  0.407	  0.305	 -0.288	 -9.769	 -0.003	  0.002	  0.001	 32.300	 99.962	 -1.403
26205	 -0.350	 -0.339	  0.404	  0.309	 -0.286	 -9.773	 -0.004	  0.002	  0.000	 32.300	 99.962	 -1.403
26255	 -0.352	 -0.345	  0.401	  0.294	 -0.268	 -9.739	 -0.003	  0.003	  0.000	 32.300	 99.962	 -1.403
26305	 -0.348	 -0.346	  0.404	  0.309	 -0.260	 -9.742	 -0.003	  0.002	  0.000	 32.300	 99.950	 -0.326
26355	 -0.349	 -0.344	  0.406	  0.305	 -0.261	 -9.773	 -0.003	  0.003	  0.001	 32.300	 99.962	 -1.403
26405	 -0.351	 -0.345	  0.406	  0.319	 -0.286	 -9.775	 -0.003	  0.002	  0.002	 32.300	 99.962	 -1.403
26455	 -0.351	 -0.347	  0.405	  0.306	 -0.280	 -9.775	 -0.003	  0.003	 -0.000	 32.300	 99.950	 -0.326
26505	 -0.350	 -0.346	  0.395	  0.315	 -0.265	 -9.735	 -0.002	  0.003	  0.002	 32.300	 99.950	 -0.326
26555	 -0.352	 -0.344	  0.400	  0.303	 -0.276	 -9.747	 -0.004	  0.002	  0.000	 32.300	 99.962	 -1.403
26605	 -0.349	 -0.345	  0.404	  0.306	 -0.268	 -9.780	 -0.001	  0.002	  0.000	 32.300	 99.966	 -1.762
26655	 -0.352	 -0.342	  0.403	  0.318	 -0.258	 -9.771	 -0.003	  0.003	  0.001	 32.300	 99.962	 -1.403
26705	 -0.350	 -0.344	  0.401	  0.295	 -0.277	 -9.772	 -0.003	  0.003	  0.001	 32.300	 99.966	 -1.762
26755	 -0.350	 -0.336	  0.405	  0.304	 -0.283	 -9.746	 -0.003	  0.001	  0.001	 32.300	 99.962	 -1.403
26805	 -0.351	 -0.342	  0.405	  0.306	 -0.277	 -9.745	 -0.003	  0.003	  0.001	 32.300	 99.962	 -1.403
26855	 -0.348	 -0.346	  0.403	  0.309	 -0.281	 -9.778	 -0.004	  0.003	  0.000	 32.300	 99.950	 -0.326
26905	 -0.349	 -0.347	  0.402	  0.309	 -0.254	 -9.738	 -0.002	  0.003	  0.000	 32.300	 99.962	 -1.403
26955	 -0.350	 -0.345	  0.405	  0.315	 -0.299	 -9.810	 -0.003	  0.003	  0.000	 32.300	 99.962	 -1.403
27005	 -0.348	 -0.346	  0.407	  0.310	 -0.292	 -9.789	 -0.003	  0.003	  0.001	 32.300	 99.950	 -0.326
27055	 -0.350	 -0.344	  0.406	  0.326	 -0.272	 -9.776	 -0.003	  0.002	  0.001	 32.300	 99.973	 -2.390
27105	 -0.349	 -0.340	  0.405	  0.290	 -0.253	 -9.779	 -0.003	  0.002	  0.001	 32.300	 99.962	 -1.403
27155	 -0.350	 -0.346	  0.402	  0.303	 -0.263	 -9.738	 -0.003	  0.002	 -0.001	 32.300	 99.950	 -0.326
27205	 -0.349	 -0.343	  0.402	  0.312	 -0.257	 -9.772	 -0.003	  0.004	  0.001	 32.300	 99.962	 -1.403
27255	 -0.352	 -0.345	  0.404	  0.313	 -0.283	 -9.774	 -0.003	  0.002	  0.002	 32.300	 99.950	 -0.326
27305	 -0.350	 -0.344	  0.404	  0.306	 -0.280	 -9.789	 -0.003	  0.002	  0.001	 32.300	 99.955	 -0.775
27355	 -0.348	 -0.346	  0.405	  0.309	 -0.285	 -9.802	 -0.003	  0.002	  0.000	 32.300	 99.950	 -0.326
27405	 -0.350	 -0.349	  0.406	  0.289	 -0.273	 -9.781	 -0.003	  0.002	  0.000	 32.300	 99.962	 -1.403
27455	 -0.352	 -0.346	  0.400	  0.294	 -0.285	 -9.758	 -0.003	  0.001	  0.001	 32.300	 99.950	 -0.326
27505	 -0.349	 -0.345	  0.402	  0.305	 -0.295	 -9.751	 -0.004	  0.003	  0.001	 32.200	 99.962	 -1.403
27555	 -0.348	 -0.345	  0.403	  0.315	 -0.277	 -9.778	 -0.003	  0.003	  0.001	 32.300	 99.962	 -1.403
27605	 -0.350	 -0.348	  0.404	  0.295	 -0.289	 -9.773	 -0.004	  0.003	  0.002	 32.300	 99.962	 -1.403
27655	 -0.352	 -0.340	  0.404	  0.301	 -0.256	 -9.743	 -0.003	  0.002	  0.001	 32.300	 99.966	 -1.762
27705	 -0.350	 -0.337	  0.406	  0.308	 -0.271	 -9.750	 -0.003	  0.004	  0.001	 32.300	 99.962	 -1.403
27755	 -0.352	 -0.344	  0.405	  0.282	 -0.279	 -9.746	 -0.002	  0.003	  0.002	 32.300	 99.955	 -0.775
27805	 -0.351	 -0.343	  0.405	  0.307	 -0.273	 -9.766	 -0.003	  0.002	  0.000	 32.300	 99.962	 -1.403
27855	 -0.350	 -0.344	  0.406	  0.313	 -0.292	 -9.762	 -0.003	  0.002	  0.001	 32.300	 99.962	 -1.403
27905	 -0.348	 -0.341	  0.404	  0.295	 -0.264	 -9.747	 -0.003	  0.002	  0.000	 32.300	 99.962	 -1.403
27955	 -0.350	 -0.345	  0.403	  0.310	 -0.271	 -9.773	 -0.001	  0.002	  0.002	 32.300	 99.962	 -1.403
28005	 -0.350	 -0.343	  0.404	  0.306	 -0.270	 -9.754	 -0.003	  0.002	  0.000	 32.300	 99.966	 -1.762
28055	 -0.349	 -0.344	  0.405	  0.322	 -0.264	 -9.744	 -0.002	  0.002	  0.001	 32.300	 99.950	 -0.326
28105	 -0.352	 -0.348	  0.402	  0.304	 -0.269	 -9.756	 -0.004	  0.003	  0.000	 32.300	 99.950	 -0.326
28155	 -0.349	 -0.342	  0.406	  0.297	 -0.278	 -9.743	 -0.001	  0.002	  0.001	 32.300	 99.955	 -0.775
28205	 -0.350	 -0.344	  0.404	  0.313	 -0.273	 -9.775	 -0.004	  0.003	  0.001	 32.300	 99.962	 -1.403
28255	 -0.350	 -0.344	  0.406	  0.307	 -0.294	 -9.773	 -0.003	  0.003	 -0.000	 32.300	 99.962	 -1.403
28305	 -0.350	 -0.344	  0.402	  0.313	 -0.264	 -9.790	 -0.003	  0.003	  0.001	 32.300	 99.966	 -1.762
28355	 -0.350	 -0.345	  0.404	  0.307	 -0.262	 -9.737	 -0.004	  0.001	 -0.000	 32.300	 99.950	 -0.326
28405	 -0.351	 -0.344	  0.406	  0.272	 -0.285	 -9.745	 -0.003	  0.002	 -0.000	 32.300	 99.962	 -1.403
28455	 -0.351	 -0.345	  0.400	  0.294	 -0.269	 -9.779	 -0.003	  0.001	  0.001	 32.300	 99.962	 -1.403
28505	 -0.350	 -0.344	  0.401	  0.307	 -0.269	 -9.775	 -0.003	  0.003	  0.001	 32.300	 99.962	 -1.403
28555	 -0.351	 -0.345	  0.403	  0.328	 -0.280	 -9.752	 -0.003	  0.001	  0.001	 32.300	 99.962	 -1.403
28605	 -0.350	 -0.345	  0.403	  0.317	 -0.283	 -9.756	 -0.002	  0.003	  0.000	 32.300	 99.973	 -2.390
28655	 -0.348	 -0.342	  0.402	  0.315	 -0.249	 -9.763	 -0.004	  0.002	  0.000	 32.300	 99.962	 -1.403
28705	 -0.349	 -0.345	  0.403	  0.302	 -0.295	 -9.740	 -0.002	  0.003	  0.001	 32.300	 99.966	 -1.762
28755	 -0.350	 -0.337	  0.405	  0.289	 -0.267	 -9.759	 -0.003	  0.002	  0.000	 32.300	 99.962	 -1.403
28805	 -0.348	 -0.342	  0.405	  0.325	 -0.277	 -9.754	 -0.002	  0.003	  0.001	 32.300	 99.977	 -2.749
28855	 -0.349	 -0.345	  0.402	  0.312	 -0.252	 -9.779	 -0.003	  0.003	  0.001	 32.300	 99.950	 -0.326
28905	 -0.348	 -0.344	  0.405	  0.296	 -0.270	 -9.754	 -0.002	  0.002	  0.000	 32.300	 99.962	 -1.403
28955	 -0.351	 -0.345	  0.407	  0.328	 -0.261	 -9.765	 -0.003	  0.003	  0.002	 32.300	 99.950	 -0.326
29005	 -0.350	 -0.342	  0.405	  0.287	 -0.261	 -9.729	 -0.002	  0.002	  0.002	 32.300	 99.955	 -0.775
29055	 -0.351	 -0.345	  0.403	  0.311	 -0.246	 -9.774	 -0.002	  0.002	  0.001	 32.300	 99.962	 -1.403
29105	 -0.349	 -0.345	  0.405	  0.326	 -0.230	 -9.756	 -0.003	  0.003	  0.001	 32.300	 99.962	 -1.403
29155	 -0.352	 -0.346	  0.402	  0.299	 -0.286	 -9.752	 -0.003	  0.003	  0.002	 32.300	 99.950	 -0.326
29205	 -0.350	 -0.345	  0.406	  0.311	 -0.259	 -9.725	 -0.003	  0.002	 -0.000	 32.300	 99.955	 -0.775
29255	 -0.351	 -0.344	  0.401	  0.299	 -0.276	 -9.749	 -0.004	  0.002	  0.001	 32.300	 99.950	 -0.326
29305	 -0.348	 -0.342	  0.403	  0.292	 -0.245	 -9.800	 -0.003	  0.002	  0.001	 32.300	 99.955	 -0.775
29355	 -0.350	 -0.343	  0.404	  0.309	 -0.279	 -9.764	 -0.002	  0.002	  0.000	 32.300	 99.962	 -1.403
29405	 -0.349	 -0.345	  0.405	  0.306	 -0.255	 -9.765	 -0.004	  0.002	  0.001	 32.300	 99.950	 -0.326
29455	 -0.349	 -0.345	  0.403	  0.315	 -0.275	 -9.772	 -0.002	  0.002	  0.002	 32.300	 99.955	 -0.775
29505	 -0.349	 -0.346	  0.405	  0.306	 -0.281	 -9.747	 -0.003	  0.004	  0.001	 32.300	 99.962	 -1.403
29555	 -0.350	 -0.346	  0.398	  0.298	 -0.270	 -9.793	 -0.003	  0.002	  0.001	 32.300	 99.950	 -0.326
29605	 -0.350	 -0.343	  0.403	  0.309	 -0.278	 -9.734	 -0.003	  0.003	  0.002	 32.300	 99.966	 -1.762
29655	 -0.351	 -0.346	  0.407	  0.303	 -0.260	 -9.739	 -0.003	  0.002	  0.001	 32.300	 99.966	 -1.762
29705	 -0.349	 -0.344	  0.406	  0.313	 -0.279	 -9.767	 -0.004	  0.002	  0.001	 32.300	 99.950	 -0.326
29755	 -0.351	 -0.342	  0.397	  0.319	 -0.273	 -9.745	 -0.003	  0.003	  0.000	 32.300	 99.950	 -0.326
29805	 -0.350	 -0.346	  0.407	  0.301	 -0.278	 -9.781	 -0.003	  0.002	  0.001	 32.300	 99.950	 -0.326
29855	 -0.349	 -0.346	  0.405	  0.299	 -0.254	 -9.772	 -0.003	  0.002	  0.001	 32.300	 99.950	 -0.326
29905	 -0.351	 -0.336	  0.405	  0.302	 -0.288	 -9.764	 -0.004	  0.002	  0.002	 32.300	 99.955	 -0.775
29954	 -0.350	 -0.345	  0.404	  0.328	 -0.253	 -9.711	 -0.002	  0.003	  0.000	 32.300	 99.950	 -0.326
30005	 -0.351	 -0.343	  0.404	  0.307	 -0.257	 -9.779	 -0.003	  0.002	  0.001	 32.300	 99.950	 -0.326
30054	 -0.352	 -0.342	  0.403	  0.302	 -0.252	 -9.775	 -0.002	  0.002	  0.001	 32.300	 99.962	 -1.403
30104	 -0.351	 -0.345	  0.405	  0.313	 -0.262	 -9.745	 -0.004	  0.001	  0.001	 32.300	 99.950	 -0.326
30154	 -0.350	 -0.344	  0.404	  0.310	 -0.265	 -9.773	 -0.003	  0.002	  0.001	 32.300	 99.950	 -0.326
30204	 -0.352	 -0.347	  0.400	  0.320	 -0.258	 -9.789	 -0.002	  0.003	  0.001	 32.300	 99.962	 -1.403
30255	 -0.352	 -0.345	  0.403	  0.300	 -0.251	 -9.731	 -0.003	  0.003	  0.001	 32.300	 99.950	 -0.326
30304	 -0.352	 -0.344	  0.402	  0.301	 -0.256	 -9.794	 -0.003	  0.003	  0.000	 32.300	 99.962	 -1.403
30354	 -0.352	 -0.345	  0.406	  0.304	 -0.253	 -9.745	 -0.003	  0.001	  0.001	 32.300	 99.962	 -1.403
30404	 -0.353	 -0.345	  0.398	  0.324	 -0.257	 -9.759	 -0.003	  0.002	  0.000	 32.300	 99.950	 -0.326
30454	 -0.352	 -0.342	  0.405	  0.312	 -0.271	 -9.759	 -0.003	  0.003	  0.001	 32.300	 99.962	 -1.403
30504	 -0.354	 -0.345	  0.402	  0.310	 -0.246	 -9.736	 -0.003	  0.003	  0.001	 32.300	 99.950	 -0.326
30554	 -0.350	 -0.345	  0.402	  0.295	 -0.270	 -9.759	 -0.003	  0.002	  0.001	 32.300	 99.962	 -1.403
30605	 -0.350	 -0.346	  0.402	  0.289	 -0.267	 -9.747	 -0.003	  0.003	 -0.000	 32.300	 99.966	 -1.762
30654	 -0.351	 -0.345	  0.403	  0.300	 -0.265	 -9.760	 -0.005	  0.003	  0.001	 32.300	 99.962	 -1.403
30705	 -0.350	 -0.344	  0.404	  0.308	 -0.253	 -9.769	 -0.002	  0.002	  0.000	 32.300	 99.962	 -1.403
30754	 -0.349	 -0.338	  0.403	  0.319	 -0.255	 -9.754	 -0.004	  0.002	  0.001	 32.300	 99.962	 -1.403
30805	 -0.350	 -0.342	  0.407	  0.298	 -0.274	 -9.765	 -0.002	  0.003	  0.001	 32.300	 99.955	 -0.775
30855	 -0.351	 -0.345	  0.404	  0.309	 -0.268	 -9.718	 -0.002	  0.002	 -0.000	 32.300	 99.950	 -0.326
30905	 -0.349	 -0.344	  0.406	  0.318	 -0.262	 -9.750	 -0.002	  0.001	 -0.000	 32.300	 99.943	  0.302
30955	 -0.351	 -0.345	  0.401	  0.305	 -0.264	 -9.800	 -0.004	  0.004	  0.001	 32.300	 99.962	 -1.403
31005	 -0.349	 -0.343	  0.403	  0.325	 -0.274	 -9.748	 -0.002	  0.002	  0.001	 32.300	 99.955	 -0.775
31055	 -0.351	 -0.340	  0.405	  0.307	 -0.248	 -9.788	 -0.004	  0.002	  0.001	 32.300	 99.939	  0.661
31105	 -0.349	 -0.339	  0.403	  0.320	 -0.249	 -9.767	 -0.002	  0.003	  0.002	 32.300	 99.962	 -1.403
31155	 -0.349	 -0.342	  0.405	  0.315	 -0.275	 -9.775	 -0.003	  0.001	  0.001	 32.300	 99.950	 -0.326
31205	 -0.349	 -0.345	  0.402	  0.306	 -0.256	 -9.773	 -0.002	  0.002	 -0.000	 32.300	 99.950	 -0.326
31255	 -0.348	 -0.342	  0.402	  0.293	 -0.247	 -9.746	 -0.003	  0.003	  0.002	 32.300	 99.962	 -1.403
31305	 -0.350	 -0.344	  0.404	  0.305	 -0.277	 -9.705	 -0.002	  0.003	  0.001	 32.300	 99.950	 -0.326
31355	 -0.350	 -0.338	  0.405	  0.306	 -0.258	 -9.770	 -0.003	  0.003	 -0.000	 32.300	 99.955	 -0.775
31405	 -0.349	 -0.347	  0.405	  0.306	 -0.271	 -9.766	 -0.004	  0.004	  0.001	 32.300	 99.950	 -0.326
31455	 -0.353	 -0.344	  0.404	  0.311	 -0.291	 -9.746	 -0.003	  0.001	  0.001	 32.300	 99.962	 -1.403
31505	 -0.350	 -0.345	  0.404	  0.326	 -0.260	 -9.751	 -0.002	  0.002	  0.001	 32.300	 99.962	 -1.403
31555	 -0.349	 -0.343	  0.406	  0.314	 -0.263	 -9.771	 -0.003	  0.003	  0.000	 32.300	 99.962	 -1.403
31605	 -0.350	 -0.338	  0.402	  0.294	 -0.263	 -9.810	 -0.003	  0.001	  0.000	 32.300	 99.962	 -1.403
31655	 -0.349	 -0.343	  0.401	  0.312	 -0.267	 -9.782	 -0.004	  0.003	  0.001	 32.300	 99.955	 -0.775
31705	 -0.350	 -0.344	  0.405	  0.308	 -0.266	 -9.761	 -0.003	  0.003	  0.000	 32.300	 99.962	 -1.403
31755	 -0.349	 -0.344	  0.408	  0.324	 -0.279	 -9.802	 -0.003	  0.003	  0.000	 32.300	 99.966	 -1.762
31805	 -0.352	 -0.344	  0.400	  0.309	 -0.271	 -9.755	 -0.003	  0.003	  0.000	 32.300	 99.955	 -0.775
31855	 -0.350	 -0.346	  0.405	  0.304	 -0.246	 -9.783	 -0.001	  0.001	  0.001	 32.300	 99.950	 -0.326
31905	 -0.353	 -0.343	  0.405	  0.300	 -0.256	 -9.729	 -0.003	  0.003	  0.001	 32.300	 99.950	 -0.326
31955	 -0.349	 -0.342	  0.406	  0.295	 -0.274	 -9.745	 -0.002	  0.002	 -0.001	 32.300	 99.950	 -0.326
32005	 -0.349	 -0.341	  0.401	  0.318	 -0.290	 -9.775	 -0.004	  0.001	  0.001	 32.300	 99.950	 -0.326
32055	 -0.348	 -0.342	  0.407	  0.314	 -0.253	 -9.792	 -0.002	  0.002	  0.001	 32.300	 99.962	 -1.403
32105	 -0.349	 -0.337	  0.404	  0.320	 -0.256	 -9.731	 -0.003	  0.003	  0.001	 32.300	 99.955	 -0.775
32155	 -0.351	 -0.344	  0.405	  0.321	 -0.275	 -9.795	 -0.003	  0.002	  0.000	 32.300	 99.950	 -0.326
32205	 -0.351	 -0.346	  0.403	  0.304	 -0.267	 -9.762	 -0.004	  0.002	  0.001	 32.300	 99.950	 -0.326
32255	 -0.352	 -0.346	  0.400	  0.304	 -0.245	 -9.731	 -0.003	  0.003	  0.001	 32.300	 99.966	 -1.762
32305	 -0.350	 -0.345	  0.404	  0.290	 -0.270	 -9.817	 -0.003	  0.002	  0.000	 32.300	 99.939	  0.661
32355	 -0.353	 -0.345	  0.404	  0.304	 -0.263	 -9.760	 -0.002	  0.002	  0.000	 32.300	 99.962	 -1.403
32405	 -0.351	 -0.345	  0.405	  0.307	 -0.277	 -9.788	 -0.003	  0.003	  0.001	 32.300	 99.950	 -0.326
32455	 -0.353	 -0.344	  0.404	  0.316	 -0.270	 -9.743	 -0.004	  0.003	  0.001	 32.300	 99.950	 -0.326
32505	 -0.348	 -0.346	  0.405	  0.307	 -0.274	 -9.754	 -0.003	  0.002	  0.002	 32.300	 99.966	 -1.762
32555	 -0.350	 -0.343	  0.402	  0.318	 -0.260	 -9.759	 -0.003	  0.002	  0.001	 32.300	 99.950	 -0.326
32605	 -0.352	 -0.343	  0.405	  0.331	 -0.300	 -9.792	 -0.003	  0.003	  0.002	 32.300	 99.950	 -0.326
32655	 -0.351	 -0.344	  0.405	  0.311	 -0.253	 -9.735	 -0.003	  0.002	  0.000	 32.300	 99.950	 -0.326
32705	 -0.350	 -0.345	  0.406	  0.318	 -0.271	 -9.750	 -0.003	  0.001	  0.000	 32.300	 99.943	  0.302
32755	 -0.350	 -0.347	  0.406	  0.310	 -0.263	 -9.772	 -0.004	  0.002	  0.001	 32.300	 99.955	 -0.775
32805	 -0.350	 -0.335	  0.404	  0.304	 -0.274	 -9.717	 -0.003	  0.002	 -0.000	 32.300	 99.950	 -0.326
32855	 -0.348	 -0.344	  0.404	  0.293	 -0.248	 -9.766	 -0.004	  0.003	  0.002	 32.300	 99.950	 -0.326
32905	 -0.353	 -0.345	  0.395	  0.309	 -0.260	 -9.741	 -0.003	  0.002	  0.001	 32.300	 99.966	 -1.762
32955	 -0.350	 -0.343	  0.406	  0.310	 -0.257	 -9.760	 -0.003	  0.003	  0.001	 32.300	 99.962	 -1.403
33005	 -0.351	 -0.343	  0.403	  0.315	 -0.260	 -9.745	 -0.002	  0.002	  0.001	 32.300	 99.943	  0.302
33055	 -0.351	 -0.345	  0.405	  0.316	 -0.247	 -9.764	 -0.004	  0.003	  0.000	 32.300	 99.939	  0.661
33105	 -0.351	 -0.345	  0.404	  0.323	 -0.285	 -9.762	 -0.002	  0.002	  0.000	 32.300	 99.962	 -1.403
33155	 -0.350	 -0.340	  0.403	  0.301	 -0.245	 -9.768	 -0.003	  0.003	  0.001	 32.300	 99.955	 -0.775
33205	 -0.350	 -0.345	  0.405	  0.294	 -0.259	 -9.776	 -0.002	  0.002	  0.001	 32.300	 99.950	 -0.326
33255	 -0.350	 -0.335	  0.404	  0.318	 -0.240	 -9.766	 -0.003	  0.002	  0.001	 32.300	 99.950	 -0.326
33305	 -0.350	 -0.338	  0.404	  0.321	 -0.254	 -9.715	 -0.003	  0.003	  0.000	 32.300	 99.950	 -0.326
33355	 -0.350	 -0.347	  0.402	  0.310	 -0.249	 -9.776	 -0.004	  0.002	  0.001	 32.300	 99.962	 -1.403
33405	 -0.349	 -0.343	  0.409	  0.305	 -0.261	 -9.765	 -0.002	  0.002	  0.002	 32.300	 99.955	 -0.775
33455	 -0.352	 -0.345	  0.400	  0.315	 -0.277	 -9.797	 -0.003	  0.004	  0.002	 32.300	 99.950	 -0.326
33505	 -0.351	 -0.344	  0.398	  0.327	 -0.261	 -9.788	 -0.003	  0.002	  0.000	 32.300	 99.962	 -1.403
33555	 -0.351	 -0.345	  0.405	  0.299	 -0.259	 -9.737	 -0.002	  0.002	  0.002	 32.300	 99.950	 -0.326
33605	 -0.351	 -0.336	  0.405	  0.281	 -0.256	 -9.744	 -0.003	  0.001	  0.001	 32.300	 99.962	 -1.403
33655	 -0.351	 -0.346	  0.409	  0.311	 -0.259	 -9.792	 -0.003	  0.003	  0.001	 32.300	 99.962	 -1.403
33705	 -0.351	 -0.345	  0.402	  0.304	 -0.246	 -9.788	 -0.003	  0.003	  0.001	 32.300	 99.950	 -0.326
33755	 -0.349	 -0.346	  0.403	  0.308	 -0.278	 -9.750	 -0.004	  0.002	  0.001	 32.300	 99.950	 -0.326
33805	 -0.351	 -0.345	  0.404	  0.333	 -0.261	 -9.788	 -0.004	  0.003	  0.001	 32.300	 99.962	 -1.403
33855	 -0.348	 -0.345	  0.403	  0.311	 -0.267	 -9.782	 -0.003	  0.002	  0.001	 32.300	 99.955	 -0.775
33905	 -0.348	 -0.347	  0.404	  0.317	 -0.274	 -9.722	 -0.003	  0.002	  0.001	 32.300	 99.950	 -0.326
33955	 -0.351	 -0.345	  0.404	  0.332	 -0.258	 -9.755	 -0.003	  0.002	  0.000	 32.300	 99.962	 -1.403
34005	 -0.351	 -0.345	  0.406	  0.300	 -0.272	 -9.782	 -0.002	  0.002	  0.000	 32.300	 99.950	 -0.326
34055	 -0.350	 -0.338	  0.405	  0.301	 -0.272	 -9.771	 -0.002	  0.002	  0.001	 32.300	 99.950	 -0.326
34105	 -0.350	 -0.336	  0.404	  0.323	 -0.264	 -9.762	 -0.004	  0.002	  0.001	 32.300	 99.962	 -1.403
34155	 -0.350	 -0.336	  0.405	  0.293	 -0.282	 -9.743	 -0.001	  0.003	 -0.000	 32.300	 99.955	 -0.775
34204	 -0.351	 -0.346	  0.407	  0.303	 -0.260	 -9.782	 -0.003	  0.001	 -0.000	 32.300	 99.950	 -0.326
34254	 -0.349	 -0.347	  0.400	  0.290	 -0.275	 -9.771	 -0.003	  0.002	  0.000	 32.300	 99.939	  0.661
34304	 -0.352	 -0.346	  0.407	  0.312	 -0.256	 -9.788	 -0.004	  0.001	  0.002	 32.200	 99.950	 -0.326
34354	 -0.351	 -0.345	  0.404	  0.327	 -0.253	 -9.771	 -0.002	  0.002	  0.002	 32.300	 99.966	 -1.762
34404	 -0.349	 -0.346	  0.406	  0.314	 -0.247	 -9.765	 -0.004	  0.002	  0.001	 32.300	 99.955	 -0.775
34454	 -0.349	 -0.335	  0.406	  0.313	 -0.259	 -9.742	 -0.002	  0.002	  0.001	 32.300	 99.950	 -0.326
34504	 -0.349	 -0.341	  0.404	  0.306	 -0.275	 -9.726	 -0.003	  0.002	  0.001	 32.300	 99.955	 -0.775
34554	 -0.350	 -0.348	  0.405	  0.330	 -0.268	 -9.741	 -0.004	  0.003	  0.001	 32.300	 99.950	 -0.326
34604	 -0.350	 -0.337	  0.404	  0.331	 -0.278	 -9.777	 -0.002	  0.002	  0.000	 32.300	 99.955	 -0.775
34654	 -0.350	 -0.345	  0.405	  0.300	 -0.263	 -9.771	 -0.002	  0.003	  0.000	 32.300	 99.939	  0.661
34704	 -0.351	 -0.344	  0.404	  0.299	 -0.276	 -9.783	 -0.002	  0.002	  0.001	 32.300	 99.950	 -0.326
34754	 -0.350	 -0.345	  0.405	  0.312	 -0.272	 -9.782	 -0.003	  0.003	  0.000	 32.300	 99.950	 -0.326
34804	 -0.352	 -0.346	  0.403	  0.289	 -0.252	 -9.744	 -0.003	  0.002	  0.000	 32.300	 99.962	 -1.403
34854	 -0.351	 -0.343	  0.405	  0.296	 -0.259	 -9.750	 -0.004	  0.003	 -0.000	 32.300	 99.943	  0.302
34904	 -0.350	 -0.342	  0.404	  0.302	 -0.268	 -9.780	 -0.003	  0.003	  0.000	 32.300	 99.950	 -0.326
34954	 -0.350	 -0.345	  0.401	  0.306	 -0.274	 -9.763	 -0.003	  0.004	 -0.000	 32.300	 99.955	 -0.775
35004	 -0.350	 -0.348	  0.403	  0.308	 -0.273	 -9.784	 -0.002	  0.004	  0.001	 32.300	 99.962	 -1.403
35054	 -0.350	 -0.345	  0.402	  0.316	 -0.255	 -9.742	 -0.002	  0.003	  0.002	 32.300	 99.943	  0.302
35104	 -0.349	 -0.346	  0.406	  0.288	 -0.272	 -9.765	 -0.002	  0.002	  0.001	 32.300	 99.950	 -0.326
35154	 -0.349	 -0.343	  0.401	  0.301	 -0.272	 -9.744	 -0.004	  0.002	  0.001	 32.300	 99.939	  0.661
35204	 -0.349	 -0.343	  0.406	  0.299	 -0.289	 -9.735	 -0.002	  0.001	  0.001	 32.300	 99.950	 -0.326
35254	 -0.349	 -0.346	  0.404	  0.294	 -0.245	 -9.750	 -0.004	  0.004	  0.001	 32.300	 99.955	 -0.775
35304	 -0.350	 -0.346	  0.401	  0.314	 -0.267	 -9.747	 -0.003	  0.002	  0.000	 32.300	 99.950	 -0.326
35354	 -0.350	 -0.346	  0.401	  0.305	 -0.248	 -9.740	 -0.003	  0.003	  0.001	 32.300	 99.950	 -0.326
35404	 -0.350	 -0.348	  0.405	  0.303	 -0.277	 -9.751	 -0.002	  0.003	 -0.000	 32.300	 99.955	 -0.775
35455	 -0.349	 -0.342	  0.403	  0.287	 -0.266	 -9.745	 -0.003	  0.002	  0.000	 32.300	 99.950	 -0.326
35505	 -0.351	 -0.344	  0.402	  0.297	 -0.284	 -9.732	 -0.003	  0.002	  0.001	 32.300	 99.955	 -0.775
35554	 -0.347	 -0.342	  0.408	  0.309	 -0.275	 -9.748	 -0.002	  0.003	  0.001	 32.300	 99.943	  0.302
35604	 -0.351	 -0.340	  0.406	  0.302	 -0.260	 -9.756	 -0.002	  0.001	  0.000	 32.300	 99.950	 -0.326
35654	 -0.351	 -0.341	  0.406	  0.313	 -0.270	 -9.777	 -0.003	  0.003	  0.001	 32.300	 99.950	 -0.326
35704	 -0.350	 -0.341	  0.402	  0.321	 -0.293	 -9.741	 -0.003	  0.001	  0.000	 32.200	 99.950	 -0.326
35754	 -0.350	 -0.345	  0.397	  0.300	 -0.253	 -9.737	 -0.003	  0.002	  0.000	 32.300	 99.966	 -1.762
35805	 -0.352	 -0.347	  0.402	  0.324	 -0.269	 -9.764	 -0.002	  0.002	  0.000	 32.300	 99.950	 -0.326
35854	 -0.352	 -0.340	  0.404	  0.312	 -0.267	 -9.798	 -0.002	  0.004	  0.001	 32.300	 99.950	 -0.326
35904	 -0.350	 -0.344	  0.406	  0.319	 -0.254	 -9.764	 -0.005	  0.002	  0.001	 32.300	 99.939	  0.661
35954	 -0.350	 -0.345	  0.400	  0.342	 -0.252	 -9.753	 -0.004	  0.003	  0.000	 32.300	 99.950	 -0.326
36004	 -0.351	 -0.341	  0.406	  0.307	 -0.269	 -9.739	 -0.003	  0.003	  0.000	 32.300	 99.955	 -0.775
