Time	 MagX	 MagY	 MagZ	 AccelX	 AccelY	 AccelZ	 Yaw	 Pitch	 Roll	 Temperature	 Pressure	 Altitude
23245	 -0.322	  0.119	  0.382	  0.263	 -0.022	 -9.775	 -0.003	  0.002	  0.001	 32.500	 100.892	 -99999.000
23295	 -0.322	  0.118	  0.386	  0.259	  0.019	 -9.789	 -0.003	  0.004	  0.001	 32.500	 100.892	 -99999.000
23345	 -0.324	  0.120	  0.386	  0.269	  0.015	 -9.805	 -0.003	  0.003	  0.001	 32.500	 100.892	 -99999.000
23395	 -0.324	  0.118	  0.384	  0.288	  0.014	 -9.777	 -0.005	  0.001	  0.000	 32.500	 100.892	 -99999.000
23445	 -0.324	  0.120	  0.387	  0.272	  0.007	 -9.748	 -0.004	  0.002	  0.001	 32.500	 100.892	 -99999.000
23495	 -0.322	  0.124	  0.387	  0.254	  0.031	 -9.791	 -0.003	  0.002	  0.001	 32.500	 100.896	 -99999.000
23545	 -0.322	  0.125	  0.387	  0.247	  0.003	 -9.805	 -0.004	  0.003	  0.000	 32.500	 100.892	 -99999.000
23595	 -0.322	  0.120	  0.387	  0.263	  0.002	 -9.808	 -0.003	  0.003	  0.000	 32.500	 100.892	 -99999.000
23645	 -0.322	  0.119	  0.377	  0.286	  0.019	 -9.785	 -0.003	  0.001	 -0.000	 32.500	 100.885	 -99999.000
23695	 -0.321	  0.121	  0.386	  0.274	 -0.012	 -9.768	 -0.004	  0.003	 -0.000	 32.500	 100.892	 -99999.000
23745	 -0.321	  0.119	  0.390	  0.276	 -0.022	 -9.783	 -0.004	  0.003	  0.000	 32.500	 100.885	 -99999.000
23795	 -0.320	  0.123	  0.391	  0.260	  0.019	 -9.775	 -0.003	  0.002	  0.000	 32.500	 100.896	 -99999.000
23845	 -0.322	  0.126	  0.387	  0.283	 -0.013	 -9.827	 -0.004	  0.003	  0.000	 32.500	 100.892	 -99999.000
23895	 -0.321	  0.120	  0.383	  0.259	 -0.005	 -9.821	 -0.004	  0.003	  0.000	 32.500	 100.881	 -99999.000
23945	 -0.321	  0.120	  0.391	  0.290	  0.001	 -9.773	 -0.004	  0.002	  0.001	 32.500	 100.881	 -99999.000
23995	 -0.320	  0.123	  0.387	  0.258	  0.005	 -9.820	 -0.003	  0.002	  0.000	 32.500	 100.896	 -99999.000
24045	 -0.321	  0.120	  0.391	  0.261	 -0.015	 -9.775	 -0.004	  0.003	  0.001	 32.500	 100.892	 -99999.000
24095	 -0.324	  0.119	  0.384	  0.304	  0.002	 -9.825	 -0.003	  0.002	  0.001	 32.500	 100.892	 -99999.000
24145	 -0.322	  0.118	  0.386	  0.263	 -0.025	 -9.801	 -0.002	  0.002	  0.000	 32.500	 100.885	 -99999.000
24195	 -0.324	  0.121	  0.386	  0.260	 -0.019	 -9.794	 -0.003	  0.002	  0.002	 32.500	 100.892	 -99999.000
24245	 -0.322	  0.119	  0.389	  0.260	 -0.011	 -9.780	 -0.003	  0.002	  0.001	 32.500	 100.885	 -99999.000
24295	 -0.322	  0.121	  0.391	  0.248	  0.028	 -9.803	 -0.003	  0.001	  0.001	 32.500	 100.881	 -99999.000
24345	 -0.322	  0.118	  0.382	  0.283	 -0.001	 -9.756	 -0.002	  0.000	  0.000	 32.500	 100.881	 -99999.000
24395	 -0.322	  0.119	  0.391	  0.286	 -0.006	 -9.773	 -0.002	  0.002	 -0.000	 32.500	 100.881	 -99999.000
24445	 -0.321	  0.129	  0.386	  0.271	 -0.014	 -9.780	 -0.003	  0.002	 -0.000	 32.500	 100.892	 -99999.000
24495	 -0.322	  0.120	  0.385	  0.283	  0.008	 -9.793	 -0.003	  0.003	 -0.001	 32.500	 100.892	 -99999.000
24545	 -0.324	  0.124	  0.385	  0.264	 -0.016	 -9.778	 -0.004	  0.002	  0.001	 32.500	 100.896	 -99999.000
24595	 -0.321	  0.121	  0.387	  0.249	  0.002	 -9.760	 -0.004	  0.002	  0.001	 32.500	 100.896	 -99999.000
24645	 -0.320	  0.122	  0.389	  0.292	  0.015	 -9.778	 -0.003	  0.001	  0.001	 32.500	 100.881	 -99999.000
24696	 -0.322	  0.120	  0.385	  0.248	 -0.017	 -9.814	 -0.004	  0.001	  0.002	 32.500	 100.896	 -99999.000
24745	 -0.321	  0.118	  0.386	  0.286	  0.022	 -9.804	 -0.004	  0.003	  0.001	 32.500	 100.881	 -99999.000
24795	 -0.320	  0.124	  0.386	  0.281	 -0.015	 -9.796	 -0.004	  0.002	  0.001	 32.500	 100.881	 -99999.000
24844	 -0.323	  0.117	  0.384	  0.257	  0.005	 -9.816	 -0.003	  0.002	  0.001	 32.500	 100.881	 -99999.000
24894	 -0.322	  0.121	  0.385	  0.264	 -0.005	 -9.793	 -0.003	  0.001	  0.001	 32.500	 100.892	 -99999.000
24944	 -0.322	  0.119	  0.384	  0.272	  0.005	 -9.785	 -0.004	  0.002	  0.002	 32.500	 100.881	 -99999.000
24994	 -0.322	  0.118	  0.387	  0.283	  0.000	 -9.808	 -0.004	  0.001	  0.001	 32.500	 100.881	 -99999.000
25046	 -0.322	  0.118	  0.389	  0.277	 -0.013	 -9.810	 -0.002	  0.002	 -0.001	 32.500	 100.896	 -99999.000
25095	 -0.324	  0.116	  0.384	  0.275	 -0.011	 -9.824	 -0.003	  0.002	  0.001	 32.500	 100.908	 -99999.000
25145	 -0.321	  0.120	  0.383	  0.256	 -0.018	 -9.808	 -0.004	  0.004	  0.001	 32.500	 100.892	 -99999.000
25195	 -0.322	  0.119	  0.386	  0.282	  0.002	 -9.790	 -0.003	  0.003	  0.001	 32.500	 100.881	 -99999.000
25245	 -0.324	  0.118	  0.381	  0.276	  0.013	 -9.800	 -0.003	  0.002	  0.001	 32.500	 100.885	 -99999.000
25295	 -0.322	  0.122	  0.382	  0.274	 -0.010	 -9.809	 -0.003	  0.001	  0.000	 32.500	 100.881	 -99999.000
25345	 -0.322	  0.121	  0.385	  0.276	 -0.001	 -9.794	 -0.004	  0.003	 -0.000	 32.500	 100.881	 -99999.000
25395	 -0.322	  0.126	  0.386	  0.279	 -0.016	 -9.777	 -0.003	  0.002	 -0.000	 32.500	 100.896	 -99999.000
25445	 -0.324	  0.118	  0.384	  0.292	 -0.000	 -9.801	 -0.003	  0.002	  0.002	 32.500	 100.885	 -99999.000
25495	 -0.322	  0.125	  0.386	  0.265	  0.028	 -9.764	 -0.004	  0.002	  0.000	 32.500	 100.892	 -99999.000
25545	 -0.321	  0.115	  0.388	  0.253	 -0.013	 -9.795	 -0.002	  0.003	  0.001	 32.500	 100.881	 -99999.000
25595	 -0.322	  0.121	  0.386	  0.268	  0.003	 -9.785	 -0.004	  0.003	  0.001	 32.500	 100.892	 -99999.000
25645	 -0.324	  0.121	  0.389	  0.284	  0.019	 -9.777	 -0.003	  0.002	  0.001	 32.500	 100.881	 -99999.000
25695	 -0.322	  0.122	  0.387	  0.272	 -0.010	 -9.770	 -0.003	  0.002	  0.002	 32.500	 100.885	 -99999.000
25745	 -0.322	  0.121	  0.386	  0.275	  0.002	 -9.784	 -0.002	  0.002	  0.002	 32.500	 100.892	 -99999.000
25795	 -0.322	  0.117	  0.387	  0.289	 -0.008	 -9.806	 -0.003	  0.001	  0.002	 32.500	 100.881	 -99999.000
25845	 -0.322	  0.117	  0.384	  0.263	 -0.016	 -9.785	 -0.005	  0.002	  0.001	 32.500	 100.892	 -99999.000
25895	 -0.322	  0.119	  0.387	  0.276	  0.009	 -9.785	 -0.003	  0.002	  0.001	 32.500	 100.881	 -99999.000
25945	 -0.323	  0.117	  0.384	  0.285	  0.012	 -9.754	 -0.002	  0.002	  0.001	 32.500	 100.881	 -99999.000
25995	 -0.322	  0.119	  0.386	  0.256	  0.007	 -9.758	 -0.004	  0.003	  0.001	 32.500	 100.881	 -99999.000
26045	 -0.322	  0.120	  0.386	  0.260	  0.005	 -9.795	 -0.004	  0.002	  0.001	 32.500	 100.892	 -99999.000
26095	 -0.324	  0.118	  0.386	  0.263	 -0.009	 -9.819	 -0.003	  0.002	  0.001	 32.500	 100.896	 -99999.000
26145	 -0.321	  0.120	  0.385	  0.283	 -0.001	 -9.778	 -0.003	  0.002	  0.001	 32.500	 100.881	 -99999.000
26195	 -0.321	  0.119	  0.386	  0.269	 -0.015	 -9.781	 -0.003	  0.003	  0.001	 32.500	 100.881	 -99999.000
26245	 -0.321	  0.120	  0.386	  0.278	  0.016	 -9.792	 -0.004	  0.003	  0.001	 32.500	 100.903	 -99999.000
26295	 -0.322	  0.118	  0.384	  0.295	 -0.021	 -9.804	 -0.003	  0.002	 -0.000	 32.500	 100.892	 -99999.000
26345	 -0.320	  0.123	  0.389	  0.236	 -0.004	 -9.780	 -0.002	  0.002	  0.001	 32.500	 100.881	 -99999.000
26395	 -0.322	  0.122	  0.387	  0.286	 -0.026	 -9.786	 -0.003	  0.001	  0.000	 32.500	 100.885	 -99999.000
26445	 -0.322	  0.123	  0.386	  0.274	 -0.020	 -9.776	 -0.003	  0.001	  0.001	 32.500	 100.881	 -99999.000
26495	 -0.324	  0.119	  0.387	  0.250	  0.011	 -9.801	 -0.005	  0.002	  0.001	 32.500	 100.881	 -99999.000
26545	 -0.322	  0.121	  0.387	  0.260	  0.020	 -9.793	 -0.003	  0.002	  0.001	 32.500	 100.885	 -99999.000
26595	 -0.324	  0.119	  0.385	  0.261	  0.005	 -9.775	 -0.004	  0.004	  0.001	 32.500	 100.892	 -99999.000
26645	 -0.322	  0.116	  0.381	  0.280	  0.021	 -9.792	 -0.003	  0.003	  0.001	 32.500	 100.881	 -99999.000
26695	 -0.322	  0.125	  0.387	  0.265	 -0.010	 -9.780	 -0.003	  0.001	  0.001	 32.500	 100.892	 -99999.000
26745	 -0.321	  0.121	  0.386	  0.287	  0.022	 -9.799	 -0.002	  0.004	  0.002	 32.500	 100.881	 -99999.000
26795	 -0.320	  0.129	  0.386	  0.268	  0.030	 -9.788	 -0.005	  0.003	  0.001	 32.500	 100.892	 -99999.000
26845	 -0.323	  0.117	  0.390	  0.267	 -0.019	 -9.813	 -0.003	  0.002	  0.001	 32.500	 100.892	 -99999.000
26895	 -0.322	  0.120	  0.385	  0.264	 -0.006	 -9.795	 -0.003	  0.003	  0.002	 32.500	 100.896	 -99999.000
26945	 -0.320	  0.120	  0.388	  0.251	  0.020	 -9.790	 -0.002	  0.002	  0.000	 32.500	 100.892	 -99999.000
26995	 -0.324	  0.119	  0.386	  0.289	  0.019	 -9.804	 -0.003	  0.001	  0.002	 32.500	 100.896	 -99999.000
27045	 -0.322	  0.121	  0.389	  0.252	  0.016	 -9.788	 -0.004	  0.002	  0.000	 32.500	 100.892	 -99999.000
27095	 -0.324	  0.119	  0.386	  0.269	  0.011	 -9.789	 -0.005	  0.003	 -0.000	 32.500	 100.896	 -99999.000
27145	 -0.320	  0.120	  0.386	  0.264	  0.011	 -9.795	 -0.004	  0.004	  0.001	 32.500	 100.892	 -99999.000
27195	 -0.322	  0.119	  0.387	  0.272	  0.003	 -9.751	 -0.004	  0.002	  0.001	 32.500	 100.896	 -99999.000
27245	 -0.322	  0.119	  0.385	  0.291	  0.015	 -9.782	 -0.003	  0.003	  0.000	 32.500	 100.892	 -99999.000
27295	 -0.324	  0.120	  0.383	  0.251	 -0.001	 -9.799	 -0.003	  0.002	 -0.000	 32.500	 100.892	 -99999.000
27345	 -0.322	  0.120	  0.383	  0.274	 -0.006	 -9.784	 -0.002	  0.002	 -0.000	 32.500	 100.892	 -99999.000
27395	 -0.325	  0.124	  0.388	  0.290	 -0.003	 -9.785	 -0.004	  0.002	  0.001	 32.500	 100.881	 -99999.000
27445	 -0.322	  0.118	  0.386	  0.257	 -0.007	 -9.792	 -0.004	  0.002	  0.001	 32.500	 100.892	 -99999.000
27495	 -0.323	  0.124	  0.385	  0.290	 -0.006	 -9.777	 -0.004	  0.002	  0.001	 32.500	 100.881	 -99999.000
27545	 -0.322	  0.116	  0.384	  0.272	  0.007	 -9.802	 -0.003	  0.002	  0.001	 32.500	 100.892	 -99999.000
27595	 -0.321	  0.121	  0.387	  0.245	 -0.011	 -9.805	 -0.004	  0.003	  0.001	 32.500	 100.881	 -99999.000
27645	 -0.322	  0.119	  0.380	  0.259	  0.003	 -9.766	 -0.003	  0.002	  0.001	 32.500	 100.892	 -99999.000
27695	 -0.322	  0.118	  0.386	  0.271	 -0.012	 -9.788	 -0.004	  0.003	 -0.000	 32.500	 100.885	 -99999.000
27745	 -0.324	  0.120	  0.387	  0.265	  0.012	 -9.792	 -0.004	  0.003	  0.001	 32.500	 100.896	 -99999.000
27795	 -0.322	  0.122	  0.390	  0.260	  0.005	 -9.763	 -0.003	  0.003	  0.001	 32.500	 100.896	 -99999.000
27845	 -0.324	  0.116	  0.382	  0.282	 -0.001	 -9.802	 -0.002	  0.002	  0.001	 32.500	 100.892	 -99999.000
27895	 -0.324	  0.116	  0.392	  0.256	 -0.033	 -9.761	 -0.005	  0.003	  0.001	 32.500	 100.892	 -99999.000
27945	 -0.322	  0.126	  0.387	  0.281	  0.003	 -9.768	 -0.003	  0.002	  0.001	 32.500	 100.896	 -99999.000
27995	 -0.322	  0.125	  0.389	  0.243	 -0.006	 -9.765	 -0.005	  0.002	  0.001	 32.500	 100.885	 -99999.000
28045	 -0.324	  0.117	  0.384	  0.280	  0.007	 -9.790	 -0.004	  0.003	  0.001	 32.500	 100.892	 -99999.000
28095	 -0.322	  0.117	  0.377	  0.272	  0.015	 -9.779	 -0.004	  0.001	  0.001	 32.500	 100.885	 -99999.000
28145	 -0.322	  0.117	  0.386	  0.266	  0.022	 -9.787	 -0.003	  0.003	  0.001	 32.500	 100.892	 -99999.000
28195	 -0.322	  0.123	  0.390	  0.269	 -0.001	 -9.782	 -0.003	  0.003	  0.000	 32.500	 100.885	 -99999.000
28245	 -0.324	  0.119	  0.387	  0.273	 -0.006	 -9.794	 -0.003	  0.003	 -0.000	 32.500	 100.885	 -99999.000
28295	 -0.322	  0.120	  0.389	  0.282	  0.001	 -9.788	 -0.004	  0.003	  0.000	 32.500	 100.892	 -99999.000
28345	 -0.322	  0.118	  0.390	  0.285	  0.022	 -9.730	 -0.004	  0.004	  0.001	 32.500	 100.892	 -99999.000
28395	 -0.321	  0.121	  0.383	  0.255	 -0.005	 -9.818	 -0.004	  0.002	  0.000	 32.500	 100.881	 -99999.000
28445	 -0.322	  0.118	  0.384	  0.272	  0.020	 -9.789	 -0.003	  0.002	  0.001	 32.500	 100.896	 -99999.000
28495	 -0.324	  0.119	  0.386	  0.263	 -0.002	 -9.803	 -0.005	  0.004	  0.002	 32.500	 100.885	 -99999.000
28545	 -0.324	  0.121	  0.387	  0.253	  0.006	 -9.780	 -0.003	  0.002	  0.000	 32.500	 100.892	 -99999.000
28595	 -0.322	  0.119	  0.384	  0.250	  0.004	 -9.775	 -0.004	  0.002	  0.001	 32.500	 100.892	 -99999.000
28645	 -0.322	  0.122	  0.384	  0.257	  0.009	 -9.763	 -0.003	  0.002	  0.001	 32.500	 100.881	 -99999.000
28695	 -0.324	  0.118	  0.386	  0.276	  0.010	 -9.768	 -0.004	  0.002	  0.001	 32.500	 100.885	 -99999.000
28745	 -0.324	  0.119	  0.387	  0.276	 -0.003	 -9.761	 -0.003	  0.002	  0.001	 32.500	 100.881	 -99999.000
28794	 -0.323	  0.116	  0.387	  0.261	  0.007	 -9.807	 -0.003	  0.002	  0.001	 32.500	 100.881	 -99999.000
28844	 -0.322	  0.120	  0.385	  0.249	  0.001	 -9.781	 -0.004	  0.001	  0.001	 32.500	 100.881	 -99999.000
28894	 -0.324	  0.119	  0.389	  0.271	 -0.009	 -9.776	 -0.003	  0.003	  0.000	 32.500	 100.881	 -99999.000
28944	 -0.322	  0.119	  0.387	  0.265	 -0.006	 -9.798	 -0.003	  0.003	  0.000	 32.500	 100.892	 -99999.000
28994	 -0.322	  0.121	  0.389	  0.253	  0.024	 -9.760	 -0.003	  0.003	  0.000	 32.500	 100.892	 -99999.000
29044	 -0.326	  0.117	  0.387	  0.279	  0.013	 -9.812	 -0.004	  0.003	  0.001	 32.500	 100.892	 -99999.000
29094	 -0.321	  0.119	  0.386	  0.277	  0.001	 -9.777	 -0.004	  0.003	  0.001	 32.500	 100.881	 -99999.000
29144	 -0.322	  0.121	  0.385	  0.274	 -0.012	 -9.800	 -0.002	  0.002	  0.000	 32.500	 100.881	 -99999.000
29194	 -0.322	  0.121	  0.386	  0.267	  0.022	 -9.788	 -0.004	  0.003	  0.001	 32.500	 100.885	 -99999.000
33269	 -0.323	  0.117	  0.382	  0.317	  0.010	 -9.796	 -0.004	  0.003	  0.000	 32.500	 100.885	  0.320
33319	 -0.322	  0.127	  0.386	  0.289	  0.012	 -9.779	 -0.003	  0.003	  0.001	 32.500	 100.885	  0.320
33369	 -0.322	  0.119	  0.386	  0.258	 -0.008	 -9.779	 -0.003	  0.004	 -0.000	 32.500	 100.870	  1.652
33419	 -0.322	  0.121	  0.386	  0.277	  0.011	 -9.806	 -0.002	  0.003	  0.000	 32.500	 100.881	  0.676
33469	 -0.320	  0.119	  0.386	  0.244	  0.004	 -9.815	 -0.003	  0.001	  0.001	 32.500	 100.885	  0.320
33519	 -0.322	  0.120	  0.384	  0.273	 -0.008	 -9.788	 -0.003	  0.001	  0.001	 32.500	 100.885	  0.320
33569	 -0.322	  0.118	  0.386	  0.250	  0.000	 -9.798	 -0.003	  0.000	  0.001	 32.500	 100.885	  0.320
33619	 -0.324	  0.119	  0.385	  0.257	  0.013	 -9.785	 -0.004	  0.001	 -0.000	 32.500	 100.881	  0.676
33669	 -0.321	  0.120	  0.387	  0.275	  0.024	 -9.819	 -0.003	  0.002	  0.000	 32.500	 100.885	  0.320
33719	 -0.322	  0.119	  0.390	  0.266	 -0.017	 -9.823	 -0.004	  0.003	  0.002	 32.500	 100.885	  0.320
33769	 -0.323	  0.129	  0.384	  0.259	  0.010	 -9.769	 -0.004	  0.001	  0.001	 32.500	 100.896	 -0.657
33819	 -0.322	  0.124	  0.385	  0.277	 -0.003	 -9.768	 -0.004	  0.004	  0.000	 32.500	 100.874	  1.297
33869	 -0.322	  0.126	  0.383	  0.268	 -0.013	 -9.829	 -0.003	  0.003	  0.000	 32.500	 100.881	  0.676
33919	 -0.322	  0.121	  0.386	  0.264	 -0.001	 -9.790	 -0.004	  0.002	  0.000	 32.500	 100.885	  0.320
33969	 -0.322	  0.125	  0.387	  0.242	  0.024	 -9.791	 -0.004	  0.002	  0.000	 32.500	 100.892	 -0.301
34019	 -0.324	  0.120	  0.387	  0.272	  0.008	 -9.801	 -0.002	  0.003	  0.001	 32.500	 100.881	  0.676
34069	 -0.324	  0.119	  0.387	  0.265	  0.016	 -9.763	 -0.003	  0.003	  0.001	 32.500	 100.881	  0.676
34119	 -0.324	  0.119	  0.385	  0.272	  0.018	 -9.800	 -0.003	  0.002	  0.002	 32.500	 100.896	 -0.657
34169	 -0.322	  0.122	  0.390	  0.254	  0.094	 -9.715	 -0.005	  0.007	  0.002	 32.500	 100.881	  0.676
34219	 -0.322	  0.122	  0.386	  0.227	 -0.010	 -9.811	 -0.004	  0.004	  0.002	 32.500	 100.870	  1.652
34269	 -0.323	  0.117	  0.383	  0.260	  0.006	 -9.789	 -0.005	  0.002	  0.001	 32.500	 100.881	  0.676
34319	 -0.324	  0.120	  0.386	  0.281	  0.015	 -9.773	 -0.004	  0.001	  0.000	 32.500	 100.881	  0.676
34369	 -0.323	  0.117	  0.385	  0.239	  0.003	 -9.811	 -0.003	  0.004	  0.001	 32.500	 100.885	  0.320
34419	 -0.322	  0.118	  0.387	  0.370	 -0.132	 -9.761	 -0.001	 -0.001	  0.001	 32.500	 100.896	 -0.657
34469	 -0.324	  0.122	  0.385	  0.182	 -0.030	 -9.759	 -0.004	  0.008	  0.002	 32.500	 100.896	 -0.657
34519	 -0.323	  0.124	  0.387	  0.293	  0.035	 -9.738	 -0.004	  0.001	  0.002	 32.500	 100.870	  1.652
34569	 -0.320	  0.122	  0.386	  0.289	 -0.012	 -9.765	 -0.003	  0.001	 -0.000	 32.500	 100.874	  1.297
34619	 -0.324	  0.116	  0.383	  0.258	 -0.028	 -9.789	 -0.003	  0.003	  0.001	 32.500	 100.885	  0.320
34669	 -0.322	  0.119	  0.381	  0.260	 -0.004	 -9.748	 -0.004	  0.003	  0.001	 32.500	 100.881	  0.676
34719	 -0.324	  0.115	  0.384	  0.235	 -0.004	 -9.812	 -0.004	  0.002	  0.001	 32.500	 100.870	  1.652
34769	 -0.321	  0.119	  0.384	  0.267	  0.013	 -9.749	 -0.002	  0.002	  0.001	 32.500	 100.881	  0.676
34819	 -0.324	  0.120	  0.386	  0.266	 -0.009	 -9.778	 -0.003	  0.003	  0.001	 32.500	 100.896	 -0.657
34869	 -0.324	  0.121	  0.383	  0.292	  0.011	 -9.794	 -0.004	  0.002	  0.000	 32.500	 100.885	  0.320
34919	 -0.324	  0.122	  0.386	  0.280	 -0.012	 -9.789	 -0.004	  0.001	  0.000	 32.500	 100.881	  0.676
34969	 -0.322	  0.125	  0.391	  0.281	  0.006	 -9.768	 -0.002	  0.003	  0.002	 32.500	 100.885	  0.320
35019	 -0.322	  0.119	  0.385	  0.245	  0.015	 -9.788	 -0.002	  0.002	  0.002	 32.500	 100.885	  0.320
35069	 -0.324	  0.124	  0.385	  0.177	  0.069	 -9.822	 -0.003	  0.003	 -0.001	 32.500	 100.885	  0.320
35119	 -0.326	  0.117	  0.383	  0.255	  0.004	 -9.804	 -0.004	  0.001	  0.000	 32.500	 100.885	  0.320
35169	 -0.324	  0.120	  0.385	  0.281	 -0.006	 -9.799	 -0.004	  0.002	  0.002	 32.500	 100.896	 -0.657
35219	 -0.322	  0.120	  0.389	  0.271	 -0.013	 -9.787	 -0.004	  0.003	  0.000	 32.500	 100.885	  0.320
35268	 -0.322	  0.119	  0.386	  0.232	  0.007	 -9.792	 -0.004	  0.003	  0.000	 32.500	 100.892	 -0.301
35318	 -0.322	  0.120	  0.386	  0.176	 -0.019	 -9.775	 -0.010	  0.015	  0.001	 32.500	 100.881	  0.676
35368	 -0.322	  0.118	  0.389	  0.265	  0.008	 -9.768	 -0.002	  0.002	  0.001	 32.500	 100.896	 -0.657
35419	 -0.324	  0.121	  0.385	  0.335	 -0.030	 -9.658	 -0.003	 -0.001	 -0.005	 32.500	 100.881	  0.676
35469	 -0.322	  0.121	  0.389	  0.291	 -0.112	 -9.776	 -0.003	  0.002	  0.000	 32.500	 100.892	 -0.301
35519	 -0.322	  0.119	  0.384	  0.201	  0.040	 -9.815	 -0.003	  0.002	  0.002	 32.500	 100.903	 -1.279
35569	 -0.319	  0.118	  0.388	  0.268	 -0.033	 -9.779	 -0.004	  0.002	  0.001	 32.500	 100.896	 -0.657
35619	 -0.322	  0.117	  0.389	  0.273	 -0.011	 -9.758	 -0.004	  0.002	  0.000	 32.500	 100.885	  0.320
35669	 -0.322	  0.123	  0.389	  0.296	  0.002	 -9.753	 -0.004	  0.004	  0.000	 32.500	 100.885	  0.320
35719	 -0.323	  0.117	  0.391	  0.246	  0.021	 -9.780	 -0.003	  0.002	  0.000	 32.500	 100.885	  0.320
35769	 -0.322	  0.124	  0.385	  0.300	 -0.018	 -9.775	 -0.002	 -0.001	  0.001	 32.500	 100.885	  0.320
35819	 -0.322	  0.121	  0.387	  0.256	 -0.009	 -9.780	 -0.004	  0.005	  0.001	 32.500	 100.885	  0.320
35869	 -0.321	  0.120	  0.389	  0.287	  0.029	 -9.760	 -0.003	  0.002	  0.001	 32.500	 100.908	 -1.723
35919	 -0.322	  0.116	  0.387	  0.284	  0.038	 -9.744	 -0.005	  0.002	  0.001	 32.500	 100.881	  0.676
35969	 -0.322	  0.120	  0.389	  0.282	 -0.001	 -9.798	 -0.003	  0.005	 -0.000	 32.500	 100.896	 -0.657
36019	 -0.322	  0.121	  0.386	  0.412	 -0.104	 -9.796	 -0.008	 -0.004	  0.000	 32.500	 100.892	 -0.301
36069	 -0.322	  0.118	  0.385	  0.210	  0.059	 -9.791	 -0.030	 -0.027	  0.001	 32.500	 100.881	  0.676
36119	 -0.322	  0.121	  0.385	  0.049	  0.179	 -9.819	  0.042	  0.050	  0.002	 32.500	 100.881	  0.676
36169	 -0.324	  0.119	  0.383	  0.125	  0.104	 -9.787	  0.011	  0.019	  0.001	 32.500	 100.885	  0.320
36219	 -0.322	  0.118	  0.383	  0.310	 -0.024	 -9.780	 -0.026	 -0.017	  0.000	 32.500	 100.896	 -0.657
36269	 -0.322	  0.121	  0.385	  0.056	  0.184	 -9.771	  0.017	  0.030	  0.001	 32.500	 100.896	 -0.657
36319	 -0.326	  0.118	  0.385	 -0.044	  0.054	 -9.943	  0.005	  0.014	 -0.001	 32.500	 100.896	 -0.657
36369	 -0.324	  0.132	  0.385	  0.432	 -0.204	 -9.765	 -0.005	  0.006	  0.002	 32.500	 100.896	 -0.657
36419	 -0.322	  0.123	  0.390	  0.263	 -0.009	 -9.784	 -0.003	  0.001	 -0.000	 32.500	 100.881	  0.676
36469	 -0.322	  0.121	  0.385	  0.262	 -0.020	 -9.768	 -0.004	  0.002	  0.002	 32.500	 100.881	  0.676
36519	 -0.324	  0.117	  0.385	  0.295	  0.043	 -9.802	 -0.002	 -0.001	 -0.000	 32.500	 100.881	  0.676
36569	 -0.322	  0.121	  0.386	  0.256	 -0.037	 -9.837	 -0.004	  0.004	  0.001	 32.500	 100.885	  0.320
36620	 -0.322	  0.125	  0.387	  0.226	 -0.008	 -9.789	 -0.003	  0.003	  0.000	 32.500	 100.881	  0.676
36669	 -0.322	  0.119	  0.386	  0.250	 -0.003	 -9.736	 -0.002	  0.004	  0.001	 32.500	 100.881	  0.676
36720	 -0.323	  0.130	  0.383	  0.271	  0.003	 -9.797	 -0.005	  0.001	 -0.001	 32.500	 100.892	 -0.301
36769	 -0.322	  0.124	  0.387	  0.286	 -0.017	 -9.796	 -0.004	  0.002	  0.000	 32.500	 100.885	  0.320
36819	 -0.322	  0.119	  0.385	  0.264	 -0.008	 -9.787	 -0.004	  0.003	  0.001	 32.500	 100.881	  0.676
36868	 -0.324	  0.118	  0.385	  0.266	  0.004	 -9.778	 -0.004	  0.004	  0.000	 32.500	 100.885	  0.320
36918	 -0.322	  0.121	  0.390	  0.282	  0.015	 -9.780	 -0.003	  0.003	  0.001	 32.500	 100.881	  0.676
36969	 -0.322	  0.121	  0.387	  0.277	  0.042	 -9.798	 -0.004	  0.003	  0.002	 32.500	 100.896	 -0.657
37018	 -0.320	  0.120	  0.386	  0.254	  0.001	 -9.797	 -0.003	  0.002	  0.002	 32.500	 100.896	 -0.657
37069	 -0.322	  0.120	  0.384	  0.266	  0.018	 -9.802	 -0.003	  0.003	  0.000	 32.500	 100.892	 -0.301
37118	 -0.323	  0.117	  0.389	  0.287	  0.005	 -9.807	 -0.003	  0.001	  0.001	 32.500	 100.885	  0.320
37169	 -0.322	  0.124	  0.387	  0.287	 -0.012	 -9.784	 -0.003	  0.002	  0.001	 32.500	 100.885	  0.320
37219	 -0.322	  0.119	  0.386	  0.280	 -0.017	 -9.791	 -0.003	  0.002	  0.002	 32.500	 100.885	  0.320
37269	 -0.321	  0.119	  0.389	  0.254	  0.016	 -9.810	 -0.004	  0.003	  0.001	 32.500	 100.892	 -0.301
37319	 -0.322	  0.126	  0.386	  0.264	  0.006	 -9.808	 -0.004	  0.002	  0.001	 32.500	 100.896	 -0.657
37369	 -0.322	  0.119	  0.386	  0.263	  0.013	 -9.793	 -0.003	  0.002	  0.002	 32.500	 100.885	  0.320
37419	 -0.322	  0.123	  0.387	  0.256	 -0.015	 -9.776	 -0.004	  0.002	  0.001	 32.500	 100.896	 -0.657
37469	 -0.322	  0.119	  0.387	  0.248	  0.013	 -9.795	 -0.003	  0.002	  0.002	 32.500	 100.892	 -0.301
37519	 -0.322	  0.121	  0.385	  0.237	 -0.003	 -9.784	 -0.004	  0.002	  0.001	 32.500	 100.885	  0.320
37569	 -0.322	  0.120	  0.392	  0.277	 -0.001	 -9.752	 -0.003	  0.002	  0.001	 32.500	 100.896	 -0.657
37619	 -0.324	  0.117	  0.389	  0.266	 -0.003	 -9.777	 -0.002	  0.002	  0.000	 32.500	 100.908	 -1.723
37669	 -0.322	  0.119	  0.387	  0.265	 -0.019	 -9.787	 -0.004	  0.003	  0.000	 32.500	 100.896	 -0.657
37719	 -0.326	  0.118	  0.385	  0.293	 -0.001	 -9.802	 -0.003	  0.002	  0.001	 32.500	 100.896	 -0.657
37769	 -0.322	  0.122	  0.385	  0.261	  0.013	 -9.803	 -0.003	  0.001	  0.001	 32.500	 100.881	  0.676
37819	 -0.324	  0.116	  0.386	  0.275	  0.012	 -9.778	 -0.004	  0.003	  0.001	 32.500	 100.896	 -0.657
37869	 -0.324	  0.119	  0.387	  0.267	  0.023	 -9.782	 -0.004	  0.003	  0.001	 32.500	 100.881	  0.676
37919	 -0.322	  0.122	  0.390	  0.288	 -0.008	 -9.803	 -0.003	  0.003	  0.001	 32.500	 100.896	 -0.657
37969	 -0.322	  0.119	  0.389	  0.252	  0.009	 -9.804	 -0.003	  0.003	  0.000	 32.500	 100.908	 -1.723
38019	 -0.320	  0.120	  0.385	  0.253	  0.009	 -9.774	 -0.004	  0.003	  0.001	 32.500	 100.881	  0.676
38069	 -0.321	  0.119	  0.386	  0.273	 -0.005	 -9.796	 -0.003	  0.003	  0.001	 32.500	 100.892	 -0.301
38119	 -0.324	  0.121	  0.387	  0.274	 -0.001	 -9.824	 -0.004	  0.003	  0.001	 32.500	 100.881	  0.676
38169	 -0.324	  0.118	  0.387	  0.286	 -0.018	 -9.779	 -0.004	  0.000	  0.001	 32.500	 100.896	 -0.657
38219	 -0.322	  0.119	  0.381	  0.252	  0.000	 -9.796	 -0.003	  0.002	  0.001	 32.500	 100.896	 -0.657
38269	 -0.323	  0.117	  0.386	  0.268	  0.001	 -9.798	 -0.003	  0.001	  0.001	 32.500	 100.896	 -0.657
38319	 -0.321	  0.120	  0.392	  0.266	 -0.013	 -9.784	 -0.003	  0.002	  0.000	 32.500	 100.885	  0.320
38369	 -0.324	  0.123	  0.386	  0.270	 -0.006	 -9.780	 -0.003	  0.001	  0.001	 32.500	 100.874	  1.297
38419	 -0.324	  0.119	  0.387	  0.257	  0.013	 -9.767	 -0.004	  0.002	  0.001	 32.500	 100.885	  0.320
38469	 -0.322	  0.118	  0.387	  0.285	  0.003	 -9.769	 -0.003	  0.002	 -0.000	 32.500	 100.881	  0.676
38519	 -0.322	  0.118	  0.387	  0.286	  0.019	 -9.777	 -0.003	  0.003	 -0.000	 32.500	 100.892	 -0.301
38569	 -0.324	  0.119	  0.387	  0.275	  0.010	 -9.804	 -0.003	  0.002	 -0.000	 32.500	 100.896	 -0.657
38619	 -0.324	  0.120	  0.378	  0.271	  0.000	 -9.765	 -0.003	  0.002	  0.001	 32.500	 100.881	  0.676
38669	 -0.320	  0.123	  0.390	  0.263	  0.010	 -9.812	 -0.003	  0.002	  0.000	 32.500	 100.881	  0.676
38719	 -0.322	  0.125	  0.389	  0.277	 -0.019	 -9.816	 -0.002	  0.002	  0.001	 32.500	 100.885	  0.320
38769	 -0.322	  0.118	  0.386	  0.275	  0.017	 -9.756	 -0.003	  0.001	  0.001	 32.500	 100.881	  0.676
38819	 -0.324	  0.119	  0.382	  0.291	 -0.007	 -9.833	 -0.004	  0.002	  0.001	 32.500	 100.896	 -0.657
38869	 -0.322	  0.118	  0.387	  0.262	 -0.023	 -9.784	 -0.003	  0.002	  0.001	 32.500	 100.896	 -0.657
38919	 -0.324	  0.122	  0.392	  0.274	 -0.005	 -9.762	 -0.003	  0.003	  0.000	 32.500	 100.881	  0.676
38969	 -0.324	  0.119	  0.384	  0.252	 -0.012	 -9.763	 -0.004	  0.003	  0.002	 32.500	 100.885	  0.320
39019	 -0.324	  0.122	  0.390	  0.273	  0.015	 -9.836	 -0.002	  0.002	  0.002	 32.500	 100.892	 -0.301
39069	 -0.322	  0.126	  0.387	  0.272	 -0.002	 -9.778	 -0.003	  0.003	 -0.000	 32.500	 100.885	  0.320
39119	 -0.323	  0.117	  0.384	  0.266	 -0.011	 -9.808	 -0.002	  0.002	  0.000	 32.500	 100.885	  0.320
39169	 -0.321	  0.117	  0.386	  0.271	 -0.016	 -9.760	 -0.003	  0.002	  0.001	 32.500	 100.896	 -0.657
39219	 -0.322	  0.123	  0.386	  0.262	  0.010	 -9.780	 -0.005	  0.002	  0.000	 32.500	 100.892	 -0.301
39269	 -0.324	  0.117	  0.385	  0.281	  0.026	 -9.783	 -0.003	  0.002	  0.000	 32.500	 100.885	  0.320
39319	 -0.324	  0.122	  0.382	  0.238	  0.003	 -9.778	 -0.003	  0.001	  0.001	 32.500	 100.896	 -0.657
39369	 -0.324	  0.119	  0.387	  0.292	 -0.009	 -9.831	 -0.003	  0.003	  0.002	 32.500	 100.896	 -0.657
39419	 -0.324	  0.122	  0.385	  0.283	 -0.013	 -9.803	 -0.004	  0.002	  0.002	 32.500	 100.885	  0.320
39469	 -0.322	  0.118	  0.383	  0.274	  0.032	 -9.775	 -0.003	  0.001	  0.001	 32.500	 100.896	 -0.657
39519	 -0.323	  0.126	  0.388	  0.263	 -0.001	 -9.767	 -0.003	  0.002	  0.001	 32.500	 100.885	  0.320
39569	 -0.322	  0.127	  0.385	  0.271	  0.009	 -9.799	 -0.003	  0.002	  0.001	 32.500	 100.881	  0.676
39619	 -0.321	  0.119	  0.384	  0.283	  0.015	 -9.772	 -0.004	  0.003	  0.001	 32.500	 100.896	 -0.657
39669	 -0.320	  0.124	  0.384	  0.285	 -0.014	 -9.817	 -0.003	  0.003	  0.001	 32.500	 100.885	  0.320
39719	 -0.322	  0.118	  0.383	  0.289	 -0.004	 -9.806	 -0.002	  0.002	  0.001	 32.500	 100.892	 -0.301
39769	 -0.322	  0.126	  0.389	  0.266	  0.003	 -9.751	 -0.004	  0.003	  0.001	 32.500	 100.885	  0.320
39819	 -0.322	  0.117	  0.389	  0.252	 -0.000	 -9.827	 -0.003	  0.004	  0.001	 32.500	 100.892	 -0.301
39869	 -0.322	  0.119	  0.385	  0.280	  0.006	 -9.812	 -0.004	  0.003	  0.001	 32.500	 100.892	 -0.301
39919	 -0.322	  0.119	  0.384	  0.274	 -0.008	 -9.811	 -0.003	  0.002	  0.001	 32.500	 100.881	  0.676
39969	 -0.322	  0.118	  0.387	  0.251	 -0.015	 -9.803	 -0.004	  0.002	 -0.000	 32.500	 100.885	  0.320
40019	 -0.324	  0.119	  0.386	  0.259	  0.017	 -9.782	 -0.002	  0.002	  0.002	 32.500	 100.892	 -0.301
40069	 -0.322	  0.121	  0.390	  0.251	  0.015	 -9.779	 -0.003	  0.002	  0.001	 32.500	 100.892	 -0.301
40119	 -0.320	  0.123	  0.387	  0.281	 -0.004	 -9.792	 -0.003	  0.003	  0.000	 32.500	 100.892	 -0.301
40169	 -0.319	  0.117	  0.387	  0.257	  0.006	 -9.816	 -0.003	  0.002	  0.002	 32.500	 100.885	  0.320
40219	 -0.324	  0.125	  0.388	  0.279	 -0.012	 -9.778	 -0.004	  0.002	  0.001	 32.500	 100.881	  0.676
40269	 -0.325	  0.123	  0.387	  0.268	 -0.019	 -9.789	 -0.003	  0.003	 -0.000	 32.500	 100.885	  0.320
40319	 -0.322	  0.122	  0.389	  0.250	 -0.006	 -9.804	 -0.003	  0.001	  0.000	 32.500	 100.874	  1.297
40369	 -0.323	  0.131	  0.386	  0.277	 -0.002	 -9.769	 -0.003	  0.001	  0.001	 32.500	 100.881	  0.676
40419	 -0.324	  0.119	  0.386	  0.263	 -0.028	 -9.759	 -0.003	  0.003	  0.000	 32.500	 100.885	  0.320
40469	 -0.322	  0.123	  0.387	  0.268	  0.002	 -9.798	 -0.004	  0.003	 -0.000	 32.500	 100.881	  0.676
40519	 -0.322	  0.121	  0.387	  0.265	 -0.012	 -9.732	 -0.003	  0.002	  0.001	 32.500	 100.892	 -0.301
40569	 -0.323	  0.117	  0.389	  0.276	  0.001	 -9.800	 -0.003	  0.003	  0.000	 32.500	 100.881	  0.676
40619	 -0.322	  0.122	  0.385	  0.282	 -0.010	 -9.795	 -0.002	  0.002	 -0.000	 32.500	 100.885	  0.320
40669	 -0.321	  0.119	  0.387	  0.265	 -0.012	 -9.798	 -0.003	  0.002	  0.001	 32.500	 100.885	  0.320
40719	 -0.324	  0.120	  0.378	  0.293	 -0.018	 -9.775	 -0.003	  0.002	 -0.001	 32.500	 100.896	 -0.657
40769	 -0.324	  0.117	  0.389	  0.257	  0.005	 -9.806	 -0.003	  0.002	  0.000	 32.500	 100.885	  0.320
40819	 -0.323	  0.117	  0.386	  0.298	  0.010	 -9.778	 -0.003	  0.002	  0.001	 32.500	 100.885	  0.320
40868	 -0.322	  0.120	  0.383	  0.266	  0.011	 -9.804	 -0.003	  0.003	  0.002	 32.500	 100.892	 -0.301
40918	 -0.324	  0.117	  0.389	  0.281	  0.008	 -9.788	 -0.004	  0.002	  0.001	 32.500	 100.896	 -0.657
40968	 -0.324	  0.122	  0.386	  0.284	 -0.017	 -9.794	 -0.004	  0.002	  0.001	 32.500	 100.881	  0.676
41018	 -0.324	  0.123	  0.386	  0.264	 -0.010	 -9.780	 -0.003	  0.002	 -0.000	 32.500	 100.896	 -0.657
41068	 -0.321	  0.131	  0.385	  0.274	  0.007	 -9.793	 -0.004	  0.002	  0.000	 32.500	 100.885	  0.320
41118	 -0.322	  0.119	  0.386	  0.273	  0.003	 -9.780	 -0.003	  0.001	  0.001	 32.500	 100.892	 -0.301
41168	 -0.324	  0.120	  0.389	  0.266	 -0.001	 -9.779	 -0.004	  0.002	  0.002	 32.500	 100.896	 -0.657
41218	 -0.322	  0.122	  0.389	  0.296	  0.017	 -9.768	 -0.003	  0.002	  0.001	 32.500	 100.896	 -0.657
41268	 -0.324	  0.120	  0.389	  0.274	  0.008	 -9.783	 -0.003	  0.003	 -0.001	 32.500	 100.896	 -0.657
41318	 -0.323	  0.126	  0.386	  0.276	 -0.012	 -9.775	 -0.003	  0.002	  0.000	 32.500	 100.892	 -0.301
41369	 -0.324	  0.121	  0.387	  0.264	  0.009	 -9.791	 -0.003	  0.002	  0.000	 32.500	 100.885	  0.320
41418	 -0.322	  0.121	  0.385	  0.283	  0.007	 -9.791	 -0.003	  0.003	  0.001	 32.500	 100.896	 -0.657
41468	 -0.324	  0.117	  0.386	  0.269	 -0.006	 -9.773	 -0.003	  0.002	  0.001	 32.500	 100.892	 -0.301
41518	 -0.324	  0.121	  0.389	  0.274	 -0.005	 -9.776	 -0.003	  0.003	  0.001	 32.500	 100.896	 -0.657
41568	 -0.322	  0.121	  0.382	  0.264	 -0.022	 -9.783	 -0.003	  0.002	 -0.000	 32.500	 100.885	  0.320
41618	 -0.322	  0.120	  0.386	  0.246	 -0.002	 -9.791	 -0.003	  0.002	  0.001	 32.500	 100.881	  0.676
41668	 -0.323	  0.128	  0.387	  0.292	  0.021	 -9.787	 -0.004	  0.002	  0.001	 32.500	 100.892	 -0.301
41718	 -0.322	  0.124	  0.391	  0.266	 -0.005	 -9.799	 -0.004	  0.003	  0.000	 32.500	 100.901	 -1.101
41768	 -0.324	  0.120	  0.384	  0.266	  0.013	 -9.779	 -0.003	  0.001	  0.001	 32.500	 100.896	 -0.657
41818	 -0.321	  0.118	  0.386	  0.265	 -0.007	 -9.778	 -0.003	  0.002	  0.000	 32.500	 100.885	  0.320
41868	 -0.324	  0.119	  0.390	  0.281	 -0.007	 -9.764	 -0.003	  0.004	 -0.001	 32.500	 100.881	  0.676
41919	 -0.322	  0.120	  0.384	  0.292	  0.000	 -9.819	 -0.004	  0.002	  0.000	 32.500	 100.885	  0.320
41968	 -0.322	  0.122	  0.389	  0.275	  0.015	 -9.777	 -0.004	  0.002	  0.001	 32.500	 100.885	  0.320
42018	 -0.320	  0.122	  0.386	  0.268	 -0.020	 -9.811	 -0.004	  0.002	  0.001	 32.500	 100.881	  0.676
42068	 -0.322	  0.117	  0.386	  0.263	  0.009	 -9.768	 -0.004	  0.001	  0.001	 32.500	 100.885	  0.320
42118	 -0.323	  0.117	  0.385	  0.277	  0.016	 -9.766	 -0.002	  0.002	  0.001	 32.500	 100.892	 -0.301
42168	 -0.321	  0.119	  0.386	  0.274	 -0.013	 -9.770	 -0.004	  0.001	  0.001	 32.500	 100.896	 -0.657
42218	 -0.324	  0.124	  0.386	  0.266	 -0.028	 -9.800	 -0.004	  0.002	  0.002	 32.500	 100.896	 -0.657
42269	 -0.324	  0.120	  0.386	  0.263	  0.006	 -9.770	 -0.004	  0.003	  0.001	 32.500	 100.885	  0.320
42318	 -0.322	  0.117	  0.387	  0.269	  0.005	 -9.783	 -0.003	  0.003	 -0.000	 32.500	 100.896	 -0.657
42368	 -0.322	  0.119	  0.389	  0.295	 -0.010	 -9.752	 -0.003	  0.002	  0.001	 32.500	 100.881	  0.676
42418	 -0.322	  0.119	  0.386	  0.277	  0.007	 -9.820	 -0.004	  0.002	  0.000	 32.500	 100.885	  0.320
42468	 -0.322	  0.119	  0.385	  0.125	  0.206	 -9.752	 -0.008	  0.008	  0.000	 32.500	 100.896	 -0.657
42518	 -0.324	  0.123	  0.390	  0.214	 -0.162	 -9.763	 -0.005	  0.002	  0.001	 32.500	 100.896	 -0.657
42568	 -0.322	  0.123	  0.387	  0.315	 -0.057	 -9.842	 -0.003	  0.001	  0.001	 32.500	 100.885	  0.320
42619	 -0.324	  0.119	  0.386	  0.286	  0.020	 -9.805	 -0.004	  0.003	  0.001	 32.500	 100.892	 -0.301
42669	 -0.322	  0.119	  0.391	  0.275	 -0.004	 -9.752	 -0.004	  0.002	  0.001	 32.500	 100.892	 -0.301
42719	 -0.322	  0.121	  0.381	  0.233	 -0.042	 -9.790	 -0.004	  0.002	  0.000	 32.500	 100.885	  0.320
42769	 -0.322	  0.123	  0.389	  0.150	 -0.038	 -9.923	 -0.007	  0.012	  0.003	 32.500	 100.885	  0.320
42819	 -0.322	  0.119	  0.384	  0.278	  0.011	 -9.770	 -0.003	  0.001	  0.000	 32.500	 100.885	  0.320
42869	 -0.322	  0.119	  0.389	  0.239	  0.018	 -9.775	 -0.004	  0.003	  0.000	 32.500	 100.896	 -0.657
42919	 -0.323	  0.116	  0.385	  0.239	  0.070	 -9.771	 -0.003	  0.004	  0.000	 32.500	 100.881	  0.676
42969	 -0.322	  0.120	  0.389	  0.275	 -0.013	 -9.778	 -0.004	  0.003	  0.001	 32.500	 100.881	  0.676
43019	 -0.324	  0.122	  0.389	  0.212	  0.008	 -9.798	 -0.004	  0.004	  0.000	 32.500	 100.885	  0.320
43069	 -0.322	  0.120	  0.385	  0.307	 -0.051	 -9.793	 -0.003	  0.001	  0.001	 32.500	 100.885	  0.320
43119	 -0.324	  0.117	  0.382	  0.265	  0.104	 -9.785	 -0.004	  0.001	  0.001	 32.500	 100.881	  0.676
43169	 -0.324	  0.118	  0.381	  0.270	  0.006	 -9.814	 -0.003	  0.003	  0.001	 32.500	 100.896	 -0.657
43219	 -0.321	  0.118	  0.387	  0.284	 -0.019	 -9.785	 -0.004	  0.003	  0.001	 32.500	 100.885	  0.320
43269	 -0.322	  0.120	  0.385	  0.257	  0.003	 -9.755	 -0.003	  0.002	  0.001	 32.500	 100.885	  0.320
43319	 -0.322	  0.121	  0.384	  0.263	  0.021	 -9.776	 -0.004	  0.003	  0.002	 32.500	 100.881	  0.676
43369	 -0.324	  0.116	  0.390	  0.274	 -0.003	 -9.778	 -0.003	  0.001	  0.000	 32.500	 100.885	  0.320
43419	 -0.322	  0.121	  0.386	  0.260	 -0.039	 -9.774	 -0.003	  0.003	  0.002	 32.500	 100.892	 -0.301
43469	 -0.322	  0.121	  0.391	  0.251	  0.022	 -9.772	 -0.002	  0.003	  0.001	 32.500	 100.896	 -0.657
43519	 -0.322	  0.127	  0.389	  0.068	 -0.058	 -9.820	 -0.004	 -0.001	  0.000	 32.500	 100.896	 -0.657
43569	 -0.322	  0.119	  0.387	  0.175	  0.069	 -9.777	 -0.002	  0.000	  0.001	 32.500	 100.881	  0.676
43619	 -0.323	  0.118	  0.384	  0.283	  0.004	 -9.776	 -0.005	  0.001	  0.000	 32.500	 100.881	  0.676
43669	 -0.323	  0.118	  0.384	  0.365	  0.169	 -9.753	 -0.004	  0.003	  0.001	 32.500	 100.892	 -0.301
43719	 -0.321	  0.122	  0.387	  0.255	  0.020	 -9.809	 -0.004	  0.002	 -0.000	 32.500	 100.885	  0.320
43768	 -0.324	  0.122	  0.389	  0.264	  0.005	 -9.786	 -0.004	  0.002	  0.001	 32.500	 100.885	  0.320
43818	 -0.324	  0.121	  0.391	  0.252	 -0.001	 -9.803	 -0.004	  0.003	  0.001	 32.500	 100.892	 -0.301
43868	 -0.321	  0.119	  0.384	  0.282	  0.016	 -9.750	 -0.003	  0.004	  0.000	 32.500	 100.885	  0.320
43918	 -0.322	  0.126	  0.390	  0.307	 -0.031	 -9.804	 -0.005	  0.003	  0.001	 32.500	 100.901	 -1.101
43968	 -0.322	  0.119	  0.385	  0.243	 -0.014	 -9.800	 -0.003	  0.002	  0.001	 32.500	 100.896	 -0.657
44018	 -0.324	  0.118	  0.389	  0.295	  0.002	 -9.796	 -0.004	  0.000	 -0.000	 32.500	 100.896	 -0.657
44068	 -0.322	  0.117	  0.384	  0.283	 -0.003	 -9.763	 -0.003	  0.002	  0.001	 32.500	 100.885	  0.320
44118	 -0.322	  0.119	  0.385	  0.281	  0.006	 -9.801	 -0.003	  0.003	  0.001	 32.500	 100.885	  0.320
44168	 -0.322	  0.117	  0.392	  0.259	  0.005	 -9.742	 -0.003	  0.003	  0.000	 32.500	 100.881	  0.676
44218	 -0.324	  0.120	  0.384	  0.288	  0.007	 -9.780	 -0.003	  0.002	  0.000	 32.500	 100.896	 -0.657
44268	 -0.324	  0.120	  0.387	  0.266	  0.006	 -9.785	 -0.003	  0.002	  0.001	 32.500	 100.885	  0.320
44318	 -0.324	  0.124	  0.385	  0.289	  0.009	 -9.775	 -0.002	  0.002	  0.001	 32.500	 100.892	 -0.301
44368	 -0.322	  0.117	  0.384	  0.272	 -0.006	 -9.788	 -0.004	  0.001	  0.001	 32.500	 100.896	 -0.657
44418	 -0.324	  0.120	  0.390	  0.272	 -0.002	 -9.754	 -0.004	  0.003	  0.001	 32.500	 100.885	  0.320
44468	 -0.322	  0.121	  0.386	  0.260	 -0.010	 -9.801	 -0.003	  0.002	  0.002	 32.500	 100.885	  0.320
44518	 -0.322	  0.117	  0.385	  0.297	  0.008	 -9.810	 -0.003	  0.002	  0.002	 32.500	 100.885	  0.320
44568	 -0.322	  0.120	  0.386	  0.276	  0.005	 -9.782	 -0.003	  0.003	  0.001	 32.500	 100.896	 -0.657
44618	 -0.322	  0.118	  0.389	  0.293	 -0.000	 -9.794	 -0.003	  0.003	  0.001	 32.500	 100.896	 -0.657
44668	 -0.322	  0.121	  0.384	  0.272	  0.008	 -9.793	 -0.003	  0.001	  0.001	 32.500	 100.896	 -0.657
44718	 -0.322	  0.116	  0.384	  0.262	 -0.006	 -9.804	 -0.002	  0.002	  0.002	 32.500	 100.885	  0.320
44768	 -0.322	  0.120	  0.384	  0.262	 -0.010	 -9.807	 -0.002	  0.003	  0.000	 32.500	 100.892	 -0.301
44818	 -0.324	  0.117	  0.387	  0.287	  0.000	 -9.784	 -0.004	  0.003	  0.001	 32.500	 100.892	 -0.301
44868	 -0.323	  0.117	  0.390	  0.260	  0.012	 -9.789	 -0.003	  0.002	  0.001	 32.500	 100.896	 -0.657
44918	 -0.324	  0.122	  0.385	  0.261	 -0.001	 -9.786	 -0.002	  0.003	  0.001	 32.500	 100.896	 -0.657
44968	 -0.324	  0.117	  0.385	  0.272	 -0.036	 -9.774	 -0.003	  0.004	  0.000	 32.500	 100.881	  0.676
45018	 -0.324	  0.119	  0.386	  0.317	 -0.041	 -9.772	 -0.003	  0.000	  0.001	 32.500	 100.892	 -0.301
45068	 -0.322	  0.118	  0.387	  0.260	  0.014	 -9.801	 -0.003	  0.003	  0.001	 32.500	 100.885	  0.320
45118	 -0.322	  0.120	  0.390	  0.287	  0.017	 -9.785	 -0.003	  0.002	  0.000	 32.500	 100.885	  0.320
45168	 -0.323	  0.118	  0.389	  0.259	  0.001	 -9.777	 -0.003	  0.003	 -0.000	 32.500	 100.885	  0.320
45218	 -0.324	  0.123	  0.388	  0.263	  0.032	 -9.760	 -0.004	  0.001	  0.001	 32.500	 100.885	  0.320
45268	 -0.322	  0.120	  0.387	  0.300	 -0.009	 -9.780	 -0.002	  0.003	 -0.001	 32.500	 100.881	  0.676
45318	 -0.322	  0.124	  0.391	  0.273	 -0.019	 -9.786	 -0.003	  0.003	 -0.001	 32.500	 100.885	  0.320
45368	 -0.322	  0.121	  0.389	  0.384	 -0.319	 -9.794	 -0.024	 -0.004	 -0.127	 32.500	 100.896	 -0.657
45418	 -0.324	  0.119	  0.390	  0.483	 -0.529	 -9.848	 -0.008	  0.005	 -0.042	 32.500	 100.892	 -0.301
45468	 -0.324	  0.117	  0.384	  0.077	  0.167	 -9.910	 -0.007	  0.014	 -0.023	 32.500	 100.881	  0.676
45518	 -0.324	  0.121	  0.386	  0.136	 -0.023	 -9.915	 -0.019	  0.031	  0.011	 32.500	 100.892	 -0.301
45568	 -0.326	  0.117	  0.379	  0.455	 -0.070	 -9.787	 -0.015	  0.114	 -0.117	 32.500	 100.892	 -0.301
45618	 -0.328	  0.116	  0.383	  0.539	 -0.035	 -9.841	  0.013	  0.132	 -0.178	 32.500	 100.881	  0.676
45668	 -0.331	  0.108	  0.381	  0.500	  0.130	 -9.455	 -0.019	  0.024	 -0.227	 32.500	 100.896	 -0.657
45718	 -0.331	  0.105	  0.381	  0.785	  0.447	 -9.739	  0.009	 -0.133	 -0.113	 32.500	 100.896	 -0.657
45768	 -0.329	  0.105	  0.384	  0.377	  0.124	 -10.098	  0.091	 -0.174	 -0.133	 32.500	 100.896	 -0.657
45818	 -0.329	  0.103	  0.392	 -0.122	 -0.138	 -10.044	  0.156	 -0.107	 -0.113	 32.500	 100.885	  0.320
45868	 -0.328	  0.107	  0.383	 -0.198	 -0.053	 -10.212	  0.135	  0.106	 -0.095	 32.500	 100.885	  0.320
45918	 -0.331	  0.108	  0.380	 -0.049	 -0.149	 -10.352	  0.117	  0.244	 -0.170	 32.500	 100.901	 -1.101
45968	 -0.333	  0.103	  0.376	  0.571	  0.178	 -9.774	  0.124	  0.183	 -0.201	 32.500	 100.892	 -0.301
46018	 -0.335	  0.110	  0.374	  0.842	 -0.737	 -9.068	  0.191	  0.066	 -0.216	 32.500	 100.885	  0.320
46068	 -0.339	  0.101	  0.364	  0.758	 -1.148	 -9.156	  0.133	  0.092	 -0.170	 32.500	 100.896	 -0.657
46118	 -0.343	  0.099	  0.361	  1.018	 -0.670	 -9.339	 -0.026	  0.099	 -0.163	 32.500	 100.881	  0.676
46168	 -0.343	  0.097	  0.367	  0.515	 -0.312	 -9.671	 -0.032	 -0.030	 -0.154	 32.500	 100.885	  0.320
46218	 -0.340	  0.094	  0.366	  0.326	  0.104	 -10.088	 -0.036	 -0.160	 -0.058	 32.500	 100.892	 -0.301
46268	 -0.338	  0.097	  0.370	 -0.228	 -0.167	 -10.121	 -0.015	 -0.110	 -0.071	 32.500	 100.896	 -0.657
46318	 -0.337	  0.096	  0.371	  0.023	 -0.455	 -9.681	  0.002	  0.120	 -0.036	 32.500	 100.885	  0.320
46368	 -0.341	  0.090	  0.366	  0.915	 -0.581	 -9.466	  0.034	  0.224	 -0.065	 32.500	 100.885	  0.320
46418	 -0.344	  0.091	  0.366	  1.290	 -0.556	 -9.990	  0.032	  0.117	 -0.098	 32.500	 100.885	  0.320
46468	 -0.345	  0.091	  0.365	  1.009	 -0.036	 -9.846	  0.013	 -0.052	 -0.101	 32.500	 100.885	  0.320
46518	 -0.342	  0.088	  0.365	 -0.068	  0.271	 -10.036	  0.009	 -0.100	 -0.021	 32.500	 100.896	 -0.657
46568	 -0.341	  0.088	  0.361	  0.223	 -0.474	 -9.174	  0.055	  0.050	  0.010	 32.500	 100.896	 -0.657
46618	 -0.348	  0.088	  0.359	  1.311	 -1.301	 -8.457	  0.165	  0.247	  0.001	 32.500	 100.896	 -0.657
46668	 -0.351	  0.091	  0.361	  1.652	 -0.731	 -9.971	  0.035	 -0.010	 -0.076	 32.500	 100.881	  0.676
46718	 -0.347	  0.093	  0.361	  0.265	  1.022	 -11.841	 -0.162	 -0.563	  0.046	 32.500	 100.896	 -0.657
46768	 -0.336	  0.091	  0.377	 -0.724	 -1.014	 -8.082	  0.114	 -0.079	 -0.015	 32.500	 100.892	 -0.301
46818	 -0.342	  0.095	  0.363	  2.569	 -2.488	 -8.300	  0.275	  0.571	  0.093	 32.500	 100.896	 -0.657
46868	 -0.344	  0.102	  0.365	  0.603	  1.523	 -13.857	 -0.362	 -0.564	  0.398	 32.500	 100.896	 -0.657
46918	 -0.328	  0.099	  0.375	 -2.815	 -0.230	 -7.452	 -0.005	 -0.017	 -0.024	 32.500	 100.885	  0.320
46968	 -0.346	  0.106	  0.361	  3.302	 -2.781	 -7.641	  0.657	  1.190	  0.130	 32.500	 100.896	 -0.657
47018	 -0.354	  0.109	  0.357	  1.234	  1.164	 -15.297	 -0.365	 -0.800	 -0.235	 32.500	 100.870	  1.652
47068	 -0.342	  0.094	  0.367	 -2.194	 -0.747	 -4.903	 -0.093	  0.299	 -0.372	 32.500	 100.885	  0.320
47118	 -0.363	  0.099	  0.350	  4.372	 -2.025	 -11.403	  0.483	  0.728	 -0.166	 32.500	 100.896	 -0.657
47168	 -0.350	  0.101	  0.362	 -0.394	  0.632	 -12.751	 -0.476	 -1.081	  0.547	 32.500	 100.885	  0.320
47218	 -0.346	  0.103	  0.363	  1.974	 -1.784	 -2.217	  0.813	  1.109	 -0.204	 32.500	 100.885	  0.320
47268	 -0.363	  0.115	  0.348	  0.744	  1.039	 -18.288	 -0.527	 -0.483	  0.111	 32.500	 100.885	  0.320
47319	 -0.340	  0.102	  0.366	 -3.653	 -1.173	 -3.980	 -0.105	 -0.235	  0.039	 32.500	 100.885	  0.320
47368	 -0.360	  0.118	  0.349	  7.334	 -5.270	 -11.961	  0.379	  1.121	  0.021	 32.500	 100.885	  0.320
47418	 -0.347	  0.102	  0.360	 -2.636	  2.319	 -11.430	 -0.995	 -1.806	 -0.239	 32.500	 100.885	  0.320
47468	 -0.343	  0.101	  0.364	 -0.975	 -4.526	 -2.175	  1.096	  1.415	  0.105	 32.500	 100.896	 -0.657
47518	 -0.364	  0.120	  0.344	  6.241	  1.647	 -17.634	 -0.533	 -0.502	  0.468	 32.500	 100.885	  0.320
47568	 -0.343	  0.103	  0.367	 -2.097	  0.736	 -4.819	 -0.043	 -0.174	 -0.629	 32.500	 100.896	 -0.657
47618	 -0.358	  0.112	  0.355	  5.738	 -3.968	 -11.099	  0.607	  0.745	  0.052	 32.500	 100.885	  0.320
47669	 -0.349	  0.116	  0.360	 -4.099	  0.723	 -13.161	 -0.659	 -1.169	  0.212	 32.500	 100.885	  0.320
47718	 -0.345	  0.111	  0.363	  2.961	 -1.281	 -2.045	  0.786	  0.979	 -0.213	 32.500	 100.896	 -0.657
47768	 -0.360	  0.114	  0.347	 -0.085	  0.578	 -17.888	 -0.645	 -0.861	 -0.012	 32.500	 100.896	 -0.657
47818	 -0.343	  0.102	  0.366	 -0.964	 -1.178	 -3.764	 -0.113	  0.118	 -0.074	 32.500	 100.892	 -0.301
47868	 -0.355	  0.115	  0.357	  5.851	 -1.781	 -13.156	  0.180	  0.462	  0.393	 32.500	 100.885	  0.320
47918	 -0.345	  0.109	  0.367	 -4.168	 -0.761	 -9.539	 -0.090	 -0.512	 -0.429	 32.500	 100.881	  0.676
47968	 -0.356	  0.108	  0.359	  1.695	 -3.575	 -8.657	  0.113	  1.367	  0.498	 32.500	 100.881	  0.676
48019	 -0.358	  0.126	  0.356	  3.028	  3.079	 -13.178	 -0.173	 -1.232	  0.106	 32.500	 100.885	  0.320
48068	 -0.351	  0.110	  0.356	 -4.577	 -5.769	 -6.331	  0.229	  0.899	 -0.552	 32.500	 100.885	  0.320
48119	 -0.369	  0.118	  0.337	  8.434	  1.014	 -10.701	 -0.095	 -0.045	  0.807	 32.500	 100.896	 -0.657
48169	 -0.356	  0.118	  0.357	 -2.285	 -0.757	 -10.820	 -0.202	 -0.507	 -0.548	 32.500	 100.881	  0.676
48219	 -0.359	  0.106	  0.350	  0.520	 -0.744	 -7.497	  0.120	  0.530	 -0.134	 32.500	 100.885	  0.320
48269	 -0.366	  0.108	  0.350	  1.874	 -2.447	 -9.946	  0.007	 -0.088	 -0.151	 32.500	 100.896	 -0.657
48319	 -0.360	  0.106	  0.354	  0.121	  0.040	 -10.156	 -0.334	 -0.223	  0.029	 32.500	 100.885	  0.320
48369	 -0.358	  0.100	  0.359	  0.793	  0.283	 -10.164	  0.097	 -0.080	  0.015	 32.500	 100.881	  0.676
48419	 -0.361	  0.099	  0.358	 -0.034	  0.461	 -12.876	  0.134	 -0.020	 -0.142	 32.500	 100.885	  0.320
48469	 -0.363	  0.102	  0.348	  1.144	 -1.669	 -6.037	  0.394	  0.672	 -0.070	 32.500	 100.892	 -0.301
48519	 -0.374	  0.113	  0.343	  5.491	 -4.817	 -6.082	  0.130	  0.297	  0.197	 32.500	 100.881	  0.676
48569	 -0.362	  0.105	  0.350	 -0.150	  4.577	 -17.720	 -0.642	 -1.735	 -0.169	 32.500	 100.885	  0.320
48619	 -0.336	  0.092	  0.376	 -7.386	  1.138	 -4.445	  0.408	  0.147	 -0.381	 32.500	 100.881	  0.676
48669	 -0.370	  0.109	  0.343	  9.205	 -6.739	 -6.858	  0.955	  1.893	  0.392	 32.500	 100.885	  0.320
48719	 -0.363	  0.120	  0.352	 -5.063	  5.110	 -20.569	 -0.953	 -1.723	  0.347	 32.500	 100.892	 -0.301
48769	 -0.348	  0.101	  0.368	 -3.764	 -5.662	  0.605	  0.209	  0.901	 -0.350	 32.500	 100.885	  0.320
48819	 -0.378	  0.112	  0.339	  8.924	 -0.783	 -15.373	 -0.589	  0.624	  0.764	 32.500	 100.892	 -0.301
48869	 -0.353	  0.104	  0.363	 -5.051	  4.472	 -11.187	 -0.379	 -0.984	 -0.284	 32.500	 100.896	 -0.657
48919	 -0.367	  0.101	  0.348	  2.932	 -4.431	  0.168	  0.464	  1.743	  0.198	 32.500	 100.896	 -0.657
48968	 -0.380	  0.118	  0.331	  2.265	  3.428	 -18.625	 -0.426	 -0.629	  0.085	 32.500	 100.885	  0.320
49018	 -0.359	  0.092	  0.352	 -0.723	 -0.391	 -4.472	 -0.135	 -0.364	 -0.130	 32.500	 100.885	  0.320
49068	 -0.371	  0.105	  0.343	  8.031	 -10.215	 -5.862	  1.299	  0.970	 -0.784	 32.500	 100.896	 -0.657
49119	 -0.373	  0.099	  0.346	 -9.250	  4.812	 -22.508	 -1.240	 -1.653	  0.102	 32.500	 100.885	  0.320
49168	 -0.346	  0.084	  0.370	 -3.276	 -0.510	 -4.259	 -0.317	  0.260	  0.528	 32.500	 100.885	  0.320
49218	 -0.366	  0.111	  0.351	  5.447	 -8.936	 -9.391	  0.694	  1.708	  1.071	 32.500	 100.885	  0.320
49268	 -0.371	  0.121	  0.340	 -0.433	  9.726	 -18.973	 -1.141	 -0.414	  0.287	 32.500	 100.885	  0.320
49318	 -0.366	  0.111	  0.350	 -0.505	  1.361	  0.013	  0.852	  0.373	 -0.124	 32.500	 100.885	  0.320
49368	 -0.392	  0.134	  0.315	  7.606	 -10.820	 -5.469	  1.626	  1.733	 -0.613	 32.500	 100.885	  0.320
49418	 -0.401	  0.132	  0.304	 -3.888	  4.676	 -19.602	 -1.094	 -0.976	  0.061	 32.500	 100.896	 -0.657
49468	 -0.378	  0.116	  0.331	  0.358	  2.996	 -1.798	  0.180	 -0.625	 -0.078	 32.500	 100.892	 -0.301
49518	 -0.388	  0.135	  0.316	  6.581	 -9.358	 -5.338	  1.168	  1.001	  0.297	 32.500	 100.885	  0.320
49568	 -0.379	  0.150	  0.326	 -1.946	  5.213	 -22.282	 -1.971	 -1.990	  0.607	 32.500	 100.885	  0.320
49618	 -0.358	  0.121	  0.350	 -2.264	  0.251	  0.039	  0.901	  0.080	 -0.885	 32.500	 100.870	  1.652
49668	 -0.388	  0.147	  0.316	  9.428	 -10.246	 -7.822	  1.241	  1.746	  0.672	 32.500	 100.885	  0.320
49718	 -0.370	  0.154	  0.326	 -1.058	  7.016	 -19.882	 -2.021	 -1.745	  0.165	 32.500	 100.896	 -0.657
49768	 -0.365	  0.126	  0.334	  0.300	 -3.294	  7.473	  1.346	  0.925	 -0.446	 32.500	 100.885	  0.320
49818	 -0.389	  0.161	  0.301	  6.190	 -7.200	 -21.423	  0.111	 -0.162	  1.023	 32.500	 100.896	 -0.657
49868	 -0.350	  0.150	  0.338	 -3.903	 10.858	 -7.446	 -0.865	 -0.580	 -0.089	 32.500	 100.892	 -0.301
49918	 -0.373	  0.147	  0.316	  4.254	 -12.962	  1.407	  1.815	  1.613	 -0.648	 32.500	 100.892	 -0.301
49968	 -0.378	  0.166	  0.311	  1.452	 -1.419	 -25.978	 -2.011	 -1.548	  0.881	 32.500	 100.881	  0.676
50018	 -0.351	  0.138	  0.344	 -1.834	  7.444	  0.291	  0.437	  0.393	 -0.390	 32.500	 100.885	  0.320
50068	 -0.390	  0.166	  0.294	  6.099	 -14.585	 -8.913	  1.878	  2.155	  0.015	 32.500	 100.892	 -0.301
50118	 -0.375	  0.174	  0.304	 -0.475	  3.353	 -20.829	 -2.547	 -1.919	  1.330	 32.500	 100.885	  0.320
50168	 -0.369	  0.169	  0.312	  2.380	 -6.355	  6.081	  2.200	  1.864	 -0.750	 32.500	 100.885	  0.320
50218	 -0.403	  0.191	  0.264	  7.557	 -6.771	 -15.930	 -0.439	  0.514	  0.501	 32.500	 100.896	 -0.657
50268	 -0.384	  0.179	  0.295	 -0.935	  5.425	 -8.428	 -1.135	 -1.050	 -0.082	 32.500	 100.885	  0.320
50318	 -0.388	  0.176	  0.297	  1.550	 -2.040	 -6.978	  0.775	  0.802	 -0.157	 32.500	 100.885	  0.320
50368	 -0.405	  0.188	  0.283	  5.976	 -5.267	 -9.474	  0.457	  0.268	  0.065	 32.500	 100.881	  0.676
50418	 -0.400	  0.185	  0.286	  2.707	 -2.117	 -9.184	 -0.213	 -0.600	 -0.091	 32.500	 100.881	  0.676
50468	 -0.397	  0.176	  0.299	  0.451	 -0.275	 -10.188	 -0.073	 -0.276	 -0.479	 32.500	 100.885	  0.320
50518	 -0.400	  0.170	  0.303	  1.901	 -1.572	 -9.965	  0.015	 -0.102	 -0.082	 32.500	 100.874	  1.297
50568	 -0.401	  0.169	  0.303	  1.883	 -2.835	 -9.427	  0.129	  0.100	  0.105	 32.500	 100.885	  0.320
50618	 -0.405	  0.170	  0.294	  2.885	 -2.322	 -9.176	 -0.065	  0.037	  0.017	 32.500	 100.892	 -0.301
50668	 -0.400	  0.170	  0.300	  2.552	 -1.621	 -9.426	 -0.187	 -0.236	 -0.029	 32.500	 100.896	 -0.657
50718	 -0.393	  0.163	  0.313	  1.467	 -1.376	 -9.627	 -0.170	 -0.273	 -0.015	 32.500	 100.896	 -0.657
50768	 -0.391	  0.164	  0.315	  1.698	 -2.073	 -9.391	  0.177	  0.039	 -0.064	 32.500	 100.896	 -0.657
50818	 -0.394	  0.161	  0.315	  2.369	 -2.983	 -9.225	 -0.003	  0.043	 -0.026	 32.500	 100.896	 -0.657
50868	 -0.393	  0.159	  0.317	  3.240	 -2.603	 -8.940	 -0.231	 -0.187	 -0.060	 32.500	 100.892	 -0.301
50918	 -0.389	  0.160	  0.323	  2.442	 -1.980	 -9.133	 -0.338	 -0.490	 -0.106	 32.500	 100.885	  0.320
50968	 -0.380	  0.146	  0.334	  2.126	 -1.967	 -9.163	 -0.433	 -0.668	 -0.129	 32.500	 100.896	 -0.657
51018	 -0.365	  0.143	  0.346	  0.218	 -0.797	 -9.916	 -0.444	 -0.587	 -0.058	 32.500	 100.885	  0.320
51068	 -0.357	  0.139	  0.361	 -0.319	 -1.136	 -10.119	 -0.394	 -0.331	  0.005	 32.500	 100.881	  0.676
51118	 -0.355	  0.130	  0.361	  0.471	 -1.188	 -9.842	 -0.438	 -0.071	  0.047	 32.500	 100.885	  0.320
51168	 -0.352	  0.132	  0.370	  1.578	 -1.429	 -9.396	 -0.591	 -0.110	  0.010	 32.500	 100.896	 -0.657
51218	 -0.347	  0.110	  0.373	  1.697	 -0.872	 -9.290	 -0.742	 -0.331	 -0.048	 32.500	 100.885	  0.320
51268	 -0.340	  0.100	  0.383	 -0.252	  4.966	 -10.402	 -0.242	 -0.674	 -0.280	 32.500	 100.885	  0.320
51318	 -0.332	  0.097	  0.388	 -2.372	  3.132	 -10.231	  0.066	 -0.435	 -0.321	 32.500	 100.896	 -0.657
51368	 -0.332	  0.098	  0.389	  0.444	 -0.151	 -9.929	 -0.009	  0.021	  0.113	 32.500	 100.885	  0.320
51418	 -0.330	  0.102	  0.388	 -0.392	  0.093	 -9.954	 -0.015	  0.003	  0.223	 32.500	 100.885	  0.320
51468	 -0.331	  0.107	  0.386	  0.420	 -0.171	 -9.779	 -0.007	  0.002	  0.149	 32.500	 100.881	  0.676
51518	 -0.328	  0.107	  0.386	  0.433	 -0.098	 -9.802	 -0.007	  0.002	  0.131	 32.500	 100.896	 -0.657
51568	 -0.327	  0.110	  0.379	  0.234	  0.260	 -9.792	 -0.010	  0.002	  0.065	 32.500	 100.881	  0.676
51618	 -0.326	  0.113	  0.386	 -0.116	  0.712	 -9.790	 -0.004	 -0.000	  0.007	 32.500	 100.896	 -0.657
51668	 -0.327	  0.110	  0.377	  0.190	 -0.041	 -9.822	 -0.005	  0.005	 -0.022	 32.500	 100.885	  0.320
51718	 -0.329	  0.112	  0.385	  0.280	  0.010	 -9.760	 -0.007	  0.000	 -0.019	 32.500	 100.896	 -0.657
51768	 -0.326	  0.107	  0.387	  0.277	 -0.004	 -9.804	 -0.003	  0.002	  0.001	 32.500	 100.896	 -0.657
51818	 -0.325	  0.109	  0.384	  0.252	 -0.000	 -9.813	 -0.003	  0.002	  0.001	 32.500	 100.896	 -0.657
51868	 -0.327	  0.109	  0.385	  0.269	  0.008	 -9.810	 -0.004	  0.002	 -0.000	 32.500	 100.896	 -0.657
51918	 -0.326	  0.111	  0.386	  0.276	 -0.005	 -9.741	 -0.003	  0.004	  0.000	 32.500	 100.896	 -0.657
51968	 -0.325	  0.113	  0.386	  0.287	 -0.019	 -9.807	 -0.004	  0.002	  0.000	 32.500	 100.896	 -0.657
52018	 -0.327	  0.109	  0.383	  0.278	  0.024	 -9.798	 -0.003	  0.003	  0.000	 32.500	 100.885	  0.320
52068	 -0.327	  0.110	  0.375	  0.275	  0.002	 -9.777	 -0.003	  0.003	  0.001	 32.500	 100.885	  0.320
52118	 -0.327	  0.108	  0.387	  0.263	 -0.002	 -9.799	 -0.003	  0.003	  0.002	 32.500	 100.896	 -0.657
52168	 -0.328	  0.108	  0.383	  0.281	  0.024	 -9.793	 -0.003	  0.002	  0.001	 32.500	 100.892	 -0.301
52218	 -0.326	  0.108	  0.381	  0.278	  0.022	 -9.789	 -0.004	  0.001	  0.001	 32.500	 100.896	 -0.657
52268	 -0.328	  0.108	  0.382	  0.288	  0.038	 -9.807	 -0.008	 -0.001	  0.001	 32.500	 100.892	 -0.301
52318	 -0.326	  0.112	  0.386	  0.269	  0.110	 -9.770	 -0.002	  0.002	  0.000	 32.500	 100.885	  0.320
52368	 -0.327	  0.107	  0.384	  0.210	  0.059	 -9.768	 -0.005	  0.000	 -0.001	 32.500	 100.885	  0.320
52418	 -0.327	  0.113	  0.386	  0.296	 -0.053	 -9.817	 -0.005	  0.001	 -0.002	 32.500	 100.885	  0.320
52468	 -0.326	  0.114	  0.384	  0.307	 -0.183	 -9.792	 -0.009	 -0.004	 -0.002	 32.500	 100.896	 -0.657
52518	 -0.326	  0.108	  0.385	  0.347	 -0.094	 -9.758	 -0.003	 -0.000	 -0.000	 32.500	 100.885	  0.320
52568	 -0.327	  0.109	  0.386	  0.276	 -0.010	 -9.751	 -0.004	  0.002	 -0.000	 32.500	 100.885	  0.320
52618	 -0.329	  0.109	  0.385	  0.251	  0.067	 -9.801	 -0.002	  0.001	  0.001	 32.500	 100.885	  0.320
52668	 -0.326	  0.111	  0.385	  0.291	 -0.006	 -9.807	 -0.003	  0.002	  0.001	 32.500	 100.885	  0.320
52718	 -0.329	  0.112	  0.382	  0.291	 -0.017	 -9.758	 -0.004	  0.002	  0.001	 32.500	 100.885	  0.320
52768	 -0.326	  0.108	  0.383	  0.281	  0.004	 -9.796	 -0.003	  0.003	  0.001	 32.500	 100.885	  0.320
52818	 -0.327	  0.110	  0.387	  0.272	 -0.017	 -9.788	 -0.002	  0.002	  0.001	 32.500	 100.896	 -0.657
52868	 -0.328	  0.106	  0.380	  0.301	 -0.012	 -9.773	 -0.002	  0.002	  0.001	 32.500	 100.885	  0.320
52918	 -0.327	  0.109	  0.378	  0.288	  0.002	 -9.788	 -0.002	  0.003	 -0.000	 32.500	 100.896	 -0.657
52968	 -0.326	  0.109	  0.386	  0.285	  0.001	 -9.787	 -0.003	  0.000	  0.001	 32.500	 100.885	  0.320
53018	 -0.324	  0.109	  0.377	  0.460	 -0.152	 -9.817	 -0.050	 -0.052	  0.000	 32.500	 100.885	  0.320
53068	 -0.325	  0.111	  0.385	  0.667	 -0.343	 -9.817	 -0.019	 -0.018	 -0.000	 32.500	 100.885	  0.320
53118	 -0.326	  0.109	  0.387	  0.224	  0.067	 -9.824	 -0.001	 -0.008	  0.001	 32.500	 100.885	  0.320
53167	 -0.325	  0.111	  0.389	  0.250	  0.033	 -9.824	 -0.003	  0.001	  0.001	 32.500	 100.896	 -0.657
53217	 -0.327	  0.108	  0.387	  0.249	  0.010	 -9.780	 -0.003	  0.002	 -0.001	 32.500	 100.896	 -0.657
53268	 -0.324	  0.116	  0.384	  0.231	  0.050	 -9.775	 -0.002	  0.004	  0.001	 32.500	 100.885	  0.320
53317	 -0.327	  0.109	  0.385	  0.073	  0.140	 -9.752	  0.017	  0.026	  0.001	 32.500	 100.896	 -0.657
53367	 -0.327	  0.110	  0.383	 -0.024	  0.238	 -9.930	 -0.029	 -0.013	  0.003	 32.500	 100.870	  1.652
53417	 -0.326	  0.107	  0.386	  0.195	  0.077	 -9.944	  0.021	  0.028	  0.002	 32.500	 100.885	  0.320
53467	 -0.327	  0.109	  0.380	  1.257	 -1.040	 -9.640	 -0.012	 -0.006	 -0.003	 32.500	 100.892	 -0.301
53518	 -0.326	  0.107	  0.383	  0.085	  0.336	 -9.741	  0.003	  0.005	 -0.000	 32.500	 100.885	  0.320
53567	 -0.329	  0.108	  0.384	  0.598	 -0.190	 -9.751	 -0.002	  0.002	 -0.000	 32.500	 100.885	  0.320
53617	 -0.327	  0.108	  0.384	  0.029	  0.165	 -9.855	 -0.004	 -0.001	 -0.001	 32.500	 100.885	  0.320
53667	 -0.326	  0.112	  0.386	  0.133	  0.093	 -9.812	 -0.003	  0.008	  0.000	 32.500	 100.896	 -0.657
53718	 -0.325	  0.110	  0.385	  0.312	 -0.038	 -9.785	 -0.003	  0.002	  0.000	 32.500	 100.885	  0.320
53768	 -0.326	  0.109	  0.383	  0.317	 -0.008	 -9.795	 -0.003	  0.002	  0.001	 32.500	 100.885	  0.320
53818	 -0.326	  0.111	  0.389	  0.240	  0.038	 -9.819	 -0.003	  0.003	  0.000	 32.500	 100.885	  0.320
53868	 -0.327	  0.110	  0.384	  0.256	 -0.019	 -9.771	 -0.003	  0.001	 -0.000	 32.500	 100.896	 -0.657
53918	 -0.327	  0.108	  0.385	  0.260	  0.020	 -9.791	 -0.002	  0.003	  0.001	 32.500	 100.885	  0.320
53968	 -0.327	  0.106	  0.385	  0.255	  0.022	 -9.788	 -0.003	  0.002	  0.001	 32.500	 100.885	  0.320
54018	 -0.329	  0.112	  0.385	  0.369	 -0.084	 -9.805	 -0.013	 -0.009	  0.001	 32.500	 100.885	  0.320
54068	 -0.327	  0.110	  0.385	  0.327	 -0.059	 -9.819	 -0.032	 -0.030	 -0.001	 32.500	 100.885	  0.320
54118	 -0.326	  0.110	  0.385	  0.351	 -0.087	 -9.832	 -0.001	  0.011	 -0.000	 32.500	 100.885	  0.320
54168	 -0.327	  0.108	  0.386	  0.191	  0.096	 -9.809	 -0.002	  0.005	  0.001	 32.500	 100.881	  0.676
54218	 -0.328	  0.107	  0.382	  0.143	  0.123	 -9.791	  0.028	  0.038	  0.001	 32.500	 100.896	 -0.657
54268	 -0.326	  0.109	  0.386	 -0.044	  0.142	 -9.811	  0.005	  0.009	  0.000	 32.500	 100.896	 -0.657
54318	 -0.327	  0.109	  0.384	  0.121	  0.289	 -9.748	  0.008	  0.014	  0.001	 32.500	 100.881	  0.676
54368	 -0.326	  0.112	  0.382	  0.066	  0.177	 -9.754	 -0.002	  0.009	  0.001	 32.500	 100.885	  0.320
54418	 -0.328	  0.108	  0.384	  0.293	 -0.034	 -9.796	 -0.005	  0.000	  0.001	 32.500	 100.885	  0.320
54468	 -0.328	  0.108	  0.385	  0.342	 -0.059	 -9.802	 -0.004	  0.003	  0.000	 32.500	 100.885	  0.320
54518	 -0.327	  0.106	  0.385	  0.243	  0.023	 -9.805	 -0.003	  0.001	  0.001	 32.500	 100.896	 -0.657
54568	 -0.327	  0.108	  0.385	  0.233	  0.028	 -9.835	 -0.003	  0.002	  0.000	 32.500	 100.885	  0.320
54618	 -0.329	  0.108	  0.379	  0.351	 -0.092	 -9.778	 -0.004	  0.002	 -0.000	 32.500	 100.881	  0.676
54668	 -0.327	  0.110	  0.386	  0.407	 -0.260	 -9.811	 -0.008	 -0.003	  0.002	 32.500	 100.881	  0.676
54718	 -0.326	  0.120	  0.385	  0.276	 -0.031	 -9.828	 -0.002	  0.006	  0.001	 32.500	 100.896	 -0.657
54768	 -0.326	  0.112	  0.386	  0.202	  0.052	 -9.826	 -0.003	  0.003	  0.002	 32.500	 100.885	  0.320
54818	 -0.325	  0.110	  0.384	  0.294	 -0.147	 -9.807	 -0.006	  0.002	  0.000	 32.500	 100.896	 -0.657
54868	 -0.327	  0.105	  0.387	  0.263	  0.016	 -9.785	 -0.003	  0.004	  0.002	 32.500	 100.885	  0.320
54918	 -0.327	  0.108	  0.384	  0.267	  0.059	 -9.791	 -0.003	  0.002	  0.001	 32.500	 100.896	 -0.657
54968	 -0.325	  0.110	  0.385	  0.310	 -0.030	 -9.773	 -0.004	  0.002	  0.002	 32.500	 100.885	  0.320
55018	 -0.331	  0.107	  0.383	  0.253	  0.036	 -9.776	 -0.004	  0.001	  0.001	 32.500	 100.889	 -0.035
55068	 -0.327	  0.108	  0.383	  0.276	  0.016	 -9.768	 -0.003	  0.002	  0.000	 32.500	 100.885	  0.320
55118	 -0.328	  0.107	  0.386	  0.272	  0.005	 -9.778	 -0.002	  0.003	  0.001	 32.500	 100.896	 -0.657
55168	 -0.326	  0.110	  0.385	  0.275	 -0.001	 -9.798	 -0.004	  0.003	  0.001	 32.500	 100.885	  0.320
55218	 -0.325	  0.108	  0.385	  0.267	  0.009	 -9.777	 -0.004	  0.002	  0.000	 32.500	 100.885	  0.320
55268	 -0.326	  0.111	  0.386	  0.291	  0.000	 -9.809	 -0.003	  0.002	  0.001	 32.500	 100.896	 -0.657
55318	 -0.325	  0.110	  0.384	  0.262	  0.032	 -9.788	 -0.003	  0.002	  0.001	 32.500	 100.896	 -0.657
55368	 -0.327	  0.108	  0.385	  0.264	  0.026	 -9.804	 -0.002	  0.002	  0.000	 32.500	 100.896	 -0.657
55418	 -0.326	  0.109	  0.385	  0.266	  0.028	 -9.773	 -0.003	  0.002	 -0.000	 32.500	 100.892	 -0.301
55468	 -0.327	  0.107	  0.380	  0.293	 -0.008	 -9.789	 -0.004	  0.001	  0.001	 32.500	 100.885	  0.320
55518	 -0.326	  0.109	  0.387	  0.266	 -0.002	 -9.793	 -0.003	  0.001	  0.000	 32.500	 100.885	  0.320
55568	 -0.326	  0.107	  0.385	  0.277	  0.010	 -9.784	 -0.004	  0.002	  0.001	 32.500	 100.885	  0.320
55618	 -0.328	  0.107	  0.385	  0.269	  0.011	 -9.784	 -0.003	  0.002	  0.001	 32.500	 100.885	  0.320
55668	 -0.324	  0.109	  0.384	  0.273	 -0.001	 -9.787	 -0.003	  0.002	  0.001	 32.500	 100.892	 -0.301
55718	 -0.326	  0.112	  0.386	  0.273	  0.008	 -9.788	 -0.004	  0.001	  0.000	 32.500	 100.885	  0.320
55768	 -0.324	  0.110	  0.384	  0.264	  0.010	 -9.786	 -0.002	  0.003	  0.000	 32.500	 100.896	 -0.657
55818	 -0.326	  0.107	  0.384	  0.238	 -0.002	 -9.823	 -0.004	  0.002	  0.001	 32.500	 100.885	  0.320
55868	 -0.326	  0.107	  0.383	  0.270	  0.008	 -9.806	 -0.004	  0.004	  0.001	 32.500	 100.885	  0.320
55918	 -0.324	  0.120	  0.384	  0.269	  0.005	 -9.786	 -0.004	  0.002	  0.000	 32.500	 100.885	  0.320
55967	 -0.325	  0.110	  0.383	  0.285	  0.021	 -9.770	 -0.004	  0.002	  0.002	 32.500	 100.874	  1.297
56018	 -0.325	  0.108	  0.385	  0.247	  0.000	 -9.777	 -0.003	  0.002	 -0.000	 32.500	 100.885	  0.320
