Time	 MagX	 MagY	 MagZ	 AccelX	 AccelY	 AccelZ	 Yaw	 Pitch	 Roll	 Temperature	 Pressure	 Altitude
11055	 -0.316	  0.124	  0.377	  0.266	  0.002	 -9.765	 -0.004	  0.003	  0.001	 32.500	 100.885	 -99999.000
11105	 -0.312	  0.126	  0.380	  0.279	  0.019	 -9.777	 -0.003	  0.001	  0.002	 32.500	 100.881	 -99999.000
11155	 -0.315	  0.124	  0.379	  0.272	 -0.001	 -9.775	 -0.003	  0.002	 -0.000	 32.500	 100.885	 -99999.000
11205	 -0.313	  0.125	  0.380	  0.264	  0.008	 -9.779	 -0.002	  0.002	  0.001	 32.500	 100.885	 -99999.000
11255	 -0.312	  0.126	  0.375	  0.268	  0.003	 -9.786	 -0.004	  0.001	  0.001	 32.500	 100.896	 -99999.000
11305	 -0.313	  0.128	  0.381	  0.259	  0.031	 -9.781	 -0.003	  0.002	  0.000	 32.500	 100.885	 -99999.000
11355	 -0.315	  0.126	  0.381	  0.282	 -0.009	 -9.769	 -0.004	  0.002	  0.001	 32.500	 100.885	 -99999.000
11405	 -0.313	  0.122	  0.380	  0.239	  0.023	 -9.797	 -0.004	  0.002	  0.001	 32.500	 100.885	 -99999.000
11455	 -0.316	  0.124	  0.377	  0.282	  0.036	 -9.782	 -0.003	  0.003	  0.000	 32.500	 100.885	 -99999.000
11505	 -0.311	  0.123	  0.379	  0.271	  0.009	 -9.770	 -0.004	  0.001	  0.001	 32.500	 100.885	 -99999.000
11555	 -0.314	  0.126	  0.380	  0.271	  0.021	 -9.769	 -0.004	  0.003	  0.000	 32.500	 100.885	 -99999.000
11605	 -0.313	  0.125	  0.378	  0.277	  0.004	 -9.795	 -0.002	  0.003	  0.000	 32.500	 100.874	 -99999.000
11655	 -0.313	  0.129	  0.382	  0.294	  0.010	 -9.792	 -0.005	  0.003	  0.001	 32.500	 100.896	 -99999.000
11705	 -0.313	  0.128	  0.378	  0.264	  0.015	 -9.790	 -0.003	  0.002	  0.000	 32.500	 100.892	 -99999.000
11754	 -0.311	  0.129	  0.382	  0.267	 -0.017	 -9.799	 -0.004	  0.003	  0.001	 32.500	 100.896	 -99999.000
11805	 -0.314	  0.125	  0.379	  0.275	 -0.000	 -9.763	 -0.002	  0.003	  0.001	 32.500	 100.908	 -99999.000
11854	 -0.313	  0.127	  0.382	  0.256	 -0.021	 -9.806	 -0.004	  0.003	  0.001	 32.500	 100.896	 -99999.000
11905	 -0.315	  0.124	  0.378	  0.258	 -0.011	 -9.763	 -0.002	  0.002	  0.001	 32.500	 100.885	 -99999.000
11954	 -0.314	  0.124	  0.375	  0.275	  0.017	 -9.768	 -0.003	  0.001	  0.001	 32.500	 100.885	 -99999.000
12005	 -0.313	  0.124	  0.379	  0.270	  0.035	 -9.793	 -0.004	  0.002	  0.001	 32.500	 100.885	 -99999.000
12054	 -0.316	  0.125	  0.376	  0.266	  0.008	 -9.769	 -0.003	  0.003	  0.002	 32.500	 100.896	 -99999.000
12104	 -0.314	  0.129	  0.379	  0.269	  0.003	 -9.785	 -0.004	  0.002	 -0.000	 32.500	 100.885	 -99999.000
12155	 -0.313	  0.123	  0.378	  0.242	 -0.001	 -9.818	 -0.003	  0.002	  0.001	 32.500	 100.885	 -99999.000
12205	 -0.314	  0.125	  0.383	  0.273	  0.002	 -9.811	 -0.004	  0.003	  0.001	 32.500	 100.885	 -99999.000
12254	 -0.314	  0.123	  0.377	  0.259	 -0.001	 -9.793	 -0.003	  0.003	  0.002	 32.500	 100.896	 -99999.000
12304	 -0.313	  0.135	  0.379	  0.263	  0.018	 -9.802	 -0.003	  0.002	  0.001	 32.500	 100.892	 -99999.000
12354	 -0.313	  0.123	  0.379	  0.272	  0.007	 -9.822	 -0.004	  0.002	  0.001	 32.500	 100.896	 -99999.000
12404	 -0.312	  0.125	  0.377	  0.257	 -0.025	 -9.788	 -0.004	  0.002	  0.001	 32.500	 100.881	 -99999.000
12454	 -0.315	  0.125	  0.383	  0.283	  0.012	 -9.777	 -0.005	  0.001	  0.001	 32.500	 100.885	 -99999.000
12504	 -0.315	  0.127	  0.379	  0.275	  0.015	 -9.774	 -0.003	  0.003	  0.001	 32.500	 100.885	 -99999.000
12554	 -0.313	  0.126	  0.380	  0.280	 -0.012	 -9.807	 -0.004	  0.002	  0.002	 32.500	 100.885	 -99999.000
12604	 -0.314	  0.128	  0.379	  0.279	  0.013	 -9.797	 -0.002	  0.003	 -0.000	 32.500	 100.885	 -99999.000
12654	 -0.314	  0.124	  0.379	  0.271	  0.003	 -9.805	 -0.004	  0.001	 -0.000	 32.500	 100.885	 -99999.000
12704	 -0.314	  0.124	  0.380	  0.272	  0.018	 -9.782	 -0.004	  0.002	  0.000	 32.500	 100.885	 -99999.000
12754	 -0.311	  0.130	  0.381	  0.279	  0.016	 -9.803	 -0.003	  0.003	  0.001	 32.500	 100.885	 -99999.000
12804	 -0.313	  0.127	  0.375	  0.270	 -0.003	 -9.797	 -0.004	  0.004	 -0.000	 32.500	 100.885	 -99999.000
12854	 -0.313	  0.125	  0.370	  0.258	  0.005	 -9.782	 -0.003	  0.002	  0.001	 32.500	 100.874	 -99999.000
12904	 -0.314	  0.125	  0.380	  0.287	  0.007	 -9.780	 -0.004	  0.002	  0.000	 32.500	 100.881	 -99999.000
12954	 -0.314	  0.129	  0.377	  0.237	  0.009	 -9.801	 -0.004	  0.004	  0.000	 32.500	 100.896	 -99999.000
13004	 -0.316	  0.128	  0.380	  0.268	  0.003	 -9.793	 -0.004	  0.002	  0.001	 32.500	 100.874	 -99999.000
13055	 -0.315	  0.126	  0.380	  0.270	  0.003	 -9.786	 -0.004	  0.003	  0.000	 32.500	 100.885	 -99999.000
13104	 -0.312	  0.124	  0.379	  0.284	 -0.001	 -9.784	 -0.004	  0.001	  0.001	 32.500	 100.896	 -99999.000
13154	 -0.315	  0.126	  0.377	  0.278	  0.001	 -9.742	 -0.003	  0.003	  0.001	 32.500	 100.885	 -99999.000
13204	 -0.313	  0.127	  0.382	  0.281	  0.022	 -9.764	 -0.001	 -0.001	  0.002	 32.500	 100.896	 -99999.000
13254	 -0.313	  0.132	  0.379	  0.277	 -0.030	 -9.777	 -0.003	  0.002	  0.001	 32.500	 100.896	 -99999.000
13304	 -0.314	  0.128	  0.378	  0.296	 -0.014	 -9.794	 -0.004	  0.004	  0.000	 32.500	 100.885	 -99999.000
13354	 -0.312	  0.125	  0.381	  0.285	  0.019	 -9.807	 -0.002	  0.002	  0.000	 32.500	 100.896	 -99999.000
13404	 -0.315	  0.127	  0.380	  0.272	  0.022	 -9.771	 -0.003	  0.002	  0.001	 32.500	 100.885	 -99999.000
13454	 -0.314	  0.125	  0.381	  0.319	  0.016	 -9.808	 -0.002	  0.003	  0.002	 32.500	 100.896	 -99999.000
13504	 -0.313	  0.129	  0.375	  0.271	  0.006	 -9.795	 -0.003	  0.003	  0.001	 32.500	 100.896	 -99999.000
13554	 -0.313	  0.130	  0.381	  0.245	 -0.009	 -9.789	 -0.003	  0.002	  0.001	 32.500	 100.881	 -99999.000
13604	 -0.313	  0.127	  0.383	  0.285	  0.006	 -9.771	 -0.003	  0.002	  0.001	 32.500	 100.885	 -99999.000
13654	 -0.314	  0.123	  0.377	  0.254	 -0.014	 -9.795	 -0.004	  0.002	  0.001	 32.500	 100.885	 -99999.000
13704	 -0.312	  0.125	  0.382	  0.244	  0.022	 -9.782	 -0.003	  0.002	  0.001	 32.500	 100.881	 -99999.000
13754	 -0.313	  0.127	  0.375	  0.274	 -0.008	 -9.787	 -0.004	  0.002	  0.000	 32.500	 100.885	 -99999.000
13804	 -0.315	  0.122	  0.381	  0.270	 -0.041	 -9.765	 -0.004	  0.003	  0.001	 32.500	 100.885	 -99999.000
13854	 -0.313	  0.125	  0.379	  0.287	  0.004	 -9.805	 -0.003	  0.003	  0.000	 32.500	 100.885	 -99999.000
13904	 -0.312	  0.125	  0.379	  0.323	 -0.012	 -9.807	 -0.003	  0.001	  0.001	 32.500	 100.881	 -99999.000
13954	 -0.313	  0.123	  0.379	  0.279	  0.000	 -9.817	 -0.003	  0.001	  0.002	 32.500	 100.885	 -99999.000
14004	 -0.312	  0.124	  0.379	  0.260	 -0.035	 -9.778	 -0.003	  0.002	  0.001	 32.500	 100.885	 -99999.000
14054	 -0.315	  0.125	  0.381	  0.283	  0.006	 -9.770	 -0.003	  0.002	  0.001	 32.500	 100.885	 -99999.000
14104	 -0.314	  0.126	  0.378	  0.265	  0.013	 -9.777	 -0.003	  0.003	 -0.000	 32.500	 100.870	 -99999.000
14154	 -0.314	  0.126	  0.378	  0.260	  0.012	 -9.782	 -0.003	  0.003	 -0.000	 32.500	 100.896	 -99999.000
14204	 -0.312	  0.134	  0.380	  0.273	  0.014	 -9.813	 -0.004	  0.004	  0.001	 32.500	 100.885	 -99999.000
14254	 -0.314	  0.125	  0.379	  0.297	 -0.006	 -9.798	 -0.004	  0.003	  0.000	 32.500	 100.885	 -99999.000
14304	 -0.312	  0.131	  0.383	  0.234	  0.006	 -9.791	 -0.004	  0.002	 -0.000	 32.500	 100.885	 -99999.000
14354	 -0.314	  0.127	  0.378	  0.265	  0.011	 -9.815	 -0.004	  0.003	  0.000	 32.500	 100.885	 -99999.000
14404	 -0.313	  0.127	  0.380	  0.279	  0.006	 -9.794	 -0.004	  0.002	  0.002	 32.500	 100.885	 -99999.000
14454	 -0.311	  0.125	  0.383	  0.260	 -0.002	 -9.799	 -0.003	  0.004	  0.001	 32.500	 100.885	 -99999.000
14504	 -0.313	  0.128	  0.378	  0.271	  0.016	 -9.771	 -0.004	  0.001	 -0.000	 32.500	 100.885	 -99999.000
14554	 -0.311	  0.126	  0.374	  0.262	 -0.004	 -9.760	 -0.004	  0.002	  0.001	 32.500	 100.892	 -99999.000
14604	 -0.314	  0.128	  0.376	  0.289	  0.004	 -9.812	 -0.003	  0.003	  0.000	 32.500	 100.870	 -99999.000
14654	 -0.313	  0.124	  0.378	  0.299	  0.001	 -9.784	 -0.003	  0.001	  0.000	 32.500	 100.896	 -99999.000
14705	 -0.314	  0.125	  0.379	  0.271	  0.015	 -9.790	 -0.004	  0.002	  0.001	 32.500	 100.885	 -99999.000
14754	 -0.312	  0.125	  0.381	  0.276	 -0.008	 -9.825	 -0.003	  0.002	  0.000	 32.500	 100.896	 -99999.000
14804	 -0.313	  0.127	  0.380	  0.285	  0.011	 -9.808	 -0.004	  0.002	  0.001	 32.500	 100.885	 -99999.000
14854	 -0.315	  0.127	  0.377	  0.281	 -0.004	 -9.793	 -0.004	  0.003	  0.000	 32.500	 100.885	 -99999.000
14904	 -0.311	  0.126	  0.383	  0.289	  0.008	 -9.794	 -0.003	  0.003	  0.001	 32.500	 100.896	 -99999.000
14954	 -0.314	  0.127	  0.382	  0.266	 -0.008	 -9.759	 -0.004	  0.003	 -0.001	 32.500	 100.885	 -99999.000
15004	 -0.314	  0.126	  0.381	  0.264	 -0.004	 -9.790	 -0.003	  0.003	  0.001	 32.500	 100.885	 -99999.000
15054	 -0.315	  0.126	  0.375	  0.257	 -0.019	 -9.771	 -0.003	  0.003	  0.001	 32.500	 100.896	 -99999.000
15104	 -0.312	  0.122	  0.380	  0.276	  0.031	 -9.762	 -0.003	  0.002	  0.001	 32.500	 100.896	 -99999.000
15154	 -0.315	  0.125	  0.380	  0.279	 -0.004	 -9.785	 -0.003	  0.002	  0.001	 32.500	 100.885	 -99999.000
15204	 -0.314	  0.123	  0.380	  0.263	  0.008	 -9.750	 -0.002	  0.002	  0.002	 32.500	 100.885	 -99999.000
15254	 -0.314	  0.126	  0.379	  0.273	 -0.001	 -9.776	 -0.003	  0.002	  0.001	 32.500	 100.885	 -99999.000
15304	 -0.317	  0.125	  0.375	  0.248	 -0.010	 -9.776	 -0.003	  0.003	  0.001	 32.500	 100.896	 -99999.000
15354	 -0.314	  0.126	  0.375	  0.261	 -0.023	 -9.785	 -0.004	  0.003	  0.001	 32.500	 100.885	 -99999.000
15405	 -0.312	  0.129	  0.378	  0.261	  0.023	 -9.811	 -0.003	  0.002	  0.000	 32.500	 100.896	 -99999.000
15454	 -0.316	  0.125	  0.377	  0.260	 -0.008	 -9.801	 -0.005	  0.003	  0.001	 32.500	 100.885	 -99999.000
15505	 -0.313	  0.127	  0.377	  0.276	  0.016	 -9.768	 -0.003	  0.002	  0.000	 32.500	 100.885	 -99999.000
15554	 -0.316	  0.125	  0.382	  0.297	  0.003	 -9.762	 -0.003	  0.001	  0.000	 32.500	 100.885	 -99999.000
15604	 -0.312	  0.126	  0.381	  0.267	  0.015	 -9.790	 -0.002	  0.002	  0.001	 32.500	 100.885	 -99999.000
15654	 -0.313	  0.126	  0.379	  0.263	 -0.003	 -9.778	 -0.003	  0.001	  0.002	 32.500	 100.885	 -99999.000
15704	 -0.315	  0.126	  0.376	  0.275	  0.006	 -9.816	 -0.003	  0.002	  0.001	 32.500	 100.885	 -99999.000
15755	 -0.313	  0.124	  0.381	  0.285	  0.004	 -9.752	 -0.004	  0.001	  0.002	 32.500	 100.896	 -99999.000
15805	 -0.311	  0.125	  0.379	  0.272	  0.015	 -9.781	 -0.005	  0.002	 -0.000	 32.500	 100.889	 -99999.000
15855	 -0.314	  0.127	  0.379	  0.281	  0.011	 -9.768	 -0.001	  0.003	  0.000	 32.500	 100.881	 -99999.000
15905	 -0.313	  0.124	  0.381	  0.269	 -0.011	 -9.786	 -0.004	  0.003	  0.001	 32.500	 100.885	 -99999.000
15954	 -0.313	  0.126	  0.372	  0.277	  0.006	 -9.805	 -0.004	  0.002	  0.002	 32.500	 100.874	 -99999.000
16005	 -0.314	  0.125	  0.381	  0.267	  0.006	 -9.783	 -0.004	  0.002	  0.001	 32.500	 100.885	 -99999.000
16055	 -0.313	  0.127	  0.380	  0.284	  0.003	 -9.804	 -0.002	  0.003	  0.002	 32.500	 100.892	 -99999.000
16105	 -0.312	  0.127	  0.381	  0.265	  0.002	 -9.778	 -0.003	  0.003	  0.001	 32.500	 100.896	 -99999.000
16154	 -0.314	  0.123	  0.377	  0.249	  0.011	 -9.795	 -0.003	  0.001	  0.001	 32.500	 100.881	 -99999.000
16204	 -0.314	  0.136	  0.381	  0.281	 -0.021	 -9.760	 -0.003	  0.003	 -0.000	 32.500	 100.892	 -99999.000
16254	 -0.314	  0.128	  0.381	  0.257	 -0.015	 -9.800	 -0.003	  0.002	  0.001	 32.500	 100.885	 -99999.000
