Time	 MagX	 MagY	 MagZ	 AccelX	 AccelY	 AccelZ	 Yaw	 Pitch	 Roll	 Temperature	 Pressure	 Altitude
23280	 -0.105	 -0.475	  0.330	  0.124	  0.031	 -9.807	 -0.003	  0.002	  0.001	 32.100	 100.894	 -99999.000
23330	 -0.107	 -0.477	  0.336	  0.092	  0.043	 -9.807	 -0.003	  0.002	  0.001	 32.100	 100.905	 -99999.000
23380	 -0.107	 -0.476	  0.328	  0.126	  0.037	 -9.813	 -0.003	  0.003	 -0.000	 32.100	 100.898	 -99999.000
23430	 -0.105	 -0.468	  0.332	  0.138	  0.023	 -9.793	 -0.004	  0.002	  0.001	 32.100	 100.898	 -99999.000
23480	 -0.106	 -0.475	  0.336	  0.121	  0.046	 -9.819	 -0.004	  0.002	  0.002	 32.100	 100.898	 -99999.000
23530	 -0.106	 -0.473	  0.332	  0.105	  0.049	 -9.768	 -0.004	  0.002	  0.001	 32.100	 100.894	 -99999.000
23579	 -0.107	 -0.476	  0.330	  0.135	  0.060	 -9.784	 -0.003	  0.002	  0.000	 32.100	 100.894	 -99999.000
23629	 -0.107	 -0.476	  0.331	  0.126	  0.011	 -9.783	 -0.003	  0.001	  0.001	 32.100	 100.894	 -99999.000
23679	 -0.105	 -0.470	  0.334	  0.120	  0.038	 -9.787	 -0.003	  0.002	  0.001	 32.100	 100.905	 -99999.000
23729	 -0.104	 -0.477	  0.335	  0.142	  0.040	 -9.776	 -0.003	  0.002	  0.000	 32.100	 100.898	 -99999.000
23779	 -0.107	 -0.476	  0.336	  0.105	  0.044	 -9.779	 -0.003	  0.002	  0.001	 32.100	 100.894	 -99999.000
23830	 -0.106	 -0.478	  0.331	  0.140	  0.062	 -9.753	 -0.003	  0.003	  0.001	 32.100	 100.905	 -99999.000
23879	 -0.106	 -0.476	  0.330	  0.123	  0.057	 -9.788	 -0.002	  0.001	  0.001	 32.100	 100.894	 -99999.000
23929	 -0.106	 -0.478	  0.329	  0.132	  0.052	 -9.760	 -0.003	  0.002	  0.000	 32.100	 100.894	 -99999.000
23979	 -0.107	 -0.479	  0.329	  0.141	  0.056	 -9.813	 -0.003	  0.002	  0.001	 32.100	 100.894	 -99999.000
24029	 -0.106	 -0.477	  0.329	  0.139	  0.039	 -9.781	 -0.002	  0.002	  0.001	 32.100	 100.894	 -99999.000
24079	 -0.106	 -0.480	  0.333	  0.123	  0.039	 -9.752	 -0.003	  0.003	 -0.000	 32.100	 100.898	 -99999.000
24129	 -0.107	 -0.476	  0.332	  0.109	  0.044	 -9.797	 -0.003	  0.003	  0.000	 32.100	 100.898	 -99999.000
24179	 -0.106	 -0.475	  0.332	  0.115	  0.038	 -9.787	 -0.004	  0.003	  0.001	 32.100	 100.883	 -99999.000
24229	 -0.108	 -0.475	  0.329	  0.120	  0.051	 -9.789	 -0.004	  0.002	  0.000	 32.100	 100.894	 -99999.000
24279	 -0.105	 -0.471	  0.331	  0.112	  0.040	 -9.791	 -0.003	  0.002	  0.000	 32.100	 100.905	 -99999.000
24330	 -0.105	 -0.474	  0.331	  0.128	  0.030	 -9.769	 -0.003	  0.003	  0.001	 32.100	 100.898	 -99999.000
24380	 -0.104	 -0.476	  0.330	  0.126	  0.038	 -9.800	 -0.003	  0.002	 -0.000	 32.100	 100.905	 -99999.000
24430	 -0.105	 -0.474	  0.333	  0.130	  0.052	 -9.773	 -0.004	  0.004	  0.001	 32.100	 100.909	 -99999.000
24479	 -0.106	 -0.472	  0.329	  0.143	  0.075	 -9.770	 -0.003	  0.002	 -0.000	 32.100	 100.898	 -99999.000
24529	 -0.105	 -0.471	  0.331	  0.130	  0.043	 -9.792	 -0.004	  0.002	  0.000	 32.100	 100.909	 -99999.000
24579	 -0.107	 -0.476	  0.330	  0.114	  0.055	 -9.773	 -0.003	  0.001	  0.000	 32.100	 100.894	 -99999.000
24630	 -0.104	 -0.474	  0.335	  0.130	  0.063	 -9.785	 -0.003	  0.002	  0.001	 32.100	 100.894	 -99999.000
24679	 -0.108	 -0.469	  0.332	  0.106	  0.037	 -9.791	 -0.004	  0.002	  0.001	 32.100	 100.898	 -99999.000
24730	 -0.106	 -0.477	  0.329	  0.133	  0.050	 -9.781	 -0.003	  0.002	  0.000	 32.100	 100.898	 -99999.000
24780	 -0.107	 -0.477	  0.332	  0.118	  0.053	 -9.796	 -0.004	  0.002	  0.000	 32.100	 100.894	 -99999.000
24830	 -0.107	 -0.477	  0.334	  0.097	  0.042	 -9.773	 -0.003	  0.001	 -0.000	 32.100	 100.898	 -99999.000
24880	 -0.106	 -0.474	  0.333	  0.108	  0.058	 -9.739	 -0.004	  0.002	 -0.000	 32.100	 100.905	 -99999.000
24930	 -0.106	 -0.469	  0.335	  0.120	  0.044	 -9.790	 -0.003	  0.002	 -0.000	 32.100	 100.894	 -99999.000
24980	 -0.108	 -0.475	  0.330	  0.126	  0.033	 -9.792	 -0.003	  0.002	  0.001	 32.100	 100.894	 -99999.000
25030	 -0.106	 -0.473	  0.329	  0.124	  0.042	 -9.784	 -0.002	  0.003	  0.002	 32.100	 100.894	 -99999.000
25081	 -0.107	 -0.478	  0.331	  0.114	  0.064	 -9.809	 -0.003	  0.002	  0.001	 32.100	 100.894	 -99999.000
25131	 -0.106	 -0.476	  0.326	  0.131	  0.039	 -9.783	 -0.004	  0.002	 -0.000	 32.100	 100.887	 -99999.000
25181	 -0.108	 -0.477	  0.333	  0.137	  0.052	 -9.827	 -0.003	  0.002	 -0.000	 32.100	 100.894	 -99999.000
25231	 -0.104	 -0.474	  0.330	  0.127	  0.053	 -9.784	 -0.004	  0.001	  0.001	 32.100	 100.909	 -99999.000
25281	 -0.108	 -0.473	  0.330	  0.109	  0.033	 -9.772	 -0.004	  0.002	  0.001	 32.100	 100.905	 -99999.000
25331	 -0.107	 -0.475	  0.335	  0.109	  0.051	 -9.769	 -0.002	  0.002	  0.002	 32.100	 100.894	 -99999.000
25381	 -0.107	 -0.476	  0.329	  0.135	  0.032	 -9.812	 -0.003	  0.003	  0.000	 32.100	 100.905	 -99999.000
25431	 -0.106	 -0.476	  0.328	  0.123	  0.046	 -9.787	 -0.003	  0.003	  0.001	 32.100	 100.898	 -99999.000
25481	 -0.107	 -0.468	  0.332	  0.112	  0.053	 -9.768	 -0.003	  0.003	  0.001	 32.100	 100.894	 -99999.000
25531	 -0.107	 -0.478	  0.335	  0.126	  0.032	 -9.778	 -0.004	  0.003	  0.001	 32.100	 100.905	 -99999.000
25581	 -0.108	 -0.477	  0.328	  0.101	  0.039	 -9.785	 -0.004	  0.001	  0.001	 32.100	 100.898	 -99999.000
25631	 -0.105	 -0.477	  0.330	  0.142	  0.060	 -9.784	 -0.003	  0.003	  0.000	 32.100	 100.894	 -99999.000
25681	 -0.106	 -0.474	  0.330	  0.142	  0.054	 -9.783	 -0.003	  0.002	 -0.000	 32.100	 100.898	 -99999.000
25731	 -0.105	 -0.479	  0.328	  0.122	  0.056	 -9.791	 -0.002	  0.003	  0.001	 32.100	 100.909	 -99999.000
25781	 -0.105	 -0.471	  0.337	  0.138	  0.052	 -9.791	 -0.003	  0.002	  0.000	 32.100	 100.894	 -99999.000
25831	 -0.107	 -0.477	  0.331	  0.127	  0.043	 -9.794	 -0.003	  0.002	  0.001	 32.100	 100.909	 -99999.000
25881	 -0.106	 -0.471	  0.338	  0.125	  0.056	 -9.783	 -0.003	  0.003	 -0.000	 32.100	 100.898	 -99999.000
25930	 -0.108	 -0.478	  0.329	  0.109	  0.032	 -9.785	 -0.003	  0.002	 -0.000	 32.100	 100.898	 -99999.000
25980	 -0.108	 -0.474	  0.330	  0.137	  0.057	 -9.798	 -0.003	  0.002	  0.001	 32.100	 100.898	 -99999.000
26030	 -0.105	 -0.477	  0.330	  0.144	  0.050	 -9.800	 -0.004	  0.002	  0.000	 32.100	 100.909	 -99999.000
26080	 -0.107	 -0.477	  0.328	  0.115	  0.062	 -9.762	 -0.002	  0.002	  0.001	 32.100	 100.909	 -99999.000
26130	 -0.107	 -0.477	  0.332	  0.116	  0.045	 -9.802	 -0.003	  0.002	  0.001	 32.100	 100.909	 -99999.000
26180	 -0.107	 -0.477	  0.331	  0.123	  0.037	 -9.795	 -0.004	  0.001	 -0.000	 32.100	 100.894	 -99999.000
26230	 -0.104	 -0.473	  0.331	  0.140	  0.028	 -9.798	 -0.003	  0.002	  0.001	 32.100	 100.909	 -99999.000
26281	 -0.106	 -0.476	  0.334	  0.111	  0.035	 -9.832	 -0.003	  0.003	  0.001	 32.100	 100.909	 -99999.000
26330	 -0.108	 -0.475	  0.331	  0.115	  0.032	 -9.787	 -0.003	  0.002	  0.000	 32.100	 100.905	 -99999.000
26380	 -0.105	 -0.473	  0.329	  0.115	  0.052	 -9.817	 -0.004	  0.002	 -0.000	 32.100	 100.898	 -99999.000
26431	 -0.106	 -0.475	  0.336	  0.135	  0.019	 -9.784	 -0.002	  0.002	  0.002	 32.100	 100.883	 -99999.000
26480	 -0.106	 -0.473	  0.332	  0.118	  0.042	 -9.806	 -0.003	  0.001	 -0.000	 32.100	 100.909	 -99999.000
26530	 -0.108	 -0.474	  0.332	  0.112	  0.062	 -9.780	 -0.002	  0.002	 -0.000	 32.100	 100.894	 -99999.000
26580	 -0.106	 -0.477	  0.333	  0.139	  0.056	 -9.809	 -0.003	  0.001	  0.000	 32.100	 100.898	 -99999.000
26631	 -0.108	 -0.475	  0.332	  0.095	  0.026	 -9.805	 -0.004	  0.002	  0.001	 32.100	 100.909	 -99999.000
26681	 -0.106	 -0.471	  0.330	  0.132	  0.062	 -9.778	 -0.003	  0.002	  0.001	 32.100	 100.905	 -99999.000
26730	 -0.106	 -0.476	  0.333	  0.122	  0.037	 -9.788	 -0.004	  0.003	  0.001	 32.100	 100.894	 -99999.000
26780	 -0.104	 -0.473	  0.333	  0.097	  0.039	 -9.794	 -0.002	  0.002	  0.002	 32.100	 100.898	 -99999.000
26830	 -0.107	 -0.479	  0.334	  0.120	  0.023	 -9.777	 -0.003	  0.003	 -0.000	 32.100	 100.898	 -99999.000
26880	 -0.108	 -0.475	  0.330	  0.129	  0.058	 -9.791	 -0.003	  0.002	  0.000	 32.100	 100.894	 -99999.000
26930	 -0.106	 -0.478	  0.331	  0.148	  0.031	 -9.791	 -0.003	  0.003	  0.001	 32.100	 100.894	 -99999.000
26980	 -0.106	 -0.474	  0.332	  0.130	  0.047	 -9.824	 -0.003	  0.003	  0.001	 32.100	 100.909	 -99999.000
27030	 -0.106	 -0.474	  0.328	  0.140	  0.048	 -9.843	 -0.002	  0.001	  0.000	 32.100	 100.898	 -99999.000
27080	 -0.108	 -0.477	  0.336	  0.134	  0.039	 -9.827	 -0.004	  0.002	  0.001	 32.100	 100.898	 -99999.000
27130	 -0.108	 -0.478	  0.335	  0.127	  0.044	 -9.778	 -0.003	  0.002	  0.001	 32.100	 100.894	 -99999.000
27180	 -0.106	 -0.474	  0.334	  0.140	  0.024	 -9.820	 -0.004	  0.002	 -0.000	 32.100	 100.898	 -99999.000
27230	 -0.105	 -0.476	  0.333	  0.124	  0.037	 -9.829	 -0.002	  0.001	  0.000	 32.100	 100.898	 -99999.000
27280	 -0.105	 -0.471	  0.332	  0.127	  0.039	 -9.783	 -0.004	  0.002	  0.000	 32.100	 100.898	 -99999.000
27330	 -0.107	 -0.475	  0.331	  0.125	  0.059	 -9.782	 -0.004	  0.003	  0.001	 32.100	 100.905	 -99999.000
27380	 -0.106	 -0.475	  0.334	  0.134	  0.050	 -9.810	 -0.003	  0.002	  0.002	 32.100	 100.898	 -99999.000
27430	 -0.108	 -0.472	  0.333	  0.123	  0.047	 -9.792	 -0.003	  0.002	  0.001	 32.100	 100.898	 -99999.000
27480	 -0.106	 -0.476	  0.337	  0.127	  0.037	 -9.815	 -0.003	  0.003	  0.000	 32.100	 100.905	 -99999.000
27530	 -0.106	 -0.472	  0.332	  0.133	  0.046	 -9.787	 -0.003	  0.002	  0.001	 32.100	 100.894	 -99999.000
27580	 -0.107	 -0.476	  0.332	  0.124	  0.035	 -9.826	 -0.003	  0.003	  0.001	 32.100	 100.898	 -99999.000
27630	 -0.106	 -0.474	  0.331	  0.112	  0.057	 -9.810	 -0.003	  0.003	  0.000	 32.100	 100.909	 -99999.000
27680	 -0.107	 -0.475	  0.332	  0.145	  0.044	 -9.756	 -0.003	  0.002	  0.001	 32.100	 100.894	 -99999.000
27730	 -0.104	 -0.476	  0.336	  0.135	  0.027	 -9.773	 -0.003	  0.002	  0.000	 32.100	 100.905	 -99999.000
27780	 -0.107	 -0.477	  0.332	  0.131	  0.043	 -9.795	 -0.003	  0.002	  0.002	 32.100	 100.898	 -99999.000
27830	 -0.106	 -0.473	  0.333	  0.119	  0.047	 -9.814	 -0.004	  0.003	  0.001	 32.100	 100.898	 -99999.000
27880	 -0.106	 -0.474	  0.331	  0.125	  0.032	 -9.813	 -0.002	  0.003	 -0.000	 32.100	 100.894	 -99999.000
27930	 -0.105	 -0.478	  0.331	  0.111	  0.046	 -9.795	 -0.004	  0.003	 -0.000	 32.100	 100.894	 -99999.000
27980	 -0.106	 -0.477	  0.330	  0.119	  0.040	 -9.764	 -0.004	  0.003	  0.001	 32.100	 100.905	 -99999.000
28030	 -0.106	 -0.476	  0.333	  0.141	  0.043	 -9.790	 -0.004	  0.001	  0.001	 32.100	 100.894	 -99999.000
28080	 -0.108	 -0.474	  0.329	  0.137	  0.049	 -9.808	 -0.004	  0.003	  0.001	 32.100	 100.894	 -99999.000
28130	 -0.106	 -0.471	  0.332	  0.137	  0.036	 -9.790	 -0.002	  0.002	  0.001	 32.100	 100.898	 -99999.000
28180	 -0.106	 -0.474	  0.330	  0.123	  0.033	 -9.790	 -0.003	  0.002	  0.000	 32.100	 100.909	 -99999.000
28230	 -0.107	 -0.476	  0.327	  0.146	  0.047	 -9.769	 -0.003	  0.003	  0.000	 32.100	 100.909	 -99999.000
28280	 -0.108	 -0.475	  0.330	  0.100	  0.049	 -9.778	 -0.004	  0.002	  0.002	 32.100	 100.909	 -99999.000
28330	 -0.107	 -0.476	  0.332	  0.134	  0.033	 -9.788	 -0.002	  0.002	  0.001	 32.100	 100.894	 -99999.000
28380	 -0.107	 -0.478	  0.330	  0.112	  0.053	 -9.815	 -0.003	  0.003	  0.002	 32.100	 100.894	 -99999.000
28430	 -0.106	 -0.473	  0.330	  0.099	  0.058	 -9.811	 -0.002	  0.003	  0.000	 32.100	 100.909	 -99999.000
28480	 -0.108	 -0.473	  0.333	  0.139	  0.042	 -9.758	 -0.004	  0.002	  0.000	 32.100	 100.894	 -99999.000
28530	 -0.107	 -0.475	  0.330	  0.128	  0.040	 -9.796	 -0.004	  0.002	  0.002	 32.100	 100.898	 -99999.000
28580	 -0.109	 -0.478	  0.329	  0.140	  0.032	 -9.749	 -0.004	  0.001	  0.002	 32.100	 100.894	 -99999.000
28630	 -0.105	 -0.472	  0.335	  0.127	  0.050	 -9.789	 -0.002	  0.002	  0.002	 32.100	 100.898	 -99999.000
28680	 -0.107	 -0.477	  0.332	  0.140	  0.031	 -9.796	 -0.003	  0.003	  0.000	 32.100	 100.898	 -99999.000
28730	 -0.106	 -0.478	  0.336	  0.133	  0.035	 -9.779	 -0.004	  0.003	  0.001	 32.100	 100.905	 -99999.000
28780	 -0.106	 -0.476	  0.330	  0.138	  0.035	 -9.782	 -0.003	  0.003	  0.001	 32.100	 100.909	 -99999.000
28830	 -0.108	 -0.478	  0.332	  0.111	  0.062	 -9.814	 -0.004	  0.003	  0.002	 32.100	 100.898	 -99999.000
28880	 -0.107	 -0.475	  0.328	  0.125	  0.046	 -9.751	 -0.003	  0.001	  0.001	 32.100	 100.894	 -99999.000
28930	 -0.106	 -0.474	  0.331	  0.121	  0.039	 -9.815	 -0.004	  0.001	  0.000	 32.100	 100.909	 -99999.000
28980	 -0.108	 -0.472	  0.331	  0.119	  0.031	 -9.804	 -0.004	  0.003	  0.000	 32.100	 100.909	 -99999.000
29030	 -0.107	 -0.479	  0.334	  0.136	  0.039	 -9.790	 -0.003	  0.001	  0.001	 32.100	 100.883	 -99999.000
29080	 -0.103	 -0.477	  0.330	  0.145	  0.041	 -9.779	 -0.003	  0.003	  0.000	 32.100	 100.905	 -99999.000
29130	 -0.106	 -0.473	  0.335	  0.104	  0.034	 -9.806	 -0.004	  0.003	  0.001	 32.100	 100.894	 -99999.000
29180	 -0.106	 -0.474	  0.331	  0.150	  0.049	 -9.813	 -0.003	  0.003	  0.002	 32.100	 100.894	 -99999.000
29230	 -0.106	 -0.476	  0.328	  0.117	  0.041	 -9.760	 -0.004	  0.002	  0.002	 32.100	 100.909	 -99999.000
38506	 -0.106	 -0.479	  0.331	  0.127	  0.036	 -9.830	 -0.003	 -0.002	  0.001	 32.100	 100.894	  0.498
38556	 -0.108	 -0.474	  0.330	  0.129	  0.033	 -9.756	 -0.002	 -0.001	  0.002	 32.100	 100.894	  0.498
38605	 -0.106	 -0.478	  0.328	  0.117	  0.064	 -9.790	 -0.003	  0.003	 -0.000	 32.100	 100.898	  0.143
38655	 -0.106	 -0.477	  0.333	  0.111	  0.058	 -9.805	 -0.004	  0.002	 -0.000	 32.100	 100.898	  0.143
38705	 -0.106	 -0.476	  0.333	  0.136	  0.048	 -9.797	 -0.004	  0.002	  0.001	 32.100	 100.898	  0.143
38756	 -0.106	 -0.477	  0.335	  0.139	  0.056	 -9.790	 -0.003	  0.002	  0.001	 32.100	 100.887	  1.118
38805	 -0.106	 -0.478	  0.331	  0.125	  0.034	 -9.803	 -0.003	  0.002	  0.001	 32.100	 100.909	 -0.832
38856	 -0.108	 -0.477	  0.332	  0.118	  0.063	 -9.788	 -0.003	  0.003	 -0.001	 32.100	 100.883	  1.473
38905	 -0.107	 -0.477	  0.332	  0.100	  0.045	 -9.764	 -0.003	  0.001	 -0.000	 32.100	 100.898	  0.143
38955	 -0.105	 -0.476	  0.331	  0.141	  0.022	 -9.810	 -0.003	  0.002	  0.000	 32.100	 100.909	 -0.832
39005	 -0.107	 -0.474	  0.332	  0.105	  0.047	 -9.794	 -0.003	  0.002	  0.001	 32.100	 100.898	  0.143
39055	 -0.107	 -0.477	  0.331	  0.126	  0.050	 -9.794	 -0.003	  0.002	  0.000	 32.100	 100.898	  0.143
39105	 -0.104	 -0.475	  0.336	  0.130	  0.051	 -9.783	 -0.003	  0.003	  0.001	 32.100	 100.905	 -0.477
39155	 -0.107	 -0.476	  0.331	  0.138	  0.045	 -9.774	 -0.003	  0.002	  0.000	 32.100	 100.898	  0.143
39205	 -0.108	 -0.477	  0.332	  0.114	  0.051	 -9.762	 -0.003	  0.004	  0.000	 32.100	 100.894	  0.498
39255	 -0.108	 -0.477	  0.332	  0.133	  0.038	 -9.795	 -0.003	  0.002	  0.000	 32.100	 100.898	  0.143
39305	 -0.107	 -0.474	  0.330	  0.141	  0.025	 -9.790	 -0.003	  0.002	 -0.000	 32.100	 100.898	  0.143
39356	 -0.108	 -0.475	  0.330	  0.116	  0.046	 -9.787	 -0.003	  0.001	  0.001	 32.100	 100.905	 -0.477
39405	 -0.106	 -0.476	  0.331	  0.126	  0.046	 -9.799	 -0.003	  0.003	  0.001	 32.100	 100.887	  1.118
39455	 -0.108	 -0.475	  0.330	  0.107	  0.059	 -9.781	 -0.003	  0.002	  0.001	 32.100	 100.898	  0.143
39505	 -0.106	 -0.477	  0.326	  0.109	  0.037	 -9.781	 -0.003	 -0.000	  0.002	 32.100	 100.898	  0.143
39555	 -0.106	 -0.476	  0.329	  0.115	  0.030	 -9.768	 -0.002	  0.003	  0.002	 32.100	 100.905	 -0.477
39605	 -0.105	 -0.475	  0.333	  0.123	  0.052	 -9.803	 -0.004	  0.002	 -0.000	 32.100	 100.909	 -0.832
39655	 -0.108	 -0.469	  0.331	  0.109	  0.043	 -9.785	 -0.004	  0.001	 -0.000	 32.100	 100.898	  0.143
39705	 -0.105	 -0.474	  0.333	  0.133	  0.048	 -9.791	 -0.004	  0.002	  0.001	 32.100	 100.905	 -0.477
39755	 -0.107	 -0.474	  0.330	  0.116	  0.027	 -9.814	 -0.003	  0.002	  0.000	 32.100	 100.898	  0.143
39805	 -0.107	 -0.476	  0.331	  0.146	  0.038	 -9.800	 -0.004	  0.003	  0.001	 32.100	 100.909	 -0.832
39855	 -0.105	 -0.475	  0.330	  0.136	  0.048	 -9.766	 -0.003	  0.003	  0.000	 32.100	 100.909	 -0.832
39905	 -0.106	 -0.472	  0.332	  0.114	  0.054	 -9.817	 -0.003	  0.002	  0.001	 32.100	 100.898	  0.143
39955	 -0.108	 -0.475	  0.331	  0.125	  0.056	 -9.798	 -0.004	  0.002	  0.001	 32.100	 100.898	  0.143
40005	 -0.105	 -0.470	  0.333	  0.136	  0.030	 -9.802	 -0.003	  0.003	  0.002	 32.100	 100.898	  0.143
40055	 -0.105	 -0.474	  0.333	  0.125	  0.013	 -9.841	 -0.004	  0.004	  0.000	 32.100	 100.909	 -0.832
40105	 -0.108	 -0.475	  0.331	  0.142	  0.064	 -9.741	 -0.005	  0.005	  0.001	 32.100	 100.909	 -0.832
40155	 -0.106	 -0.474	  0.329	  0.120	  0.033	 -9.760	 -0.003	 -0.001	  0.001	 32.100	 100.894	  0.498
40205	 -0.105	 -0.476	  0.326	  0.119	  0.040	 -9.780	 -0.003	  0.003	 -0.000	 32.100	 100.898	  0.143
40255	 -0.105	 -0.471	  0.332	  0.124	  0.042	 -9.759	 -0.003	  0.002	  0.000	 32.100	 100.887	  1.118
40305	 -0.105	 -0.475	  0.330	  0.116	  0.055	 -9.771	 -0.002	  0.002	  0.001	 32.100	 100.898	  0.143
40355	 -0.106	 -0.475	  0.327	  0.122	  0.053	 -9.812	 -0.003	  0.001	  0.000	 32.100	 100.887	  1.118
40405	 -0.108	 -0.473	  0.332	  0.162	  0.053	 -9.789	 -0.004	  0.003	  0.001	 32.100	 100.898	  0.143
40455	 -0.106	 -0.473	  0.329	  0.137	  0.038	 -9.796	 -0.004	  0.003	  0.000	 32.100	 100.898	  0.143
40505	 -0.107	 -0.475	  0.329	  0.137	  0.043	 -9.785	 -0.003	  0.002	  0.000	 32.100	 100.905	 -0.477
40555	 -0.105	 -0.475	  0.325	  0.105	  0.042	 -9.783	 -0.004	  0.003	  0.001	 32.100	 100.898	  0.143
40605	 -0.108	 -0.473	  0.332	  0.112	  0.052	 -9.774	 -0.003	  0.003	  0.001	 32.100	 100.898	  0.143
40655	 -0.106	 -0.473	  0.331	  0.121	  0.039	 -9.789	 -0.003	  0.003	  0.000	 32.100	 100.898	  0.143
40705	 -0.107	 -0.477	  0.329	  0.127	  0.031	 -9.779	 -0.004	  0.001	  0.000	 32.100	 100.898	  0.143
40755	 -0.107	 -0.475	  0.332	  0.130	  0.038	 -9.744	 -0.003	  0.003	  0.000	 32.100	 100.887	  1.118
40805	 -0.107	 -0.475	  0.331	  0.130	  0.040	 -9.794	 -0.004	  0.003	  0.002	 32.100	 100.898	  0.143
40855	 -0.107	 -0.474	  0.332	  0.120	  0.053	 -9.781	 -0.003	  0.003	  0.001	 32.100	 100.898	  0.143
40905	 -0.106	 -0.475	  0.324	  0.095	  0.044	 -9.794	 -0.002	  0.001	  0.000	 32.100	 100.898	  0.143
40955	 -0.106	 -0.469	  0.330	  0.140	  0.057	 -9.810	 -0.003	  0.003	 -0.000	 32.100	 100.898	  0.143
41005	 -0.106	 -0.471	  0.331	  0.124	  0.055	 -9.776	 -0.003	  0.004	 -0.000	 32.100	 100.898	  0.143
41055	 -0.107	 -0.474	  0.331	  0.120	  0.034	 -9.777	 -0.003	  0.002	  0.001	 32.100	 100.898	  0.143
41105	 -0.108	 -0.475	  0.329	  0.127	  0.042	 -9.804	 -0.004	  0.002	  0.001	 32.100	 100.898	  0.143
41155	 -0.105	 -0.477	  0.331	  0.136	  0.047	 -9.794	 -0.003	  0.003	  0.002	 32.100	 100.909	 -0.832
41205	 -0.105	 -0.475	  0.333	  0.136	  0.053	 -9.838	 -0.003	  0.002	  0.001	 32.100	 100.894	  0.498
41255	 -0.104	 -0.474	  0.334	  0.159	  0.046	 -9.789	 -0.002	  0.002	 -0.000	 32.100	 100.887	  1.118
41305	 -0.105	 -0.472	  0.327	  0.108	  0.042	 -9.773	 -0.003	  0.001	  0.000	 32.100	 100.894	  0.498
41355	 -0.105	 -0.474	  0.333	  0.139	  0.048	 -9.812	 -0.002	  0.001	  0.001	 32.100	 100.887	  1.118
41405	 -0.108	 -0.477	  0.331	  0.101	  0.058	 -9.771	 -0.003	  0.001	  0.000	 32.100	 100.898	  0.143
41455	 -0.105	 -0.473	  0.335	  0.113	  0.041	 -9.812	 -0.002	  0.001	  0.000	 32.100	 100.894	  0.498
41505	 -0.108	 -0.475	  0.328	  0.137	  0.047	 -9.768	 -0.003	  0.003	  0.000	 32.100	 100.898	  0.143
41555	 -0.107	 -0.475	  0.330	  0.148	  0.056	 -9.721	 -0.003	  0.001	  0.001	 32.100	 100.883	  1.473
41605	 -0.107	 -0.477	  0.332	  0.130	  0.061	 -9.798	 -0.004	  0.004	 -0.000	 32.100	 100.898	  0.143
41656	 -0.108	 -0.477	  0.329	  0.140	  0.041	 -9.814	 -0.003	  0.000	  0.001	 32.100	 100.909	 -0.832
41705	 -0.106	 -0.476	  0.330	  0.082	  0.025	 -9.930	 -0.003	  0.000	 -0.001	 32.100	 100.898	  0.143
41755	 -0.107	 -0.476	  0.331	  0.155	  0.052	 -9.683	 -0.004	  0.014	  0.001	 32.100	 100.898	  0.143
41805	 -0.108	 -0.476	  0.329	  0.144	  0.050	 -9.753	 -0.004	 -0.009	  0.001	 32.100	 100.898	  0.143
41855	 -0.105	 -0.470	  0.333	  0.138	  0.077	 -9.710	 -0.003	  0.005	  0.001	 32.100	 100.898	  0.143
41905	 -0.106	 -0.476	  0.334	  0.120	  0.027	 -9.844	 -0.003	  0.003	  0.001	 32.100	 100.898	  0.143
41955	 -0.106	 -0.476	  0.333	  0.068	  0.163	 -9.789	 -0.007	 -0.003	  0.019	 32.100	 100.898	  0.143
42006	 -0.109	 -0.476	  0.330	  0.106	 -0.003	 -9.912	 -0.006	  0.009	  0.001	 32.100	 100.898	  0.143
42055	 -0.107	 -0.475	  0.330	 -0.023	  0.268	 -9.773	  0.011	 -0.003	  0.005	 32.100	 100.898	  0.143
42106	 -0.108	 -0.476	  0.335	  0.133	  0.031	 -9.773	 -0.002	 -0.003	  0.007	 32.100	 100.898	  0.143
42156	 -0.108	 -0.478	  0.326	  0.257	 -0.037	 -9.783	 -0.004	  0.004	  0.044	 32.100	 100.894	  0.498
42206	 -0.109	 -0.474	  0.333	  0.121	  0.066	 -9.766	 -0.003	  0.003	  0.003	 32.100	 100.898	  0.143
42256	 -0.109	 -0.474	  0.332	 -0.207	  0.421	 -9.784	 -0.005	  0.001	  0.072	 32.100	 100.883	  1.473
42306	 -0.110	 -0.469	  0.332	  0.012	  0.162	 -9.794	 -0.004	  0.005	  0.111	 32.100	 100.898	  0.143
42356	 -0.111	 -0.472	  0.331	  0.154	 -0.014	 -9.781	 -0.008	  0.008	  0.002	 32.100	 100.894	  0.498
42406	 -0.112	 -0.475	  0.334	  0.154	  0.038	 -9.771	 -0.012	  0.012	 -0.002	 32.100	 100.898	  0.143
42456	 -0.109	 -0.478	  0.329	  0.280	 -0.102	 -10.016	 -0.036	  0.019	 -0.021	 32.100	 100.909	 -0.832
42506	 -0.122	 -0.473	  0.329	  0.303	  0.330	 -10.157	 -0.016	 -0.021	  1.163	 32.100	 100.898	  0.143
42556	 -0.143	 -0.474	  0.327	  1.172	 -1.295	 -9.769	 -0.009	 -0.012	  0.748	 32.100	 100.898	  0.143
42606	 -0.149	 -0.472	  0.328	  0.080	  0.031	 -9.818	 -0.004	  0.001	  0.000	 32.100	 100.898	  0.143
42656	 -0.149	 -0.468	  0.329	  0.103	  0.064	 -9.772	 -0.004	  0.004	 -0.002	 32.100	 100.898	  0.143
42706	 -0.149	 -0.469	  0.330	  0.131	  0.008	 -9.794	 -0.003	  0.006	 -0.004	 32.100	 100.909	 -0.832
42756	 -0.149	 -0.470	  0.323	  0.140	  0.057	 -9.803	 -0.003	  0.006	 -0.002	 32.100	 100.909	 -0.832
42806	 -0.151	 -0.474	  0.330	  0.164	  0.040	 -9.798	 -0.003	  0.002	 -0.003	 32.100	 100.905	 -0.477
42856	 -0.147	 -0.474	  0.329	  1.330	 -0.346	 -9.789	  0.000	  0.007	 -0.270	 32.100	 100.898	  0.143
42906	 -0.137	 -0.468	  0.327	 -0.308	  0.194	 -9.842	  0.002	  0.013	 -0.310	 32.100	 100.894	  0.498
42956	 -0.134	 -0.474	  0.322	 -0.283	  0.476	 -9.823	 -0.002	  0.003	 -0.178	 32.100	 100.894	  0.498
43005	 -0.135	 -0.476	  0.326	  0.114	  0.016	 -9.762	 -0.003	  0.002	  0.004	 32.100	 100.898	  0.143
43055	 -0.130	 -0.465	  0.328	  0.124	  0.054	 -9.805	 -0.003	  0.003	  0.005	 32.100	 100.898	  0.143
43105	 -0.134	 -0.472	  0.330	  0.061	  0.134	 -9.824	 -0.004	 -0.000	  0.019	 32.100	 100.898	  0.143
43155	 -0.134	 -0.476	  0.329	  0.281	 -0.220	 -9.826	 -0.004	  0.004	  0.027	 32.100	 100.883	  1.473
43205	 -0.136	 -0.477	  0.325	 -0.104	  0.441	 -9.767	 -0.005	 -0.004	  0.192	 32.100	 100.894	  0.498
43255	 -0.139	 -0.469	  0.332	  0.243	 -0.196	 -9.784	 -0.004	  0.002	  0.109	 32.100	 100.887	  1.118
43305	 -0.139	 -0.474	  0.325	  0.144	  0.043	 -9.760	 -0.003	  0.004	 -0.001	 32.100	 100.898	  0.143
43355	 -0.140	 -0.477	  0.331	  0.132	  0.051	 -9.809	 -0.004	  0.002	  0.001	 32.100	 100.898	  0.143
43405	 -0.142	 -0.475	  0.326	  0.048	 -0.005	 -10.013	 -0.005	  0.004	  0.003	 32.100	 100.898	  0.143
43455	 -0.142	 -0.474	  0.328	  0.354	  0.206	 -9.214	 -0.072	  0.167	  0.038	 32.100	 100.898	  0.143
43505	 -0.144	 -0.475	  0.325	 -0.020	  0.283	 -9.854	  0.017	 -0.045	  0.093	 32.100	 100.898	  0.143
43555	 -0.146	 -0.475	  0.327	  0.137	 -0.158	 -10.231	 -0.018	  0.013	  0.088	 32.100	 100.898	  0.143
43605	 -0.146	 -0.467	  0.329	  0.214	 -0.004	 -9.795	 -0.006	  0.012	  0.002	 32.100	 100.898	  0.143
43655	 -0.146	 -0.470	  0.325	  0.178	  0.039	 -9.948	 -0.025	  0.067	 -0.019	 32.100	 100.898	  0.143
43705	 -0.147	 -0.471	  0.330	  0.153	  0.120	 -9.809	  0.005	  0.003	 -0.048	 32.100	 100.887	  1.118
43755	 -0.145	 -0.474	  0.324	  0.035	  0.283	 -9.770	 -0.018	  0.018	 -0.139	 32.100	 100.898	  0.143
43805	 -0.145	 -0.473	  0.325	  0.190	  0.005	 -10.112	 -0.044	  0.064	 -0.009	 32.100	 100.909	 -0.832
43855	 -0.145	 -0.470	  0.326	  0.199	  0.041	 -10.022	 -0.017	  0.016	  0.003	 32.100	 100.887	  1.118
43905	 -0.147	 -0.477	  0.324	  0.340	  0.170	 -9.573	 -0.137	  0.160	 -0.013	 32.100	 100.898	  0.143
43955	 -0.150	 -0.478	  0.322	  0.381	  0.020	 -10.125	 -0.163	  0.206	 -0.045	 32.100	 100.909	 -0.832
44005	 -0.152	 -0.482	  0.318	  0.763	  0.326	 -8.851	 -0.200	  0.205	 -0.058	 32.100	 100.898	  0.143
44055	 -0.134	 -0.474	  0.329	 -6.061	  1.285	 -9.427	 -0.071	  0.192	 -0.072	 32.100	 100.909	 -0.832
44106	 -0.139	 -0.474	  0.327	 -0.039	 -0.402	 -10.030	 -0.014	  0.034	  0.169	 32.100	 100.894	  0.498
44156	 -0.141	 -0.471	  0.329	  0.054	 -0.557	 -9.782	 -0.003	  0.000	  0.132	 32.100	 100.898	  0.143
44205	 -0.139	 -0.474	  0.327	  0.132	  0.021	 -9.821	 -0.001	  0.004	 -0.023	 32.100	 100.887	  1.118
44256	 -0.140	 -0.472	  0.331	  0.282	 -0.127	 -9.829	  0.000	  0.004	 -0.139	 32.100	 100.883	  1.473
44306	 -0.135	 -0.473	  0.330	 -0.112	  0.315	 -9.803	 -0.002	  0.001	 -0.036	 32.100	 100.898	  0.143
44356	 -0.137	 -0.472	  0.327	  0.112	  0.054	 -9.784	 -0.003	  0.002	  0.001	 32.100	 100.894	  0.498
44405	 -0.135	 -0.470	  0.325	  0.101	  0.037	 -9.838	 -0.005	  0.017	  0.002	 32.100	 100.887	  1.118
44455	 -0.136	 -0.475	  0.329	  0.288	  0.046	 -9.556	 -0.001	 -0.003	  0.002	 32.100	 100.898	  0.143
44505	 -0.137	 -0.473	  0.327	  0.009	  0.053	 -9.980	 -0.005	  0.001	 -0.001	 32.100	 100.894	  0.498
44555	 -0.138	 -0.472	  0.329	  0.148	  0.062	 -9.740	 -0.002	 -0.010	  0.001	 32.100	 100.887	  1.118
44605	 -0.137	 -0.474	  0.329	  0.133	  0.042	 -9.814	 -0.003	  0.003	 -0.001	 32.100	 100.894	  0.498
44655	 -0.138	 -0.474	  0.325	  0.106	  0.051	 -9.805	 -0.004	  0.005	  0.001	 32.100	 100.887	  1.118
44705	 -0.139	 -0.474	  0.321	  0.136	  0.045	 -9.793	 -0.017	  0.061	  0.002	 32.100	 100.894	  0.498
44755	 -0.138	 -0.472	  0.330	  0.183	  0.117	 -9.538	 -0.032	  0.086	  0.007	 32.100	 100.905	 -0.477
44805	 -0.141	 -0.472	  0.327	  0.265	 -0.062	 -10.043	 -0.028	  0.065	  0.114	 32.100	 100.894	  0.498
44855	 -0.144	 -0.471	  0.327	  0.303	  0.002	 -9.804	 -0.028	  0.043	  0.011	 32.100	 100.898	  0.143
44905	 -0.146	 -0.476	  0.317	  0.174	  0.030	 -10.080	 -0.066	  0.091	 -0.004	 32.100	 100.909	 -0.832
44955	 -0.144	 -0.474	  0.319	 -0.140	 -0.159	 -11.613	  0.212	 -0.316	  0.023	 32.100	 100.898	  0.143
45005	 -0.144	 -0.474	  0.318	  0.179	  0.251	 -9.258	 -0.096	  0.146	 -0.016	 32.100	 100.883	  1.473
45055	 -0.143	 -0.474	  0.326	  0.258	  0.193	 -9.481	  0.034	 -0.068	  0.013	 32.100	 100.905	 -0.477
45105	 -0.144	 -0.478	  0.318	  0.185	  0.063	 -10.096	 -0.033	  0.054	  0.004	 32.100	 100.909	 -0.832
45155	 -0.148	 -0.477	  0.321	  0.275	  0.318	 -9.463	 -0.030	  0.032	  0.016	 32.100	 100.875	  2.183
45205	 -0.150	 -0.477	  0.321	  1.030	 -0.019	 -7.984	  0.228	 -0.280	  0.071	 32.100	 100.887	  1.118
45255	 -0.147	 -0.471	  0.325	  0.196	 -0.135	 -10.503	 -0.020	  0.037	  0.006	 32.100	 100.898	  0.143
45305	 -0.149	 -0.465	  0.327	  0.275	  0.134	 -9.738	 -0.045	  0.065	 -0.013	 32.100	 100.898	  0.143
45355	 -0.146	 -0.476	  0.324	  0.177	 -0.001	 -10.334	 -0.052	  0.066	 -0.006	 32.100	 100.894	  0.498
45405	 -0.149	 -0.473	  0.323	  0.361	  0.301	 -9.062	  0.018	 -0.047	  0.004	 32.100	 100.898	  0.143
45455	 -0.147	 -0.478	  0.322	  0.233	  0.056	 -9.986	 -0.000	 -0.008	  0.007	 32.100	 100.883	  1.473
45505	 -0.148	 -0.477	  0.322	  0.433	  0.219	 -8.999	 -0.090	  0.071	  0.005	 32.100	 100.898	  0.143
45555	 -0.140	 -0.471	  0.327	 -1.281	  1.030	 -9.789	 -0.005	  0.014	 -0.033	 32.100	 100.898	  0.143
45605	 -0.138	 -0.471	  0.326	 -0.472	  0.015	 -9.775	 -0.005	 -0.002	  0.064	 32.100	 100.898	  0.143
45655	 -0.139	 -0.472	  0.325	  0.178	 -0.366	 -9.637	 -0.005	  0.014	  0.076	 32.100	 100.894	  0.498
45705	 -0.139	 -0.471	  0.324	  0.113	  0.079	 -9.753	 -0.002	  0.007	 -0.003	 32.100	 100.898	  0.143
45755	 -0.139	 -0.470	  0.325	  0.097	  0.040	 -9.737	 -0.001	  0.002	  0.000	 32.100	 100.887	  1.118
45805	 -0.139	 -0.468	  0.325	  0.133	  0.062	 -9.797	 -0.003	  0.002	  0.002	 32.100	 100.894	  0.498
45855	 -0.140	 -0.470	  0.324	  0.112	  0.055	 -9.786	 -0.003	  0.003	 -0.000	 32.100	 100.898	  0.143
45905	 -0.139	 -0.467	  0.326	  0.115	  0.017	 -9.797	 -0.002	  0.006	 -0.001	 32.100	 100.898	  0.143
45955	 -0.137	 -0.469	  0.326	  0.106	  0.054	 -9.799	 -0.001	  0.009	 -0.000	 32.100	 100.887	  1.118
46005	 -0.140	 -0.473	  0.326	  0.133	  0.032	 -9.777	 -0.001	  0.007	 -0.001	 32.100	 100.909	 -0.832
46055	 -0.139	 -0.468	  0.327	  0.099	  0.032	 -9.715	 -0.002	  0.006	 -0.003	 32.100	 100.909	 -0.832
46105	 -0.139	 -0.471	  0.324	  0.089	  0.089	 -9.804	 -0.004	  0.006	 -0.009	 32.100	 100.894	  0.498
46155	 -0.142	 -0.468	  0.322	  0.145	  0.061	 -9.789	 -0.003	  0.001	  0.001	 32.100	 100.898	  0.143
46205	 -0.139	 -0.468	  0.324	  0.138	 -0.062	 -9.779	 -0.003	  0.007	 -0.015	 32.100	 100.898	  0.143
46255	 -0.140	 -0.466	  0.322	  0.136	  0.031	 -9.805	 -0.001	  0.004	 -0.010	 32.100	 100.898	  0.143
46305	 -0.140	 -0.464	  0.328	  0.109	  0.061	 -9.772	 -0.003	  0.001	 -0.004	 32.100	 100.898	  0.143
46355	 -0.140	 -0.473	  0.326	  0.134	  0.062	 -9.782	 -0.002	  0.003	 -0.000	 32.100	 100.909	 -0.832
46405	 -0.138	 -0.465	  0.327	  0.161	  0.088	 -9.718	 -0.002	  0.002	  0.000	 32.100	 100.898	  0.143
46455	 -0.137	 -0.470	  0.326	  0.078	  0.037	 -9.735	 -0.000	 -0.004	 -0.003	 32.100	 100.898	  0.143
46505	 -0.138	 -0.469	  0.324	  0.128	  0.064	 -9.765	  0.003	 -0.009	  0.001	 32.100	 100.909	 -0.832
46555	 -0.138	 -0.468	  0.325	  0.128	  0.045	 -9.803	 -0.002	  0.003	 -0.001	 32.100	 100.898	  0.143
46605	 -0.137	 -0.467	  0.327	  0.120	  0.040	 -9.771	 -0.003	  0.003	 -0.001	 32.100	 100.898	  0.143
46655	 -0.139	 -0.470	  0.326	  0.118	  0.053	 -9.796	 -0.002	  0.002	  0.001	 32.100	 100.909	 -0.832
46705	 -0.140	 -0.464	  0.329	  0.138	  0.055	 -9.774	 -0.003	  0.001	  0.002	 32.100	 100.887	  1.118
46755	 -0.138	 -0.467	  0.323	  0.134	  0.050	 -9.780	 -0.003	  0.000	  0.003	 32.100	 100.898	  0.143
46805	 -0.139	 -0.466	  0.327	  0.125	  0.026	 -9.812	 -0.003	  0.003	  0.004	 32.100	 100.898	  0.143
46855	 -0.139	 -0.469	  0.323	  0.122	  0.051	 -9.774	 -0.002	  0.003	  0.006	 32.100	 100.898	  0.143
46905	 -0.140	 -0.467	  0.328	  0.123	  0.043	 -9.813	 -0.003	  0.001	  0.003	 32.100	 100.909	 -0.832
46955	 -0.140	 -0.469	  0.325	  0.139	  0.042	 -9.764	 -0.002	  0.002	  0.003	 32.100	 100.898	  0.143
47005	 -0.138	 -0.469	  0.326	  0.128	  0.032	 -9.770	 -0.004	  0.002	  0.001	 32.100	 100.898	  0.143
47055	 -0.140	 -0.468	  0.324	  0.142	  0.035	 -9.822	 -0.003	  0.003	  0.000	 32.100	 100.898	  0.143
47105	 -0.138	 -0.464	  0.326	  0.136	  0.036	 -9.775	 -0.003	  0.002	  0.001	 32.100	 100.909	 -0.832
47156	 -0.138	 -0.472	  0.327	  0.125	  0.028	 -9.765	 -0.003	  0.002	  0.002	 32.100	 100.894	  0.498
47205	 -0.140	 -0.462	  0.325	  0.121	  0.051	 -9.804	 -0.003	  0.002	  0.000	 32.100	 100.898	  0.143
47255	 -0.136	 -0.470	  0.329	  0.129	  0.047	 -9.795	 -0.003	  0.001	  0.001	 32.100	 100.898	  0.143
47305	 -0.140	 -0.471	  0.318	  0.133	  0.033	 -9.796	 -0.003	  0.002	  0.000	 32.100	 100.898	  0.143
47355	 -0.140	 -0.464	  0.328	  0.114	  0.054	 -9.842	 -0.003	  0.002	  0.002	 32.100	 100.898	  0.143
47405	 -0.142	 -0.468	  0.322	  0.126	  0.038	 -9.757	 -0.002	  0.003	  0.000	 32.100	 100.909	 -0.832
47455	 -0.142	 -0.468	  0.328	  0.116	  0.038	 -9.802	 -0.002	  0.001	  0.001	 32.100	 100.898	  0.143
47506	 -0.138	 -0.471	  0.325	  0.138	  0.047	 -9.803	 -0.003	  0.002	 -0.000	 32.100	 100.909	 -0.832
47555	 -0.139	 -0.466	  0.327	  0.147	  0.052	 -9.808	 -0.004	  0.003	 -0.000	 32.100	 100.894	  0.498
47606	 -0.136	 -0.463	  0.326	  0.126	  0.039	 -9.793	 -0.002	  0.002	  0.001	 32.100	 100.898	  0.143
47655	 -0.137	 -0.470	  0.326	  0.118	  0.055	 -9.790	 -0.003	  0.002	  0.001	 32.100	 100.898	  0.143
47705	 -0.139	 -0.468	  0.322	  0.142	  0.047	 -9.748	 -0.002	  0.003	  0.001	 32.100	 100.894	  0.498
47755	 -0.139	 -0.465	  0.324	  0.141	  0.056	 -9.777	 -0.004	  0.002	  0.001	 32.100	 100.898	  0.143
47806	 -0.140	 -0.468	  0.326	  0.144	  0.054	 -9.796	 -0.002	  0.003	 -0.000	 32.100	 100.898	  0.143
47856	 -0.137	 -0.466	  0.323	  0.122	  0.023	 -9.783	 -0.004	  0.003	 -0.000	 32.100	 100.898	  0.143
47905	 -0.139	 -0.469	  0.327	  0.116	  0.048	 -9.794	 -0.004	  0.002	  0.002	 32.100	 100.898	  0.143
47956	 -0.137	 -0.468	  0.326	  0.118	  0.039	 -9.810	 -0.003	  0.003	  0.000	 32.100	 100.898	  0.143
48006	 -0.140	 -0.465	  0.320	  0.117	  0.043	 -9.788	 -0.004	  0.002	 -0.000	 32.100	 100.898	  0.143
48056	 -0.139	 -0.466	  0.325	  0.139	  0.040	 -9.820	 -0.003	  0.002	  0.001	 32.100	 100.898	  0.143
48106	 -0.137	 -0.467	  0.325	  0.139	  0.045	 -9.803	 -0.004	  0.002	  0.000	 32.100	 100.909	 -0.832
48156	 -0.137	 -0.464	  0.326	  0.149	  0.051	 -9.772	 -0.004	  0.003	  0.001	 32.100	 100.898	  0.143
48206	 -0.138	 -0.465	  0.325	  0.137	  0.029	 -9.766	 -0.003	  0.003	  0.000	 32.100	 100.909	 -0.832
48256	 -0.139	 -0.470	  0.320	  0.122	  0.041	 -9.783	 -0.003	  0.002	  0.001	 32.100	 100.898	  0.143
48306	 -0.138	 -0.468	  0.326	  0.118	  0.039	 -9.827	 -0.004	  0.001	 -0.000	 32.100	 100.898	  0.143
48356	 -0.138	 -0.464	  0.326	  0.127	  0.020	 -9.767	 -0.004	  0.002	  0.001	 32.100	 100.894	  0.498
48406	 -0.138	 -0.469	  0.324	  0.158	  0.040	 -9.769	 -0.004	  0.001	  0.001	 32.100	 100.898	  0.143
48456	 -0.135	 -0.465	  0.323	  0.137	  0.051	 -9.806	 -0.004	  0.002	 -0.000	 32.100	 100.898	  0.143
48506	 -0.136	 -0.469	  0.326	  0.115	  0.037	 -9.763	 -0.003	  0.003	  0.000	 32.100	 100.898	  0.143
48556	 -0.141	 -0.466	  0.322	  0.146	  0.045	 -9.766	 -0.003	  0.002	  0.001	 32.100	 100.898	  0.143
48606	 -0.136	 -0.468	  0.326	  0.143	  0.058	 -9.796	 -0.003	  0.002	  0.001	 32.100	 100.898	  0.143
48656	 -0.137	 -0.468	  0.324	  0.122	  0.050	 -9.805	 -0.004	  0.002	  0.001	 32.100	 100.898	  0.143
48706	 -0.136	 -0.467	  0.325	  0.143	  0.053	 -9.779	 -0.004	  0.003	  0.001	 32.100	 100.898	  0.143
48756	 -0.136	 -0.467	  0.323	  0.132	  0.047	 -9.775	 -0.003	  0.002	  0.001	 32.100	 100.887	  1.118
48806	 -0.139	 -0.466	  0.324	  0.115	  0.009	 -9.820	 -0.003	  0.002	  0.000	 32.100	 100.909	 -0.832
48856	 -0.140	 -0.469	  0.325	  0.124	  0.045	 -9.787	 -0.004	  0.003	  0.001	 32.100	 100.887	  1.118
48906	 -0.136	 -0.467	  0.325	  0.135	  0.027	 -9.794	 -0.004	  0.003	  0.001	 32.100	 100.898	  0.143
48956	 -0.136	 -0.467	  0.326	  0.118	  0.057	 -9.806	 -0.003	  0.004	  0.001	 32.100	 100.898	  0.143
49006	 -0.138	 -0.463	  0.329	  0.127	  0.049	 -9.745	 -0.003	  0.001	  0.001	 32.100	 100.898	  0.143
49056	 -0.138	 -0.461	  0.325	  0.131	  0.053	 -9.777	 -0.002	  0.002	  0.001	 32.100	 100.909	 -0.832
49106	 -0.138	 -0.466	  0.319	  0.118	  0.045	 -9.796	 -0.003	  0.002	  0.001	 32.100	 100.898	  0.143
49156	 -0.138	 -0.468	  0.321	  0.114	  0.035	 -9.794	 -0.002	  0.005	  0.001	 32.100	 100.898	  0.143
49206	 -0.138	 -0.470	  0.325	  0.169	  0.025	 -9.736	 -0.004	 -0.001	  0.000	 32.200	 100.909	 -0.832
49256	 -0.137	 -0.461	  0.323	  0.132	  0.050	 -9.782	 -0.004	  0.001	  0.001	 32.200	 100.902	 -0.211
49306	 -0.138	 -0.466	  0.326	  0.123	  0.044	 -9.785	 -0.002	  0.003	  0.001	 32.100	 100.887	  1.118
49356	 -0.140	 -0.468	  0.323	  0.145	  0.093	 -9.765	 -0.002	 -0.003	  0.004	 32.100	 100.898	  0.143
49406	 -0.146	 -0.463	  0.327	 -0.269	  1.166	 -9.719	  0.413	 -0.001	  0.771	 32.100	 100.905	 -0.477
49456	 -0.159	 -0.448	  0.338	  0.034	 -1.377	 -9.996	  0.356	  0.017	  0.517	 32.100	 100.909	 -0.832
49506	 -0.166	 -0.445	  0.338	  0.610	 -0.315	 -9.788	  0.002	  0.014	  0.170	 32.100	 100.894	  0.498
49556	 -0.165	 -0.444	  0.343	  0.102	 -0.553	 -9.996	  0.247	  0.006	 -0.042	 32.100	 100.898	  0.143
49606	 -0.166	 -0.440	  0.348	  0.160	 -0.558	 -9.533	  0.285	  0.013	 -0.108	 32.100	 100.898	  0.143
49656	 -0.163	 -0.433	  0.353	  0.324	 -2.437	 -11.096	 -0.389	 -0.064	  0.072	 32.100	 100.909	 -0.832
49706	 -0.163	 -0.456	  0.328	  1.337	 -0.402	 -9.399	 -1.489	 -0.075	 -0.668	 32.100	 100.898	  0.143
49756	 -0.151	 -0.469	  0.328	 -0.033	  0.459	 -9.719	  0.015	 -0.001	 -0.259	 32.100	 100.887	  1.118
49806	 -0.152	 -0.467	  0.327	  0.141	 -0.034	 -9.851	 -0.009	 -0.002	 -0.000	 32.100	 100.898	  0.143
49856	 -0.150	 -0.461	  0.326	  0.090	  0.055	 -9.805	 -0.002	  0.002	  0.002	 32.100	 100.898	  0.143
49906	 -0.149	 -0.466	  0.327	  0.146	  0.050	 -9.713	 -0.003	 -0.001	 -0.000	 32.100	 100.898	  0.143
49956	 -0.149	 -0.464	  0.326	  0.112	  0.044	 -9.768	 -0.001	  0.000	  0.000	 32.100	 100.887	  1.118
50006	 -0.149	 -0.463	  0.328	  0.173	  0.020	 -9.752	 -0.002	  0.004	  0.003	 32.100	 100.898	  0.143
50056	 -0.151	 -0.467	  0.326	  0.115	  0.057	 -9.797	 -0.005	  0.002	  0.001	 32.100	 100.898	  0.143
50106	 -0.150	 -0.465	  0.326	  0.197	  0.053	 -9.732	 -0.003	  0.008	  0.000	 32.100	 100.909	 -0.832
50156	 -0.150	 -0.470	  0.328	  0.116	  0.046	 -9.787	 -0.002	  0.001	  0.001	 32.100	 100.898	  0.143
50206	 -0.149	 -0.466	  0.327	  0.133	  0.044	 -9.790	 -0.003	  0.002	 -0.003	 32.100	 100.898	  0.143
50256	 -0.149	 -0.468	  0.327	  0.153	 -0.024	 -9.806	 -0.003	  0.004	 -0.023	 32.100	 100.909	 -0.832
50306	 -0.149	 -0.463	  0.326	  0.114	  0.116	 -9.770	 -0.000	  0.000	 -0.006	 32.100	 100.898	  0.143
50356	 -0.149	 -0.469	  0.327	  0.133	  0.039	 -9.739	 -0.004	  0.004	  0.001	 32.100	 100.905	 -0.477
50406	 -0.150	 -0.464	  0.323	  0.135	  0.021	 -9.824	 -0.003	  0.003	  0.001	 32.100	 100.898	  0.143
50456	 -0.146	 -0.468	  0.325	  0.085	  0.021	 -9.821	 -0.005	  0.001	  0.002	 32.100	 100.894	  0.498
50506	 -0.148	 -0.465	  0.327	  0.436	  0.317	 -9.765	 -0.001	 -0.002	  0.008	 32.100	 100.887	  1.118
50556	 -0.150	 -0.463	  0.327	  0.173	 -0.117	 -9.742	 -0.002	 -0.004	  0.006	 32.100	 100.898	  0.143
50606	 -0.154	 -0.468	  0.329	  0.135	  0.064	 -9.800	 -0.003	 -0.001	  0.128	 32.100	 100.898	  0.143
50656	 -0.154	 -0.465	  0.325	  0.136	 -0.032	 -9.792	 -0.005	  0.009	  0.043	 32.100	 100.898	  0.143
50706	 -0.155	 -0.461	  0.325	  0.285	 -0.265	 -9.791	 -0.007	  0.001	  0.252	 32.100	 100.894	  0.498
50756	 -0.159	 -0.461	  0.324	  0.186	 -0.123	 -9.793	 -0.004	  0.006	 -0.045	 32.100	 100.898	  0.143
50806	 -0.156	 -0.461	  0.324	  0.151	  0.058	 -9.768	 -0.003	  0.000	  0.001	 32.100	 100.898	  0.143
50856	 -0.155	 -0.464	  0.326	  0.228	 -0.201	 -9.799	 -0.002	  0.001	 -0.034	 32.100	 100.898	  0.143
50905	 -0.157	 -0.455	  0.326	  0.023	  0.198	 -9.764	 -0.003	  0.003	 -0.014	 32.100	 100.898	  0.143
50955	 -0.156	 -0.461	  0.327	  0.099	  0.024	 -9.796	 -0.005	  0.001	 -0.001	 32.100	 100.898	  0.143
51005	 -0.153	 -0.465	  0.328	  0.234	 -0.269	 -9.805	 -0.001	  0.002	 -0.142	 32.100	 100.909	 -0.832
51056	 -0.148	 -0.465	  0.323	 -0.092	  0.635	 -9.817	  0.001	 -0.001	 -0.260	 32.100	 100.898	  0.143
51105	 -0.144	 -0.465	  0.324	  0.085	  0.048	 -9.773	  0.020	  0.012	 -0.176	 32.100	 100.909	 -0.832
51156	 -0.144	 -0.465	  0.329	  0.106	  0.048	 -9.787	 -0.002	  0.005	  0.003	 32.100	 100.898	  0.143
51205	 -0.144	 -0.464	  0.326	  0.072	  0.094	 -9.802	 -0.004	  0.001	  0.055	 32.100	 100.898	  0.143
51255	 -0.145	 -0.460	  0.327	  0.127	  0.040	 -9.751	 -0.003	  0.001	  0.109	 32.100	 100.887	  1.118
51305	 -0.147	 -0.465	  0.327	  0.203	 -0.049	 -9.809	 -0.003	 -0.000	  0.043	 32.100	 100.898	  0.143
51355	 -0.147	 -0.464	  0.326	  0.096	  0.140	 -9.743	  0.004	  0.002	  0.019	 32.100	 100.887	  1.118
51405	 -0.148	 -0.465	  0.322	  0.149	 -0.023	 -9.824	 -0.014	  0.002	 -0.001	 32.200	 100.902	 -0.211
51455	 -0.147	 -0.458	  0.326	  0.123	 -0.016	 -9.782	  0.006	  0.004	  0.001	 32.100	 100.898	  0.143
51505	 -0.149	 -0.464	  0.328	  0.154	  0.034	 -9.772	  0.008	  0.003	 -0.005	 32.100	 100.898	  0.143
51555	 -0.149	 -0.464	  0.328	  0.105	  0.026	 -9.797	 -0.004	  0.002	 -0.000	 32.100	 100.898	  0.143
51605	 -0.149	 -0.461	  0.326	  0.089	  0.129	 -9.796	 -0.000	  0.000	  0.059	 32.100	 100.898	  0.143
51655	 -0.149	 -0.465	  0.327	  0.131	 -0.008	 -9.795	 -0.002	  0.003	 -0.004	 32.100	 100.898	  0.143
51705	 -0.149	 -0.462	  0.332	  0.139	  0.095	 -9.822	  0.015	  0.005	 -0.020	 32.100	 100.898	  0.143
51755	 -0.151	 -0.463	  0.329	  0.118	 -0.011	 -9.790	 -0.039	 -0.002	  0.003	 32.100	 100.898	  0.143
51805	 -0.150	 -0.460	  0.326	  0.095	  0.053	 -9.762	 -0.004	  0.004	  0.001	 32.100	 100.898	  0.143
51855	 -0.150	 -0.467	  0.323	  0.106	 -0.052	 -9.792	 -0.002	  0.004	 -0.029	 32.100	 100.887	  1.118
51905	 -0.149	 -0.462	  0.324	  0.185	 -0.024	 -9.792	 -0.002	 -0.002	 -0.040	 32.100	 100.898	  0.143
51955	 -0.146	 -0.460	  0.328	  0.107	  0.020	 -9.798	  0.002	  0.002	 -0.003	 32.100	 100.898	  0.143
52005	 -0.147	 -0.462	  0.328	  0.106	  0.069	 -9.764	 -0.003	  0.002	 -0.001	 32.100	 100.898	  0.143
52055	 -0.148	 -0.463	  0.328	  0.122	  0.034	 -9.756	 -0.002	  0.004	 -0.001	 32.100	 100.898	  0.143
52105	 -0.148	 -0.464	  0.331	  0.117	  0.016	 -9.783	  0.020	  0.006	 -0.010	 32.100	 100.898	  0.143
52155	 -0.147	 -0.461	  0.327	  0.052	  0.067	 -9.803	  0.004	  0.002	 -0.023	 32.100	 100.898	  0.143
52205	 -0.147	 -0.463	  0.325	  0.113	  0.081	 -9.753	  0.007	  0.003	  0.004	 32.100	 100.887	  1.118
52255	 -0.149	 -0.465	  0.331	 -0.022	 -0.305	 -9.754	  0.006	  0.003	  0.036	 32.100	 100.898	  0.143
52305	 -0.149	 -0.466	  0.327	  0.151	  0.094	 -9.774	  0.016	  0.003	  0.048	 32.100	 100.898	  0.143
52355	 -0.148	 -0.465	  0.326	  0.106	  0.475	 -9.701	 -0.010	  0.000	  0.050	 32.100	 100.898	  0.143
52405	 -0.147	 -0.466	  0.326	  0.406	 -0.309	 -9.748	  0.022	  0.006	  0.010	 32.100	 100.887	  1.118
52455	 -0.148	 -0.466	  0.328	  0.121	  0.029	 -9.808	 -0.024	 -0.001	 -0.026	 32.100	 100.898	  0.143
52505	 -0.146	 -0.465	  0.328	  0.114	  0.107	 -9.767	 -0.009	  0.002	 -0.006	 32.100	 100.898	  0.143
52555	 -0.145	 -0.466	  0.328	  0.159	 -0.043	 -9.806	 -0.005	  0.003	  0.005	 32.100	 100.898	  0.143
52605	 -0.147	 -0.466	  0.329	  0.103	  0.049	 -9.769	  0.002	  0.004	 -0.009	 32.100	 100.909	 -0.832
52655	 -0.148	 -0.464	  0.327	  0.073	  0.158	 -9.808	  0.002	  0.003	  0.062	 32.100	 100.898	  0.143
52705	 -0.150	 -0.467	  0.326	 -0.007	  0.187	 -9.776	 -0.005	  0.002	  0.001	 32.100	 100.898	  0.143
52755	 -0.148	 -0.465	  0.327	  0.150	  0.074	 -9.789	 -0.005	  0.002	 -0.006	 32.100	 100.898	  0.143
52805	 -0.147	 -0.464	  0.329	  0.108	  0.065	 -9.763	 -0.001	  0.002	  0.003	 32.100	 100.898	  0.143
52855	 -0.148	 -0.462	  0.328	  0.108	  0.041	 -9.799	 -0.004	  0.001	 -0.000	 32.100	 100.898	  0.143
52906	 -0.148	 -0.464	  0.322	  0.026	  0.160	 -9.827	 -0.002	  0.004	  0.019	 32.100	 100.887	  1.118
52955	 -0.149	 -0.464	  0.324	  0.130	  0.034	 -9.807	 -0.003	  0.003	  0.000	 32.100	 100.887	  1.118
53005	 -0.149	 -0.468	  0.324	  0.136	 -0.003	 -9.767	 -0.003	  0.002	 -0.060	 32.100	 100.898	  0.143
53055	 -0.146	 -0.466	  0.325	  0.112	  0.004	 -9.782	 -0.002	  0.002	 -0.056	 32.100	 100.898	  0.143
53105	 -0.146	 -0.464	  0.327	  0.181	  0.055	 -9.773	 -0.003	  0.003	 -0.052	 32.100	 100.887	  1.118
53156	 -0.144	 -0.467	  0.331	  0.094	  0.097	 -9.750	  0.000	  0.004	 -0.057	 32.100	 100.898	  0.143
53205	 -0.142	 -0.462	  0.327	  0.326	 -0.062	 -9.682	  0.025	 -0.009	 -0.090	 32.100	 100.898	  0.143
53256	 -0.141	 -0.465	  0.328	 -0.094	  0.334	 -9.810	 -0.002	 -0.001	  0.039	 32.100	 100.898	  0.143
53305	 -0.147	 -0.464	  0.326	  0.493	 -0.607	 -9.758	 -0.017	 -0.007	  0.110	 32.100	 100.898	  0.143
53355	 -0.147	 -0.465	  0.327	  0.119	  0.022	 -9.734	 -0.001	  0.005	 -0.010	 32.200	 100.902	 -0.211
53405	 -0.146	 -0.466	  0.326	  0.178	 -0.016	 -9.805	 -0.001	 -0.035	 -0.157	 32.100	 100.909	 -0.832
53455	 -0.134	 -0.471	  0.326	 -0.862	  2.949	 -9.579	  0.050	 -0.028	 -0.135	 32.200	 100.902	 -0.211
53505	 -0.131	 -0.471	  0.327	 -0.024	  0.006	 -9.843	 -0.007	  0.005	 -0.022	 32.100	 100.898	  0.143
53555	 -0.130	 -0.472	  0.324	 -0.144	  0.159	 -9.791	  0.041	 -0.050	  0.007	 32.100	 100.898	  0.143
53606	 -0.131	 -0.467	  0.332	  0.044	 -0.057	 -9.865	  0.007	 -0.003	  0.031	 32.100	 100.898	  0.143
53656	 -0.132	 -0.469	  0.328	 -0.215	  0.429	 -9.726	  0.028	  0.020	  0.187	 32.200	 100.902	 -0.211
53706	 -0.141	 -0.469	  0.328	  0.018	  0.158	 -9.880	  0.049	  0.107	  0.538	 32.100	 100.898	  0.143
53756	 -0.153	 -0.462	  0.328	  0.094	 -0.231	 -9.802	  0.034	  0.009	  0.601	 32.100	 100.898	  0.143
53806	 -0.162	 -0.459	  0.327	  0.307	 -0.424	 -9.763	 -0.063	  0.015	  0.166	 32.100	 100.887	  1.118
53856	 -0.165	 -0.462	  0.324	  0.119	 -0.098	 -9.691	 -0.058	  0.002	 -0.158	 32.200	 100.914	 -1.275
53906	 -0.164	 -0.458	  0.333	  0.120	 -0.959	 -9.938	  0.264	  0.015	  0.006	 32.100	 100.898	  0.143
53956	 -0.163	 -0.458	  0.331	  0.052	 -0.034	 -9.834	 -0.106	  0.015	 -0.002	 32.100	 100.898	  0.143
54006	 -0.164	 -0.457	  0.329	  0.210	 -1.158	 -10.942	 -0.527	 -0.080	 -0.253	 32.200	 100.898	  0.143
54056	 -0.157	 -0.465	  0.325	  0.007	  0.355	 -9.837	 -0.004	 -0.004	 -0.023	 32.100	 100.898	  0.143
54106	 -0.157	 -0.465	  0.322	  0.137	  0.041	 -9.760	 -0.002	 -0.001	  0.001	 32.100	 100.909	 -0.832
54156	 -0.157	 -0.467	  0.321	  0.109	  0.023	 -9.811	 -0.004	  0.002	 -0.000	 32.100	 100.898	  0.143
54206	 -0.158	 -0.461	  0.324	  0.118	  0.049	 -9.797	 -0.003	  0.003	  0.000	 32.100	 100.898	  0.143
54256	 -0.159	 -0.467	  0.323	  0.133	  0.079	 -9.762	 -0.003	  0.003	  0.000	 32.100	 100.898	  0.143
54306	 -0.158	 -0.468	  0.325	  0.115	  0.052	 -9.812	 -0.004	  0.001	  0.001	 32.100	 100.898	  0.143
54356	 -0.158	 -0.467	  0.326	  0.148	  0.035	 -9.768	 -0.003	  0.002	 -0.001	 32.200	 100.891	  0.764
54406	 -0.156	 -0.466	  0.324	  0.145	  0.053	 -9.782	 -0.004	  0.003	  0.001	 32.200	 100.902	 -0.211
54456	 -0.157	 -0.467	  0.323	  0.123	  0.058	 -9.788	 -0.003	  0.003	  0.001	 32.100	 100.898	  0.143
54506	 -0.158	 -0.467	  0.323	  0.104	  0.043	 -9.799	 -0.004	  0.002	  0.001	 32.100	 100.909	 -0.832
54556	 -0.157	 -0.467	  0.325	  0.111	  0.030	 -9.816	 -0.003	  0.002	  0.001	 32.100	 100.898	  0.143
54606	 -0.159	 -0.463	  0.325	  0.114	  0.048	 -9.755	 -0.004	  0.002	  0.001	 32.100	 100.898	  0.143
54656	 -0.156	 -0.461	  0.327	  0.131	  0.033	 -9.757	 -0.004	  0.002	  0.001	 32.100	 100.887	  1.118
54706	 -0.158	 -0.461	  0.329	  0.135	  0.040	 -9.785	 -0.003	  0.003	  0.001	 32.100	 100.887	  1.118
54756	 -0.158	 -0.469	  0.323	  0.125	  0.060	 -9.796	 -0.003	  0.002	 -0.000	 32.100	 100.898	  0.143
54806	 -0.158	 -0.460	  0.323	  0.130	  0.059	 -9.783	 -0.003	  0.002	  0.002	 32.200	 100.909	 -0.832
54856	 -0.159	 -0.467	  0.327	  0.138	  0.020	 -9.806	 -0.004	  0.003	  0.000	 32.200	 100.914	 -1.275
54906	 -0.159	 -0.468	  0.325	  0.136	  0.045	 -9.800	 -0.003	  0.002	  0.001	 32.100	 100.898	  0.143
54956	 -0.160	 -0.465	  0.325	  0.128	  0.053	 -9.808	 -0.003	  0.003	  0.000	 32.100	 100.898	  0.143
55006	 -0.160	 -0.469	  0.327	  0.139	  0.055	 -9.812	 -0.002	  0.002	  0.001	 32.100	 100.898	  0.143
55056	 -0.159	 -0.466	  0.324	  0.107	  0.044	 -9.785	 -0.003	  0.003	  0.000	 32.100	 100.887	  1.118
55106	 -0.158	 -0.468	  0.325	  0.132	  0.036	 -9.776	 -0.004	  0.003	  0.001	 32.100	 100.898	  0.143
55156	 -0.157	 -0.461	  0.324	  0.138	  0.032	 -9.792	 -0.004	  0.003	 -0.001	 32.100	 100.909	 -0.832
55206	 -0.159	 -0.468	  0.326	  0.122	  0.052	 -9.786	 -0.004	  0.003	  0.001	 32.200	 100.887	  1.118
55256	 -0.156	 -0.464	  0.323	  0.122	  0.039	 -9.768	 -0.002	  0.003	  0.000	 32.100	 100.909	 -0.832
55306	 -0.157	 -0.467	  0.325	  0.130	  0.036	 -9.783	 -0.004	  0.003	  0.001	 32.100	 100.898	  0.143
55356	 -0.160	 -0.469	  0.323	  0.139	  0.057	 -9.769	 -0.004	  0.003	  0.000	 32.100	 100.898	  0.143
55405	 -0.159	 -0.467	  0.325	  0.122	  0.042	 -9.770	 -0.003	  0.003	  0.000	 32.100	 100.898	  0.143
55456	 -0.158	 -0.466	  0.327	  0.143	  0.027	 -9.813	 -0.004	  0.002	  0.000	 32.200	 100.902	 -0.211
55505	 -0.157	 -0.460	  0.323	  0.137	  0.039	 -9.784	 -0.002	  0.002	  0.000	 32.100	 100.909	 -0.832
55555	 -0.160	 -0.470	  0.327	  0.103	  0.032	 -9.816	 -0.003	  0.002	  0.001	 32.100	 100.898	  0.143
55605	 -0.158	 -0.467	  0.324	  0.136	  0.045	 -9.753	 -0.004	  0.003	  0.001	 32.100	 100.887	  1.118
55655	 -0.157	 -0.463	  0.325	  0.124	  0.048	 -9.776	 -0.003	  0.002	 -0.000	 32.100	 100.898	  0.143
55705	 -0.158	 -0.467	  0.327	  0.124	  0.022	 -9.797	 -0.003	  0.002	 -0.000	 32.100	 100.898	  0.143
55755	 -0.159	 -0.470	  0.329	  0.147	  0.044	 -9.804	 -0.004	  0.002	  0.000	 32.200	 100.891	  0.764
55805	 -0.159	 -0.470	  0.325	  0.108	  0.054	 -9.817	 -0.004	  0.003	 -0.001	 32.100	 100.887	  1.118
55855	 -0.160	 -0.467	  0.325	  0.129	  0.053	 -9.778	 -0.003	  0.003	 -0.000	 32.100	 100.898	  0.143
55905	 -0.158	 -0.465	  0.325	  0.128	  0.026	 -9.805	 -0.004	  0.002	  0.001	 32.200	 100.902	 -0.211
55955	 -0.159	 -0.468	  0.321	  0.130	  0.019	 -9.776	 -0.003	  0.001	  0.001	 32.100	 100.909	 -0.832
56005	 -0.159	 -0.467	  0.329	  0.140	  0.044	 -9.777	 -0.004	  0.004	  0.000	 32.100	 100.898	  0.143
56055	 -0.157	 -0.467	  0.326	  0.131	  0.039	 -9.789	 -0.003	  0.002	 -0.000	 32.100	 100.898	  0.143
56105	 -0.158	 -0.468	  0.321	  0.091	  0.063	 -9.788	 -0.002	  0.002	  0.001	 32.200	 100.887	  1.118
56155	 -0.158	 -0.466	  0.327	  0.121	  0.043	 -9.813	 -0.002	  0.005	 -0.000	 32.200	 100.902	 -0.211
56205	 -0.157	 -0.469	  0.325	  0.111	  0.038	 -9.819	 -0.003	  0.002	 -0.001	 32.100	 100.898	  0.143
56255	 -0.159	 -0.467	  0.325	  0.139	  0.035	 -9.792	 -0.003	  0.003	 -0.001	 32.200	 100.914	 -1.275
56305	 -0.157	 -0.460	  0.325	  0.144	  0.034	 -9.805	 -0.002	  0.004	 -0.007	 32.200	 100.898	  0.143
56355	 -0.155	 -0.468	  0.324	  0.367	 -0.141	 -9.794	 -0.001	  0.000	 -0.158	 32.100	 100.898	  0.143
56405	 -0.151	 -0.464	  0.328	 -0.396	  0.255	 -9.822	 -0.003	  0.002	 -0.025	 32.100	 100.898	  0.143
56455	 -0.153	 -0.463	  0.324	  0.117	  0.070	 -9.778	 -0.008	 -0.001	  0.365	 32.100	 100.898	  0.143
56505	 -0.159	 -0.461	  0.325	  0.233	 -0.184	 -9.802	 -0.003	  0.005	 -0.011	 32.200	 100.898	  0.143
56555	 -0.161	 -0.465	  0.326	  0.213	  0.087	 -9.733	  0.189	  0.018	 -0.046	 32.100	 100.887	  1.118
56605	 -0.152	 -0.454	  0.337	  0.932	 -0.218	 -9.226	  0.852	 -0.785	 -0.596	 32.100	 100.898	  0.143
56655	 -0.110	 -0.438	  0.358	 -1.291	  0.435	 -9.609	  1.284	 -0.865	  0.006	 32.100	 100.887	  1.118
56705	 -0.098	 -0.419	  0.377	 -0.602	 -1.237	 -10.608	  0.414	 -0.288	  0.650	 32.200	 100.898	  0.143
56755	 -0.105	 -0.414	  0.381	 -0.798	 -0.772	 -9.708	  0.160	 -0.224	  0.187	 32.100	 100.887	  1.118
56805	 -0.109	 -0.411	  0.382	 -1.368	 -1.129	 -9.732	 -0.140	 -0.123	  0.432	 32.100	 100.909	 -0.832
56855	 -0.111	 -0.415	  0.383	 -1.594	 -0.841	 -9.413	 -0.160	 -0.070	  0.107	 32.100	 100.898	  0.143
56905	 -0.111	 -0.411	  0.379	 -0.841	 -0.853	 -9.696	 -0.041	  0.062	 -0.143	 32.100	 100.898	  0.143
56955	 -0.104	 -0.420	  0.379	 -1.279	 -0.562	 -9.176	  0.117	 -0.067	  0.012	 32.100	 100.898	  0.143
57005	 -0.112	 -0.402	  0.391	 -0.435	 -0.962	 -11.346	  1.253	 -0.072	  0.242	 32.100	 100.898	  0.143
57055	 -0.112	 -0.394	  0.400	 -1.166	 -1.451	 -9.618	  0.140	 -0.147	  0.054	 32.100	 100.898	  0.143
57105	 -0.107	 -0.391	  0.397	 -1.311	 -1.639	 -9.684	 -0.341	 -0.279	 -0.205	 32.100	 100.898	  0.143
57155	 -0.098	 -0.394	  0.400	 -1.980	 -1.259	 -9.570	  0.167	 -0.285	 -0.053	 32.100	 100.898	  0.143
57205	 -0.093	 -0.387	  0.410	 -2.037	 -1.442	 -9.328	  0.402	 -0.371	  0.183	 32.200	 100.909	 -0.832
57255	 -0.090	 -0.382	  0.414	 -1.788	 -1.740	 -9.868	  0.029	 -0.349	  0.100	 32.100	 100.898	  0.143
57305	 -0.088	 -0.380	  0.419	 -1.814	 -1.726	 -10.096	  0.179	  0.025	  0.035	 32.200	 100.887	  1.118
57355	 -0.091	 -0.376	  0.422	 -1.711	 -2.073	 -9.367	 -0.130	 -0.014	 -0.023	 32.100	 100.898	  0.143
57405	 -0.088	 -0.378	  0.417	 -1.895	 -1.685	 -9.643	 -0.207	 -0.031	 -0.184	 32.100	 100.909	 -0.832
57455	 -0.084	 -0.382	  0.418	 -2.102	 -1.573	 -9.120	 -0.130	 -0.206	 -0.106	 32.100	 100.887	  1.118
57505	 -0.078	 -0.384	  0.421	 -2.119	 -1.543	 -9.516	 -0.029	 -0.166	 -0.155	 32.100	 100.898	  0.143
57555	 -0.074	 -0.383	  0.426	 -2.010	 -1.748	 -9.616	  0.096	 -0.061	 -0.035	 32.200	 100.902	 -0.211
57605	 -0.074	 -0.380	  0.426	 -2.104	 -1.969	 -9.431	  0.010	  0.014	 -0.045	 32.200	 100.898	  0.143
57655	 -0.075	 -0.376	  0.428	 -2.156	 -1.828	 -9.672	 -0.032	  0.128	 -0.034	 32.200	 100.902	 -0.211
57705	 -0.080	 -0.375	  0.426	 -2.251	 -1.859	 -9.327	  0.014	  0.229	 -0.089	 32.200	 100.898	  0.143
57755	 -0.083	 -0.377	  0.428	 -1.886	 -0.390	 -12.689	 -0.097	  0.410	  0.087	 32.200	 100.887	  1.118
57805	 -0.105	 -0.380	  0.415	 -1.241	 -0.965	 -9.599	 -0.444	  0.885	  0.287	 32.100	 100.898	  0.143
57855	 -0.121	 -0.383	  0.405	 -1.198	 -3.683	 -7.499	 -0.052	  0.530	 -0.294	 32.100	 100.898	  0.143
57905	 -0.118	 -0.389	  0.404	 -1.556	 -1.640	 -8.987	 -0.045	 -0.001	 -0.473	 32.100	 100.887	  1.118
57955	 -0.112	 -0.387	  0.406	 -1.600	 -0.841	 -9.233	 -0.066	 -0.208	 -0.077	 32.100	 100.898	  0.143
58005	 -0.108	 -0.385	  0.410	 -1.239	 -1.698	 -9.683	  0.094	 -0.307	  0.106	 32.100	 100.898	  0.143
58055	 -0.106	 -0.386	  0.413	 -0.969	 -1.309	 -9.939	  0.060	 -0.131	 -0.040	 32.100	 100.898	  0.143
58105	 -0.108	 -0.388	  0.417	 -1.091	 -1.145	 -9.724	 -0.121	  0.086	 -0.096	 32.100	 100.898	  0.143
58155	 -0.110	 -0.388	  0.414	 -1.108	 -0.878	 -9.722	 -0.074	 -0.023	  0.016	 32.200	 100.898	  0.143
58205	 -0.110	 -0.386	  0.419	 -1.009	 -1.299	 -9.578	  0.054	  0.035	  0.129	 32.100	 100.898	  0.143
58255	 -0.112	 -0.387	  0.415	 -1.108	 -1.774	 -9.349	  0.037	 -0.019	  0.100	 32.100	 100.887	  1.118
58305	 -0.111	 -0.384	  0.417	 -1.422	 -1.507	 -9.366	 -0.093	 -0.146	  0.014	 32.100	 100.898	  0.143
58355	 -0.109	 -0.392	  0.415	 -1.603	 -1.326	 -9.617	 -0.039	 -0.163	  0.117	 32.200	 100.902	 -0.211
58405	 -0.106	 -0.392	  0.414	 -1.485	 -1.375	 -9.773	 -0.086	 -0.087	  0.064	 32.200	 100.891	  0.764
58455	 -0.106	 -0.394	  0.412	 -1.535	 -1.285	 -9.785	 -0.044	  0.083	  0.011	 32.100	 100.898	  0.143
58505	 -0.111	 -0.390	  0.412	 -1.318	 -1.163	 -9.331	  0.001	  0.114	  0.016	 32.200	 100.898	  0.143
58556	 -0.112	 -0.400	  0.411	 -1.255	 -1.053	 -9.555	 -0.005	  0.029	  0.062	 32.100	 100.887	  1.118
58605	 -0.116	 -0.389	  0.410	 -1.426	 -1.342	 -9.647	 -0.012	 -0.030	  0.154	 32.100	 100.909	 -0.832
58655	 -0.115	 -0.399	  0.410	 -1.377	 -1.593	 -9.623	 -0.069	  0.005	  0.025	 32.100	 100.898	  0.143
58705	 -0.115	 -0.403	  0.400	 -1.469	 -1.313	 -9.589	 -0.076	 -0.006	 -0.032	 32.100	 100.898	  0.143
58755	 -0.115	 -0.399	  0.405	 -1.486	 -1.026	 -9.526	 -0.068	 -0.014	  0.018	 32.100	 100.909	 -0.832
58805	 -0.115	 -0.400	  0.406	 -1.513	 -1.345	 -9.677	 -0.005	 -0.032	  0.063	 32.100	 100.898	  0.143
58855	 -0.116	 -0.405	  0.407	 -1.531	 -1.237	 -9.643	 -0.028	  0.008	  0.002	 32.100	 100.898	  0.143
58906	 -0.116	 -0.405	  0.407	 -1.509	 -1.015	 -9.540	 -0.001	 -0.041	  0.033	 32.100	 100.898	  0.143
58955	 -0.116	 -0.403	  0.406	 -1.432	 -1.255	 -9.619	 -0.018	 -0.008	  0.047	 32.100	 100.898	  0.143
59005	 -0.119	 -0.407	  0.403	 -1.487	 -1.098	 -9.594	 -0.031	 -0.031	  0.016	 32.100	 100.898	  0.143
59055	 -0.113	 -0.404	  0.402	 -1.454	 -1.108	 -9.772	 -0.007	 -0.031	  0.021	 32.200	 100.902	 -0.211
59105	 -0.117	 -0.405	  0.404	 -1.499	 -1.068	 -9.781	 -0.012	 -0.006	  0.023	 32.200	 100.914	 -1.275
59155	 -0.116	 -0.402	  0.402	 -1.507	 -1.031	 -9.561	  0.001	  0.071	  0.026	 32.200	 100.887	  1.118
59205	 -0.118	 -0.402	  0.405	 -1.577	 -1.064	 -9.499	 -0.058	  0.021	  0.032	 32.100	 100.898	  0.143
59256	 -0.119	 -0.406	  0.405	 -1.532	 -1.173	 -9.548	 -0.017	 -0.029	  0.045	 32.100	 100.898	  0.143
59305	 -0.120	 -0.404	  0.403	 -1.503	 -1.025	 -9.762	 -0.042	 -0.026	  0.028	 32.100	 100.898	  0.143
59356	 -0.121	 -0.408	  0.407	 -1.481	 -1.086	 -9.713	 -0.042	  0.012	  0.032	 32.200	 100.898	  0.143
59406	 -0.119	 -0.408	  0.403	 -1.439	 -0.949	 -9.622	 -0.036	  0.003	  0.023	 32.100	 100.898	  0.143
59456	 -0.121	 -0.410	  0.400	 -1.394	 -0.963	 -9.722	 -0.108	  0.039	 -0.015	 32.200	 100.898	  0.143
59506	 -0.120	 -0.415	  0.397	 -1.652	 -0.868	 -9.514	 -0.186	  0.044	 -0.006	 32.200	 100.902	 -0.211
59556	 -0.119	 -0.415	  0.397	 -1.520	 -1.191	 -9.904	 -0.004	  0.026	  0.015	 32.100	 100.898	  0.143
59606	 -0.120	 -0.414	  0.394	 -1.449	 -0.650	 -9.510	 -0.010	  0.126	 -0.002	 32.200	 100.902	 -0.211
59656	 -0.123	 -0.412	  0.394	 -1.272	 -0.817	 -9.437	 -0.061	  0.106	  0.040	 32.100	 100.898	  0.143
59706	 -0.123	 -0.416	  0.389	 -1.496	 -0.787	 -9.679	 -0.133	  0.020	 -0.040	 32.100	 100.898	  0.143
59756	 -0.123	 -0.418	  0.390	 -1.430	 -0.597	 -9.856	 -0.082	 -0.009	  0.008	 32.100	 100.887	  1.118
59806	 -0.125	 -0.422	  0.388	 -1.267	 -0.999	 -9.865	  0.050	 -0.020	  0.032	 32.200	 100.902	 -0.211
59856	 -0.123	 -0.423	  0.387	 -1.282	 -0.879	 -9.683	  0.030	  0.068	 -0.073	 32.200	 100.891	  0.764
59906	 -0.125	 -0.422	  0.392	 -1.319	 -0.691	 -9.393	  0.060	 -0.011	  0.002	 32.100	 100.898	  0.143
59956	 -0.124	 -0.423	  0.389	 -1.258	 -0.706	 -9.699	 -0.010	 -0.032	  0.032	 32.100	 100.898	  0.143
60006	 -0.123	 -0.424	  0.389	 -1.361	 -0.870	 -9.801	 -0.020	 -0.029	  0.041	 32.200	 100.887	  1.118
60056	 -0.126	 -0.419	  0.390	 -1.418	 -0.919	 -9.736	  0.068	  0.007	  0.025	 32.100	 100.898	  0.143
60106	 -0.123	 -0.422	  0.390	 -1.331	 -1.239	 -9.582	  0.131	  0.020	 -0.066	 32.200	 100.902	 -0.211
60156	 -0.123	 -0.419	  0.389	 -1.514	 -0.659	 -9.449	  0.051	 -0.028	 -0.032	 32.200	 100.891	  0.764
60206	 -0.117	 -0.416	  0.394	 -1.535	 -1.055	 -9.207	  0.064	 -0.149	  0.047	 32.200	 100.891	  0.764
60256	 -0.117	 -0.419	  0.395	 -1.523	 -1.045	 -9.540	 -0.027	 -0.159	  0.002	 32.200	 100.902	 -0.211
60306	 -0.115	 -0.414	  0.395	 -1.636	 -0.820	 -9.614	 -0.052	 -0.093	 -0.009	 32.100	 100.887	  1.118
60356	 -0.115	 -0.419	  0.398	 -1.619	 -0.846	 -9.809	 -0.001	  0.014	  0.082	 32.100	 100.898	  0.143
60406	 -0.117	 -0.423	  0.395	 -1.369	 -1.341	 -9.580	 -0.005	  0.014	  0.033	 32.200	 100.898	  0.143
60456	 -0.118	 -0.418	  0.398	 -1.629	 -0.978	 -9.876	  0.095	 -0.169	  0.041	 32.100	 100.898	  0.143
60506	 -0.117	 -0.416	  0.399	 -1.876	 -1.217	 -10.075	  0.092	 -0.059	  0.020	 32.200	 100.891	  0.764
60556	 -0.117	 -0.412	  0.402	 -1.994	 -1.315	 -9.394	  0.114	  0.032	 -0.073	 32.100	 100.898	  0.143
60606	 -0.116	 -0.395	  0.416	 -2.053	 -1.615	 -10.173	  0.274	 -0.033	  0.025	 32.200	 100.898	  0.143
60656	 -0.115	 -0.393	  0.413	 -1.975	 -0.515	 -9.856	  0.008	  0.266	  0.078	 32.100	 100.898	  0.143
60706	 -0.118	 -0.388	  0.414	 -2.201	 -1.451	 -10.159	 -0.154	  0.043	  0.031	 32.200	 100.891	  0.764
60756	 -0.118	 -0.397	  0.406	 -1.459	 -0.166	 -8.333	 -0.053	 -0.198	  0.117	 32.200	 100.902	 -0.211
60806	 -0.116	 -0.393	  0.414	  0.342	 -1.652	 -10.986	  0.178	 -0.268	  0.284	 32.200	 100.898	  0.143
60856	 -0.115	 -0.387	  0.412	 -2.636	 -1.007	 -10.416	 -0.184	  0.374	 -0.232	 32.200	 100.891	  0.764
60906	 -0.121	 -0.384	  0.406	 -1.687	 -0.888	 -6.984	  0.049	 -0.161	  0.085	 32.200	 100.902	 -0.211
60956	 -0.114	 -0.377	  0.418	 -0.867	 -1.881	 -11.233	  0.258	 -0.297	 -0.179	 32.100	 100.898	  0.143
61006	 -0.116	 -0.367	  0.423	 -1.233	 -2.776	 -10.742	  0.235	  0.865	 -0.285	 32.200	 100.898	  0.143
61056	 -0.126	 -0.363	  0.421	 -0.723	 -2.610	 -10.008	  0.060	  0.765	 -0.626	 32.100	 100.898	  0.143
61106	 -0.126	 -0.365	  0.417	 -1.342	 -1.440	 -8.623	 -0.674	  0.253	 -0.668	 32.100	 100.898	  0.143
61156	 -0.113	 -0.381	  0.411	 -1.285	 -1.073	 -8.856	 -0.634	 -0.265	 -0.450	 32.100	 100.898	  0.143
61206	 -0.102	 -0.381	  0.408	 -1.949	  0.166	 -8.931	  0.009	  0.164	 -0.145	 32.200	 100.909	 -0.832
61256	 -0.109	 -0.380	  0.412	 -1.209	 -0.436	 -8.727	 -0.080	 -0.088	  0.188	 32.100	 100.898	  0.143
