Time	 MagX	 MagY	 MagZ	 AccelX	 AccelY	 AccelZ	 Yaw	 Pitch	 Roll	 Temperature	 Pressure	 Altitude
23337	 -0.119	 -0.449	  0.344	  0.327	  0.096	 -9.822	 -0.004	  0.006	  0.109	 32.400	 100.901	 -99999.000
23387	 -0.124	 -0.453	  0.338	  0.167	  0.032	 -9.747	 -0.001	  0.007	  0.001	 32.400	 100.912	 -99999.000
23437	 -0.119	 -0.452	  0.347	  0.120	  0.057	 -9.783	 -0.002	  0.004	  0.002	 32.400	 100.889	 -99999.000
23487	 -0.122	 -0.454	  0.344	  0.121	  0.022	 -9.757	 -0.003	 -0.000	  0.002	 32.400	 100.901	 -99999.000
23537	 -0.119	 -0.454	  0.348	  0.115	  0.037	 -9.776	 -0.003	  0.002	 -0.000	 32.400	 100.889	 -99999.000
23587	 -0.121	 -0.452	  0.341	  0.218	  0.117	 -9.760	 -0.004	 -0.011	 -0.002	 32.400	 100.901	 -99999.000
23637	 -0.121	 -0.454	  0.343	  0.102	  0.033	 -9.761	 -0.004	  0.000	 -0.000	 32.400	 100.901	 -99999.000
23687	 -0.120	 -0.452	  0.345	  0.116	  0.063	 -9.790	 -0.002	  0.008	  0.000	 32.400	 100.878	 -99999.000
23737	 -0.122	 -0.455	  0.344	  0.168	  0.016	 -9.751	 -0.004	 -0.001	  0.001	 32.400	 100.889	 -99999.000
23787	 -0.119	 -0.455	  0.345	  0.139	  0.063	 -9.794	 -0.004	  0.003	  0.001	 32.400	 100.889	 -99999.000
23837	 -0.122	 -0.454	  0.340	  0.136	  0.040	 -9.808	 -0.002	  0.003	  0.000	 32.400	 100.901	 -99999.000
23887	 -0.120	 -0.451	  0.344	  0.134	  0.062	 -9.795	 -0.004	  0.001	  0.001	 32.400	 100.901	 -99999.000
23937	 -0.121	 -0.445	  0.343	  0.098	  0.032	 -9.771	 -0.003	  0.002	  0.001	 32.400	 100.889	 -99999.000
23987	 -0.122	 -0.453	  0.347	  0.137	  0.047	 -9.803	 -0.004	  0.002	 -0.000	 32.400	 100.901	 -99999.000
24037	 -0.122	 -0.455	  0.344	  0.119	  0.064	 -9.756	 -0.002	  0.003	  0.000	 32.400	 100.901	 -99999.000
24087	 -0.119	 -0.454	  0.349	  0.120	  0.043	 -9.834	 -0.003	  0.002	 -0.000	 32.400	 100.901	 -99999.000
24137	 -0.119	 -0.455	  0.343	  0.137	  0.065	 -9.828	 -0.003	  0.002	  0.001	 32.400	 100.901	 -99999.000
24187	 -0.121	 -0.452	  0.347	  0.124	  0.051	 -9.775	 -0.003	  0.002	  0.001	 32.400	 100.901	 -99999.000
24237	 -0.121	 -0.454	  0.347	  0.139	  0.025	 -9.754	 -0.003	  0.003	  0.000	 32.400	 100.901	 -99999.000
24287	 -0.119	 -0.454	  0.345	  0.142	  0.059	 -9.756	 -0.003	  0.008	 -0.000	 32.400	 100.897	 -99999.000
24336	 -0.121	 -0.447	  0.350	  0.122	  0.036	 -9.755	 -0.003	  0.004	 -0.000	 32.400	 100.901	 -99999.000
24386	 -0.118	 -0.454	  0.343	  0.134	  0.058	 -9.803	 -0.003	  0.002	  0.001	 32.400	 100.889	 -99999.000
24437	 -0.121	 -0.449	  0.347	  0.149	  0.056	 -9.781	 -0.003	  0.003	  0.001	 32.400	 100.901	 -99999.000
24486	 -0.122	 -0.455	  0.347	  0.120	  0.049	 -9.768	 -0.003	  0.002	  0.001	 32.400	 100.889	 -99999.000
24536	 -0.121	 -0.454	  0.343	  0.119	  0.056	 -9.810	 -0.004	  0.001	  0.001	 32.400	 100.901	 -99999.000
24586	 -0.120	 -0.445	  0.351	  0.118	  0.041	 -9.774	 -0.003	  0.002	  0.001	 32.400	 100.878	 -99999.000
24636	 -0.119	 -0.454	  0.344	  0.114	  0.047	 -9.759	 -0.003	  0.001	  0.000	 32.400	 100.901	 -99999.000
24686	 -0.121	 -0.456	  0.347	  0.124	  0.033	 -9.790	 -0.003	  0.002	  0.001	 32.400	 100.889	 -99999.000
24736	 -0.121	 -0.455	  0.342	  0.130	  0.038	 -9.805	 -0.004	  0.003	  0.001	 32.400	 100.889	 -99999.000
24787	 -0.120	 -0.452	  0.349	  0.150	  0.056	 -9.807	 -0.004	  0.002	  0.000	 32.400	 100.901	 -99999.000
24836	 -0.121	 -0.453	  0.345	  0.125	  0.046	 -9.770	 -0.002	  0.002	  0.001	 32.400	 100.901	 -99999.000
24886	 -0.120	 -0.454	  0.345	  0.123	  0.057	 -9.814	 -0.003	  0.002	 -0.000	 32.400	 100.901	 -99999.000
24936	 -0.119	 -0.450	  0.349	  0.133	  0.046	 -9.799	 -0.002	  0.002	  0.001	 32.400	 100.889	 -99999.000
24986	 -0.123	 -0.449	  0.343	  0.144	  0.058	 -9.785	 -0.004	  0.002	  0.000	 32.400	 100.901	 -99999.000
25036	 -0.120	 -0.457	  0.347	  0.138	  0.036	 -9.842	 -0.003	  0.003	  0.001	 32.400	 100.901	 -99999.000
25086	 -0.119	 -0.456	  0.344	  0.135	  0.053	 -9.813	 -0.004	  0.003	  0.002	 32.400	 100.901	 -99999.000
25136	 -0.123	 -0.454	  0.344	  0.111	  0.060	 -9.797	 -0.002	  0.002	  0.002	 32.400	 100.889	 -99999.000
25187	 -0.120	 -0.456	  0.345	  0.105	  0.073	 -9.783	 -0.002	  0.001	  0.001	 32.400	 100.889	 -99999.000
25236	 -0.120	 -0.457	  0.345	  0.120	  0.065	 -9.815	 -0.003	  0.003	 -0.000	 32.400	 100.905	 -99999.000
25286	 -0.119	 -0.452	  0.343	  0.144	  0.073	 -9.796	 -0.003	  0.002	  0.000	 32.400	 100.901	 -99999.000
25336	 -0.119	 -0.454	  0.345	  0.171	 -0.022	 -9.803	 -0.004	  0.003	  0.016	 32.400	 100.889	 -99999.000
25386	 -0.123	 -0.454	  0.344	  0.463	  0.307	 -9.818	 -0.008	 -0.001	  0.168	 32.400	 100.889	 -99999.000
25436	 -0.129	 -0.452	  0.344	  0.086	 -0.098	 -9.800	 -0.007	 -0.004	  0.251	 32.400	 100.901	 -99999.000
25486	 -0.134	 -0.452	  0.349	  0.321	  0.157	 -9.734	 -0.010	 -0.024	  0.156	 32.400	 100.901	 -99999.000
25536	 -0.136	 -0.448	  0.345	 -0.035	  0.010	 -9.841	 -0.006	  0.012	  0.179	 32.400	 100.901	 -99999.000
25586	 -0.140	 -0.444	  0.345	  0.957	  0.505	 -9.949	 -0.015	 -0.009	  0.329	 32.400	 100.894	 -99999.000
25636	 -0.144	 -0.450	  0.349	 -0.195	 -0.124	 -10.329	 -0.042	 -0.062	  0.146	 32.400	 100.889	 -99999.000
25686	 -0.146	 -0.446	  0.343	  0.093	  0.097	 -9.765	 -0.096	 -0.090	  0.184	 32.400	 100.889	 -99999.000
25736	 -0.145	 -0.449	  0.347	  0.025	  0.047	 -10.211	 -0.164	 -0.155	  0.065	 32.400	 100.901	 -99999.000
25786	 -0.141	 -0.454	  0.338	 -0.612	  0.671	 -9.506	 -0.330	 -0.423	  0.087	 32.400	 100.889	 -99999.000
25836	 -0.134	 -0.461	  0.344	 -0.291	  0.327	 -9.506	 -0.144	 -0.556	  0.136	 32.400	 100.889	 -99999.000
25886	 -0.126	 -0.458	  0.347	 -1.018	  0.457	 -9.806	  0.024	 -0.603	  0.206	 32.400	 100.889	 -99999.000
25936	 -0.120	 -0.458	  0.345	 -0.811	  0.328	 -9.669	 -0.055	 -0.334	  0.189	 32.400	 100.889	 -99999.000
25986	 -0.118	 -0.449	  0.350	 -0.235	  0.480	 -9.926	 -0.050	 -0.053	 -0.036	 32.400	 100.889	 -99999.000
26036	 -0.115	 -0.447	  0.350	 -1.287	  0.594	 -9.678	 -0.052	 -0.052	  0.008	 32.400	 100.901	 -99999.000
26086	 -0.120	 -0.460	  0.349	 -0.675	  0.098	 -9.852	  0.129	  0.301	  0.099	 32.400	 100.901	 -99999.000
26136	 -0.122	 -0.452	  0.351	 -1.082	  0.621	 -9.182	  0.021	  0.003	 -0.013	 32.400	 100.894	 -99999.000
26186	 -0.116	 -0.460	  0.348	 -0.571	  0.183	 -10.076	 -0.109	 -0.093	 -0.273	 32.400	 100.905	 -99999.000
26236	 -0.111	 -0.460	  0.348	 -1.016	  0.534	 -9.344	 -0.104	  0.068	 -0.092	 32.400	 100.901	 -99999.000
26286	 -0.106	 -0.461	  0.345	 -1.338	  0.964	 -9.885	 -0.056	 -0.010	 -0.130	 32.400	 100.901	 -99999.000
26336	 -0.094	 -0.465	  0.348	 -2.578	  0.807	 -9.566	 -0.112	 -1.211	 -0.088	 32.400	 100.897	 -99999.000
26387	 -0.071	 -0.458	  0.357	 -1.544	  0.366	 -9.946	  0.411	 -1.240	  0.071	 32.400	 100.901	 -99999.000
26436	 -0.056	 -0.456	  0.361	 -2.758	  0.153	 -10.201	 -0.066	  0.025	  0.222	 32.400	 100.901	 -99999.000
26486	 -0.068	 -0.460	  0.359	 -1.478	  0.845	 -9.293	 -0.152	  0.330	  0.182	 32.400	 100.897	 -99999.000
26536	 -0.076	 -0.465	  0.360	 -0.989	 -0.087	 -8.922	  0.032	  0.269	  0.035	 32.400	 100.889	 -99999.000
26586	 -0.077	 -0.458	  0.360	  0.790	 -0.269	 -8.726	  0.444	  0.161	 -0.182	 32.400	 100.889	 -99999.000
26636	 -0.068	 -0.458	  0.362	 -1.914	  0.508	 -9.810	 -0.201	 -0.409	 -0.046	 32.400	 100.889	 -99999.000
26686	 -0.058	 -0.462	  0.361	 -2.392	  0.380	 -9.168	 -0.057	 -0.273	  0.043	 32.400	 100.901	 -99999.000
26736	 -0.057	 -0.453	  0.362	 -2.886	  0.859	 -9.821	 -0.086	 -0.203	  0.206	 32.400	 100.889	 -99999.000
26787	 -0.060	 -0.463	  0.362	 -2.930	  0.795	 -9.216	 -0.097	  0.025	  0.252	 32.400	 100.901	 -99999.000
26836	 -0.062	 -0.463	  0.362	 -1.056	  1.033	 -9.363	 -0.287	 -0.209	  0.032	 32.400	 100.889	 -99999.000
26886	 -0.047	 -0.474	  0.356	 -2.467	  0.409	 -8.928	 -0.324	 -0.353	 -0.376	 32.400	 100.901	 -99999.000
26936	 -0.032	 -0.478	  0.344	 -0.959	  1.369	 -11.193	 -0.675	 -0.343	 -0.133	 32.400	 100.889	 -99999.000
26986	 -0.038	 -0.508	  0.326	 -2.346	  2.198	 -8.844	 -1.436	  0.589	  0.096	 32.400	 100.889	 -99999.000
27036	 -0.040	 -0.510	  0.307	 -1.911	  2.589	 -8.439	 -0.666	  0.075	 -0.006	 32.400	 100.894	 -99999.000
27086	 -0.038	 -0.526	  0.299	 -2.261	  2.298	 -8.252	 -0.108	 -0.009	 -0.023	 32.400	 100.901	 -99999.000
27137	 -0.034	 -0.518	  0.300	 -3.165	  2.288	 -9.301	  0.170	 -0.384	  0.100	 32.400	 100.885	 -99999.000
27187	 -0.035	 -0.524	  0.305	 -3.441	  2.560	 -9.074	  0.186	 -0.180	  0.115	 32.400	 100.894	 -99999.000
27237	 -0.034	 -0.527	  0.305	 -3.279	  2.444	 -9.223	  0.121	 -0.148	  0.261	 32.400	 100.889	 -99999.000
27287	 -0.034	 -0.518	  0.315	 -3.461	  2.537	 -9.723	  0.364	 -0.107	  0.360	 32.400	 100.901	 -99999.000
27337	 -0.044	 -0.512	  0.334	 -3.062	  2.102	 -9.836	  0.429	  0.295	  0.379	 32.400	 100.912	 -99999.000
27387	 -0.055	 -0.488	  0.343	 -2.803	  2.283	 -9.279	  0.492	  0.512	  0.470	 32.400	 100.901	 -99999.000
27437	 -0.072	 -0.488	  0.349	 -1.693	  0.816	 -8.776	  0.309	  0.231	  0.433	 32.400	 100.901	 -99999.000
27487	 -0.079	 -0.481	  0.359	 -1.624	  1.181	 -9.153	  0.151	  0.397	  0.220	 32.400	 100.901	 -99999.000
27537	 -0.086	 -0.478	  0.361	 -1.267	  0.542	 -7.699	  0.098	  0.115	  0.073	 32.400	 100.901	 -99999.000
27587	 -0.087	 -0.477	  0.362	 -2.278	  2.464	 -9.829	  0.108	  0.075	  0.111	 32.400	 100.889	 -99999.000
27637	 -0.095	 -0.470	  0.366	 -1.659	  1.397	 -8.787	  0.057	  0.174	  0.094	 32.400	 100.889	 -99999.000
27687	 -0.097	 -0.472	  0.365	 -1.647	  1.950	 -7.492	  0.156	 -0.236	 -0.124	 32.400	 100.901	 -99999.000
27737	 -0.096	 -0.466	  0.367	 -2.314	  1.405	 -8.534	  0.448	 -0.705	  0.047	 32.400	 100.901	 -99999.000
27787	 -0.089	 -0.449	  0.389	 -2.799	  0.730	 -12.628	  0.388	 -0.263	 -0.005	 32.400	 100.889	 -99999.000
27837	 -0.096	 -0.452	  0.389	 -2.886	  1.146	 -12.217	 -0.234	  0.134	  0.054	 32.400	 100.912	 -99999.000
27887	 -0.097	 -0.463	  0.379	 -2.321	  0.859	 -10.369	 -0.552	  0.567	  0.026	 32.400	 100.889	 -99999.000
27937	 -0.099	 -0.470	  0.367	 -1.715	  1.604	 -7.373	 -0.479	  0.372	 -0.008	 32.400	 100.889	 -99999.000
27987	 -0.097	 -0.478	  0.362	 -1.792	  1.694	 -7.753	  0.046	 -0.074	 -0.060	 32.400	 100.901	 -99999.000
28037	 -0.095	 -0.476	  0.364	 -2.229	  2.013	 -9.030	  0.093	 -0.146	 -0.021	 32.400	 100.901	 -99999.000
28087	 -0.096	 -0.472	  0.371	 -2.170	  1.229	 -9.990	  0.088	 -0.093	  0.009	 32.400	 100.901	 -99999.000
28137	 -0.093	 -0.464	  0.367	 -2.026	  1.350	 -9.749	 -0.013	  0.022	 -0.022	 32.400	 100.901	 -99999.000
28187	 -0.093	 -0.478	  0.366	 -2.040	  1.609	 -9.580	 -0.096	 -0.007	 -0.012	 32.400	 100.889	 -99999.000
28237	 -0.092	 -0.479	  0.365	 -2.068	  1.629	 -9.595	 -0.110	  0.002	 -0.014	 32.400	 100.889	 -99999.000
28287	 -0.091	 -0.480	  0.362	 -2.105	  1.757	 -9.478	 -0.132	 -0.042	 -0.035	 32.400	 100.889	 -99999.000
28337	 -0.087	 -0.479	  0.361	 -2.168	  1.602	 -9.163	 -0.067	 -0.014	 -0.033	 32.400	 100.901	 -99999.000
28387	 -0.088	 -0.480	  0.360	 -2.254	  1.726	 -9.361	 -0.040	 -0.019	 -0.016	 32.400	 100.889	 -99999.000
28437	 -0.088	 -0.482	  0.361	 -2.188	  1.745	 -9.267	 -0.019	 -0.011	 -0.011	 32.400	 100.905	 -99999.000
28487	 -0.088	 -0.482	  0.359	 -2.177	  1.703	 -9.514	 -0.029	  0.024	  0.015	 32.400	 100.889	 -99999.000
28537	 -0.087	 -0.483	  0.358	 -2.049	  1.741	 -9.309	 -0.019	 -0.002	  0.006	 32.400	 100.889	 -99999.000
28587	 -0.087	 -0.484	  0.355	 -2.277	  1.769	 -9.585	 -0.026	 -0.017	 -0.005	 32.400	 100.901	 -99999.000
28637	 -0.087	 -0.484	  0.355	 -2.216	  1.799	 -9.456	 -0.062	  0.011	  0.015	 32.400	 100.901	 -99999.000
28687	 -0.086	 -0.483	  0.353	 -2.225	  1.823	 -9.232	 -0.106	 -0.010	  0.031	 32.400	 100.901	 -99999.000
28736	 -0.084	 -0.488	  0.353	 -2.151	  1.856	 -9.388	 -0.076	 -0.003	  0.039	 32.400	 100.889	 -99999.000
28786	 -0.087	 -0.483	  0.353	 -2.284	  1.945	 -9.378	 -0.077	 -0.038	  0.003	 32.400	 100.889	 -99999.000
28836	 -0.086	 -0.483	  0.351	 -2.230	  1.820	 -9.654	 -0.137	  0.086	  0.092	 32.400	 100.889	 -99999.000
28886	 -0.091	 -0.494	  0.345	 -1.862	  1.851	 -8.943	 -0.127	  0.088	  0.035	 32.400	 100.901	 -99999.000
28936	 -0.088	 -0.491	  0.345	 -1.959	  2.264	 -9.217	 -0.035	 -0.030	 -0.034	 32.400	 100.901	 -99999.000
28986	 -0.088	 -0.494	  0.349	 -2.034	  2.086	 -9.170	  0.027	 -0.028	 -0.067	 32.400	 100.889	 -99999.000
29036	 -0.087	 -0.490	  0.345	 -2.330	  2.059	 -9.555	 -0.010	 -0.051	 -0.093	 32.400	 100.905	 -99999.000
29087	 -0.084	 -0.491	  0.348	 -2.153	  1.851	 -9.249	 -0.036	 -0.007	 -0.017	 32.400	 100.905	 -99999.000
29136	 -0.082	 -0.495	  0.344	 -2.344	  2.058	 -9.487	  0.013	 -0.037	  0.008	 32.400	 100.889	 -99999.000
29186	 -0.086	 -0.493	  0.346	 -2.191	  2.056	 -9.441	 -0.045	  0.015	  0.020	 32.400	 100.901	 -99999.000
29236	 -0.086	 -0.493	  0.347	 -2.034	  2.002	 -9.380	 -0.021	 -0.001	  0.007	 32.400	 100.889	 -99999.000
29286	 -0.085	 -0.496	  0.345	 -2.143	  2.068	 -9.197	 -0.010	  0.002	 -0.007	 32.400	 100.901	 -99999.000
46119	 -0.214	 -0.412	  0.385	 -0.670	 -0.118	 -9.770	 -0.003	  0.002	 -0.000	 32.400	 100.894	  0.170
46169	 -0.215	 -0.408	  0.387	 -0.644	 -0.137	 -9.750	 -0.003	  0.003	 -0.000	 32.400	 100.889	  0.615
46219	 -0.215	 -0.412	  0.384	 -0.622	 -0.126	 -9.760	 -0.002	  0.003	  0.001	 32.400	 100.889	  0.615
46269	 -0.213	 -0.411	  0.385	 -0.666	 -0.134	 -9.768	 -0.004	  0.004	  0.001	 32.400	 100.905	 -0.808
46319	 -0.215	 -0.411	  0.388	 -0.661	 -0.133	 -9.777	 -0.002	  0.001	 -0.001	 32.400	 100.905	 -0.808
46369	 -0.214	 -0.412	  0.388	 -0.656	 -0.138	 -9.746	 -0.003	  0.002	  0.001	 32.400	 100.889	  0.615
46420	 -0.215	 -0.411	  0.386	 -0.660	 -0.124	 -9.743	 -0.004	  0.002	  0.000	 32.400	 100.889	  0.615
46470	 -0.216	 -0.410	  0.387	 -0.664	 -0.132	 -9.779	 -0.002	  0.002	  0.001	 32.400	 100.889	  0.615
46520	 -0.215	 -0.410	  0.384	 -0.674	 -0.097	 -9.793	 -0.003	  0.002	  0.001	 32.400	 100.901	 -0.453
46570	 -0.215	 -0.410	  0.386	 -0.630	 -0.137	 -9.775	 -0.003	  0.001	 -0.000	 32.400	 100.905	 -0.808
46620	 -0.217	 -0.405	  0.383	 -0.645	 -0.131	 -9.754	 -0.001	  0.002	 -0.000	 32.400	 100.905	 -0.808
46670	 -0.213	 -0.412	  0.385	 -0.668	 -0.110	 -9.785	 -0.003	  0.002	  0.001	 32.400	 100.889	  0.615
46720	 -0.215	 -0.412	  0.387	 -0.665	 -0.136	 -9.769	 -0.002	  0.004	  0.001	 32.400	 100.882	  1.239
46770	 -0.215	 -0.412	  0.387	 -0.650	 -0.126	 -9.740	 -0.002	  0.002	  0.002	 32.400	 100.894	  0.170
46820	 -0.214	 -0.412	  0.385	 -0.666	 -0.141	 -9.773	 -0.003	  0.004	  0.001	 32.400	 100.894	  0.170
46870	 -0.215	 -0.408	  0.384	 -0.650	 -0.133	 -9.787	 -0.004	  0.002	  0.001	 32.400	 100.905	 -0.808
46920	 -0.215	 -0.406	  0.387	 -0.636	 -0.126	 -9.754	 -0.003	  0.002	  0.001	 32.400	 100.889	  0.615
46970	 -0.216	 -0.410	  0.382	 -0.638	 -0.124	 -9.805	 -0.003	  0.003	  0.001	 32.400	 100.901	 -0.453
47020	 -0.215	 -0.411	  0.388	 -0.649	 -0.135	 -9.748	 -0.003	  0.003	  0.001	 32.400	 100.905	 -0.808
47070	 -0.214	 -0.411	  0.387	 -0.657	 -0.142	 -9.777	 -0.003	  0.003	  0.001	 32.400	 100.901	 -0.453
47120	 -0.215	 -0.409	  0.384	 -0.640	 -0.120	 -9.763	 -0.003	  0.002	  0.000	 32.400	 100.901	 -0.453
47170	 -0.215	 -0.406	  0.387	 -0.648	 -0.138	 -9.761	 -0.004	  0.003	  0.001	 32.400	 100.894	  0.170
47220	 -0.213	 -0.412	  0.384	 -0.672	 -0.142	 -9.766	 -0.003	  0.003	  0.001	 32.400	 100.889	  0.615
47270	 -0.216	 -0.411	  0.383	 -0.640	 -0.133	 -9.759	 -0.003	  0.003	 -0.000	 32.400	 100.894	  0.170
47320	 -0.212	 -0.413	  0.386	 -0.658	 -0.138	 -9.760	 -0.002	  0.002	  0.001	 32.400	 100.894	  0.170
47370	 -0.213	 -0.406	  0.385	 -0.659	 -0.137	 -9.794	 -0.003	  0.004	  0.001	 32.400	 100.901	 -0.453
47420	 -0.213	 -0.412	  0.381	 -0.676	 -0.142	 -9.766	 -0.002	  0.003	  0.001	 32.400	 100.894	  0.170
47470	 -0.215	 -0.410	  0.387	 -0.655	 -0.130	 -9.735	 -0.003	  0.003	  0.000	 32.400	 100.894	  0.170
47520	 -0.215	 -0.411	  0.384	 -0.658	 -0.132	 -9.788	 -0.003	  0.003	  0.001	 32.400	 100.889	  0.615
47570	 -0.214	 -0.410	  0.386	 -0.664	 -0.125	 -9.768	 -0.003	  0.002	  0.001	 32.400	 100.905	 -0.808
47620	 -0.215	 -0.411	  0.381	 -0.644	 -0.138	 -9.753	 -0.003	  0.001	  0.001	 32.400	 100.901	 -0.453
47671	 -0.216	 -0.412	  0.387	 -0.649	 -0.136	 -9.762	 -0.003	  0.004	  0.001	 32.400	 100.901	 -0.453
47721	 -0.214	 -0.414	  0.388	 -0.651	 -0.123	 -9.782	 -0.002	  0.003	  0.001	 32.400	 100.905	 -0.808
47771	 -0.214	 -0.410	  0.387	 -0.646	 -0.132	 -9.784	 -0.003	  0.002	 -0.000	 32.400	 100.894	  0.170
47821	 -0.216	 -0.409	  0.386	 -0.657	 -0.122	 -9.783	 -0.003	  0.003	  0.002	 32.400	 100.894	  0.170
47871	 -0.216	 -0.416	  0.384	 -0.668	 -0.138	 -9.752	 -0.003	  0.003	  0.002	 32.400	 100.901	 -0.453
47921	 -0.215	 -0.409	  0.379	 -0.667	 -0.142	 -9.799	 -0.004	  0.002	 -0.000	 32.400	 100.894	  0.170
47971	 -0.215	 -0.407	  0.386	 -0.642	 -0.137	 -9.783	 -0.004	  0.003	  0.001	 32.400	 100.889	  0.615
48021	 -0.213	 -0.410	  0.388	 -0.649	 -0.122	 -9.780	 -0.003	  0.002	  0.001	 32.400	 100.894	  0.170
48071	 -0.214	 -0.410	  0.383	 -0.673	 -0.149	 -9.758	 -0.003	  0.003	  0.001	 32.400	 100.894	  0.170
48121	 -0.214	 -0.406	  0.386	 -0.646	 -0.096	 -9.810	 -0.003	  0.003	  0.002	 32.400	 100.901	 -0.453
48171	 -0.216	 -0.407	  0.382	 -0.658	 -0.118	 -9.803	 -0.004	  0.004	  0.001	 32.400	 100.905	 -0.808
48221	 -0.216	 -0.408	  0.386	 -0.646	 -0.113	 -9.769	 -0.003	  0.001	  0.001	 32.400	 100.901	 -0.453
48271	 -0.215	 -0.411	  0.382	 -0.641	 -0.109	 -9.754	 -0.003	  0.002	 -0.001	 32.400	 100.901	 -0.453
48321	 -0.216	 -0.412	  0.386	 -0.639	 -0.138	 -9.749	 -0.003	  0.003	  0.001	 32.400	 100.905	 -0.808
48371	 -0.215	 -0.411	  0.389	 -0.639	 -0.133	 -9.757	 -0.002	  0.002	  0.000	 32.400	 100.901	 -0.453
48421	 -0.216	 -0.409	  0.384	 -0.631	 -0.134	 -9.788	 -0.003	  0.002	  0.001	 32.400	 100.905	 -0.808
48471	 -0.214	 -0.412	  0.381	 -0.648	 -0.128	 -9.758	 -0.003	  0.002	  0.000	 32.400	 100.894	  0.170
48521	 -0.215	 -0.409	  0.381	 -0.652	 -0.105	 -9.748	 -0.004	  0.003	  0.001	 32.400	 100.894	  0.170
48571	 -0.216	 -0.408	  0.383	 -0.634	 -0.117	 -9.805	 -0.003	  0.003	  0.001	 32.400	 100.889	  0.615
48621	 -0.216	 -0.411	  0.383	 -0.653	 -0.129	 -9.779	 -0.002	  0.002	  0.001	 32.400	 100.889	  0.615
48671	 -0.215	 -0.413	  0.386	 -0.667	 -0.135	 -9.783	 -0.004	  0.003	  0.001	 32.400	 100.905	 -0.808
48721	 -0.215	 -0.408	  0.384	 -0.657	 -0.125	 -9.756	 -0.005	  0.003	  0.001	 32.400	 100.889	  0.615
48771	 -0.217	 -0.410	  0.386	 -0.670	 -0.129	 -9.760	 -0.003	  0.002	  0.001	 32.400	 100.894	  0.170
48821	 -0.217	 -0.410	  0.382	 -0.661	 -0.135	 -9.763	 -0.003	  0.002	  0.001	 32.400	 100.894	  0.170
48871	 -0.214	 -0.413	  0.385	 -0.650	 -0.133	 -9.764	 -0.002	  0.003	  0.001	 32.400	 100.901	 -0.453
48921	 -0.215	 -0.411	  0.389	 -0.644	 -0.129	 -9.788	 -0.003	  0.001	  0.001	 32.400	 100.894	  0.170
48971	 -0.214	 -0.410	  0.386	 -0.661	 -0.136	 -9.779	 -0.004	  0.002	  0.001	 32.400	 100.901	 -0.453
49022	 -0.217	 -0.409	  0.383	 -0.657	 -0.118	 -9.746	 -0.003	  0.002	  0.001	 32.400	 100.894	  0.170
49072	 -0.214	 -0.411	  0.385	 -0.663	 -0.144	 -9.775	 -0.003	  0.003	 -0.000	 32.400	 100.894	  0.170
49122	 -0.214	 -0.411	  0.386	 -0.636	 -0.135	 -9.807	 -0.004	  0.002	 -0.000	 32.400	 100.894	  0.170
49172	 -0.214	 -0.413	  0.385	 -0.639	 -0.125	 -9.766	 -0.003	  0.002	  0.000	 32.400	 100.901	 -0.453
49222	 -0.216	 -0.411	  0.383	 -0.658	 -0.135	 -9.792	 -0.003	  0.002	  0.000	 32.400	 100.901	 -0.453
49271	 -0.216	 -0.412	  0.379	 -0.659	 -0.130	 -9.755	 -0.004	  0.002	  0.001	 32.400	 100.901	 -0.453
49322	 -0.218	 -0.409	  0.382	 -0.642	 -0.129	 -9.746	 -0.002	  0.002	  0.001	 32.400	 100.894	  0.170
49372	 -0.215	 -0.409	  0.382	 -0.665	 -0.131	 -9.779	 -0.003	  0.003	  0.001	 32.400	 100.889	  0.615
49423	 -0.213	 -0.411	  0.387	 -0.645	 -0.152	 -9.756	 -0.002	  0.003	  0.001	 32.400	 100.889	  0.615
49472	 -0.216	 -0.410	  0.386	 -0.651	 -0.152	 -9.750	 -0.003	  0.002	 -0.000	 32.400	 100.905	 -0.808
49522	 -0.213	 -0.410	  0.386	 -0.650	 -0.146	 -9.755	 -0.003	  0.002	  0.001	 32.400	 100.894	  0.170
49572	 -0.216	 -0.412	  0.380	 -0.649	 -0.137	 -9.815	 -0.003	  0.002	  0.002	 32.400	 100.905	 -0.808
49622	 -0.215	 -0.412	  0.389	 -0.648	 -0.117	 -9.764	 -0.004	  0.003	  0.001	 32.400	 100.905	 -0.808
49672	 -0.214	 -0.413	  0.381	 -0.671	 -0.132	 -9.778	 -0.002	  0.002	 -0.001	 32.400	 100.894	  0.170
49722	 -0.215	 -0.406	  0.384	 -0.667	 -0.125	 -9.779	 -0.003	  0.001	  0.001	 32.400	 100.894	  0.170
49773	 -0.215	 -0.414	  0.387	 -0.662	 -0.135	 -9.763	 -0.004	  0.002	  0.001	 32.400	 100.905	 -0.808
49822	 -0.218	 -0.410	  0.384	 -0.647	 -0.128	 -9.789	 -0.003	  0.002	  0.001	 32.400	 100.894	  0.170
49873	 -0.215	 -0.413	  0.387	 -0.661	 -0.108	 -9.783	 -0.003	  0.001	  0.001	 32.400	 100.901	 -0.453
49922	 -0.217	 -0.409	  0.382	 -0.665	 -0.123	 -9.764	 -0.002	  0.002	  0.001	 32.400	 100.889	  0.615
49973	 -0.215	 -0.407	  0.387	 -0.651	 -0.133	 -9.788	 -0.003	  0.003	  0.000	 32.400	 100.894	  0.170
50022	 -0.216	 -0.411	  0.387	 -0.651	 -0.131	 -9.788	 -0.002	  0.003	 -0.000	 32.400	 100.905	 -0.808
50073	 -0.213	 -0.412	  0.387	 -0.640	 -0.140	 -9.753	 -0.003	  0.001	  0.000	 32.400	 100.878	  1.595
50123	 -0.215	 -0.409	  0.387	 -0.635	 -0.122	 -9.737	 -0.002	  0.003	  0.001	 32.400	 100.882	  1.239
50174	 -0.214	 -0.410	  0.382	 -0.638	 -0.122	 -9.777	 -0.003	  0.002	  0.000	 32.400	 100.894	  0.170
50223	 -0.216	 -0.414	  0.386	 -0.642	 -0.115	 -9.801	 -0.003	  0.002	  0.001	 32.400	 100.894	  0.170
50273	 -0.215	 -0.411	  0.379	 -0.639	 -0.113	 -9.729	 -0.004	  0.002	  0.001	 32.400	 100.894	  0.170
50323	 -0.215	 -0.405	  0.384	 -0.660	 -0.107	 -9.742	 -0.003	  0.002	  0.001	 32.400	 100.916	 -1.788
50374	 -0.213	 -0.410	  0.385	 -0.664	 -0.123	 -9.758	 -0.003	  0.002	  0.001	 32.400	 100.905	 -0.808
50424	 -0.214	 -0.411	  0.387	 -0.649	 -0.127	 -9.766	 -0.002	  0.002	  0.001	 32.400	 100.894	  0.170
50474	 -0.214	 -0.413	  0.386	 -0.640	 -0.131	 -9.784	 -0.003	  0.003	  0.001	 32.400	 100.905	 -0.808
50524	 -0.217	 -0.412	  0.388	 -0.648	 -0.116	 -9.741	 -0.003	  0.002	  0.000	 32.400	 100.905	 -0.808
50574	 -0.217	 -0.413	  0.387	 -0.654	 -0.131	 -9.801	 -0.004	  0.003	  0.001	 32.400	 100.894	  0.170
50624	 -0.215	 -0.410	  0.386	 -0.656	 -0.124	 -9.748	 -0.004	  0.002	  0.000	 32.400	 100.894	  0.170
50674	 -0.216	 -0.413	  0.382	 -0.645	 -0.136	 -9.790	 -0.003	  0.003	  0.000	 32.400	 100.905	 -0.808
50724	 -0.215	 -0.412	  0.382	 -0.641	 -0.152	 -9.756	 -0.003	  0.003	 -0.000	 32.400	 100.894	  0.170
50774	 -0.215	 -0.407	  0.386	 -0.625	 -0.136	 -9.764	 -0.004	  0.002	  0.002	 32.400	 100.889	  0.615
50824	 -0.215	 -0.413	  0.386	 -0.658	 -0.130	 -9.750	 -0.003	  0.002	 -0.000	 32.400	 100.894	  0.170
50874	 -0.213	 -0.413	  0.384	 -0.674	 -0.122	 -9.761	 -0.003	  0.002	  0.000	 32.400	 100.894	  0.170
50924	 -0.213	 -0.409	  0.387	 -0.655	 -0.139	 -9.787	 -0.003	  0.004	  0.002	 32.400	 100.894	  0.170
50974	 -0.216	 -0.406	  0.387	 -0.644	 -0.135	 -9.753	 -0.003	  0.003	  0.001	 32.400	 100.889	  0.615
51024	 -0.216	 -0.413	  0.384	 -0.647	 -0.140	 -9.798	 -0.002	  0.004	  0.001	 32.400	 100.901	 -0.453
51074	 -0.217	 -0.413	  0.381	 -0.652	 -0.143	 -9.759	 -0.004	  0.003	  0.001	 32.400	 100.894	  0.170
51124	 -0.215	 -0.408	  0.383	 -0.630	 -0.145	 -9.758	 -0.004	  0.001	  0.001	 32.400	 100.905	 -0.808
51174	 -0.214	 -0.412	  0.384	 -0.648	 -0.143	 -9.770	 -0.003	  0.002	  0.000	 32.400	 100.901	 -0.453
51224	 -0.215	 -0.409	  0.386	 -0.657	 -0.132	 -9.780	 -0.003	  0.002	  0.000	 32.400	 100.901	 -0.453
51274	 -0.216	 -0.413	  0.387	 -0.633	 -0.140	 -9.727	 -0.003	  0.002	  0.001	 32.400	 100.905	 -0.808
51324	 -0.217	 -0.411	  0.383	 -0.657	 -0.120	 -9.763	 -0.003	  0.003	  0.001	 32.400	 100.889	  0.615
51374	 -0.217	 -0.411	  0.381	 -0.650	 -0.155	 -9.817	 -0.003	  0.003	  0.001	 32.400	 100.905	 -0.808
51424	 -0.215	 -0.413	  0.380	 -0.650	 -0.137	 -9.793	 -0.004	  0.002	  0.000	 32.400	 100.905	 -0.808
51474	 -0.216	 -0.411	  0.384	 -0.638	 -0.137	 -9.784	 -0.004	  0.003	  0.001	 32.400	 100.905	 -0.808
51524	 -0.214	 -0.414	  0.384	 -0.656	 -0.122	 -9.751	 -0.003	  0.002	  0.000	 32.400	 100.894	  0.170
51574	 -0.217	 -0.410	  0.386	 -0.645	 -0.108	 -9.754	 -0.004	  0.003	 -0.000	 32.400	 100.905	 -0.808
51624	 -0.216	 -0.407	  0.386	 -0.653	 -0.129	 -9.766	 -0.003	  0.002	  0.000	 32.400	 100.894	  0.170
51674	 -0.216	 -0.411	  0.383	 -0.616	 -0.125	 -9.793	 -0.003	  0.002	  0.001	 32.400	 100.894	  0.170
51724	 -0.214	 -0.413	  0.388	 -0.655	 -0.140	 -9.752	 -0.003	  0.003	  0.002	 32.400	 100.894	  0.170
51774	 -0.215	 -0.411	  0.387	 -0.645	 -0.138	 -9.759	 -0.003	  0.003	  0.001	 32.400	 100.894	  0.170
51825	 -0.216	 -0.405	  0.386	 -0.677	 -0.138	 -9.777	 -0.003	  0.003	 -0.000	 32.400	 100.887	  0.794
51875	 -0.214	 -0.412	  0.385	 -0.649	 -0.151	 -9.773	 -0.003	  0.002	  0.000	 32.400	 100.901	 -0.453
51925	 -0.216	 -0.413	  0.383	 -0.631	 -0.145	 -9.772	 -0.003	  0.003	  0.001	 32.400	 100.894	  0.170
51975	 -0.216	 -0.413	  0.386	 -0.647	 -0.128	 -9.792	 -0.004	  0.003	 -0.000	 32.400	 100.889	  0.615
52025	 -0.216	 -0.413	  0.382	 -0.633	 -0.151	 -9.759	 -0.002	  0.003	  0.001	 32.400	 100.894	  0.170
52075	 -0.214	 -0.413	  0.382	 -0.647	 -0.131	 -9.767	 -0.003	  0.002	  0.001	 32.400	 100.894	  0.170
56353	 -0.217	 -0.412	  0.388	 -0.655	 -0.125	 -9.747	 -0.004	  0.001	  0.000	 32.400	 100.905	 -0.721
56403	 -0.216	 -0.409	  0.386	 -0.654	 -0.135	 -9.758	 -0.003	  0.003	  0.001	 32.400	 100.905	 -0.721
56453	 -0.213	 -0.406	  0.383	 -0.651	 -0.155	 -9.779	 -0.003	  0.002	  0.001	 32.400	 100.894	  0.256
56503	 -0.215	 -0.407	  0.387	 -0.635	 -0.151	 -9.777	 -0.003	  0.004	  0.000	 32.400	 100.905	 -0.721
56553	 -0.216	 -0.408	  0.386	 -0.657	 -0.145	 -9.797	 -0.003	  0.002	  0.001	 32.400	 100.905	 -0.721
56603	 -0.214	 -0.411	  0.388	 -0.633	 -0.144	 -9.767	 -0.003	  0.002	  0.002	 32.400	 100.882	  1.321
56653	 -0.217	 -0.408	  0.386	 -0.640	 -0.153	 -9.748	 -0.003	  0.003	  0.002	 32.400	 100.905	 -0.721
56703	 -0.212	 -0.404	  0.386	 -0.622	 -0.133	 -9.811	 -0.003	  0.002	  0.001	 32.400	 100.882	  1.321
56753	 -0.215	 -0.410	  0.381	 -0.608	 -0.134	 -9.782	 -0.002	  0.002	  0.001	 32.400	 100.894	  0.256
56803	 -0.215	 -0.411	  0.383	 -0.630	 -0.151	 -9.788	 -0.002	  0.003	  0.001	 32.400	 100.894	  0.256
56853	 -0.214	 -0.413	  0.382	 -0.627	 -0.143	 -9.771	 -0.003	  0.002	 -0.000	 32.400	 100.894	  0.256
56903	 -0.215	 -0.412	  0.384	 -0.635	 -0.147	 -9.754	 -0.004	  0.002	 -0.001	 32.400	 100.894	  0.256
56953	 -0.217	 -0.413	  0.388	 -0.636	 -0.148	 -9.787	 -0.004	  0.002	  0.001	 32.400	 100.905	 -0.721
57003	 -0.216	 -0.410	  0.381	 -0.612	 -0.147	 -9.781	 -0.002	  0.002	  0.000	 32.400	 100.898	 -0.099
57054	 -0.214	 -0.410	  0.387	 -0.657	 -0.173	 -9.765	 -0.003	  0.002	  0.002	 32.400	 100.905	 -0.721
57104	 -0.215	 -0.410	  0.383	 -0.624	 -0.131	 -9.806	 -0.002	  0.002	 -0.000	 32.400	 100.894	  0.256
57154	 -0.216	 -0.404	  0.386	 -0.657	 -0.179	 -9.774	 -0.004	  0.003	  0.000	 32.400	 100.894	  0.256
57204	 -0.215	 -0.411	  0.384	 -0.647	 -0.174	 -9.773	 -0.003	  0.002	  0.001	 32.400	 100.894	  0.256
57254	 -0.216	 -0.406	  0.386	 -0.618	 -0.145	 -9.780	 -0.003	  0.002	  0.001	 32.400	 100.894	  0.256
57304	 -0.215	 -0.409	  0.383	 -0.639	 -0.141	 -9.787	 -0.004	  0.002	  0.001	 32.400	 100.894	  0.256
57354	 -0.216	 -0.410	  0.382	 -0.650	 -0.136	 -9.799	 -0.002	  0.002	  0.000	 32.400	 100.905	 -0.721
57404	 -0.216	 -0.409	  0.386	 -0.629	 -0.130	 -9.754	 -0.004	  0.002	  0.001	 32.400	 100.894	  0.256
57454	 -0.215	 -0.409	  0.390	 -0.647	 -0.158	 -9.773	 -0.003	  0.003	  0.001	 32.400	 100.894	  0.256
57504	 -0.217	 -0.411	  0.386	 -0.629	 -0.138	 -9.780	 -0.004	  0.003	  0.001	 32.400	 100.894	  0.256
57554	 -0.214	 -0.410	  0.386	 -0.637	 -0.155	 -9.789	 -0.004	  0.002	  0.001	 32.400	 100.889	  0.699
57604	 -0.214	 -0.409	  0.382	 -0.646	 -0.114	 -9.791	 -0.003	  0.002	  0.001	 32.400	 100.905	 -0.721
57654	 -0.218	 -0.412	  0.380	 -0.628	 -0.166	 -9.752	 -0.003	  0.002	 -0.001	 32.400	 100.894	  0.256
57704	 -0.213	 -0.409	  0.388	  0.294	 -0.486	 -8.800	  0.111	  0.130	 -0.036	 32.400	 100.894	  0.256
57754	 -0.216	 -0.406	  0.386	 -0.452	 -0.203	 -9.777	  0.000	  0.005	  0.075	 32.400	 100.894	  0.256
57804	 -0.218	 -0.410	  0.386	 -0.517	 -0.246	 -9.572	  0.071	  0.008	 -0.024	 32.400	 100.905	 -0.721
57854	 -0.214	 -0.405	  0.386	 -0.563	 -0.275	 -9.723	 -0.005	  0.011	 -0.005	 32.400	 100.905	 -0.721
57904	 -0.216	 -0.402	  0.386	 -0.609	 -0.217	 -9.746	  0.002	  0.010	  0.002	 32.400	 100.905	 -0.721
57954	 -0.208	 -0.406	  0.384	 -0.424	 -0.614	 -10.449	  0.203	  0.311	 -0.574	 32.400	 100.894	  0.256
58004	 -0.189	 -0.417	  0.377	 -2.712	 -0.309	 -10.081	 -0.193	 -0.108	 -0.533	 32.400	 100.901	 -0.366
58054	 -0.174	 -0.417	  0.373	 -2.555	  0.474	 -10.352	 -0.443	 -0.293	 -0.386	 32.400	 100.905	 -0.721
58104	 -0.158	 -0.430	  0.369	 -1.163	  0.412	 -9.156	  0.142	  0.133	  0.012	 32.400	 100.905	 -0.721
58154	 -0.159	 -0.425	  0.374	 -0.629	 -0.289	 -9.882	  0.042	  0.038	 -0.029	 32.400	 100.894	  0.256
58204	 -0.161	 -0.428	  0.370	  0.302	 -0.291	 -10.349	 -0.207	 -0.201	 -0.019	 32.400	 100.905	 -0.721
58255	 -0.146	 -0.440	  0.364	 -1.445	 -0.180	 -9.153	 -0.467	 -0.345	 -0.144	 32.400	 100.905	 -0.721
58305	 -0.143	 -0.441	  0.360	 -0.021	 -0.102	 -9.949	 -0.218	 -0.192	 -0.156	 32.400	 100.894	  0.256
58355	 -0.129	 -0.450	  0.357	 -0.556	 -0.128	 -10.534	 -0.922	 -0.579	  0.071	 32.400	 100.905	 -0.721
58405	 -0.120	 -0.458	  0.347	 -1.600	  1.318	 -9.118	 -0.693	 -0.439	  0.135	 32.400	 100.894	  0.256
58455	 -0.107	 -0.469	  0.342	 -2.224	  1.152	 -9.171	 -0.548	 -0.886	  0.089	 32.400	 100.894	  0.256
58505	 -0.090	 -0.489	  0.338	 -1.260	  1.171	 -9.641	 -0.446	 -0.730	  0.129	 32.400	 100.894	  0.256
58555	 -0.086	 -0.492	  0.334	 -2.761	  1.608	 -9.849	 -0.421	 -0.354	  0.153	 32.400	 100.894	  0.256
58605	 -0.079	 -0.498	  0.330	 -2.715	  2.110	 -10.257	 -0.499	 -0.326	  0.109	 32.400	 100.894	  0.256
58655	 -0.074	 -0.510	  0.318	 -2.600	  2.019	 -10.957	 -1.177	 -0.224	  0.234	 32.400	 100.905	 -0.721
58705	 -0.071	 -0.536	  0.300	 -2.853	  2.850	 -9.804	 -0.891	  0.474	  0.430	 32.400	 100.878	  1.676
58755	 -0.085	 -0.535	  0.282	 -0.488	  2.407	 -2.685	 -0.162	  0.670	  0.070	 32.400	 100.894	  0.256
58805	 -0.075	 -0.536	  0.293	 -2.908	  3.723	 -6.038	  0.588	 -1.635	 -0.059	 32.400	 100.894	  0.256
58855	 -0.064	 -0.529	  0.312	 -3.808	  1.133	 -18.851	  0.220	 -0.296	  0.340	 32.400	 100.889	  0.699
58905	 -0.084	 -0.527	  0.300	 -0.974	  2.134	 -4.197	 -0.846	  1.637	  0.054	 32.400	 100.894	  0.256
58955	 -0.077	 -0.544	  0.289	 -2.981	  5.842	 -2.925	  0.307	 -1.509	 -0.346	 32.400	 100.894	  0.256
59005	 -0.062	 -0.528	  0.305	 -4.327	 -0.404	 -24.642	 -0.153	  0.059	  0.414	 32.400	 100.894	  0.256
59055	 -0.083	 -0.541	  0.280	 -1.168	  3.619	  3.354	 -0.837	  2.141	 -0.529	 32.400	 100.894	  0.256
59105	 -0.069	 -0.544	  0.274	 -3.687	  2.468	 -10.352	  0.739	 -2.578	  0.206	 32.400	 100.894	  0.256
59155	 -0.057	 -0.540	  0.284	 -2.987	  0.511	 -17.033	 -0.487	  1.449	  0.001	 32.400	 100.905	 -0.721
59205	 -0.064	 -0.555	  0.266	 -2.435	  7.924	  5.605	 -0.263	 -0.804	 -0.524	 32.400	 100.894	  0.256
59255	 -0.038	 -0.548	  0.281	 -4.733	  1.898	 -23.961	  0.515	 -1.335	  0.341	 32.400	 100.894	  0.256
59305	 -0.058	 -0.551	  0.270	 -1.574	  1.807	 -2.896	 -1.217	  2.559	 -0.356	 32.400	 100.894	  0.256
59355	 -0.050	 -0.561	  0.254	 -3.530	  5.760	 -0.073	  0.664	 -2.482	 -0.084	 32.400	 100.894	  0.256
59405	 -0.036	 -0.553	  0.279	 -5.549	  0.698	 -26.131	  0.082	  0.335	  0.332	 32.400	 100.894	  0.256
59455	 -0.054	 -0.567	  0.251	 -1.156	  4.271	  7.188	 -1.373	  2.222	 -0.600	 32.400	 100.894	  0.256
59505	 -0.045	 -0.572	  0.248	 -4.518	  3.468	 -9.050	  1.465	 -2.809	  0.139	 32.400	 100.905	 -0.721
59555	 -0.039	 -0.565	  0.264	 -4.548	  1.118	 -22.697	 -0.876	  1.357	  0.156	 32.400	 100.889	  0.699
59605	 -0.055	 -0.577	  0.228	 -1.961	  8.047	 12.843	 -0.632	  0.710	 -0.448	 32.400	 100.882	  1.321
59655	 -0.033	 -0.566	  0.264	 -6.388	  1.528	 -30.535	  1.997	 -2.583	  0.305	 32.400	 100.882	  1.321
59705	 -0.042	 -0.571	  0.251	 -2.313	  0.381	 -9.136	 -2.052	  3.605	  0.091	 32.400	 100.909	 -1.075
59755	 -0.055	 -0.586	  0.222	 -1.875	  5.430	 14.508	  0.693	 -1.837	 -0.318	 32.400	 100.894	  0.256
59805	 -0.026	 -0.564	  0.266	 -6.458	  0.092	 -33.054	  0.861	 -1.351	  0.237	 32.400	 100.905	 -0.721
59855	 -0.044	 -0.583	  0.243	 -2.231	  5.742	  3.321	 -1.967	  3.430	 -0.602	 32.400	 100.894	  0.256
59905	 -0.047	 -0.584	  0.220	 -3.129	  4.283	  0.395	  1.380	 -2.923	  0.292	 32.400	 100.882	  1.321
59955	 -0.033	 -0.562	  0.267	 -5.284	  4.132	 -24.268	  0.041	  0.739	 -0.019	 32.400	 100.905	 -0.721
60005	 -0.047	 -0.580	  0.241	 -2.136	  3.488	 -1.826	 -0.566	  0.573	 -0.075	 32.400	 100.894	  0.256
60055	 -0.045	 -0.574	  0.252	 -3.033	  2.814	 -8.273	  0.793	 -0.032	 -0.096	 32.400	 100.905	 -0.721
60106	 -0.052	 -0.561	  0.272	 -2.716	  3.448	 -9.729	  0.698	  0.237	 -0.107	 32.400	 100.905	 -0.721
60156	 -0.057	 -0.552	  0.283	 -2.379	  3.090	 -8.429	  0.648	  0.195	 -0.218	 32.400	 100.905	 -0.721
60206	 -0.065	 -0.544	  0.294	 -2.942	  2.704	 -10.468	  0.951	  0.724	 -0.144	 32.400	 100.905	 -0.721
60257	 -0.077	 -0.522	  0.312	 -1.935	  1.941	 -15.078	  0.603	  0.738	  0.103	 32.400	 100.894	  0.256
60307	 -0.083	 -0.513	  0.322	 -2.170	  1.973	 -8.922	  0.276	  0.210	  0.011	 32.400	 100.894	  0.256
60357	 -0.094	 -0.509	  0.335	 -3.380	  1.802	 -7.924	  1.184	  0.758	  0.129	 32.400	 100.894	  0.256
60407	 -0.130	 -0.476	  0.359	 -1.146	  0.821	 -9.293	  1.758	  1.170	  0.211	 32.400	 100.894	  0.256
60457	 -0.164	 -0.441	  0.377	 -0.941	 -0.311	 -10.975	  1.306	  0.884	  0.017	 32.400	 100.894	  0.256
60507	 -0.182	 -0.431	  0.383	 -0.251	 -0.814	 -10.978	  0.233	  0.214	  0.079	 32.400	 100.894	  0.256
60557	 -0.182	 -0.430	  0.382	 -0.804	 -0.176	 -9.739	 -0.104	 -0.113	  0.087	 32.400	 100.894	  0.256
60607	 -0.181	 -0.425	  0.381	 -0.816	 -0.062	 -9.688	 -0.001	  0.001	  0.001	 32.400	 100.905	 -0.721
60657	 -0.181	 -0.433	  0.380	 -0.752	 -0.107	 -9.802	 -0.009	 -0.005	 -0.001	 32.400	 100.905	 -0.721
60707	 -0.178	 -0.430	  0.383	 -0.789	 -0.069	 -9.769	  0.008	  0.013	  0.003	 32.400	 100.894	  0.256
60757	 -0.179	 -0.424	  0.384	 -0.767	 -0.082	 -9.774	 -0.006	 -0.002	  0.000	 32.400	 100.909	 -1.075
60807	 -0.182	 -0.429	  0.380	 -0.776	 -0.081	 -9.742	  0.001	  0.008	  0.001	 32.400	 100.894	  0.256
60857	 -0.176	 -0.428	  0.381	 -0.788	 -0.064	 -9.754	 -0.002	  0.003	 -0.000	 32.400	 100.882	  1.321
60907	 -0.178	 -0.431	  0.383	 -0.763	 -0.093	 -9.776	 -0.001	  0.005	  0.001	 32.400	 100.894	  0.256
60957	 -0.179	 -0.429	  0.384	 -0.775	 -0.071	 -9.767	  0.000	  0.005	  0.001	 32.400	 100.894	  0.256
61007	 -0.180	 -0.428	  0.380	 -0.775	 -0.101	 -9.748	 -0.001	  0.003	  0.001	 32.400	 100.905	 -0.721
61057	 -0.179	 -0.425	  0.387	 -0.766	 -0.100	 -9.744	 -0.001	  0.005	  0.001	 32.400	 100.894	  0.256
61107	 -0.182	 -0.429	  0.383	 -0.793	 -0.081	 -9.714	 -0.003	  0.003	  0.001	 32.400	 100.894	  0.256
61157	 -0.180	 -0.431	  0.381	 -0.752	 -0.059	 -9.771	 -0.001	  0.005	  0.001	 32.400	 100.894	  0.256
61207	 -0.180	 -0.429	  0.383	 -0.779	 -0.089	 -9.777	 -0.001	  0.004	  0.001	 32.400	 100.894	  0.256
61257	 -0.182	 -0.428	  0.383	 -0.765	 -0.072	 -9.765	  0.001	  0.005	  0.002	 32.400	 100.894	  0.256
61307	 -0.183	 -0.422	  0.381	 -0.768	 -0.098	 -9.739	 -0.002	  0.005	  0.002	 32.400	 100.894	  0.256
61357	 -0.182	 -0.432	  0.383	 -0.739	 -0.097	 -9.768	 -0.002	  0.004	  0.002	 32.400	 100.894	  0.256
61407	 -0.179	 -0.429	  0.383	 -0.747	 -0.096	 -9.785	 -0.002	  0.006	  0.000	 32.400	 100.882	  1.321
61457	 -0.180	 -0.426	  0.381	 -0.787	 -0.086	 -9.748	 -0.003	  0.003	  0.000	 32.400	 100.905	 -0.721
61507	 -0.178	 -0.428	  0.383	 -0.759	 -0.096	 -9.760	 -0.001	  0.004	  0.001	 32.400	 100.905	 -0.721
61557	 -0.178	 -0.430	  0.382	 -0.744	 -0.088	 -9.762	 -0.002	  0.004	  0.001	 32.400	 100.889	  0.699
61607	 -0.180	 -0.422	  0.380	 -0.775	 -0.111	 -9.762	 -0.001	  0.004	  0.001	 32.400	 100.894	  0.256
61657	 -0.181	 -0.427	  0.384	 -0.758	 -0.095	 -9.762	 -0.000	  0.004	  0.001	 32.400	 100.894	  0.256
61707	 -0.178	 -0.431	  0.383	 -0.780	 -0.097	 -9.765	 -0.002	  0.004	 -0.000	 32.400	 100.894	  0.256
61757	 -0.182	 -0.431	  0.381	 -0.766	 -0.075	 -9.726	  0.001	  0.006	  0.002	 32.400	 100.905	 -0.721
61807	 -0.180	 -0.431	  0.381	 -0.732	 -0.079	 -9.756	  0.000	  0.005	  0.001	 32.400	 100.905	 -0.721
61857	 -0.180	 -0.431	  0.385	 -0.769	 -0.086	 -9.793	 -0.004	  0.003	  0.001	 32.400	 100.894	  0.256
61907	 -0.181	 -0.431	  0.383	 -0.751	 -0.108	 -9.806	 -0.001	  0.003	  0.001	 32.400	 100.905	 -0.721
61957	 -0.179	 -0.426	  0.380	 -0.758	 -0.115	 -9.755	 -0.001	  0.004	  0.001	 32.400	 100.894	  0.256
62007	 -0.182	 -0.427	  0.382	 -0.757	 -0.078	 -9.754	 -0.001	  0.004	  0.002	 32.400	 100.894	  0.256
62057	 -0.181	 -0.433	  0.384	 -0.744	 -0.117	 -9.732	 -0.002	  0.004	  0.001	 32.400	 100.894	  0.256
62107	 -0.181	 -0.426	  0.375	 -0.753	 -0.127	 -9.724	 -0.001	  0.003	  0.001	 32.400	 100.905	 -0.721
62158	 -0.180	 -0.429	  0.383	 -0.746	 -0.096	 -9.764	 -0.002	  0.005	  0.001	 32.400	 100.894	  0.256
62208	 -0.182	 -0.429	  0.385	 -0.723	 -0.113	 -9.777	 -0.001	  0.004	  0.001	 32.400	 100.882	  1.321
62258	 -0.182	 -0.431	  0.383	 -0.766	 -0.122	 -9.798	 -0.002	  0.003	  0.001	 32.400	 100.894	  0.256
62308	 -0.182	 -0.424	  0.384	 -0.730	 -0.110	 -9.785	 -0.000	  0.005	  0.002	 32.400	 100.905	 -0.721
62358	 -0.182	 -0.429	  0.377	 -0.745	 -0.122	 -9.719	  0.001	  0.007	  0.001	 32.400	 100.894	  0.256
62408	 -0.184	 -0.430	  0.380	 -0.742	 -0.110	 -9.770	 -0.001	  0.006	  0.002	 32.400	 100.894	  0.256
62458	 -0.183	 -0.429	  0.380	 -0.716	 -0.111	 -9.742	 -0.003	  0.003	  0.002	 32.400	 100.905	 -0.721
62508	 -0.181	 -0.428	  0.380	 -0.754	 -0.119	 -9.789	 -0.002	  0.004	  0.000	 32.400	 100.894	  0.256
62558	 -0.181	 -0.426	  0.382	 -0.733	 -0.105	 -9.789	 -0.001	  0.004	  0.001	 32.400	 100.894	  0.256
62608	 -0.181	 -0.427	  0.384	 -0.746	 -0.104	 -9.787	 -0.003	  0.003	  0.002	 32.400	 100.905	 -0.721
62658	 -0.181	 -0.430	  0.385	 -0.752	 -0.109	 -9.764	 -0.002	  0.004	  0.001	 32.400	 100.894	  0.256
62708	 -0.184	 -0.428	  0.383	 -0.741	 -0.122	 -9.742	 -0.002	  0.003	  0.001	 32.400	 100.894	  0.256
62758	 -0.180	 -0.428	  0.387	 -0.766	 -0.136	 -9.739	 -0.002	  0.003	  0.001	 32.400	 100.905	 -0.721
62808	 -0.183	 -0.426	  0.378	 -0.725	 -0.103	 -9.755	 -0.001	  0.003	  0.001	 32.400	 100.894	  0.256
62858	 -0.182	 -0.431	  0.384	 -0.737	 -0.082	 -9.843	 -0.003	  0.004	  0.000	 32.400	 100.894	  0.256
62908	 -0.181	 -0.429	  0.382	 -0.727	 -0.125	 -9.738	 -0.003	  0.004	  0.002	 32.400	 100.909	 -1.075
62958	 -0.181	 -0.430	  0.383	 -0.731	 -0.124	 -9.776	 -0.003	  0.003	  0.001	 32.400	 100.894	  0.256
63008	 -0.180	 -0.427	  0.383	 -0.748	 -0.106	 -9.738	 -0.001	  0.002	  0.001	 32.400	 100.894	  0.256
63058	 -0.183	 -0.424	  0.382	 -0.750	 -0.112	 -9.780	 -0.002	  0.003	  0.001	 32.400	 100.905	 -0.721
63108	 -0.182	 -0.430	  0.382	 -0.752	 -0.124	 -9.785	 -0.002	  0.004	  0.001	 32.400	 100.894	  0.256
63158	 -0.182	 -0.426	  0.380	 -0.712	 -0.112	 -9.739	 -0.002	  0.003	  0.001	 32.400	 100.894	  0.256
63208	 -0.182	 -0.427	  0.383	 -0.722	 -0.120	 -9.775	 -0.003	  0.005	  0.001	 32.400	 100.894	  0.256
63258	 -0.182	 -0.430	  0.384	 -0.708	 -0.108	 -9.743	 -0.003	  0.004	  0.001	 32.400	 100.894	  0.256
63308	 -0.184	 -0.428	  0.377	 -0.746	 -0.099	 -9.732	 -0.001	  0.003	  0.002	 32.400	 100.894	  0.256
63358	 -0.184	 -0.427	  0.385	 -0.744	 -0.103	 -9.767	  0.002	  0.009	  0.002	 32.400	 100.894	  0.256
63408	 -0.181	 -0.420	  0.383	 -0.707	 -0.137	 -9.786	 -0.001	  0.003	  0.002	 32.400	 100.894	  0.256
63458	 -0.184	 -0.430	  0.384	 -0.725	 -0.137	 -9.784	 -0.004	  0.002	  0.001	 32.400	 100.882	  1.321
63508	 -0.183	 -0.426	  0.381	 -0.719	 -0.119	 -9.745	 -0.002	  0.003	  0.001	 32.400	 100.905	 -0.721
63558	 -0.182	 -0.427	  0.383	 -0.718	 -0.132	 -9.743	 -0.004	  0.003	  0.001	 32.400	 100.905	 -0.721
63608	 -0.183	 -0.428	  0.383	 -0.726	 -0.114	 -9.778	 -0.002	  0.003	  0.001	 32.400	 100.894	  0.256
63658	 -0.184	 -0.428	  0.382	 -0.725	 -0.115	 -9.746	 -0.003	  0.002	  0.001	 32.400	 100.905	 -0.721
63708	 -0.184	 -0.426	  0.381	 -0.741	 -0.120	 -9.787	 -0.002	  0.003	  0.001	 32.400	 100.894	  0.256
63758	 -0.183	 -0.427	  0.380	 -0.719	 -0.115	 -9.768	 -0.003	  0.003	 -0.000	 32.400	 100.894	  0.256
63808	 -0.182	 -0.430	  0.386	 -0.722	 -0.132	 -9.792	 -0.001	  0.004	  0.002	 32.400	 100.882	  1.321
63858	 -0.183	 -0.422	  0.383	 -0.720	 -0.135	 -9.780	 -0.002	  0.003	  0.001	 32.400	 100.894	  0.256
63908	 -0.184	 -0.421	  0.382	 -0.723	 -0.148	 -9.768	 -0.002	  0.003	  0.001	 32.400	 100.889	  0.699
63958	 -0.182	 -0.427	  0.386	 -0.726	 -0.158	 -9.754	 -0.002	  0.002	  0.000	 32.400	 100.894	  0.256
64008	 -0.182	 -0.429	  0.384	 -0.724	 -0.132	 -9.787	 -0.003	  0.002	  0.001	 32.400	 100.882	  1.321
64058	 -0.184	 -0.428	  0.378	 -0.719	 -0.142	 -9.778	 -0.002	  0.002	  0.001	 32.400	 100.894	  0.256
64108	 -0.183	 -0.428	  0.382	 -0.710	 -0.124	 -9.773	 -0.002	  0.003	  0.000	 32.400	 100.894	  0.256
64158	 -0.184	 -0.429	  0.378	 -0.739	 -0.128	 -9.753	 -0.002	  0.003	 -0.001	 32.400	 100.894	  0.256
64208	 -0.183	 -0.428	  0.384	 -0.714	 -0.122	 -9.730	 -0.002	  0.004	 -0.000	 32.400	 100.894	  0.256
64258	 -0.183	 -0.428	  0.382	 -0.709	 -0.139	 -9.764	 -0.003	  0.002	  0.001	 32.400	 100.905	 -0.721
64308	 -0.182	 -0.421	  0.382	 -0.704	 -0.120	 -9.762	 -0.003	  0.003	  0.002	 32.400	 100.894	  0.256
64359	 -0.184	 -0.427	  0.379	 -0.724	 -0.120	 -9.783	 -0.003	  0.003	  0.001	 32.400	 100.894	  0.256
64409	 -0.183	 -0.429	  0.383	 -0.723	 -0.123	 -9.758	 -0.002	  0.004	  0.000	 32.400	 100.894	  0.256
64458	 -0.183	 -0.429	  0.377	 -0.711	 -0.131	 -9.755	 -0.002	  0.003	  0.001	 32.400	 100.905	 -0.721
64508	 -0.183	 -0.428	  0.382	 -0.712	 -0.126	 -9.773	 -0.002	  0.004	 -0.000	 32.400	 100.887	  0.877
64558	 -0.183	 -0.423	  0.384	 -0.713	 -0.111	 -9.747	 -0.002	  0.004	  0.000	 32.400	 100.894	  0.256
64608	 -0.185	 -0.417	  0.384	 -0.717	 -0.130	 -9.761	 -0.003	  0.003	  0.001	 32.400	 100.882	  1.321
64658	 -0.183	 -0.428	  0.381	 -0.718	 -0.138	 -9.796	 -0.003	  0.002	  0.001	 32.400	 100.905	 -0.721
64708	 -0.185	 -0.426	  0.380	 -0.725	 -0.136	 -9.815	 -0.002	  0.002	  0.002	 32.400	 100.894	  0.256
64758	 -0.184	 -0.427	  0.379	 -0.717	 -0.121	 -9.766	 -0.003	  0.003	  0.000	 32.400	 100.894	  0.256
64808	 -0.183	 -0.427	  0.378	 -0.712	 -0.145	 -9.744	 -0.002	  0.003	  0.001	 32.400	 100.894	  0.256
64858	 -0.183	 -0.430	  0.383	 -0.717	 -0.124	 -9.775	 -0.003	  0.003	  0.000	 32.400	 100.894	  0.256
64908	 -0.182	 -0.425	  0.384	 -0.748	 -0.105	 -9.766	 -0.001	  0.003	  0.001	 32.400	 100.894	  0.256
64958	 -0.183	 -0.430	  0.382	 -0.705	 -0.118	 -9.768	 -0.003	  0.003	  0.001	 32.400	 100.905	 -0.721
65008	 -0.185	 -0.431	  0.383	 -0.689	 -0.131	 -9.766	 -0.003	  0.002	  0.001	 32.400	 100.905	 -0.721
65058	 -0.185	 -0.427	  0.382	 -0.715	 -0.125	 -9.773	 -0.003	  0.003	  0.001	 32.400	 100.882	  1.321
65109	 -0.184	 -0.429	  0.382	 -0.713	 -0.126	 -9.748	 -0.003	  0.003	  0.000	 32.400	 100.894	  0.256
65159	 -0.182	 -0.428	  0.382	 -0.727	 -0.151	 -9.769	 -0.004	  0.002	  0.001	 32.400	 100.894	  0.256
65209	 -0.184	 -0.423	  0.384	 -0.712	 -0.131	 -9.788	 -0.002	  0.003	  0.001	 32.400	 100.894	  0.256
65259	 -0.185	 -0.430	  0.382	 -0.709	 -0.125	 -9.748	 -0.003	  0.003	  0.001	 32.400	 100.882	  1.321
65309	 -0.183	 -0.426	  0.382	 -0.723	 -0.118	 -9.774	 -0.003	  0.002	  0.000	 32.400	 100.882	  1.321
65359	 -0.185	 -0.431	  0.376	 -0.720	 -0.116	 -9.752	 -0.003	  0.004	  0.000	 32.400	 100.894	  0.256
65409	 -0.184	 -0.423	  0.384	 -0.713	 -0.139	 -9.771	 -0.002	  0.002	  0.001	 32.400	 100.894	  0.256
65459	 -0.185	 -0.427	  0.379	 -0.721	 -0.123	 -9.773	 -0.003	  0.003	  0.000	 32.400	 100.905	 -0.721
65510	 -0.183	 -0.425	  0.385	 -0.696	 -0.135	 -9.769	 -0.004	  0.003	  0.000	 32.400	 100.894	  0.256
65559	 -0.184	 -0.425	  0.382	 -0.720	 -0.114	 -9.758	 -0.003	  0.003	  0.001	 32.400	 100.894	  0.256
65609	 -0.184	 -0.428	  0.385	 -0.719	 -0.139	 -9.767	 -0.003	  0.003	  0.002	 32.400	 100.898	 -0.099
65659	 -0.185	 -0.423	  0.383	 -0.729	 -0.140	 -9.750	 -0.003	  0.003	  0.001	 32.400	 100.882	  1.321
65709	 -0.185	 -0.432	  0.379	 -0.715	 -0.145	 -9.779	 -0.003	  0.003	  0.001	 32.400	 100.894	  0.256
65759	 -0.185	 -0.428	  0.380	 -0.729	 -0.110	 -9.757	 -0.003	  0.002	  0.002	 32.400	 100.909	 -1.075
65810	 -0.183	 -0.425	  0.381	 -0.712	 -0.159	 -9.731	 -0.003	  0.003	  0.000	 32.400	 100.894	  0.256
65860	 -0.183	 -0.426	  0.382	 -0.714	 -0.124	 -9.778	 -0.002	  0.002	  0.002	 32.400	 100.894	  0.256
65910	 -0.183	 -0.427	  0.383	 -0.712	 -0.148	 -9.765	 -0.003	  0.003	 -0.000	 32.400	 100.905	 -0.721
65960	 -0.183	 -0.425	  0.378	 -0.737	 -0.135	 -9.752	 -0.002	  0.003	  0.001	 32.400	 100.894	  0.256
66010	 -0.184	 -0.428	  0.384	 -0.699	 -0.108	 -9.763	 -0.003	  0.003	  0.000	 32.400	 100.894	  0.256
66060	 -0.184	 -0.428	  0.386	 -0.720	 -0.151	 -9.767	 -0.002	  0.003	  0.001	 32.400	 100.894	  0.256
66110	 -0.182	 -0.429	  0.383	 -0.730	 -0.123	 -9.783	 -0.002	  0.004	  0.001	 32.400	 100.894	  0.256
66160	 -0.183	 -0.425	  0.381	 -0.715	 -0.113	 -9.778	 -0.003	  0.002	  0.001	 32.400	 100.905	 -0.721
66210	 -0.182	 -0.426	  0.383	 -0.711	 -0.152	 -9.788	 -0.003	  0.003	  0.001	 32.400	 100.878	  1.676
66260	 -0.184	 -0.426	  0.383	 -0.694	 -0.156	 -9.754	 -0.001	  0.003	  0.000	 32.400	 100.905	 -0.721
66310	 -0.182	 -0.426	  0.385	 -0.707	 -0.143	 -9.792	 -0.003	  0.003	  0.002	 32.400	 100.894	  0.256
66360	 -0.182	 -0.427	  0.382	 -0.702	 -0.143	 -9.737	 -0.002	  0.002	  0.001	 32.400	 100.894	  0.256
66410	 -0.185	 -0.429	  0.386	 -0.703	 -0.121	 -9.771	 -0.003	  0.002	 -0.000	 32.400	 100.894	  0.256
66460	 -0.184	 -0.427	  0.383	 -0.724	 -0.143	 -9.759	 -0.003	  0.002	  0.000	 32.400	 100.894	  0.256
66510	 -0.185	 -0.427	  0.384	 -0.723	 -0.135	 -9.767	 -0.004	  0.003	  0.001	 32.400	 100.905	 -0.721
66560	 -0.184	 -0.427	  0.384	 -0.743	 -0.135	 -9.765	 -0.002	  0.004	  0.001	 32.400	 100.894	  0.256
66610	 -0.183	 -0.430	  0.382	 -0.727	 -0.157	 -9.805	 -0.002	  0.004	  0.001	 32.400	 100.894	  0.256
66660	 -0.185	 -0.425	  0.382	 -0.716	 -0.135	 -9.754	  0.002	  0.009	  0.002	 32.400	 100.894	  0.256
66710	 -0.185	 -0.431	  0.382	 -0.710	 -0.145	 -9.757	 -0.001	  0.005	  0.001	 32.400	 100.894	  0.256
66760	 -0.184	 -0.428	  0.383	 -0.712	 -0.131	 -9.770	 -0.003	  0.001	  0.001	 32.400	 100.894	  0.256
66810	 -0.184	 -0.425	  0.382	 -0.726	 -0.149	 -9.775	 -0.003	  0.002	  0.001	 32.400	 100.905	 -0.721
66860	 -0.185	 -0.425	  0.383	 -0.707	 -0.151	 -9.757	 -0.002	  0.002	  0.001	 32.400	 100.905	 -0.721
66910	 -0.183	 -0.428	  0.386	 -0.692	 -0.138	 -9.763	 -0.003	  0.002	  0.000	 32.400	 100.894	  0.256
66960	 -0.186	 -0.428	  0.384	 -0.695	 -0.146	 -9.752	 -0.003	  0.002	  0.001	 32.400	 100.905	 -0.721
67010	 -0.186	 -0.426	  0.383	 -0.703	 -0.149	 -9.734	 -0.003	  0.004	 -0.000	 32.400	 100.894	  0.256
67060	 -0.187	 -0.420	  0.384	 -0.687	 -0.133	 -9.766	 -0.003	  0.001	  0.001	 32.400	 100.894	  0.256
67110	 -0.182	 -0.425	  0.386	 -0.702	 -0.128	 -9.774	 -0.002	  0.003	  0.001	 32.400	 100.905	 -0.721
67160	 -0.183	 -0.424	  0.383	 -0.713	 -0.152	 -9.780	 -0.002	  0.003	  0.001	 32.400	 100.905	 -0.721
67210	 -0.184	 -0.430	  0.384	 -0.699	 -0.133	 -9.747	 -0.002	  0.002	  0.001	 32.400	 100.905	 -0.721
67261	 -0.181	 -0.426	  0.383	 -0.700	 -0.140	 -9.767	 -0.002	  0.002	  0.002	 32.400	 100.894	  0.256
67311	 -0.184	 -0.424	  0.382	 -0.709	 -0.157	 -9.770	 -0.004	  0.001	  0.000	 32.400	 100.894	  0.256
67361	 -0.184	 -0.422	  0.385	 -0.700	 -0.139	 -9.743	 -0.001	  0.003	  0.001	 32.400	 100.882	  1.321
67411	 -0.184	 -0.429	  0.384	 -0.701	 -0.162	 -9.741	 -0.003	  0.003	  0.002	 32.400	 100.894	  0.256
67461	 -0.185	 -0.430	  0.378	 -0.712	 -0.155	 -9.758	 -0.003	  0.003	  0.002	 32.400	 100.882	  1.321
67511	 -0.185	 -0.427	  0.380	 -0.690	 -0.132	 -9.766	 -0.003	  0.003	  0.001	 32.400	 100.894	  0.256
67561	 -0.185	 -0.430	  0.383	 -0.733	 -0.127	 -9.750	 -0.004	  0.002	  0.001	 32.400	 100.894	  0.256
67611	 -0.183	 -0.424	  0.384	 -0.714	 -0.150	 -9.740	 -0.003	  0.002	  0.000	 32.400	 100.894	  0.256
67661	 -0.185	 -0.426	  0.378	 -0.716	 -0.147	 -9.739	 -0.004	  0.003	  0.001	 32.400	 100.905	 -0.721
67711	 -0.184	 -0.429	  0.385	 -0.713	 -0.153	 -9.776	 -0.002	  0.002	  0.002	 32.400	 100.894	  0.256
67761	 -0.184	 -0.427	  0.382	 -0.701	 -0.142	 -9.750	 -0.003	  0.003	  0.001	 32.400	 100.894	  0.256
67811	 -0.183	 -0.427	  0.386	 -0.681	 -0.137	 -9.771	 -0.002	  0.003	  0.002	 32.400	 100.894	  0.256
67861	 -0.183	 -0.428	  0.378	 -0.693	 -0.132	 -9.750	 -0.003	  0.002	 -0.000	 32.400	 100.882	  1.321
67911	 -0.183	 -0.428	  0.380	 -0.706	 -0.133	 -9.754	 -0.003	  0.001	  0.001	 32.400	 100.894	  0.256
67961	 -0.182	 -0.427	  0.382	 -0.721	 -0.155	 -9.774	 -0.002	  0.002	  0.000	 32.400	 100.894	  0.256
68011	 -0.183	 -0.423	  0.385	 -0.698	 -0.147	 -9.745	 -0.002	  0.002	  0.001	 32.400	 100.894	  0.256
68061	 -0.184	 -0.421	  0.387	 -0.706	 -0.134	 -9.767	 -0.003	  0.002	  0.001	 32.400	 100.905	 -0.721
68111	 -0.185	 -0.428	  0.383	 -0.707	 -0.138	 -9.797	 -0.002	  0.003	  0.000	 32.400	 100.894	  0.256
68161	 -0.185	 -0.430	  0.381	 -0.708	 -0.150	 -9.778	 -0.003	  0.002	  0.001	 32.400	 100.898	 -0.099
68211	 -0.183	 -0.423	  0.381	 -0.710	 -0.155	 -9.795	 -0.003	  0.001	  0.000	 32.400	 100.894	  0.256
68261	 -0.183	 -0.423	  0.384	 -0.692	 -0.111	 -9.737	 -0.002	  0.002	  0.001	 32.400	 100.894	  0.256
68311	 -0.184	 -0.428	  0.385	 -0.720	 -0.141	 -9.770	 -0.003	  0.001	  0.001	 32.400	 100.894	  0.256
68361	 -0.185	 -0.426	  0.384	 -0.692	 -0.132	 -9.783	 -0.003	  0.002	  0.000	 32.400	 100.898	 -0.099
68411	 -0.182	 -0.426	  0.382	 -0.717	 -0.165	 -9.782	 -0.003	  0.002	  0.000	 32.400	 100.905	 -0.721
68461	 -0.188	 -0.425	  0.383	 -0.703	 -0.128	 -9.742	 -0.003	  0.002	  0.001	 32.400	 100.894	  0.256
68511	 -0.184	 -0.428	  0.383	 -0.706	 -0.141	 -9.787	 -0.002	  0.003	 -0.001	 32.400	 100.905	 -0.721
68561	 -0.186	 -0.425	  0.384	 -0.714	 -0.141	 -9.789	 -0.003	  0.002	  0.001	 32.400	 100.894	  0.256
68611	 -0.184	 -0.429	  0.384	 -0.713	 -0.154	 -9.750	 -0.003	  0.003	  0.002	 32.400	 100.894	  0.256
68661	 -0.185	 -0.430	  0.378	 -0.701	 -0.147	 -9.785	 -0.003	  0.002	  0.000	 32.400	 100.905	 -0.721
68711	 -0.183	 -0.424	  0.385	 -0.707	 -0.162	 -9.766	 -0.003	  0.003	 -0.000	 32.400	 100.905	 -0.721
68761	 -0.185	 -0.427	  0.384	 -0.702	 -0.151	 -9.751	 -0.003	  0.003	  0.001	 32.400	 100.894	  0.256
68811	 -0.183	 -0.428	  0.385	 -0.703	 -0.120	 -9.734	 -0.004	  0.001	  0.001	 32.400	 100.894	  0.256
68861	 -0.185	 -0.427	  0.379	 -0.678	 -0.119	 -9.742	 -0.003	  0.003	  0.001	 32.400	 100.905	 -0.721
68911	 -0.187	 -0.424	  0.383	 -0.720	 -0.132	 -9.772	 -0.003	  0.003	  0.001	 32.400	 100.894	  0.256
68961	 -0.185	 -0.429	  0.382	 -0.730	 -0.151	 -9.768	 -0.003	  0.003	  0.001	 32.400	 100.894	  0.256
69011	 -0.184	 -0.420	  0.380	 -0.703	 -0.155	 -9.763	 -0.003	  0.003	  0.000	 32.400	 100.882	  1.321
69061	 -0.186	 -0.432	  0.385	 -0.691	 -0.156	 -9.774	 -0.003	  0.003	  0.001	 32.400	 100.894	  0.256
69111	 -0.184	 -0.426	  0.383	 -0.694	 -0.133	 -9.761	 -0.002	  0.003	  0.001	 32.400	 100.905	 -0.721
69161	 -0.183	 -0.426	  0.383	 -0.691	 -0.144	 -9.764	 -0.003	  0.002	  0.001	 32.400	 100.894	  0.256
69211	 -0.184	 -0.429	  0.384	 -0.716	 -0.121	 -9.802	 -0.002	  0.001	  0.001	 32.400	 100.878	  1.676
69261	 -0.185	 -0.426	  0.383	 -0.712	 -0.153	 -9.761	 -0.002	  0.002	  0.000	 32.400	 100.894	  0.256
69311	 -0.187	 -0.426	  0.383	 -0.691	 -0.148	 -9.746	 -0.002	  0.002	  0.001	 32.400	 100.905	 -0.721
69361	 -0.183	 -0.424	  0.382	 -0.709	 -0.145	 -9.749	 -0.003	  0.002	  0.001	 32.400	 100.905	 -0.721
69411	 -0.186	 -0.418	  0.383	 -0.703	 -0.171	 -9.766	 -0.002	  0.002	 -0.000	 32.400	 100.909	 -1.075
69461	 -0.182	 -0.423	  0.384	 -0.727	 -0.119	 -9.763	 -0.004	  0.002	  0.002	 32.400	 100.894	  0.256
69511	 -0.184	 -0.424	  0.382	 -0.697	 -0.151	 -9.747	 -0.002	  0.003	  0.001	 32.400	 100.894	  0.256
69562	 -0.184	 -0.427	  0.385	 -0.701	 -0.160	 -9.764	 -0.004	  0.002	  0.001	 32.400	 100.882	  1.321
69612	 -0.186	 -0.427	  0.382	 -0.719	 -0.142	 -9.750	 -0.003	  0.003	  0.000	 32.400	 100.905	 -0.721
69662	 -0.182	 -0.428	  0.385	 -0.697	 -0.177	 -9.786	 -0.003	  0.003	  0.001	 32.400	 100.894	  0.256
69712	 -0.184	 -0.427	  0.381	 -0.717	 -0.159	 -9.771	 -0.004	  0.003	  0.000	 32.400	 100.894	  0.256
69762	 -0.185	 -0.429	  0.384	 -0.715	 -0.147	 -9.778	 -0.003	  0.002	  0.001	 32.400	 100.894	  0.256
69812	 -0.184	 -0.423	  0.383	 -0.717	 -0.139	 -9.751	 -0.004	  0.003	  0.001	 32.400	 100.894	  0.256
69862	 -0.185	 -0.421	  0.380	 -0.703	 -0.157	 -9.775	 -0.003	  0.003	  0.001	 32.400	 100.905	 -0.721
69912	 -0.185	 -0.423	  0.384	 -0.695	 -0.166	 -9.784	 -0.002	  0.002	  0.001	 32.400	 100.894	  0.256
69962	 -0.186	 -0.426	  0.382	 -0.678	 -0.160	 -9.771	 -0.003	  0.002	 -0.000	 32.400	 100.894	  0.256
70012	 -0.182	 -0.428	  0.377	 -0.697	 -0.124	 -9.742	 -0.004	  0.003	  0.001	 32.400	 100.894	  0.256
70062	 -0.187	 -0.428	  0.383	 -0.688	 -0.134	 -9.746	 -0.004	  0.003	  0.001	 32.400	 100.894	  0.256
70112	 -0.186	 -0.425	  0.384	 -0.707	 -0.147	 -9.747	 -0.002	  0.002	  0.000	 32.400	 100.882	  1.321
70162	 -0.184	 -0.427	  0.384	 -0.686	 -0.152	 -9.737	 -0.004	  0.003	 -0.000	 32.400	 100.905	 -0.721
70212	 -0.186	 -0.421	  0.380	 -0.684	 -0.147	 -9.717	 -0.004	  0.003	  0.000	 32.400	 100.894	  0.256
70262	 -0.186	 -0.430	  0.380	 -0.697	 -0.141	 -9.752	 -0.004	  0.003	 -0.000	 32.400	 100.894	  0.256
70312	 -0.183	 -0.426	  0.382	 -0.696	 -0.161	 -9.768	 -0.002	  0.003	  0.000	 32.400	 100.905	 -0.721
70362	 -0.185	 -0.428	  0.382	 -0.707	 -0.136	 -9.755	 -0.003	  0.003	  0.000	 32.400	 100.894	  0.256
70412	 -0.185	 -0.426	  0.379	 -0.698	 -0.150	 -9.768	 -0.003	  0.002	 -0.000	 32.400	 100.894	  0.256
70462	 -0.184	 -0.426	  0.385	 -0.724	 -0.132	 -9.733	 -0.003	  0.002	  0.001	 32.400	 100.894	  0.256
70512	 -0.185	 -0.426	  0.380	 -0.698	 -0.144	 -9.783	 -0.004	  0.003	  0.000	 32.400	 100.882	  1.321
70562	 -0.187	 -0.422	  0.383	 -0.701	 -0.153	 -9.772	 -0.003	  0.003	  0.001	 32.400	 100.898	 -0.099
70612	 -0.186	 -0.423	  0.386	 -0.694	 -0.152	 -9.748	 -0.004	  0.002	  0.001	 32.400	 100.905	 -0.721
70662	 -0.182	 -0.423	  0.384	 -0.700	 -0.146	 -9.747	 -0.004	  0.002	  0.000	 32.400	 100.894	  0.256
70712	 -0.183	 -0.428	  0.383	 -0.698	 -0.151	 -9.785	 -0.004	  0.003	  0.000	 32.400	 100.894	  0.256
70762	 -0.185	 -0.429	  0.379	 -0.704	 -0.141	 -9.758	 -0.003	  0.002	  0.001	 32.400	 100.894	  0.256
70812	 -0.184	 -0.428	  0.383	 -0.703	 -0.147	 -9.807	 -0.003	  0.003	  0.001	 32.400	 100.909	 -1.075
70862	 -0.186	 -0.428	  0.383	 -0.724	 -0.119	 -9.759	 -0.004	  0.003	  0.000	 32.400	 100.894	  0.256
70912	 -0.186	 -0.428	  0.379	 -0.714	 -0.131	 -9.796	 -0.003	  0.001	  0.000	 32.400	 100.894	  0.256
70962	 -0.185	 -0.428	  0.379	 -0.702	 -0.148	 -9.787	 -0.003	  0.001	  0.001	 32.400	 100.894	  0.256
71012	 -0.185	 -0.427	  0.383	 -0.722	 -0.150	 -9.750	 -0.004	  0.002	 -0.001	 32.400	 100.898	 -0.099
71062	 -0.185	 -0.422	  0.387	 -0.690	 -0.161	 -9.752	 -0.003	  0.002	  0.002	 32.400	 100.882	  1.321
71112	 -0.185	 -0.422	  0.383	 -0.693	 -0.139	 -9.753	 -0.002	  0.003	  0.001	 32.400	 100.905	 -0.721
71162	 -0.185	 -0.425	  0.385	 -0.704	 -0.143	 -9.741	 -0.004	  0.002	  0.001	 32.400	 100.905	 -0.721
71213	 -0.185	 -0.427	  0.379	 -0.708	 -0.146	 -9.795	 -0.003	  0.003	  0.001	 32.400	 100.905	 -0.721
71263	 -0.185	 -0.428	  0.384	 -0.697	 -0.144	 -9.751	 -0.004	  0.002	  0.001	 32.400	 100.905	 -0.721
71313	 -0.184	 -0.428	  0.381	 -0.714	 -0.145	 -9.784	 -0.003	  0.003	  0.001	 32.400	 100.894	  0.256
71363	 -0.185	 -0.425	  0.382	 -0.710	 -0.143	 -9.754	 -0.003	  0.002	  0.001	 32.400	 100.894	  0.256
71413	 -0.185	 -0.431	  0.384	 -0.699	 -0.144	 -9.758	 -0.003	  0.003	  0.000	 32.400	 100.894	  0.256
71463	 -0.185	 -0.428	  0.380	 -0.691	 -0.141	 -9.767	 -0.003	  0.002	  0.001	 32.400	 100.898	 -0.099
71513	 -0.185	 -0.423	  0.383	 -0.701	 -0.143	 -9.735	 -0.004	  0.003	  0.000	 32.400	 100.889	  0.699
71563	 -0.184	 -0.429	  0.385	 -0.709	 -0.148	 -9.768	 -0.003	  0.003	  0.000	 32.400	 100.894	  0.256
71613	 -0.185	 -0.421	  0.380	 -0.720	 -0.151	 -9.796	 -0.003	  0.003	  0.000	 32.400	 100.894	  0.256
71663	 -0.185	 -0.430	  0.378	 -0.726	 -0.145	 -9.756	 -0.002	  0.002	  0.001	 32.400	 100.894	  0.256
71714	 -0.186	 -0.428	  0.380	 -0.700	 -0.145	 -9.794	 -0.004	  0.003	  0.001	 32.400	 100.882	  1.321
71763	 -0.184	 -0.426	  0.379	 -0.698	 -0.132	 -9.729	 -0.003	  0.002	  0.001	 32.400	 100.894	  0.256
71813	 -0.185	 -0.425	  0.380	 -0.711	 -0.126	 -9.775	 -0.003	  0.002	  0.000	 32.400	 100.882	  1.321
71863	 -0.186	 -0.428	  0.383	 -0.703	 -0.119	 -9.746	 -0.002	  0.003	  0.000	 32.400	 100.894	  0.256
71914	 -0.183	 -0.428	  0.380	 -0.686	 -0.137	 -9.774	 -0.003	  0.002	  0.001	 32.400	 100.894	  0.256
71964	 -0.183	 -0.426	  0.380	 -0.687	 -0.133	 -9.781	 -0.003	  0.002	  0.000	 32.400	 100.882	  1.321
72014	 -0.187	 -0.429	  0.379	 -0.703	 -0.159	 -9.766	 -0.002	  0.004	  0.001	 32.400	 100.894	  0.256
72064	 -0.185	 -0.429	  0.382	 -0.708	 -0.167	 -9.766	 -0.003	  0.003	  0.001	 32.400	 100.887	  0.877
72114	 -0.187	 -0.427	  0.383	 -0.693	 -0.138	 -9.767	 -0.003	  0.004	  0.000	 32.400	 100.894	  0.256
72164	 -0.184	 -0.427	  0.386	 -0.697	 -0.135	 -9.776	 -0.003	  0.002	  0.001	 32.400	 100.882	  1.321
72214	 -0.186	 -0.427	  0.379	 -0.699	 -0.159	 -9.770	 -0.003	  0.002	  0.000	 32.400	 100.894	  0.256
72264	 -0.185	 -0.426	  0.383	 -0.695	 -0.155	 -9.768	 -0.003	  0.003	 -0.000	 32.400	 100.882	  1.321
72314	 -0.186	 -0.427	  0.382	 -0.678	 -0.172	 -9.767	 -0.003	  0.003	  0.001	 32.400	 100.894	  0.256
72364	 -0.183	 -0.427	  0.381	 -0.698	 -0.161	 -9.764	 -0.003	  0.003	  0.001	 32.400	 100.894	  0.256
72414	 -0.184	 -0.427	  0.385	 -0.706	 -0.176	 -9.790	 -0.003	  0.002	  0.001	 32.400	 100.894	  0.256
72464	 -0.184	 -0.423	  0.383	 -0.704	 -0.148	 -9.745	 -0.003	  0.002	  0.001	 32.400	 100.882	  1.321
72514	 -0.183	 -0.428	  0.382	 -0.718	 -0.153	 -9.755	 -0.003	  0.002	  0.001	 32.400	 100.894	  0.256
72564	 -0.185	 -0.424	  0.383	 -0.697	 -0.138	 -9.739	 -0.003	  0.003	  0.001	 32.400	 100.882	  1.321
72614	 -0.189	 -0.424	  0.384	 -0.706	 -0.159	 -9.795	 -0.003	  0.004	  0.000	 32.400	 100.894	  0.256
72664	 -0.184	 -0.426	  0.386	 -0.704	 -0.174	 -9.763	 -0.003	  0.003	  0.001	 32.400	 100.898	 -0.099
72714	 -0.185	 -0.424	  0.386	 -0.717	 -0.167	 -9.787	 -0.003	  0.001	  0.001	 32.400	 100.894	  0.256
72764	 -0.183	 -0.429	  0.382	 -0.708	 -0.132	 -9.800	 -0.004	  0.003	  0.001	 32.400	 100.882	  1.321
72814	 -0.187	 -0.421	  0.382	 -0.687	 -0.125	 -9.758	 -0.004	  0.003	  0.001	 32.400	 100.894	  0.256
72864	 -0.185	 -0.426	  0.385	 -0.718	 -0.129	 -9.751	 -0.003	  0.002	  0.001	 32.400	 100.894	  0.256
72914	 -0.186	 -0.427	  0.382	 -0.708	 -0.142	 -9.756	 -0.003	  0.004	  0.001	 32.400	 100.894	  0.256
72964	 -0.184	 -0.425	  0.382	 -0.699	 -0.140	 -9.783	 -0.003	  0.002	 -0.000	 32.400	 100.882	  1.321
73014	 -0.185	 -0.430	  0.384	 -0.709	 -0.154	 -9.750	 -0.004	  0.003	 -0.000	 32.400	 100.882	  1.321
73064	 -0.185	 -0.426	  0.386	 -0.714	 -0.151	 -9.768	 -0.003	  0.002	  0.001	 32.400	 100.894	  0.256
73114	 -0.185	 -0.427	  0.384	 -0.707	 -0.165	 -9.787	 -0.003	  0.003	  0.000	 32.400	 100.882	  1.321
