Time	 MagX	 MagY	 MagZ	 AccelX	 AccelY	 AccelZ	 Yaw	 Pitch	 Roll	 Temperature	 Pressure	 Altitude
1219	  1.356	 -0.054	  0.413	 -7.727	  3.633	 -4.853	 -0.010	 -0.006	  0.002	 27.600	 99.563	 -99999.000
1269	  1.350	 -0.060	  0.412	 -7.739	  3.666	 -4.840	 -0.000	  0.006	 -0.001	 27.600	 99.559	 -99999.000
1319	  1.349	 -0.064	  0.409	 -7.742	  3.677	 -4.857	 -0.005	 -0.000	  0.000	 27.600	 99.559	 -99999.000
1369	  1.352	 -0.061	  0.412	 -7.724	  3.668	 -4.889	 -0.004	 -0.002	 -0.002	 27.600	 99.570	 -99999.000
1419	  1.352	 -0.060	  0.410	 -7.713	  3.659	 -4.840	 -0.001	  0.006	 -0.000	 27.600	 99.563	 -99999.000
1469	  1.352	 -0.061	  0.411	 -7.723	  3.652	 -4.831	 -0.005	 -0.001	  0.002	 27.600	 99.559	 -99999.000
1519	  1.349	 -0.062	  0.410	 -7.727	  3.692	 -4.879	 -0.004	  0.002	  0.000	 27.600	 99.563	 -99999.000
1569	  1.350	 -0.058	  0.412	 -7.717	  3.671	 -4.837	 -0.003	  0.004	 -0.001	 27.600	 99.563	 -99999.000
1619	  1.352	 -0.059	  0.408	 -7.753	  3.642	 -4.873	 -0.004	  0.001	  0.001	 27.600	 99.559	 -99999.000
1669	  1.353	 -0.058	  0.414	 -7.714	  3.650	 -4.821	 -0.004	  0.001	 -0.000	 27.600	 99.570	 -99999.000
1719	  1.353	 -0.061	  0.411	 -7.730	  3.642	 -4.809	 -0.004	  0.002	  0.002	 27.600	 99.563	 -99999.000
1769	  1.352	 -0.056	  0.409	 -7.735	  3.655	 -4.845	 -0.003	  0.001	  0.000	 27.600	 99.552	 -99999.000
1819	  1.352	 -0.058	  0.410	 -7.724	  3.654	 -4.793	 -0.004	  0.003	  0.002	 27.600	 99.559	 -99999.000
1869	  1.352	 -0.058	  0.408	 -7.774	  3.669	 -4.855	 -0.003	 -0.001	  0.000	 27.600	 99.563	 -99999.000
1919	  1.349	 -0.060	  0.410	 -7.761	  3.667	 -4.842	 -0.003	  0.003	 -0.001	 27.600	 99.559	 -99999.000
1969	  1.353	 -0.061	  0.409	 -7.733	  3.688	 -4.816	 -0.004	 -0.000	  0.001	 27.600	 99.559	 -99999.000
2019	  1.351	 -0.062	  0.408	 -7.745	  3.670	 -4.813	 -0.003	  0.002	 -0.001	 27.600	 99.574	 -99999.000
2069	  1.352	 -0.059	  0.408	 -7.737	  3.663	 -4.832	 -0.003	  0.002	  0.000	 27.600	 99.570	 -99999.000
2119	  1.351	 -0.059	  0.408	 -7.728	  3.668	 -4.802	 -0.004	  0.001	  0.002	 27.600	 99.548	 -99999.000
2169	  1.352	 -0.059	  0.412	 -7.709	  3.656	 -4.842	 -0.004	  0.002	  0.002	 27.600	 99.563	 -99999.000
2219	  1.352	 -0.060	  0.412	 -7.725	  3.654	 -4.829	 -0.003	  0.001	 -0.001	 27.600	 99.552	 -99999.000
2269	  1.352	 -0.057	  0.412	 -7.723	  3.645	 -4.835	 -0.002	  0.001	 -0.002	 27.600	 99.552	 -99999.000
2319	  1.352	 -0.063	  0.409	 -7.738	  3.629	 -4.819	 -0.003	  0.000	 -0.000	 27.600	 99.563	 -99999.000
2369	  1.350	 -0.063	  0.410	 -7.728	  3.657	 -4.837	 -0.005	  0.001	  0.001	 27.600	 99.574	 -99999.000
2419	  1.351	 -0.060	  0.407	 -7.750	  3.670	 -4.858	 -0.002	  0.002	 -0.000	 27.600	 99.563	 -99999.000
2469	  1.354	 -0.061	  0.413	 -7.731	  3.668	 -4.825	 -0.004	 -0.002	  0.001	 27.600	 99.552	 -99999.000
2519	  1.354	 -0.062	  0.407	 -7.742	  3.655	 -4.859	 -0.003	  0.003	 -0.000	 27.600	 99.574	 -99999.000
2569	  1.354	 -0.060	  0.408	 -7.746	  3.673	 -4.840	 -0.002	  0.001	 -0.000	 27.600	 99.563	 -99999.000
2619	  1.352	 -0.062	  0.411	 -7.758	  3.649	 -4.825	 -0.004	 -0.000	 -0.000	 27.600	 99.574	 -99999.000
2669	  1.350	 -0.060	  0.406	 -7.732	  3.664	 -4.834	 -0.003	  0.002	  0.000	 27.600	 99.563	 -99999.000
2719	  1.352	 -0.054	  0.406	 -7.722	  3.684	 -4.857	 -0.006	  0.001	 -0.000	 27.600	 99.563	 -99999.000
2769	  1.353	 -0.063	  0.407	 -7.736	  3.671	 -4.832	 -0.004	  0.002	 -0.000	 27.600	 99.552	 -99999.000
2819	  1.352	 -0.060	  0.410	 -7.710	  3.628	 -4.829	 -0.003	  0.000	 -0.000	 27.600	 99.574	 -99999.000
2869	  1.352	 -0.056	  0.408	 -7.745	  3.676	 -4.832	 -0.005	 -0.000	 -0.000	 27.600	 99.563	 -99999.000
2919	  1.353	 -0.061	  0.410	 -7.720	  3.658	 -4.852	 -0.001	  0.001	 -0.000	 27.600	 99.563	 -99999.000
2969	  1.352	 -0.059	  0.409	 -7.746	  3.635	 -4.829	 -0.005	  0.002	  0.001	 27.600	 99.574	 -99999.000
3019	  1.352	 -0.061	  0.407	 -7.730	  3.661	 -4.805	 -0.006	 -0.002	 -0.001	 27.600	 99.552	 -99999.000
3069	  1.352	 -0.060	  0.409	 -7.734	  3.667	 -4.854	 -0.001	  0.004	  0.000	 27.600	 99.552	 -99999.000
3119	  1.353	 -0.061	  0.409	 -7.727	  3.662	 -4.802	 -0.005	  0.000	  0.001	 27.600	 99.563	 -99999.000
3169	  1.353	 -0.062	  0.410	 -7.732	  3.658	 -4.836	 -0.004	  0.001	  0.001	 27.600	 99.563	 -99999.000
3219	  1.353	 -0.059	  0.407	 -7.712	  3.657	 -4.836	 -0.005	  0.000	 -0.000	 27.600	 99.567	 -99999.000
3269	  1.352	 -0.057	  0.409	 -7.736	  3.663	 -4.834	 -0.003	  0.004	  0.001	 27.600	 99.567	 -99999.000
3319	  1.352	 -0.059	  0.405	 -7.730	  3.653	 -4.834	 -0.004	  0.000	  0.001	 27.600	 99.574	 -99999.000
3369	  1.353	 -0.059	  0.409	 -7.713	  3.658	 -4.834	 -0.005	 -0.001	  0.003	 27.600	 99.567	 -99999.000
3419	  1.352	 -0.060	  0.410	 -7.748	  3.646	 -4.825	  0.000	  0.005	 -0.004	 27.600	 99.563	 -99999.000
3469	  1.352	 -0.061	  0.409	 -7.732	  3.652	 -4.838	 -0.004	  0.001	 -0.000	 27.600	 99.574	 -99999.000
3519	  1.352	 -0.058	  0.409	 -7.725	  3.673	 -4.814	 -0.004	 -0.001	  0.001	 27.600	 99.563	 -99999.000
3569	  1.352	 -0.054	  0.412	 -7.745	  3.678	 -4.818	 -0.001	  0.003	 -0.003	 27.600	 99.567	 -99999.000
3619	  1.354	 -0.061	  0.413	 -7.724	  3.674	 -4.845	 -0.006	 -0.002	  0.000	 27.600	 99.567	 -99999.000
3669	  1.353	 -0.061	  0.411	 -7.757	  3.654	 -4.853	 -0.003	  0.000	 -0.001	 27.600	 99.567	 -99999.000
3719	  1.354	 -0.058	  0.411	 -7.749	  3.646	 -4.817	 -0.001	  0.003	 -0.002	 27.600	 99.563	 -99999.000
3769	  1.352	 -0.060	  0.412	 -7.735	  3.666	 -4.857	 -0.003	 -0.001	 -0.001	 27.600	 99.574	 -99999.000
3819	  1.354	 -0.058	  0.409	 -7.732	  3.641	 -4.856	 -0.004	  0.001	  0.000	 27.600	 99.579	 -99999.000
3869	  1.352	 -0.062	  0.405	 -7.720	  3.660	 -4.833	 -0.003	  0.004	 -0.001	 27.600	 99.567	 -99999.000
3919	  1.351	 -0.058	  0.409	 -7.739	  3.677	 -4.835	 -0.006	 -0.001	  0.002	 27.600	 99.563	 -99999.000
3969	  1.352	 -0.058	  0.409	 -7.730	  3.648	 -4.826	 -0.005	  0.001	  0.001	 27.600	 99.563	 -99999.000
4019	  1.352	 -0.063	  0.407	 -7.722	  3.669	 -4.824	 -0.002	  0.003	  0.000	 27.600	 99.567	 -99999.000
4069	  1.352	 -0.059	  0.408	 -7.737	  3.679	 -4.827	 -0.006	 -0.001	  0.002	 27.600	 99.556	 -99999.000
4119	  1.354	 -0.058	  0.406	 -7.740	  3.660	 -4.879	 -0.003	  0.001	  0.001	 27.600	 99.579	 -99999.000
4169	  1.352	 -0.062	  0.412	 -7.724	  3.645	 -4.839	 -0.004	  0.001	 -0.001	 27.600	 99.567	 -99999.000
5219	  1.354	 -0.060	  0.411	 -7.727	  3.640	 -4.823	 -0.006	 -0.001	  0.001	 27.600	 99.567	 -99999.000
5269	  1.352	 -0.062	  0.409	 -7.737	  3.663	 -4.826	 -0.002	  0.005	  0.003	 27.600	 99.567	 -99999.000
5319	  1.350	 -0.060	  0.411	 -7.734	  3.691	 -4.833	 -0.005	 -0.001	  0.000	 27.600	 99.572	 -99999.000
5368	  1.352	 -0.061	  0.412	 -7.747	  3.665	 -4.844	 -0.006	 -0.000	 -0.000	 27.600	 99.567	 -99999.000
5418	  1.352	 -0.063	  0.409	 -7.705	  3.645	 -4.837	 -0.001	  0.006	  0.001	 27.600	 99.556	 -99999.000
5468	  1.354	 -0.059	  0.408	 -7.729	  3.658	 -4.834	 -0.008	 -0.004	  0.002	 27.600	 99.567	 -99999.000
5518	  1.355	 -0.063	  0.408	 -7.744	  3.661	 -4.869	 -0.001	  0.005	 -0.000	 27.600	 99.567	 -99999.000
5568	  1.354	 -0.058	  0.411	 -7.740	  3.675	 -4.798	 -0.003	  0.001	  0.002	 27.600	 99.556	 -99999.000
5619	  1.354	 -0.062	  0.408	 -7.733	  3.696	 -4.804	 -0.007	 -0.003	  0.001	 27.600	 99.567	 -99999.000
5669	  1.352	 -0.062	  0.407	 -7.667	  3.668	 -4.820	 -0.012	 -0.005	  0.004	 27.600	 99.567	 -99999.000
5719	  1.352	 -0.063	  0.408	 -7.695	  3.676	 -4.880	 -0.002	  0.001	 -0.001	 27.600	 99.572	 -99999.000
5770	  1.352	 -0.056	  0.408	 -7.717	  3.661	 -4.829	  0.002	  0.008	 -0.002	 27.600	 99.579	 -99999.000
5820	  1.353	 -0.058	  0.408	 -7.732	  3.676	 -4.829	 -0.006	 -0.002	  0.001	 27.600	 99.572	 -99999.000
5870	  1.350	 -0.060	  0.407	 -7.722	  3.674	 -4.846	 -0.005	 -0.002	  0.001	 27.600	 99.567	 -99999.000
5920	  1.351	 -0.063	  0.410	 -7.734	  3.667	 -4.806	  0.000	  0.003	 -0.001	 27.600	 99.583	 -99999.000
5970	  1.352	 -0.062	  0.410	 -7.733	  3.659	 -4.824	 -0.005	 -0.001	  0.001	 27.600	 99.556	 -99999.000
6020	  1.354	 -0.059	  0.409	 -7.717	  3.662	 -4.818	 -0.002	  0.001	  0.000	 27.600	 99.572	 -99999.000
6070	  1.352	 -0.061	  0.409	 -7.733	  3.654	 -4.830	 -0.004	  0.001	 -0.001	 27.600	 99.572	 -99999.000
6120	  1.352	 -0.062	  0.405	 -7.740	  3.660	 -4.780	 -0.004	  0.002	  0.000	 27.600	 99.567	 -99999.000
6170	  1.355	 -0.061	  0.410	 -7.752	  3.675	 -4.850	 -0.003	  0.001	 -0.001	 27.700	 99.572	 -99999.000
6220	  1.352	 -0.059	  0.407	 -7.743	  3.660	 -4.833	 -0.005	  0.001	  0.001	 27.600	 99.572	 -99999.000
6269	  1.354	 -0.051	  0.407	 -7.742	  3.668	 -4.825	 -0.003	  0.003	 -0.001	 27.600	 99.572	 -99999.000
6320	  1.354	 -0.061	  0.409	 -7.745	  3.660	 -4.858	 -0.004	 -0.002	 -0.001	 27.600	 99.560	 -99999.000
6369	  1.354	 -0.061	  0.407	 -7.741	  3.651	 -4.814	 -0.004	  0.000	 -0.001	 27.600	 99.572	 -99999.000
6420	  1.350	 -0.059	  0.407	 -7.724	  3.677	 -4.812	 -0.002	  0.003	  0.000	 27.600	 99.567	 -99999.000
6469	  1.355	 -0.058	  0.410	 -7.751	  3.679	 -4.825	 -0.007	 -0.001	  0.003	 27.700	 99.560	 -99999.000
6519	  1.351	 -0.061	  0.410	 -7.743	  3.668	 -4.840	 -0.001	  0.002	 -0.000	 27.600	 99.572	 -99999.000
6569	  1.353	 -0.059	  0.409	 -7.747	  3.660	 -4.855	 -0.003	  0.000	  0.000	 27.600	 99.560	 -99999.000
6620	  1.352	 -0.063	  0.406	 -7.739	  3.654	 -4.801	 -0.004	  0.000	  0.001	 27.600	 99.572	 -99999.000
6669	  1.353	 -0.057	  0.407	 -7.728	  3.644	 -4.829	 -0.002	  0.003	  0.000	 27.600	 99.560	 -99999.000
6719	  1.354	 -0.062	  0.409	 -7.751	  3.690	 -4.835	 -0.005	 -0.001	  0.002	 27.600	 99.560	 -99999.000
6769	  1.354	 -0.062	  0.408	 -7.739	  3.665	 -4.855	 -0.002	  0.002	  0.000	 27.600	 99.560	 -99999.000
6819	  1.353	 -0.060	  0.407	 -7.748	  3.696	 -4.815	 -0.003	  0.001	 -0.001	 27.600	 99.572	 -99999.000
6869	  1.355	 -0.064	  0.408	 -7.720	  3.669	 -4.787	 -0.004	 -0.001	  0.001	 27.600	 99.560	 -99999.000
6919	  1.354	 -0.063	  0.406	 -7.729	  3.672	 -4.828	 -0.003	  0.003	  0.000	 27.600	 99.572	 -99999.000
6969	  1.353	 -0.059	  0.404	 -7.722	  3.680	 -4.821	 -0.004	  0.001	  0.003	 27.600	 99.560	 -99999.000
7019	  1.352	 -0.061	  0.405	 -7.743	  3.682	 -4.871	 -0.003	  0.001	  0.001	 27.600	 99.572	 -99999.000
7069	  1.352	 -0.063	  0.409	 -7.737	  3.657	 -4.831	 -0.003	  0.001	 -0.000	 27.700	 99.565	 -99999.000
7119	  1.354	 -0.060	  0.408	 -7.731	  3.656	 -4.830	 -0.004	  0.003	  0.000	 27.600	 99.572	 -99999.000
7169	  1.353	 -0.059	  0.409	 -7.738	  3.667	 -4.813	 -0.003	  0.000	  0.000	 27.600	 99.560	 -99999.000
7219	  1.355	 -0.062	  0.409	 -7.745	  3.673	 -4.855	 -0.005	 -0.001	 -0.000	 27.700	 99.565	 -99999.000
7269	  1.352	 -0.063	  0.408	 -7.754	  3.678	 -4.871	 -0.004	  0.003	  0.000	 27.600	 99.572	 -99999.000
7319	  1.352	 -0.060	  0.412	 -7.747	  3.663	 -4.844	 -0.003	  0.001	 -0.000	 27.600	 99.572	 -99999.000
7369	  1.351	 -0.062	  0.407	 -7.729	  3.662	 -4.793	 -0.005	  0.001	  0.001	 27.600	 99.572	 -99999.000
7419	  1.355	 -0.060	  0.407	 -7.747	  3.665	 -4.838	 -0.002	  0.005	 -0.000	 27.600	 99.572	 -99999.000
7469	  1.353	 -0.058	  0.407	 -7.731	  3.649	 -4.832	 -0.005	  0.002	  0.002	 27.600	 99.572	 -99999.000
7519	  1.354	 -0.066	  0.409	 -7.734	  3.633	 -4.812	 -0.006	  0.002	  0.001	 27.600	 99.572	 -99999.000
7569	  1.353	 -0.062	  0.406	 -7.729	  3.680	 -4.835	 -0.003	  0.002	  0.000	 27.700	 99.572	 -99999.000
7619	  1.354	 -0.062	  0.410	 -7.761	  3.648	 -4.813	 -0.003	  0.001	 -0.001	 27.600	 99.560	 -99999.000
7669	  1.353	 -0.063	  0.410	 -7.740	  3.672	 -4.841	 -0.003	 -0.000	  0.001	 27.700	 99.565	 -99999.000
7719	  1.352	 -0.060	  0.409	 -7.723	  3.664	 -4.836	 -0.005	  0.000	 -0.001	 27.700	 99.565	 -99999.000
7769	  1.355	 -0.060	  0.409	 -7.733	  3.666	 -4.829	 -0.003	  0.002	  0.001	 27.600	 99.572	 -99999.000
7819	  1.351	 -0.062	  0.409	 -7.749	  3.667	 -4.871	 -0.004	  0.000	  0.001	 27.700	 99.560	 -99999.000
7869	  1.354	 -0.060	  0.409	 -7.757	  3.669	 -4.829	 -0.003	  0.004	 -0.002	 27.600	 99.572	 -99999.000
7919	  1.354	 -0.065	  0.404	 -7.725	  3.667	 -4.837	 -0.002	  0.003	  0.004	 27.600	 99.560	 -99999.000
7969	  1.355	 -0.059	  0.410	 -7.743	  3.697	 -4.814	 -0.004	 -0.000	  0.003	 27.600	 99.560	 -99999.000
8019	  1.354	 -0.059	  0.407	 -7.750	  3.647	 -4.825	 -0.004	 -0.000	 -0.002	 27.600	 99.560	 -99999.000
8069	  1.354	 -0.062	  0.408	 -7.733	  3.658	 -4.828	 -0.003	  0.003	  0.002	 27.600	 99.560	 -99999.000
8119	  1.352	 -0.061	  0.407	 -7.728	  3.696	 -4.851	 -0.006	 -0.001	  0.006	 27.700	 99.572	 -99999.000
8169	  1.350	 -0.064	  0.407	 -7.748	  3.685	 -4.815	 -0.003	  0.003	 -0.001	 27.700	 99.565	 -99999.000
18344	  1.355	 -0.064	  0.398	 -7.696	  3.701	 -4.775	  0.001	  0.002	  0.001	 27.700	 99.566	  0.094
18394	  1.356	 -0.065	  0.403	 -7.663	  3.716	 -4.783	  0.006	  0.015	  0.004	 27.700	 99.562	  0.447
18444	  1.353	 -0.063	  0.406	 -7.771	  3.645	 -4.820	 -0.013	 -0.008	  0.016	 27.700	 99.566	  0.094
18495	  1.355	 -0.059	  0.401	 -7.751	  3.708	 -4.823	 -0.001	  0.002	  0.003	 27.700	 99.566	  0.094
18544	  1.357	 -0.062	  0.408	 -7.774	  3.705	 -4.775	  0.008	  0.014	  0.001	 27.700	 99.566	  0.094
18594	  1.354	 -0.062	  0.401	 -7.741	  3.690	 -4.806	 -0.016	 -0.015	  0.005	 27.700	 99.566	  0.094
18644	  1.355	 -0.066	  0.404	 -7.739	  3.698	 -4.823	  0.002	  0.008	 -0.000	 27.700	 99.566	  0.094
18694	  1.355	 -0.061	  0.406	 -7.755	  3.701	 -4.816	 -0.002	  0.004	 -0.001	 27.700	 99.566	  0.094
18744	  1.356	 -0.064	  0.402	 -7.738	  3.709	 -4.793	 -0.010	 -0.005	  0.006	 27.700	 99.582	 -1.318
18794	  1.354	 -0.059	  0.403	 -7.751	  3.686	 -4.823	 -0.002	  0.001	 -0.005	 27.700	 99.555	  1.064
18844	  1.355	 -0.062	  0.405	 -7.746	  3.668	 -4.770	  0.001	  0.005	 -0.005	 27.700	 99.566	  0.094
18894	  1.356	 -0.061	  0.407	 -7.706	  3.649	 -4.802	 -0.009	 -0.006	 -0.001	 27.700	 99.570	 -0.259
18944	  1.353	 -0.054	  0.401	 -7.753	  3.687	 -4.825	 -0.003	  0.004	  0.002	 27.700	 99.555	  1.064
18994	  1.353	 -0.064	  0.403	 -7.731	  3.676	 -4.785	 -0.003	  0.002	  0.003	 27.700	 99.570	 -0.259
19044	  1.356	 -0.060	  0.405	 -7.742	  3.698	 -4.801	 -0.006	 -0.000	  0.003	 27.700	 99.555	  1.064
19094	  1.356	 -0.063	  0.406	 -7.761	  3.704	 -4.802	 -0.000	  0.006	  0.001	 27.700	 99.555	  1.064
19144	  1.355	 -0.062	  0.398	 -7.750	  3.667	 -4.787	 -0.005	 -0.000	  0.002	 27.700	 99.566	  0.094
19194	  1.356	 -0.053	  0.407	 -7.760	  3.678	 -4.805	 -0.007	 -0.000	  0.004	 27.700	 99.566	  0.094
19244	  1.353	 -0.060	  0.403	 -7.757	  3.712	 -4.797	 -0.000	  0.008	  0.003	 27.700	 99.570	 -0.259
19294	  1.352	 -0.062	  0.406	 -7.746	  3.659	 -4.787	 -0.008	 -0.005	  0.003	 27.700	 99.570	 -0.259
19344	  1.356	 -0.065	  0.405	 -7.759	  3.676	 -4.796	 -0.002	  0.002	 -0.003	 27.700	 99.555	  1.064
19394	  1.356	 -0.060	  0.404	 -7.749	  3.692	 -4.797	 -0.001	  0.002	  0.001	 27.700	 99.566	  0.094
19444	  1.357	 -0.063	  0.404	 -7.737	  3.665	 -4.819	 -0.006	 -0.004	 -0.002	 27.700	 99.566	  0.094
19494	  1.358	 -0.062	  0.407	 -7.756	  3.687	 -4.811	  0.000	  0.002	 -0.005	 27.700	 99.555	  1.064
19544	  1.354	 -0.063	  0.405	 -7.733	  3.673	 -4.753	 -0.006	 -0.002	  0.002	 27.700	 99.570	 -0.259
19594	  1.356	 -0.060	  0.403	 -7.773	  3.672	 -4.784	 -0.005	 -0.003	 -0.002	 27.700	 99.566	  0.094
19644	  1.358	 -0.062	  0.406	 -7.779	  3.692	 -4.785	 -0.001	  0.005	 -0.002	 27.700	 99.570	 -0.259
19694	  1.356	 -0.062	  0.399	 -7.745	  3.676	 -4.800	 -0.005	 -0.002	  0.001	 27.700	 99.559	  0.711
19744	  1.356	 -0.063	  0.405	 -7.749	  3.654	 -4.801	 -0.005	 -0.001	  0.003	 27.700	 99.566	  0.094
19794	  1.356	 -0.062	  0.405	 -7.743	  3.688	 -4.810	 -0.001	  0.004	  0.001	 27.700	 99.570	 -0.259
19844	  1.355	 -0.061	  0.404	 -7.725	  3.701	 -4.780	 -0.005	  0.001	  0.004	 27.700	 99.555	  1.064
19894	  1.357	 -0.066	  0.405	 -7.742	  3.701	 -4.794	 -0.004	  0.001	  0.000	 27.700	 99.570	 -0.259
19944	  1.356	 -0.062	  0.407	 -7.766	  3.667	 -4.785	 -0.002	  0.002	  0.004	 27.700	 99.566	  0.094
19994	  1.353	 -0.065	  0.406	 -7.759	  3.668	 -4.779	 -0.004	  0.001	 -0.002	 27.700	 99.570	 -0.259
20044	  1.357	 -0.063	  0.404	 -7.747	  3.682	 -4.807	 -0.003	 -0.000	 -0.000	 27.700	 99.566	  0.094
20094	  1.352	 -0.063	  0.405	 -7.747	  3.686	 -4.776	 -0.002	  0.004	 -0.003	 27.700	 99.566	  0.094
20144	  1.357	 -0.063	  0.398	 -7.746	  3.673	 -4.817	 -0.006	 -0.002	  0.001	 27.700	 99.570	 -0.259
20194	  1.354	 -0.065	  0.405	 -7.741	  3.676	 -4.795	 -0.001	  0.005	 -0.002	 27.700	 99.570	 -0.259
20244	  1.357	 -0.058	  0.406	 -7.732	  3.673	 -4.777	 -0.004	  0.001	  0.000	 27.700	 99.570	 -0.259
20294	  1.356	 -0.060	  0.403	 -7.753	  3.697	 -4.805	 -0.004	  0.000	  0.003	 27.700	 99.555	  1.064
20344	  1.358	 -0.056	  0.404	 -7.767	  3.694	 -4.795	 -0.002	  0.005	 -0.002	 27.700	 99.559	  0.711
20394	  1.355	 -0.061	  0.405	 -7.728	  3.710	 -4.798	 -0.007	 -0.003	  0.004	 27.700	 99.555	  1.064
20444	  1.355	 -0.060	  0.403	 -7.773	  3.706	 -4.803	  0.000	  0.008	  0.001	 27.700	 99.570	 -0.259
20494	  1.354	 -0.062	  0.400	 -7.748	  3.679	 -4.774	 -0.004	  0.000	 -0.000	 27.700	 99.559	  0.711
20544	  1.357	 -0.058	  0.404	 -7.725	  3.659	 -4.814	 -0.007	 -0.004	  0.007	 27.700	 99.570	 -0.259
20594	  1.353	 -0.061	  0.400	 -7.750	  3.740	 -4.783	  0.007	  0.015	 -0.002	 27.700	 99.566	  0.094
20644	  1.359	 -0.064	  0.404	 -7.764	  3.692	 -4.769	 -0.014	 -0.015	  0.004	 27.700	 99.559	  0.711
20694	  1.357	 -0.053	  0.402	 -7.786	  3.653	 -4.818	 -0.008	 -0.005	  0.001	 27.700	 99.570	 -0.259
20745	  1.357	 -0.055	  0.403	 -7.722	  3.690	 -4.781	  0.010	  0.020	 -0.003	 27.700	 99.570	 -0.259
20794	  1.356	 -0.061	  0.402	 -7.748	  3.670	 -4.789	 -0.013	 -0.011	  0.007	 27.700	 99.559	  0.711
20844	  1.358	 -0.062	  0.403	 -7.771	  3.693	 -4.808	 -0.004	 -0.001	 -0.001	 27.700	 99.570	 -0.259
20894	  1.357	 -0.059	  0.400	 -7.751	  3.685	 -4.783	  0.002	  0.009	 -0.003	 27.700	 99.555	  1.064
20944	  1.357	 -0.062	  0.403	 -7.729	  3.686	 -4.775	 -0.004	 -0.001	 -0.000	 27.700	 99.559	  0.711
20994	  1.356	 -0.065	  0.402	 -7.749	  3.683	 -4.814	 -0.006	 -0.001	 -0.000	 27.700	 99.570	 -0.259
21044	  1.357	 -0.059	  0.402	 -7.754	  3.675	 -4.762	 -0.002	  0.003	  0.003	 27.700	 99.570	 -0.259
21094	  1.353	 -0.063	  0.405	 -7.743	  3.715	 -4.808	 -0.003	  0.001	  0.000	 27.700	 99.570	 -0.259
21144	  1.356	 -0.061	  0.403	 -7.843	  3.658	 -4.800	 -0.009	  0.005	 -0.006	 27.700	 99.559	  0.711
21194	  1.358	 -0.064	  0.396	 -7.801	  3.656	 -4.771	 -0.006	  0.001	  0.005	 27.700	 99.570	 -0.259
21244	  1.357	 -0.063	  0.403	 -7.749	  3.680	 -4.809	 -0.011	 -0.005	  0.007	 27.700	 99.570	 -0.259
21295	  1.356	 -0.066	  0.406	 -7.772	  3.709	 -4.816	 -0.000	  0.007	 -0.004	 27.700	 99.575	 -0.699
22344	  1.359	 -0.063	  0.405	 -7.780	  3.727	 -4.818	 -0.001	  0.005	 -0.001	 27.700	 99.563	  0.358
22394	  1.354	 -0.057	  0.407	 -7.753	  3.675	 -4.776	 -0.001	  0.005	  0.000	 27.700	 99.559	  0.711
22444	  1.357	 -0.061	  0.402	 -7.752	  3.712	 -4.786	 -0.010	 -0.005	  0.005	 27.700	 99.559	  0.711
22494	  1.357	 -0.054	  0.406	 -7.753	  3.699	 -4.813	  0.001	  0.008	 -0.001	 27.700	 99.559	  0.711
22544	  1.357	 -0.058	  0.402	 -7.720	  3.698	 -4.785	 -0.005	 -0.002	 -0.001	 27.700	 99.559	  0.711
22594	  1.355	 -0.060	  0.402	 -7.771	  3.706	 -4.809	 -0.004	 -0.000	  0.002	 27.700	 99.559	  0.711
22644	  1.359	 -0.063	  0.402	 -7.779	  3.689	 -4.800	 -0.000	  0.005	 -0.001	 27.800	 99.563	  0.358
22694	  1.357	 -0.060	  0.397	 -7.732	  3.668	 -4.803	 -0.005	 -0.001	  0.003	 27.700	 99.559	  0.711
22744	  1.359	 -0.065	  0.401	 -7.771	  3.689	 -4.788	 -0.003	  0.002	 -0.001	 27.700	 99.559	  0.711
22794	  1.359	 -0.065	  0.404	 -7.757	  3.691	 -4.807	 -0.002	  0.002	 -0.002	 27.800	 99.575	 -0.699
22844	  1.356	 -0.063	  0.407	 -7.742	  3.690	 -4.801	 -0.006	 -0.003	 -0.000	 27.700	 99.575	 -0.699
22894	  1.358	 -0.054	  0.404	 -7.744	  3.709	 -4.791	 -0.002	  0.002	  0.000	 27.800	 99.563	  0.358
22944	  1.356	 -0.063	  0.402	 -7.783	  3.685	 -4.778	 -0.003	  0.001	 -0.002	 27.700	 99.575	 -0.699
22994	  1.358	 -0.061	  0.401	 -7.752	  3.701	 -4.792	 -0.005	 -0.001	  0.001	 27.700	 99.559	  0.711
23044	  1.357	 -0.060	  0.398	 -7.740	  3.661	 -4.772	 -0.002	  0.005	  0.000	 27.700	 99.563	  0.358
23094	  1.357	 -0.062	  0.400	 -7.761	  3.685	 -4.803	 -0.004	 -0.001	  0.001	 27.800	 99.563	  0.358
23144	  1.357	 -0.061	  0.401	 -7.752	  3.684	 -4.809	 -0.003	  0.002	  0.001	 27.800	 99.575	 -0.699
23194	  1.358	 -0.055	  0.404	 -7.763	  3.672	 -4.765	 -0.003	  0.003	 -0.001	 27.800	 99.575	 -0.699
23244	  1.357	 -0.065	  0.405	 -7.740	  3.671	 -4.796	 -0.005	 -0.002	  0.000	 27.800	 99.575	 -0.699
23294	  1.359	 -0.061	  0.403	 -7.732	  3.679	 -4.784	 -0.002	  0.003	 -0.001	 27.700	 99.559	  0.711
23344	  1.358	 -0.062	  0.396	 -7.719	  3.683	 -4.784	 -0.005	  0.001	  0.002	 27.700	 99.559	  0.711
23394	  1.357	 -0.061	  0.403	 -7.769	  3.676	 -4.799	 -0.005	  0.001	  0.002	 27.800	 99.563	  0.358
23444	  1.355	 -0.060	  0.407	 -7.765	  3.677	 -4.803	 -0.003	  0.003	  0.001	 27.700	 99.575	 -0.699
23494	  1.356	 -0.058	  0.407	 -7.779	  3.693	 -4.796	 -0.004	  0.000	  0.002	 27.800	 99.575	 -0.699
23546	  1.356	 -0.058	  0.403	 -7.761	  3.699	 -4.786	 -0.003	  0.002	  0.002	 27.700	 99.563	  0.358
23594	  1.357	 -0.065	  0.392	 -7.759	  3.706	 -4.796	 -0.006	 -0.001	  0.001	 27.800	 99.563	  0.358
23644	  1.358	 -0.053	  0.402	 -7.746	  3.684	 -4.753	 -0.002	  0.001	 -0.002	 27.800	 99.563	  0.358
23694	  1.355	 -0.064	  0.404	 -7.760	  3.688	 -4.770	 -0.006	 -0.001	 -0.000	 27.800	 99.563	  0.358
23744	  1.358	 -0.060	  0.401	 -7.765	  3.687	 -4.769	 -0.004	  0.002	 -0.002	 27.800	 99.575	 -0.699
23794	  1.356	 -0.056	  0.404	 -7.746	  3.700	 -4.817	 -0.000	  0.005	 -0.002	 27.800	 99.563	  0.358
23844	  1.356	 -0.057	  0.402	 -7.736	  3.673	 -4.791	 -0.008	 -0.005	  0.002	 27.800	 99.563	  0.358
23894	  1.358	 -0.055	  0.402	 -7.772	  3.709	 -4.808	 -0.003	  0.003	 -0.002	 27.800	 99.563	  0.358
23944	  1.359	 -0.062	  0.403	 -7.759	  3.722	 -4.805	 -0.003	  0.004	 -0.002	 27.800	 99.563	  0.358
23994	  1.358	 -0.060	  0.404	 -7.751	  3.701	 -4.810	 -0.007	 -0.004	 -0.001	 27.800	 99.563	  0.358
24044	  1.355	 -0.064	  0.398	 -7.730	  3.683	 -4.795	 -0.002	  0.004	 -0.002	 27.800	 99.563	  0.358
24094	  1.355	 -0.060	  0.403	 -7.752	  3.706	 -4.777	 -0.003	  0.002	  0.003	 27.800	 99.575	 -0.699
24144	  1.358	 -0.061	  0.401	 -7.737	  3.686	 -4.814	 -0.004	 -0.000	 -0.000	 27.800	 99.552	  1.329
24194	  1.356	 -0.063	  0.402	 -7.746	  3.697	 -4.779	 -0.002	  0.002	 -0.001	 27.800	 99.563	  0.358
24244	  1.356	 -0.062	  0.404	 -7.757	  3.671	 -4.796	 -0.005	 -0.000	 -0.001	 27.800	 99.563	  0.358
24294	  1.359	 -0.063	  0.401	 -7.744	  3.709	 -4.789	 -0.003	  0.003	  0.001	 27.800	 99.563	  0.358
24344	  1.357	 -0.062	  0.400	 -7.761	  3.682	 -4.795	 -0.004	  0.001	 -0.002	 27.800	 99.563	  0.358
24394	  1.357	 -0.065	  0.404	 -7.729	  3.672	 -4.755	 -0.001	  0.003	 -0.001	 27.800	 99.563	  0.358
24444	  1.357	 -0.060	  0.406	 -7.749	  3.672	 -4.791	 -0.005	  0.000	  0.001	 27.800	 99.563	  0.358
24494	  1.357	 -0.057	  0.403	 -7.750	  3.690	 -4.791	 -0.002	  0.004	 -0.002	 27.800	 99.568	 -0.083
24544	  1.360	 -0.055	  0.404	 -7.750	  3.708	 -4.782	 -0.004	 -0.004	  0.000	 27.800	 99.563	  0.358
24594	  1.357	 -0.063	  0.404	 -7.740	  3.688	 -4.796	 -0.002	  0.003	  0.001	 27.800	 99.563	  0.358
24644	  1.357	 -0.062	  0.402	 -7.753	  3.693	 -4.802	 -0.003	  0.004	  0.000	 27.800	 99.563	  0.358
24694	  1.357	 -0.063	  0.403	 -7.740	  3.687	 -4.774	 -0.005	 -0.001	  0.001	 27.800	 99.563	  0.358
24744	  1.356	 -0.060	  0.400	 -7.764	  3.684	 -4.804	 -0.004	  0.001	 -0.001	 27.800	 99.563	  0.358
24794	  1.357	 -0.064	  0.403	 -7.751	  3.707	 -4.769	 -0.003	  0.003	 -0.001	 27.800	 99.563	  0.358
24844	  1.356	 -0.060	  0.397	 -7.753	  3.687	 -4.799	 -0.006	 -0.002	 -0.000	 27.800	 99.563	  0.358
24894	  1.356	 -0.060	  0.404	 -7.751	  3.690	 -4.807	 -0.003	  0.002	 -0.001	 27.800	 99.563	  0.358
24944	  1.360	 -0.063	  0.401	 -7.745	  3.679	 -4.758	 -0.005	  0.003	  0.001	 27.800	 99.563	  0.358
24994	  1.358	 -0.064	  0.402	 -7.736	  3.694	 -4.770	 -0.004	  0.000	  0.001	 27.800	 99.568	 -0.083
25044	  1.355	 -0.063	  0.405	 -7.766	  3.678	 -4.760	 -0.004	 -0.000	  0.000	 27.800	 99.579	 -1.053
25094	  1.358	 -0.054	  0.398	 -7.765	  3.692	 -4.780	 -0.004	  0.002	 -0.001	 27.800	 99.563	  0.358
25144	  1.357	 -0.059	  0.405	 -7.756	  3.706	 -4.765	 -0.003	  0.003	  0.000	 27.800	 99.556	  0.976
25194	  1.357	 -0.062	  0.400	 -7.766	  3.692	 -4.794	 -0.005	 -0.001	  0.000	 27.800	 99.568	 -0.083
25244	  1.358	 -0.062	  0.397	 -7.765	  3.679	 -4.789	 -0.003	  0.005	  0.001	 27.800	 99.563	  0.358
