Time	 MagX	 MagY	 MagZ	 AccelX	 AccelY	 AccelZ	 Yaw	 Pitch	 Roll	 Temperature	 Pressure	 Altitude
2231	  0.147	 -0.130	  0.220	 -0.064	 -0.066	 -9.480	  0.002	 -0.001	  0.011	 29.700	 99.510	 -99999.000
2281	  0.146	 -0.142	  0.220	  0.002	 -0.069	 -9.494	  0.002	  0.000	  0.011	 29.700	 99.498	 -99999.000
2331	  0.148	 -0.136	  0.218	 -0.061	 -0.075	 -9.438	  0.003	  0.001	  0.011	 29.700	 99.506	 -99999.000
2381	  0.146	 -0.142	  0.216	 -0.022	 -0.075	 -9.466	  0.003	 -0.001	  0.011	 29.700	 99.510	 -99999.000
2431	  0.147	 -0.137	  0.221	 -0.041	 -0.075	 -9.492	  0.003	 -0.000	  0.011	 29.700	 99.498	 -99999.000
2481	  0.146	 -0.140	  0.220	 -0.052	 -0.072	 -9.489	  0.002	  0.000	  0.011	 29.700	 99.510	 -99999.000
2531	  0.145	 -0.140	  0.220	 -0.045	 -0.085	 -9.489	  0.002	 -0.000	  0.011	 29.700	 99.506	 -99999.000
2581	  0.145	 -0.138	  0.207	 -0.042	 -0.055	 -9.482	  0.003	 -0.001	  0.012	 29.700	 99.498	 -99999.000
2631	  0.146	 -0.137	  0.220	 -0.030	 -0.078	 -9.459	  0.003	 -0.001	  0.010	 29.700	 99.482	 -99999.000
2681	  0.143	 -0.138	  0.217	 -0.042	 -0.056	 -9.486	  0.002	 -0.002	  0.011	 29.700	 99.498	 -99999.000
2731	  0.146	 -0.130	  0.218	 -0.056	 -0.080	 -9.476	  0.002	 -0.001	  0.010	 29.700	 99.498	 -99999.000
2781	  0.145	 -0.138	  0.222	 -0.060	 -0.058	 -9.493	  0.002	 -0.000	  0.011	 29.700	 99.498	 -99999.000
2831	  0.148	 -0.132	  0.220	 -0.001	 -0.103	 -9.468	  0.002	 -0.001	  0.010	 29.700	 99.494	 -99999.000
2880	  0.143	 -0.135	  0.213	 -0.076	 -0.049	 -9.483	  0.003	 -0.002	  0.011	 29.700	 99.498	 -99999.000
2930	  0.142	 -0.140	  0.218	 -0.019	 -0.087	 -9.492	  0.003	 -0.001	  0.010	 29.700	 99.510	 -99999.000
2980	  0.146	 -0.140	  0.220	 -0.048	 -0.044	 -9.476	  0.002	  0.000	  0.011	 29.700	 99.498	 -99999.000
3030	  0.147	 -0.131	  0.218	  0.015	 -0.087	 -9.481	  0.002	 -0.002	  0.011	 29.700	 99.486	 -99999.000
3080	  0.149	 -0.128	  0.218	 -0.049	 -0.037	 -9.477	  0.002	 -0.001	  0.011	 29.700	 99.510	 -99999.000
3130	  0.145	 -0.136	  0.220	  0.027	 -0.071	 -9.492	  0.003	 -0.001	  0.010	 29.700	 99.494	 -99999.000
3180	  0.146	 -0.141	  0.222	 -0.034	 -0.056	 -9.513	  0.002	 -0.001	  0.010	 29.700	 99.498	 -99999.000
3230	  0.142	 -0.141	  0.215	 -0.006	 -0.088	 -9.478	  0.003	 -0.001	  0.011	 29.700	 99.494	 -99999.000
3280	  0.148	 -0.130	  0.222	 -0.092	 -0.046	 -9.468	  0.002	 -0.001	  0.010	 29.700	 99.498	 -99999.000
3330	  0.146	 -0.137	  0.217	  0.009	 -0.089	 -9.461	  0.002	 -0.001	  0.011	 29.700	 99.494	 -99999.000
3380	  0.146	 -0.140	  0.218	 -0.069	 -0.059	 -9.494	  0.002	 -0.000	  0.010	 29.700	 99.498	 -99999.000
3430	  0.143	 -0.140	  0.220	  0.000	 -0.083	 -9.474	  0.002	 -0.001	  0.010	 29.700	 99.498	 -99999.000
3480	  0.142	 -0.137	  0.222	 -0.107	 -0.037	 -9.531	  0.002	 -0.001	  0.011	 29.700	 99.494	 -99999.000
3530	  0.146	 -0.137	  0.216	  0.009	 -0.078	 -9.474	  0.002	 -0.001	  0.011	 29.700	 99.498	 -99999.000
3580	  0.146	 -0.137	  0.221	 -0.084	 -0.042	 -9.461	  0.003	 -0.001	  0.010	 29.700	 99.494	 -99999.000
3630	  0.147	 -0.137	  0.214	 -0.003	 -0.093	 -9.495	  0.003	 -0.001	  0.010	 29.700	 99.498	 -99999.000
3680	  0.147	 -0.137	  0.216	 -0.089	 -0.054	 -9.439	  0.002	 -0.000	  0.011	 29.700	 99.498	 -99999.000
3730	  0.145	 -0.138	  0.217	  0.014	 -0.078	 -9.500	  0.002	 -0.000	  0.010	 29.700	 99.498	 -99999.000
3780	  0.146	 -0.138	  0.216	 -0.092	 -0.044	 -9.512	  0.002	 -0.002	  0.011	 29.700	 99.498	 -99999.000
3830	  0.145	 -0.146	  0.214	 -0.010	 -0.058	 -9.476	  0.002	  0.000	  0.011	 29.700	 99.510	 -99999.000
3880	  0.145	 -0.144	  0.217	 -0.067	 -0.069	 -9.528	  0.002	 -0.001	  0.011	 29.700	 99.486	 -99999.000
3930	  0.146	 -0.135	  0.217	 -0.019	 -0.048	 -9.481	  0.003	 -0.001	  0.012	 29.700	 99.486	 -99999.000
3980	  0.148	 -0.123	  0.218	 -0.062	 -0.074	 -9.494	  0.003	 -0.000	  0.011	 29.700	 99.494	 -99999.000
4030	  0.143	 -0.138	  0.217	 -0.008	 -0.049	 -9.489	  0.003	 -0.001	  0.012	 29.700	 99.494	 -99999.000
4080	  0.144	 -0.124	  0.215	 -0.061	 -0.060	 -9.516	  0.003	 -0.001	  0.011	 29.700	 99.510	 -99999.000
4130	  0.148	 -0.138	  0.218	 -0.006	 -0.043	 -9.494	  0.002	 -0.002	  0.012	 29.700	 99.486	 -99999.000
4180	  0.146	 -0.140	  0.218	 -0.069	 -0.056	 -9.462	  0.002	 -0.000	  0.010	 29.700	 99.494	 -99999.000
4230	  0.142	 -0.143	  0.221	  0.015	 -0.105	 -9.520	  0.003	  0.000	  0.011	 29.700	 99.494	 -99999.000
4280	  0.148	 -0.124	  0.221	 -0.072	 -0.097	 -9.490	  0.002	 -0.002	  0.012	 29.700	 99.498	 -99999.000
4330	  0.146	 -0.138	  0.216	  0.024	 -0.063	 -9.474	  0.003	 -0.002	  0.011	 29.700	 99.510	 -99999.000
4380	  0.143	 -0.138	  0.217	 -0.079	 -0.044	 -9.505	  0.003	 -0.001	  0.010	 29.700	 99.494	 -99999.000
4430	  0.147	 -0.143	  0.217	  0.008	 -0.072	 -9.470	  0.003	 -0.002	  0.010	 29.700	 99.498	 -99999.000
4480	  0.146	 -0.142	  0.221	 -0.098	 -0.079	 -9.475	  0.002	 -0.001	  0.010	 29.700	 99.498	 -99999.000
4530	  0.145	 -0.141	  0.221	 -0.028	 -0.053	 -9.474	  0.002	  0.001	  0.012	 29.700	 99.498	 -99999.000
4580	  0.144	 -0.132	  0.221	 -0.083	 -0.067	 -9.491	  0.003	 -0.001	  0.011	 29.700	 99.498	 -99999.000
4630	  0.145	 -0.138	  0.217	 -0.008	 -0.071	 -9.463	  0.003	 -0.000	  0.012	 29.700	 99.486	 -99999.000
4680	  0.146	 -0.141	  0.212	 -0.061	 -0.078	 -9.508	  0.002	 -0.001	  0.011	 29.700	 99.498	 -99999.000
4730	  0.148	 -0.140	  0.216	 -0.016	 -0.032	 -9.502	  0.001	  0.000	  0.010	 29.700	 99.498	 -99999.000
4780	  0.148	 -0.137	  0.222	 -0.063	 -0.046	 -9.458	  0.003	 -0.001	  0.009	 29.700	 99.510	 -99999.000
4830	  0.146	 -0.131	  0.217	 -0.013	 -0.062	 -9.502	  0.003	 -0.002	  0.009	 29.700	 99.498	 -99999.000
4880	  0.145	 -0.142	  0.218	 -0.043	 -0.059	 -9.468	  0.002	 -0.001	  0.011	 29.700	 99.510	 -99999.000
4930	  0.147	 -0.137	  0.214	 -0.051	 -0.080	 -9.491	  0.003	 -0.001	  0.012	 29.700	 99.498	 -99999.000
4980	  0.147	 -0.142	  0.213	 -0.042	 -0.051	 -9.512	  0.002	 -0.002	  0.010	 29.700	 99.498	 -99999.000
5030	  0.146	 -0.147	  0.224	 -0.046	 -0.050	 -9.481	  0.003	  0.000	  0.011	 29.700	 99.498	 -99999.000
5080	  0.148	 -0.138	  0.221	 -0.014	 -0.072	 -9.512	  0.002	 -0.002	  0.011	 29.700	 99.506	 -99999.000
5130	  0.143	 -0.141	  0.222	 -0.066	 -0.026	 -9.494	  0.002	 -0.002	  0.011	 29.700	 99.498	 -99999.000
5180	  0.143	 -0.140	  0.213	  0.019	 -0.053	 -9.499	  0.002	 -0.002	  0.011	 29.700	 99.498	 -99999.000
9355	  0.147	 -0.142	  0.218	  0.009	 -0.094	 -9.545	  0.002	 -0.001	  0.011	 29.700	 99.494	  0.405
9405	  0.144	 -0.133	  0.218	 -0.126	 -0.060	 -9.496	  0.004	 -0.000	  0.008	 29.700	 99.498	  0.037
9455	  0.146	 -0.132	  0.221	 -0.038	 -0.100	 -9.480	  0.002	 -0.001	  0.011	 29.700	 99.510	 -1.068
9505	  0.145	 -0.141	  0.214	 -0.083	 -0.060	 -9.495	  0.002	  0.001	  0.012	 29.700	 99.498	  0.037
9555	  0.143	 -0.142	  0.221	  0.026	 -0.080	 -9.469	  0.002	 -0.001	  0.013	 29.700	 99.506	 -0.700
9605	  0.142	 -0.135	  0.218	 -0.104	 -0.063	 -9.485	  0.002	 -0.000	  0.011	 29.700	 99.486	  1.142
9655	  0.145	 -0.140	  0.220	  0.034	 -0.131	 -9.446	  0.002	 -0.001	  0.012	 29.700	 99.510	 -1.068
9705	  0.144	 -0.127	  0.218	 -0.108	 -0.049	 -9.502	  0.003	 -0.001	  0.009	 29.700	 99.498	  0.037
9755	  0.143	 -0.137	  0.217	  0.024	 -0.081	 -9.487	  0.003	 -0.001	  0.007	 29.700	 99.498	  0.037
9805	  0.146	 -0.136	  0.210	 -0.103	 -0.089	 -9.480	  0.003	  0.001	  0.013	 29.700	 99.498	  0.037
9855	  0.143	 -0.132	  0.218	  0.017	 -0.087	 -9.467	  0.002	 -0.001	  0.009	 29.700	 99.510	 -1.068
9905	  0.144	 -0.121	  0.213	 -0.070	 -0.052	 -9.498	  0.003	 -0.001	  0.013	 29.700	 99.498	  0.037
9955	  0.147	 -0.133	  0.214	  0.001	 -0.084	 -9.490	  0.003	 -0.001	  0.009	 29.700	 99.494	  0.405
10005	  0.145	 -0.142	  0.218	 -0.074	 -0.054	 -9.465	  0.003	 -0.001	  0.013	 29.700	 99.498	  0.037
10055	  0.146	 -0.126	  0.221	  0.026	 -0.090	 -9.477	  0.002	 -0.003	  0.009	 29.700	 99.498	  0.037
10105	  0.145	 -0.138	  0.218	 -0.088	 -0.055	 -9.456	  0.002	 -0.001	  0.007	 29.700	 99.486	  1.142
10155	  0.142	 -0.133	  0.217	  0.025	 -0.097	 -9.489	  0.003	 -0.001	  0.009	 29.700	 99.498	  0.037
10205	  0.143	 -0.137	  0.217	 -0.084	 -0.048	 -9.477	  0.003	 -0.000	  0.012	 29.700	 99.498	  0.037
10255	  0.147	 -0.121	  0.215	 -0.001	 -0.051	 -9.519	  0.002	 -0.001	  0.013	 29.700	 99.486	  1.142
10305	  0.147	 -0.138	  0.220	 -0.064	 -0.069	 -9.470	  0.003	 -0.000	  0.011	 29.700	 99.498	  0.037
10355	  0.142	 -0.131	  0.221	  0.014	 -0.066	 -9.488	  0.002	 -0.001	  0.010	 29.700	 99.498	  0.037
10405	  0.145	 -0.140	  0.218	 -0.084	 -0.039	 -9.472	  0.003	 -0.001	  0.010	 29.700	 99.510	 -1.068
10455	  0.146	 -0.137	  0.221	 -0.013	 -0.091	 -9.513	  0.002	 -0.000	  0.012	 29.700	 99.510	 -1.068
10505	  0.147	 -0.133	  0.217	 -0.087	 -0.040	 -9.491	  0.002	 -0.000	  0.013	 29.700	 99.486	  1.142
10555	  0.147	 -0.135	  0.222	  0.013	 -0.090	 -9.449	  0.003	 -0.002	  0.012	 29.700	 99.498	  0.037
10605	  0.143	 -0.138	  0.218	 -0.078	 -0.065	 -9.495	  0.003	  0.000	  0.008	 29.700	 99.498	  0.037
10655	  0.143	 -0.132	  0.217	  0.032	 -0.077	 -9.486	  0.003	 -0.000	  0.006	 29.700	 99.498	  0.037
10705	  0.145	 -0.137	  0.220	 -0.099	 -0.064	 -9.454	  0.002	 -0.001	  0.012	 29.700	 99.498	  0.037
10755	  0.146	 -0.135	  0.225	 -0.004	 -0.087	 -9.470	  0.002	 -0.002	  0.014	 29.700	 99.498	  0.037
10805	  0.144	 -0.131	  0.215	 -0.086	 -0.022	 -9.463	  0.002	 -0.001	  0.012	 29.700	 99.498	  0.037
10855	  0.146	 -0.138	  0.216	 -0.018	 -0.063	 -9.458	  0.003	 -0.001	  0.014	 29.700	 99.510	 -1.068
10905	  0.146	 -0.124	  0.218	 -0.059	 -0.055	 -9.496	  0.002	 -0.001	  0.010	 29.700	 99.510	 -1.068
10955	  0.146	 -0.123	  0.218	  0.007	 -0.059	 -9.497	  0.003	  0.000	  0.011	 29.700	 99.498	  0.037
11005	  0.143	 -0.138	  0.222	 -0.061	 -0.065	 -9.479	  0.003	  0.000	  0.014	 29.700	 99.498	  0.037
11055	  0.148	 -0.136	  0.220	  0.004	 -0.065	 -9.451	  0.002	 -0.001	  0.010	 29.700	 99.498	  0.037
11105	  0.144	 -0.127	  0.214	 -0.041	 -0.071	 -9.516	  0.003	 -0.002	  0.011	 29.700	 99.510	 -1.068
11155	  0.145	 -0.142	  0.214	 -0.004	 -0.033	 -9.485	  0.002	 -0.000	  0.011	 29.700	 99.486	  1.142
11205	  0.141	 -0.135	  0.218	 -0.032	 -0.062	 -9.526	  0.002	 -0.001	  0.012	 29.700	 99.498	  0.037
11255	  0.143	 -0.137	  0.215	 -0.021	 -0.070	 -9.510	  0.003	 -0.002	  0.009	 29.700	 99.510	 -1.068
11305	  0.144	 -0.132	  0.222	 -0.042	 -0.093	 -9.521	  0.003	  0.000	  0.010	 29.700	 99.498	  0.037
11355	  0.146	 -0.138	  0.218	 -0.054	 -0.057	 -9.514	  0.003	 -0.001	  0.010	 29.700	 99.498	  0.037
11405	  0.146	 -0.138	  0.217	 -0.019	 -0.059	 -9.459	  0.002	 -0.001	  0.010	 29.700	 99.498	  0.037
11455	  0.144	 -0.124	  0.221	 -0.063	 -0.048	 -9.495	  0.003	 -0.002	  0.012	 29.700	 99.498	  0.037
11505	  0.142	 -0.135	  0.215	 -0.020	 -0.077	 -9.454	  0.003	  0.001	  0.011	 29.700	 99.502	 -0.332
11555	  0.143	 -0.136	  0.211	 -0.078	 -0.048	 -9.492	  0.003	 -0.001	  0.009	 29.700	 99.498	  0.037
11605	  0.143	 -0.138	  0.217	 -0.004	 -0.077	 -9.468	  0.002	 -0.001	  0.011	 29.700	 99.510	 -1.068
11655	  0.144	 -0.133	  0.217	 -0.102	 -0.045	 -9.530	  0.003	 -0.000	  0.010	 29.700	 99.510	 -1.068
11705	  0.145	 -0.138	  0.213	  0.011	 -0.089	 -9.451	  0.003	 -0.002	  0.010	 29.700	 99.510	 -1.068
11755	  0.148	 -0.141	  0.220	 -0.085	 -0.029	 -9.493	  0.003	 -0.001	  0.011	 29.700	 99.498	  0.037
11805	  0.145	 -0.137	  0.218	 -0.004	 -0.096	 -9.506	  0.001	  0.000	  0.009	 29.700	 99.498	  0.037
11855	  0.142	 -0.135	  0.211	 -0.098	 -0.056	 -9.513	  0.004	 -0.001	  0.012	 29.700	 99.494	  0.405
11906	  0.147	 -0.140	  0.212	  0.015	 -0.080	 -9.476	  0.003	 -0.001	  0.012	 29.700	 99.510	 -1.068
11955	  0.147	 -0.136	  0.220	 -0.094	 -0.079	 -9.519	  0.002	 -0.002	  0.008	 29.700	 99.498	  0.037
12005	  0.142	 -0.133	  0.210	  0.008	 -0.085	 -9.474	  0.002	 -0.001	  0.010	 29.700	 99.498	  0.037
12055	  0.146	 -0.137	  0.221	 -0.061	 -0.061	 -9.467	  0.001	 -0.001	  0.011	 29.700	 99.494	  0.405
12105	  0.144	 -0.135	  0.217	  0.009	 -0.077	 -9.511	  0.002	 -0.001	  0.011	 29.700	 99.514	 -1.436
12155	  0.143	 -0.138	  0.221	 -0.067	 -0.043	 -9.479	  0.001	 -0.002	  0.010	 29.700	 99.498	  0.037
12205	  0.147	 -0.137	  0.213	  0.029	 -0.087	 -9.503	  0.001	 -0.001	  0.011	 29.700	 99.510	 -1.068
12255	  0.144	 -0.126	  0.219	 -0.077	 -0.049	 -9.477	  0.002	 -0.002	  0.010	 29.700	 99.510	 -1.068
12305	  0.143	 -0.138	  0.220	  0.002	 -0.086	 -9.516	  0.001	 -0.001	  0.010	 29.700	 99.486	  1.142
12355	  0.143	 -0.137	  0.218	 -0.091	 -0.061	 -9.499	  0.003	 -0.000	  0.012	 29.700	 99.510	 -1.068
12406	  0.145	 -0.137	  0.218	 -0.002	 -0.076	 -9.482	  0.003	 -0.001	  0.010	 29.700	 99.498	  0.037
12456	  0.141	 -0.127	  0.216	 -0.034	 -0.069	 -9.496	  0.001	 -0.001	  0.011	 29.700	 99.498	  0.037
12506	  0.141	 -0.135	  0.222	 -0.033	 -0.070	 -9.456	  0.002	 -0.001	  0.011	 29.700	 99.506	 -0.700
12556	  0.142	 -0.131	  0.214	 -0.041	 -0.062	 -9.467	  0.002	 -0.000	  0.010	 29.700	 99.498	  0.037
12606	  0.142	 -0.135	  0.221	 -0.041	 -0.053	 -9.489	  0.001	 -0.000	  0.011	 29.700	 99.510	 -1.068
12656	  0.143	 -0.126	  0.217	 -0.027	 -0.091	 -9.457	  0.003	 -0.000	  0.011	 29.700	 99.498	  0.037
12706	  0.143	 -0.138	  0.217	 -0.060	 -0.064	 -9.501	  0.002	 -0.000	  0.011	 29.700	 99.502	 -0.332
12756	  0.145	 -0.140	  0.214	 -0.022	 -0.062	 -9.449	  0.003	 -0.001	  0.010	 29.700	 99.486	  1.142
12806	  0.146	 -0.142	  0.210	 -0.068	 -0.058	 -9.480	  0.003	 -0.001	  0.011	 29.700	 99.498	  0.037
12856	  0.146	 -0.136	  0.217	 -0.013	 -0.079	 -9.467	  0.002	 -0.001	  0.010	 29.700	 99.498	  0.037
12906	  0.146	 -0.143	  0.218	 -0.059	 -0.060	 -9.485	  0.003	 -0.002	  0.011	 29.700	 99.498	  0.037
12956	  0.146	 -0.140	  0.216	 -0.031	 -0.096	 -9.486	  0.003	 -0.001	  0.011	 29.700	 99.486	  1.142
13006	  0.146	 -0.133	  0.220	 -0.076	 -0.056	 -9.487	  0.002	 -0.001	  0.010	 29.700	 99.490	  0.773
13056	  0.145	 -0.136	  0.217	  0.004	 -0.055	 -9.508	  0.002	 -0.000	  0.011	 29.700	 99.498	  0.037
13106	  0.145	 -0.140	  0.217	 -0.080	 -0.065	 -9.514	  0.002	 -0.001	  0.011	 29.700	 99.486	  1.142
13156	  0.145	 -0.135	  0.220	  0.038	 -0.102	 -9.473	  0.002	 -0.003	  0.011	 29.700	 99.510	 -1.068
13206	  0.143	 -0.136	  0.218	 -0.066	 -0.060	 -9.538	  0.003	 -0.000	  0.010	 29.700	 99.498	  0.037
13256	  0.142	 -0.137	  0.220	  0.025	 -0.065	 -9.466	  0.004	 -0.001	  0.011	 29.700	 99.498	  0.037
13306	  0.146	 -0.136	  0.212	 -0.075	 -0.043	 -9.479	  0.002	 -0.001	  0.010	 29.700	 99.498	  0.037
13356	  0.143	 -0.136	  0.211	  0.030	 -0.072	 -9.491	  0.003	 -0.001	  0.011	 29.700	 99.498	  0.037
13406	  0.146	 -0.140	  0.216	 -0.054	 -0.050	 -9.499	  0.003	 -0.001	  0.011	 29.700	 99.510	 -1.068
13456	  0.145	 -0.145	  0.216	 -0.004	 -0.088	 -9.491	  0.002	 -0.001	  0.011	 29.700	 99.486	  1.142
13506	  0.145	 -0.138	  0.217	 -0.081	 -0.058	 -9.497	  0.002	 -0.000	  0.010	 29.700	 99.498	  0.037
13556	  0.143	 -0.143	  0.221	 -0.002	 -0.069	 -9.499	  0.002	  0.001	  0.011	 29.700	 99.498	  0.037
13606	  0.142	 -0.132	  0.218	 -0.089	 -0.049	 -9.451	  0.003	 -0.001	  0.011	 29.700	 99.498	  0.037
13656	  0.146	 -0.140	  0.218	 -0.015	 -0.056	 -9.477	  0.001	  0.001	  0.011	 29.700	 99.498	  0.037
13706	  0.146	 -0.135	  0.220	 -0.087	 -0.070	 -9.489	  0.002	 -0.001	  0.011	 29.700	 99.494	  0.405
13756	  0.142	 -0.140	  0.215	 -0.025	 -0.076	 -9.474	  0.003	 -0.001	  0.012	 29.700	 99.498	  0.037
13806	  0.144	 -0.131	  0.218	 -0.069	 -0.062	 -9.433	  0.004	 -0.001	  0.011	 29.700	 99.498	  0.037
13856	  0.145	 -0.137	  0.212	 -0.021	 -0.079	 -9.464	  0.003	 -0.001	  0.011	 29.700	 99.510	 -1.068
13906	  0.143	 -0.135	  0.215	 -0.077	 -0.068	 -9.506	  0.002	  0.000	  0.010	 29.700	 99.498	  0.037
13956	  0.144	 -0.135	  0.214	 -0.037	 -0.062	 -9.480	  0.002	 -0.002	  0.010	 29.700	 99.498	  0.037
14006	  0.147	 -0.137	  0.217	 -0.033	 -0.066	 -9.495	  0.003	 -0.002	  0.010	 29.700	 99.498	  0.037
14056	  0.146	 -0.132	  0.214	 -0.032	 -0.054	 -9.519	  0.002	 -0.001	  0.011	 29.700	 99.510	 -1.068
14106	  0.142	 -0.135	  0.219	 -0.035	 -0.071	 -9.487	  0.002	 -0.001	  0.010	 29.700	 99.510	 -1.068
14156	  0.146	 -0.124	  0.219	 -0.037	 -0.069	 -9.502	  0.003	 -0.002	  0.011	 29.700	 99.486	  1.142
14206	  0.142	 -0.140	  0.220	 -0.031	 -0.069	 -9.491	  0.003	 -0.000	  0.011	 29.700	 99.498	  0.037
14256	  0.146	 -0.138	  0.216	 -0.048	 -0.053	 -9.481	  0.003	 -0.001	  0.010	 29.700	 99.498	  0.037
14306	  0.142	 -0.128	  0.219	 -0.010	 -0.094	 -9.387	  0.003	 -0.000	  0.010	 29.700	 99.486	  1.142
14356	  0.146	 -0.123	  0.215	 -0.027	 -0.082	 -9.462	  0.001	  0.001	  0.010	 29.700	 99.498	  0.037
14406	  0.146	 -0.137	  0.210	 -0.057	 -0.076	 -9.541	  0.002	 -0.001	  0.011	 29.700	 99.498	  0.037
14456	  0.145	 -0.137	  0.221	 -0.043	 -0.046	 -9.481	  0.003	 -0.001	  0.010	 29.700	 99.498	  0.037
14506	  0.143	 -0.127	  0.215	 -0.015	 -0.060	 -9.479	  0.002	 -0.001	  0.011	 29.700	 99.510	 -1.068
14556	  0.145	 -0.138	  0.217	 -0.078	 -0.059	 -9.493	  0.001	 -0.000	  0.011	 29.700	 99.498	  0.037
14606	  0.142	 -0.127	  0.211	  0.007	 -0.073	 -9.503	  0.002	 -0.000	  0.009	 29.700	 99.498	  0.037
14656	  0.146	 -0.126	  0.218	 -0.089	 -0.049	 -9.476	  0.001	  0.001	  0.010	 29.700	 99.510	 -1.068
14706	  0.147	 -0.138	  0.217	 -0.007	 -0.102	 -9.458	  0.003	 -0.000	  0.011	 29.700	 99.498	  0.037
14756	  0.145	 -0.141	  0.213	 -0.092	 -0.062	 -9.466	  0.002	 -0.001	  0.010	 29.700	 99.498	  0.037
14806	  0.147	 -0.133	  0.217	 -0.004	 -0.065	 -9.468	  0.001	 -0.001	  0.011	 29.700	 99.510	 -1.068
14856	  0.147	 -0.142	  0.217	 -0.057	 -0.049	 -9.464	  0.002	 -0.001	  0.010	 29.700	 99.486	  1.142
14906	  0.145	 -0.136	  0.218	  0.008	 -0.069	 -9.452	  0.002	  0.001	  0.011	 29.700	 99.510	 -1.068
14956	  0.143	 -0.136	  0.220	 -0.087	 -0.054	 -9.499	  0.002	  0.000	  0.012	 29.700	 99.510	 -1.068
15006	  0.145	 -0.137	  0.217	 -0.007	 -0.105	 -9.521	  0.001	 -0.000	  0.010	 29.700	 99.498	  0.037
15056	  0.145	 -0.136	  0.214	 -0.071	 -0.066	 -9.478	  0.002	 -0.001	  0.011	 29.700	 99.498	  0.037
15106	  0.146	 -0.143	  0.222	  0.009	 -0.070	 -9.473	  0.002	 -0.001	  0.011	 29.700	 99.498	  0.037
15156	  0.143	 -0.142	  0.207	 -0.036	 -0.032	 -9.445	  0.002	 -0.002	  0.011	 29.700	 99.498	  0.037
15206	  0.147	 -0.142	  0.213	  0.006	 -0.070	 -9.487	  0.004	 -0.001	  0.010	 29.700	 99.498	  0.037
15256	  0.146	 -0.124	  0.218	 -0.093	 -0.039	 -9.477	  0.003	 -0.001	  0.011	 29.700	 99.498	  0.037
15306	  0.146	 -0.127	  0.219	  0.058	 -0.072	 -9.485	  0.001	 -0.001	  0.011	 29.700	 99.510	 -1.068
15356	  0.146	 -0.135	  0.218	 -0.073	 -0.026	 -9.520	  0.001	  0.002	  0.011	 29.700	 99.502	 -0.332
15406	  0.143	 -0.145	  0.214	  0.097	 -0.037	 -9.406	  0.002	 -0.004	  0.010	 29.700	 99.490	  0.773
15456	  0.145	 -0.137	  0.221	 -0.089	 -0.059	 -9.494	  0.002	  0.000	  0.011	 29.700	 99.510	 -1.068
15506	  0.145	 -0.136	  0.224	  0.013	 -0.075	 -9.478	  0.002	 -0.001	  0.010	 29.700	 99.498	  0.037
15556	  0.145	 -0.142	  0.218	 -0.059	 -0.057	 -9.475	  0.003	 -0.001	  0.010	 29.700	 99.498	  0.037
15606	  0.148	 -0.142	  0.217	 -0.030	 -0.053	 -9.475	  0.003	 -0.001	  0.011	 29.700	 99.510	 -1.068
15656	  0.146	 -0.126	  0.219	 -0.040	 -0.050	 -9.470	  0.002	 -0.001	  0.011	 29.700	 99.486	  1.142
15706	  0.143	 -0.141	  0.218	 -0.025	 -0.073	 -9.469	  0.002	 -0.000	  0.010	 29.700	 99.486	  1.142
15756	  0.146	 -0.141	  0.213	 -0.044	 -0.070	 -9.471	  0.003	  0.000	  0.011	 29.700	 99.498	  0.037
15806	  0.143	 -0.140	  0.220	 -0.023	 -0.084	 -9.489	  0.002	 -0.000	  0.010	 29.700	 99.510	 -1.068
15856	  0.146	 -0.140	  0.220	 -0.021	 -0.060	 -9.475	  0.001	 -0.001	  0.011	 29.700	 99.498	  0.037
15906	  0.146	 -0.136	  0.218	 -0.054	 -0.018	 -9.467	  0.002	  0.001	  0.011	 29.700	 99.502	 -0.332
15956	  0.147	 -0.128	  0.220	 -0.046	 -0.067	 -9.445	  0.002	 -0.001	  0.011	 29.700	 99.498	  0.037
16006	  0.146	 -0.135	  0.220	 -0.062	 -0.052	 -9.491	  0.002	 -0.000	  0.010	 29.700	 99.490	  0.773
16055	  0.146	 -0.145	  0.214	 -0.032	 -0.078	 -9.480	  0.003	 -0.000	  0.011	 29.700	 99.498	  0.037
16106	  0.147	 -0.137	  0.217	 -0.045	 -0.048	 -9.438	  0.002	  0.000	  0.010	 29.700	 99.498	  0.037
16155	  0.146	 -0.138	  0.225	 -0.037	 -0.077	 -9.457	  0.003	 -0.002	  0.010	 29.700	 99.498	  0.037
16206	  0.149	 -0.135	  0.222	 -0.088	 -0.059	 -9.493	  0.003	 -0.001	  0.011	 29.700	 99.498	  0.037
16255	  0.147	 -0.137	  0.222	 -0.001	 -0.050	 -9.513	  0.003	  0.000	  0.010	 29.700	 99.498	  0.037
16305	  0.145	 -0.138	  0.221	 -0.092	 -0.041	 -9.503	  0.003	 -0.001	  0.011	 29.700	 99.498	  0.037
16355	  0.144	 -0.133	  0.221	  0.015	 -0.043	 -9.510	  0.002	 -0.001	  0.011	 29.700	 99.498	  0.037
16405	  0.142	 -0.135	  0.218	 -0.064	 -0.054	 -9.500	  0.003	 -0.001	  0.011	 29.700	 99.486	  1.142
16455	  0.146	 -0.141	  0.209	  0.064	 -0.078	 -9.524	  0.003	 -0.001	  0.012	 29.700	 99.498	  0.037
16505	  0.147	 -0.138	  0.225	 -0.094	 -0.099	 -9.500	  0.003	 -0.001	  0.011	 29.700	 99.514	 -1.436
16555	  0.146	 -0.141	  0.217	  0.071	 -0.016	 -9.473	  0.002	 -0.002	  0.010	 29.700	 99.514	 -1.436
16605	  0.146	 -0.146	  0.220	 -0.164	 -0.097	 -9.523	  0.002	 -0.012	  0.011	 29.700	 99.498	  0.037
16655	  0.146	 -0.137	  0.217	 -1.292	  0.458	 -9.324	  0.023	 -0.086	 -0.070	 29.700	 99.510	 -1.068
16705	  0.150	 -0.133	  0.217	 -0.342	 -0.220	 -9.601	 -0.002	 -0.031	 -0.643	 29.700	 99.502	 -0.332
16755	  0.155	 -0.112	  0.210	 -0.440	 -0.057	 -9.532	 -0.013	  0.005	 -0.641	 29.700	 99.510	 -1.068
16805	  0.157	 -0.103	  0.223	 -0.236	  0.076	 -9.472	 -0.002	 -0.016	 -0.382	 29.700	 99.498	  0.037
16855	  0.156	 -0.097	  0.215	 -0.009	  0.148	 -9.492	  0.035	 -0.091	 -0.066	 29.700	 99.498	  0.037
16905	  0.161	 -0.082	  0.210	 -0.099	 -0.068	 -9.473	  0.047	 -0.120	 -0.116	 29.700	 99.486	  1.142
16955	  0.161	 -0.084	  0.203	 -0.198	 -0.209	 -9.531	  0.047	 -0.114	 -0.080	 29.700	 99.498	  0.037
17005	  0.166	 -0.065	  0.212	 -0.325	  0.043	 -9.500	  0.010	 -0.019	 -0.131	 29.700	 99.502	 -0.332
17055	  0.166	 -0.078	  0.215	  0.079	 -0.084	 -9.458	 -0.034	  0.063	 -0.187	 29.700	 99.486	  1.142
17105	  0.163	 -0.078	  0.214	  0.022	 -0.320	 -9.448	 -0.082	  0.219	  0.040	 29.700	 99.498	  0.037
17155	  0.160	 -0.078	  0.220	  0.482	  0.066	 -9.395	  0.005	 -0.018	 -0.130	 29.700	 99.510	 -1.068
17205	  0.166	 -0.068	  0.211	 -0.179	 -0.128	 -9.507	  0.017	 -0.049	 -0.197	 29.700	 99.482	  1.510
17255	  0.167	 -0.064	  0.218	  0.030	 -0.313	 -9.458	  0.030	 -0.107	 -0.471	 29.700	 99.498	  0.037
17305	  0.171	 -0.037	  0.209	  0.003	 -0.275	 -9.465	  0.023	 -0.104	 -0.578	 29.700	 99.502	 -0.332
17355	  0.175	 -0.036	  0.211	 -0.933	 -0.280	 -9.516	 -0.006	  0.002	 -0.356	 29.700	 99.498	  0.037
17405	  0.171	 -0.026	  0.209	  0.094	  0.212	 -9.407	  0.005	 -0.012	 -0.089	 29.700	 99.498	  0.037
17455	  0.174	 -0.028	  0.216	 -0.360	 -0.208	 -9.460	 -0.006	  0.008	 -0.102	 29.700	 99.498	  0.037
17506	  0.172	 -0.021	  0.210	 -0.198	 -0.041	 -9.503	  0.008	 -0.010	 -0.024	 29.700	 99.498	  0.037
17555	  0.175	 -0.017	  0.209	  0.018	  0.086	 -9.437	  0.058	 -0.080	 -0.009	 29.700	 99.498	  0.037
17606	  0.176	 -0.024	  0.206	 -0.280	  0.136	 -9.540	  0.054	 -0.066	 -0.079	 29.700	 99.502	 -0.332
17656	  0.175	 -0.016	  0.207	 -0.386	 -0.277	 -9.633	 -0.024	  0.022	 -0.145	 29.700	 99.498	  0.037
17705	  0.174	 -0.009	  0.214	 -0.778	 -0.799	 -9.463	 -0.051	  0.066	 -0.173	 29.700	 99.490	  0.773
17756	  0.174	 -0.008	  0.205	 -0.336	 -0.330	 -9.567	  0.035	 -0.053	 -0.166	 29.700	 99.510	 -1.068
17805	  0.177	 -0.009	  0.215	  0.144	  0.014	 -9.443	  0.017	 -0.019	 -0.019	 29.700	 99.498	  0.037
17856	  0.175	 -0.012	  0.206	 -1.744	 -2.469	 -9.536	 -0.273	  0.404	  0.329	 29.700	 99.498	  0.037
17905	  0.191	 -0.040	  0.229	 -1.379	 -2.068	 -9.723	  0.052	 -0.155	  0.614	 29.700	 99.498	  0.037
17956	  0.171	 -0.097	  0.202	 -0.485	  0.306	 -9.429	  0.029	  0.003	  1.318	 29.700	 99.510	 -1.068
18005	  0.154	 -0.136	  0.196	  0.732	  0.859	 -9.397	  0.024	  0.012	  1.072	 29.700	 99.510	 -1.068
18056	  0.142	 -0.149	  0.187	  0.767	  1.511	 -9.498	  0.012	  0.009	  0.501	 29.700	 99.502	 -0.332
18106	  0.146	 -0.161	  0.196	  0.196	  1.106	 -9.449	  0.007	 -0.001	  0.170	 29.700	 99.498	  0.037
18156	  0.140	 -0.165	  0.194	 -0.063	 -0.024	 -9.505	  0.006	 -0.002	  0.237	 29.700	 99.510	 -1.068
18206	  0.135	 -0.169	  0.194	  0.131	  0.011	 -9.454	  0.006	  0.002	  0.167	 29.700	 99.498	  0.037
18256	  0.134	 -0.165	  0.185	 -0.006	 -0.117	 -9.483	  0.000	 -0.002	 -0.077	 29.700	 99.498	  0.037
18306	  0.135	 -0.155	  0.194	 -0.626	 -0.108	 -9.508	 -0.001	 -0.001	 -0.079	 29.700	 99.498	  0.037
18356	  0.136	 -0.160	  0.188	 -0.036	 -0.076	 -9.513	  0.001	 -0.005	  0.008	 29.700	 99.510	 -1.068
18406	  0.136	 -0.150	  0.194	  0.037	 -0.095	 -9.460	  0.015	 -0.060	  0.012	 29.700	 99.498	  0.037
18456	  0.139	 -0.161	  0.193	 -0.380	 -0.145	 -9.522	  0.001	  0.001	  0.004	 29.700	 99.490	  0.773
18506	  0.137	 -0.155	  0.187	  0.035	 -0.058	 -9.515	  0.003	 -0.003	  0.011	 29.700	 99.502	 -0.332
18556	  0.140	 -0.160	  0.192	 -0.129	 -0.013	 -9.500	  0.002	  0.001	  0.011	 29.700	 99.498	  0.037
18606	  0.137	 -0.156	  0.190	 -0.013	 -0.100	 -9.486	 -0.000	 -0.003	  0.016	 29.700	 99.498	  0.037
18656	  0.138	 -0.166	  0.186	 -0.204	 -0.042	 -9.495	 -0.000	  0.013	  0.097	 29.700	 99.498	  0.037
18706	  0.134	 -0.155	  0.193	 -0.525	 -0.228	 -9.582	 -0.015	  0.064	  0.018	 29.700	 99.510	 -1.068
18756	  0.134	 -0.168	  0.190	 -0.276	 -0.103	 -9.543	 -0.001	  0.014	  0.009	 29.700	 99.498	  0.037
18806	  0.134	 -0.151	  0.195	 -0.328	 -0.044	 -9.492	  0.004	  0.047	  0.009	 29.700	 99.498	  0.037
18856	  0.133	 -0.160	  0.197	 -0.003	 -0.026	 -9.471	  0.002	  0.001	  0.008	 29.700	 99.498	  0.037
18906	  0.134	 -0.165	  0.184	  0.016	 -0.073	 -9.490	 -0.001	 -0.001	 -0.077	 29.700	 99.498	  0.037
18956	  0.135	 -0.156	  0.185	 -0.023	 -0.040	 -9.443	  0.002	 -0.004	 -0.045	 29.700	 99.502	 -0.332
19006	  0.136	 -0.160	  0.193	 -1.310	 -0.452	 -9.662	  0.137	 -0.334	  0.184	 29.700	 99.486	  1.142
19056	  0.135	 -0.166	  0.188	 -0.942	 -0.991	 -9.588	 -0.039	  0.092	  0.512	 29.700	 99.498	  0.037
19106	  0.131	 -0.164	  0.190	 -0.417	 -0.343	 -9.492	 -0.056	  0.136	 -0.205	 29.700	 99.498	  0.037
19156	  0.130	 -0.166	  0.190	 -0.097	  0.417	 -9.299	 -0.014	  0.100	 -0.082	 29.700	 99.498	  0.037
19206	  0.129	 -0.156	  0.194	  0.150	 -0.028	 -9.465	  0.011	 -0.045	  0.014	 29.700	 99.498	  0.037
19256	  0.130	 -0.164	  0.190	  0.455	 -0.427	 -9.541	 -0.005	  0.024	 -0.134	 29.700	 99.486	  1.142
19306	  0.129	 -0.164	  0.187	  0.583	 -0.401	 -9.562	 -0.006	  0.029	 -0.319	 29.700	 99.510	 -1.068
19356	  0.129	 -0.153	  0.198	  0.963	 -0.271	 -9.554	  0.005	 -0.016	 -0.003	 29.700	 99.498	  0.037
19406	  0.123	 -0.162	  0.209	  0.976	 -0.420	 -9.534	  0.004	  0.015	  0.188	 29.700	 99.510	 -1.068
19456	  0.115	 -0.154	  0.212	  1.088	 -0.400	 -9.561	  0.001	 -0.019	 -0.174	 29.700	 99.498	  0.037
19506	  0.108	 -0.141	  0.221	 -0.022	 -0.294	 -9.809	 -0.013	 -0.006	 -0.293	 29.700	 99.498	  0.037
19555	  0.097	 -0.120	  0.228	  0.375	 -0.473	 -9.687	 -0.007	 -0.005	 -0.372	 29.700	 99.510	 -1.068
19605	  0.088	 -0.111	  0.233	 -0.058	 -0.261	 -9.624	  0.000	 -0.025	 -0.326	 29.700	 99.498	  0.037
19655	  0.084	 -0.101	  0.248	  0.269	 -0.368	 -9.397	  0.003	 -0.000	 -0.204	 29.700	 99.510	 -1.068
19705	  0.071	 -0.092	  0.246	 -0.563	 -0.364	 -9.470	  0.000	  0.008	 -0.190	 29.700	 99.502	 -0.332
19755	  0.068	 -0.073	  0.253	 -0.679	 -0.113	 -9.315	  0.002	  0.020	 -0.100	 29.700	 99.510	 -1.068
19805	  0.058	 -0.080	  0.257	 -0.589	 -0.150	 -9.274	  0.007	 -0.007	 -0.031	 29.700	 99.498	  0.037
19855	  0.058	 -0.080	  0.264	 -0.166	 -0.026	 -9.261	  0.007	 -0.021	 -0.114	 29.700	 99.502	 -0.332
19905	  0.051	 -0.056	  0.264	 -0.260	 -0.287	 -9.332	  0.002	  0.001	 -0.323	 29.700	 99.498	  0.037
19955	  0.047	 -0.069	  0.262	 -0.221	 -0.307	 -9.614	 -0.028	  0.126	 -0.253	 29.700	 99.498	  0.037
20005	  0.036	 -0.065	  0.267	  0.594	 -0.618	 -9.388	 -0.023	  0.115	 -0.245	 29.700	 99.514	 -1.436
20055	  0.036	 -0.053	  0.276	  0.978	 -1.493	 -9.542	  0.025	 -0.101	 -0.089	 29.700	 99.498	  0.037
20105	  0.034	 -0.040	  0.270	  0.998	 -2.184	 -10.483	 -0.228	 -0.217	  0.280	 29.700	 99.498	  0.037
20155	  0.033	 -0.064	  0.266	  0.685	 -1.701	 -10.260	 -0.466	 -0.250	  0.229	 29.700	 99.498	  0.037
20205	  0.031	 -0.077	  0.261	  0.655	 -0.767	 -9.764	 -0.490	 -0.035	  0.496	 29.700	 99.498	  0.037
20255	  0.026	 -0.087	  0.263	  0.894	 -0.107	 -9.403	  0.180	 -0.209	  0.643	 29.700	 99.498	  0.037
20305	  0.024	 -0.092	  0.268	  0.843	  0.199	 -9.830	  0.639	 -0.314	  0.979	 29.700	 99.498	  0.037
20355	  0.019	 -0.088	  0.260	  1.026	 -0.678	 -10.934	  0.829	 -0.153	  0.993	 29.700	 99.486	  1.142
20405	  0.005	 -0.083	  0.282	  1.044	 -0.337	 -11.144	  0.506	  0.225	  1.018	 29.700	 99.510	 -1.068
20455	 -0.018	 -0.088	  0.292	  0.614	 -0.665	 -11.416	  0.133	  0.449	  1.015	 29.700	 99.498	  0.037
20505	 -0.043	 -0.091	  0.299	  0.489	 -0.328	 -11.226	 -0.155	  0.609	  1.147	 29.700	 99.498	  0.037
20555	 -0.078	 -0.107	  0.312	 -0.219	 -0.634	 -10.392	 -0.278	  0.805	  1.760	 29.700	 99.502	 -0.332
20605	 -0.121	 -0.133	  0.324	  2.392	  0.958	 -9.640	  0.067	  1.066	  1.139	 29.700	 99.486	  1.142
20655	 -0.156	 -0.133	  0.340	  0.242	 -0.146	 -10.826	  0.067	  0.698	  0.862	 29.700	 99.502	 -0.332
20705	 -0.184	 -0.133	  0.350	  1.074	  0.461	 -9.656	 -0.286	  0.786	  0.744	 29.700	 99.502	 -0.332
20755	 -0.214	 -0.142	  0.344	  0.020	  0.160	 -8.984	 -0.443	  0.558	  0.908	 29.700	 99.502	 -0.332
20805	 -0.245	 -0.161	  0.346	  1.279	  0.610	 -7.246	 -0.403	  0.917	  0.805	 29.700	 99.498	  0.037
20855	 -0.269	 -0.151	  0.353	  0.734	  0.290	 -8.386	 -0.197	  0.578	  0.444	 29.700	 99.498	  0.037
20905	 -0.292	 -0.170	  0.351	  0.988	 -0.219	 -8.314	 -0.319	  0.245	  0.536	 29.700	 99.502	 -0.332
20955	 -0.293	 -0.172	  0.352	  0.301	 -0.212	 -8.890	 -0.444	 -0.349	  0.461	 29.700	 99.490	  0.773
21005	 -0.285	 -0.170	  0.342	  0.306	 -0.004	 -8.345	 -0.478	 -0.592	  0.543	 29.700	 99.490	  0.773
21055	 -0.278	 -0.195	  0.339	 -0.961	  0.774	 -8.093	 -0.221	 -0.213	  0.406	 29.700	 99.502	 -0.332
21105	 -0.283	 -0.194	  0.338	 -0.379	  0.256	 -8.582	  0.262	  0.297	  0.253	 29.700	 99.490	  0.773
21155	 -0.301	 -0.188	  0.334	 -0.352	 -0.990	 -9.428	  0.102	  0.707	  0.202	 29.700	 99.498	  0.037
21205	 -0.320	 -0.189	  0.338	  1.054	 -0.818	 -9.605	 -0.154	  0.477	  0.226	 29.700	 99.498	  0.037
21255	 -0.332	 -0.190	  0.337	  1.769	 -0.361	 -9.778	 -0.009	 -0.077	  0.412	 29.700	 99.502	 -0.332
21305	 -0.323	 -0.181	  0.333	  1.718	 -0.130	 -10.002	  0.356	 -0.688	  0.817	 29.700	 99.514	 -1.436
21355	 -0.310	 -0.166	  0.336	  1.479	 -0.469	 -10.260	  0.627	 -0.907	  1.069	 29.700	 99.498	  0.037
21405	 -0.294	 -0.145	  0.336	  2.130	 -0.415	 -11.001	  0.815	 -0.830	  0.800	 29.700	 99.490	  0.773
21455	 -0.286	 -0.121	  0.329	  1.668	 -1.273	 -10.943	  0.727	 -0.480	  0.641	 29.700	 99.498	  0.037
21505	 -0.279	 -0.103	  0.326	  2.153	 -2.309	 -9.985	  0.151	 -0.287	  0.131	 29.700	 99.502	 -0.332
21555	 -0.276	 -0.108	  0.319	  1.132	 -1.773	 -9.126	 -0.579	 -0.208	 -0.276	 29.700	 99.502	 -0.332
21605	 -0.274	 -0.132	  0.308	  1.067	 -1.117	 -7.812	 -0.939	 -0.117	 -0.078	 29.700	 99.486	  1.142
21655	 -0.274	 -0.147	  0.299	  1.399	 -0.628	 -6.541	 -0.906	 -0.216	 -0.232	 29.700	 99.510	 -1.068
21705	 -0.268	 -0.170	  0.287	  0.627	 -0.371	 -6.783	 -0.640	 -0.288	 -0.410	 29.700	 99.498	  0.037
21755	 -0.262	 -0.175	  0.280	  0.221	  0.018	 -7.563	 -0.234	 -0.107	 -0.722	 29.700	 99.486	  1.142
21805	 -0.259	 -0.171	  0.265	  0.365	  0.063	 -8.691	  0.066	  0.154	 -0.699	 29.700	 99.490	  0.773
21855	 -0.259	 -0.169	  0.268	  0.930	  0.131	 -9.294	  0.325	  0.183	 -0.815	 29.700	 99.490	  0.773
21905	 -0.258	 -0.142	  0.262	  0.574	 -0.185	 -10.561	  0.481	  0.040	 -1.087	 29.700	 99.502	 -0.332
21955	 -0.256	 -0.131	  0.264	  0.278	  0.103	 -11.841	  0.414	  0.229	 -1.154	 29.700	 99.498	  0.037
22005	 -0.256	 -0.126	  0.257	  1.632	  1.088	 -12.229	  0.428	  0.126	 -0.798	 29.700	 99.486	  1.142
22055	 -0.262	 -0.115	  0.255	  1.953	  1.159	 -11.688	  0.746	  0.198	 -0.725	 29.700	 99.498	  0.037
22105	 -0.264	 -0.094	  0.260	  1.948	  0.319	 -10.151	  0.655	  0.170	 -0.865	 29.700	 99.486	  1.142
22155	 -0.269	 -0.072	  0.258	  1.009	  0.072	 -9.171	  0.331	  0.174	 -1.236	 29.700	 99.498	  0.037
22205	 -0.273	 -0.068	  0.255	  0.102	 -0.109	 -7.883	  0.003	  0.362	 -1.041	 29.700	 99.498	  0.037
22255	 -0.280	 -0.075	  0.250	 -0.270	 -0.117	 -7.033	 -0.106	  0.481	 -0.661	 29.700	 99.502	 -0.332
22305	 -0.291	 -0.079	  0.258	  0.194	 -0.189	 -7.282	  0.000	  0.273	 -0.331	 29.700	 99.486	  1.142
22355	 -0.294	 -0.064	  0.252	  0.340	 -0.600	 -8.270	  0.247	 -0.031	 -0.056	 29.700	 99.486	  1.142
22405	 -0.292	 -0.069	  0.245	  1.001	 -0.450	 -9.085	  0.594	 -0.081	 -0.014	 29.700	 99.498	  0.037
22455	 -0.289	 -0.044	  0.248	  1.057	 -1.041	 -9.647	  0.889	  0.110	  0.225	 29.700	 99.498	  0.037
22505	 -0.294	 -0.038	  0.243	  1.693	 -1.894	 -10.082	  0.671	  0.286	  0.240	 29.700	 99.498	  0.037
22555	 -0.300	 -0.029	  0.242	  2.075	 -2.100	 -10.641	  0.215	  0.369	  0.004	 29.700	 99.498	  0.037
22605	 -0.308	 -0.024	  0.237	  2.745	 -2.101	 -10.298	 -0.352	  0.345	 -0.116	 29.700	 99.490	  0.773
22655	 -0.313	 -0.050	  0.236	  2.319	 -0.818	 -9.696	 -0.463	  0.257	 -0.393	 29.700	 99.490	  0.773
22705	 -0.318	 -0.053	  0.231	  3.393	  0.003	 -9.460	 -0.228	  0.265	 -0.229	 29.700	 99.502	 -0.332
22755	 -0.320	 -0.057	  0.229	  3.940	 -0.601	 -9.343	  0.325	 -0.074	 -0.147	 29.700	 99.498	  0.037
22805	 -0.309	 -0.050	  0.219	  3.132	 -0.821	 -8.824	  0.416	 -0.463	 -0.430	 29.700	 99.498	  0.037
22855	 -0.296	 -0.050	  0.217	  2.520	 -1.326	 -8.271	  0.272	 -0.629	 -0.812	 29.700	 99.498	  0.037
22905	 -0.279	 -0.052	  0.213	  1.400	 -1.143	 -7.848	 -0.093	 -0.655	 -1.152	 29.700	 99.502	 -0.332
22956	 -0.265	 -0.055	  0.196	  0.769	 -0.589	 -7.873	 -0.214	 -0.616	 -1.328	 29.700	 99.486	  1.142
23005	 -0.250	 -0.063	  0.200	  0.723	 -0.463	 -8.176	 -0.030	 -0.342	 -1.388	 29.700	 99.498	  0.037
23055	 -0.243	 -0.063	  0.189	  1.082	 -0.542	 -8.783	  0.306	 -0.094	 -1.395	 29.700	 99.502	 -0.332
23105	 -0.234	 -0.069	  0.192	  1.774	 -1.160	 -9.786	  0.416	 -0.159	 -1.400	 29.700	 99.498	  0.037
23155	 -0.228	 -0.067	  0.190	  2.107	 -0.992	 -11.039	  0.446	 -0.479	 -1.492	 29.700	 99.498	  0.037
23205	 -0.209	 -0.068	  0.172	  1.724	 -1.282	 -12.068	  0.332	 -0.550	 -1.357	 29.700	 99.486	  1.142
23255	 -0.194	 -0.055	  0.180	  2.383	 -0.620	 -12.556	  0.294	 -0.685	 -1.071	 29.700	 99.490	  0.773
23305	 -0.175	 -0.080	  0.172	  1.740	 -0.471	 -10.913	  0.397	 -0.680	 -1.110	 29.700	 99.498	  0.037
23355	 -0.152	 -0.069	  0.154	  0.613	 -0.398	 -9.402	  0.229	 -0.455	 -1.374	 29.700	 99.502	 -0.332
23405	 -0.128	 -0.072	  0.159	  0.440	 -0.373	 -8.373	  0.137	 -0.101	 -1.529	 29.700	 99.486	  1.142
23455	 -0.113	 -0.051	  0.156	  0.308	 -0.333	 -7.484	  0.094	  0.296	 -1.550	 29.700	 99.498	  0.037
23505	 -0.104	 -0.030	  0.159	 -0.103	 -0.674	 -7.580	  0.021	  0.541	 -1.043	 29.700	 99.490	  0.773
23555	 -0.098	 -0.007	  0.170	  0.736	 -0.836	 -8.281	  0.051	  0.734	 -0.650	 29.700	 99.490	  0.773
23606	 -0.102	  0.030	  0.178	  1.205	 -1.914	 -8.756	  0.013	  0.703	 -0.401	 29.700	 99.498	  0.037
23655	 -0.109	  0.046	  0.182	  1.667	 -1.793	 -8.718	  0.022	  0.444	 -0.311	 29.700	 99.486	  1.142
23706	 -0.114	  0.074	  0.197	  2.295	 -1.549	 -9.241	  0.248	  0.263	 -0.271	 29.700	 99.490	  0.773
23756	 -0.121	  0.120	  0.203	  3.458	 -1.256	 -10.029	  0.583	 -0.104	 -0.150	 29.700	 99.498	  0.037
23805	 -0.123	  0.145	  0.195	  3.469	 -1.767	 -10.951	  0.594	 -0.414	  0.093	 29.700	 99.490	  0.773
23856	 -0.126	  0.166	  0.190	  3.049	 -2.005	 -10.940	  0.328	 -0.258	  0.355	 29.700	 99.502	 -0.332
23906	 -0.128	  0.185	  0.192	  3.496	 -1.682	 -9.880	 -0.012	 -0.283	  0.349	 29.700	 99.486	  1.142
23956	 -0.130	  0.192	  0.201	  2.315	 -1.784	 -8.715	 -0.175	 -0.312	  0.209	 29.700	 99.490	  0.773
24006	 -0.131	  0.198	  0.199	  1.700	 -1.503	 -7.613	 -0.364	 -0.479	 -0.065	 29.700	 99.502	 -0.332
24056	 -0.131	  0.193	  0.204	  0.846	 -1.062	 -6.974	 -0.457	 -0.444	 -0.107	 29.700	 99.502	 -0.332
24106	 -0.137	  0.187	  0.207	  0.852	 -0.959	 -6.885	 -0.393	 -0.349	 -0.228	 29.700	 99.490	  0.773
24156	 -0.148	  0.188	  0.208	  0.453	 -1.349	 -7.700	 -0.343	 -0.347	 -0.285	 29.700	 99.502	 -0.332
24206	 -0.154	  0.183	  0.214	  0.762	 -0.870	 -8.616	 -0.197	 -0.339	 -0.438	 29.700	 99.498	  0.037
24256	 -0.162	  0.187	  0.215	  0.584	 -0.952	 -9.641	  0.007	 -0.353	 -0.634	 29.700	 99.498	  0.037
24306	 -0.172	  0.189	  0.216	  0.509	 -0.764	 -10.333	  0.116	 -0.192	 -0.829	 29.700	 99.486	  1.142
24356	 -0.182	  0.200	  0.217	  0.383	 -0.738	 -11.715	  0.227	 -0.023	 -0.705	 29.700	 99.498	  0.037
24406	 -0.192	  0.203	  0.221	  1.186	 -0.079	 -12.149	  0.302	  0.032	 -0.732	 29.700	 99.502	 -0.332
24456	 -0.200	  0.216	  0.220	  2.018	  0.066	 -11.767	  0.609	 -0.009	 -0.907	 29.700	 99.498	  0.037
24506	 -0.211	  0.248	  0.222	  1.018	 -0.245	 -10.809	  0.638	 -0.094	 -1.249	 29.700	 99.490	  0.773
24556	 -0.230	  0.252	  0.217	  0.647	 -0.488	 -9.313	  0.369	  0.039	 -1.510	 29.700	 99.498	  0.037
24606	 -0.250	  0.264	  0.227	 -0.050	 -0.568	 -8.257	  0.088	  0.236	 -1.456	 29.700	 99.502	 -0.332
24656	 -0.271	  0.268	  0.230	 -0.280	 -0.774	 -7.195	 -0.204	  0.395	 -1.070	 29.700	 99.502	 -0.332
24706	 -0.289	  0.263	  0.236	 -0.160	 -1.159	 -7.387	 -0.341	  0.433	 -0.660	 29.700	 99.498	  0.037
24756	 -0.301	  0.258	  0.244	  0.638	 -1.271	 -8.019	 -0.235	  0.265	 -0.378	 29.700	 99.498	  0.037
24806	 -0.309	  0.257	  0.250	  1.032	 -1.116	 -8.556	  0.106	  0.031	 -0.215	 29.700	 99.502	 -0.332
24856	 -0.311	  0.271	  0.250	  1.492	 -1.005	 -9.674	  0.419	  0.074	 -0.039	 29.700	 99.502	 -0.332
24906	 -0.310	  0.290	  0.245	  2.394	 -1.228	 -10.674	  0.520	  0.000	  0.103	 29.700	 99.498	  0.037
24956	 -0.306	  0.303	  0.240	  2.389	 -1.726	 -11.522	  0.274	 -0.053	  0.110	 29.700	 99.502	 -0.332
25006	 -0.299	  0.309	  0.239	  2.839	 -1.366	 -11.257	 -0.108	 -0.005	  0.272	 29.700	 99.486	  1.142
25056	 -0.289	  0.301	  0.245	  2.909	 -1.398	 -10.581	 -0.464	  0.102	  0.211	 29.700	 99.490	  0.773
25106	 -0.283	  0.296	  0.246	  3.230	 -0.382	 -9.691	 -0.259	 -0.304	  0.129	 29.700	 99.502	 -0.332
25156	 -0.268	  0.296	  0.247	  2.334	 -0.411	 -8.497	  0.173	 -0.481	 -0.047	 29.700	 99.498	  0.037
25206	 -0.253	  0.301	  0.245	  1.706	 -0.718	 -7.721	  0.392	 -0.407	 -0.315	 29.700	 99.486	  1.142
25256	 -0.247	  0.303	  0.234	  0.812	 -1.348	 -7.494	  0.203	 -0.310	 -0.411	 29.700	 99.486	  1.142
25306	 -0.241	  0.300	  0.223	  0.480	 -1.452	 -7.717	 -0.095	 -0.171	 -0.642	 29.700	 99.498	  0.037
25356	 -0.245	  0.294	  0.222	  0.328	 -1.444	 -8.354	 -0.261	 -0.092	 -0.655	 29.700	 99.486	  1.142
25406	 -0.249	  0.277	  0.220	  1.188	 -1.109	 -8.747	 -0.117	 -0.080	 -0.812	 29.700	 99.502	 -0.332
25456	 -0.249	  0.270	  0.219	  0.963	 -1.019	 -9.254	  0.126	 -0.332	 -1.074	 29.700	 99.502	 -0.332
25506	 -0.255	  0.278	  0.210	  1.095	 -0.502	 -9.843	  0.335	 -0.423	 -1.322	 29.700	 99.490	  0.773
25556	 -0.261	  0.262	  0.191	  0.544	 -0.276	 -11.124	  0.633	 -0.273	 -1.250	 29.700	 99.498	  0.037
25606	 -0.275	  0.267	  0.180	  1.014	  0.350	 -11.825	  0.968	 -0.119	 -1.183	 29.700	 99.514	 -1.436
25656	 -0.289	  0.276	  0.169	  1.797	 -0.867	 -11.462	  0.924	 -0.313	 -0.959	 29.700	 99.498	  0.037
25706	 -0.301	  0.281	  0.168	  0.822	 -1.390	 -10.680	  0.372	 -0.432	 -1.245	 29.700	 99.502	 -0.332
25756	 -0.317	  0.273	  0.163	  0.862	 -0.836	 -9.098	 -0.017	 -0.303	 -1.416	 29.700	 99.498	  0.037
25806	 -0.335	  0.263	  0.178	 -0.065	 -0.807	 -8.025	 -0.063	 -0.274	 -1.292	 29.700	 99.498	  0.037
25856	 -0.350	  0.252	  0.192	 -0.276	 -1.199	 -7.183	 -0.161	 -0.053	 -0.854	 29.700	 99.490	  0.773
25906	 -0.363	  0.244	  0.197	  0.264	 -1.784	 -7.335	 -0.301	 -0.009	 -0.608	 29.700	 99.486	  1.142
25956	 -0.369	  0.224	  0.210	  1.141	 -1.604	 -7.590	 -0.185	 -0.143	 -0.466	 29.700	 99.486	  1.142
26006	 -0.378	  0.224	  0.212	  0.183	 -1.385	 -8.554	  0.309	 -0.365	 -0.413	 29.700	 99.502	 -0.332
26056	 -0.375	  0.229	  0.209	  0.634	 -1.672	 -9.600	  1.038	 -0.155	 -0.027	 29.700	 99.490	  0.773
26106	 -0.377	  0.253	  0.212	  0.742	 -2.295	 -11.758	  1.083	 -0.028	  0.139	 29.700	 99.490	  0.773
26156	 -0.382	  0.275	  0.206	  2.046	 -2.854	 -12.543	  0.701	 -0.168	  0.327	 29.700	 99.498	  0.037
26206	 -0.376	  0.278	  0.210	  1.386	 -4.091	 -11.266	 -0.422	 -0.198	  0.257	 29.700	 99.486	  1.142
26256	 -0.377	  0.257	  0.224	  1.237	 -2.912	 -9.750	 -1.272	 -0.111	  0.109	 29.700	 99.490	  0.773
26306	 -0.376	  0.230	  0.242	  1.602	 -1.660	 -8.773	 -1.369	 -0.196	 -0.055	 29.700	 99.486	  1.142
26356	 -0.373	  0.211	  0.257	  0.751	 -0.945	 -7.673	 -1.077	 -0.302	 -0.290	 29.700	 99.498	  0.037
26406	 -0.374	  0.180	  0.267	  0.140	 -0.357	 -7.193	 -0.725	 -0.306	 -0.305	 29.700	 99.502	 -0.332
26456	 -0.376	  0.163	  0.267	 -0.132	 -0.542	 -7.503	 -0.383	 -0.302	 -0.386	 29.700	 99.486	  1.142
26506	 -0.381	  0.175	  0.275	 -0.637	 -0.311	 -8.408	 -0.027	 -0.039	 -0.380	 29.700	 99.510	 -1.068
26556	 -0.390	  0.162	  0.271	 -0.106	 -0.128	 -9.530	  0.310	  0.210	 -0.377	 29.700	 99.502	 -0.332
26606	 -0.406	  0.180	  0.269	  0.472	 -0.509	 -10.676	  0.516	  0.174	 -0.434	 29.700	 99.502	 -0.332
26656	 -0.418	  0.183	  0.263	  0.866	 -0.611	 -11.212	  0.433	  0.194	 -0.729	 29.700	 99.486	  1.142
26706	 -0.434	  0.196	  0.256	  0.674	 -0.417	 -11.308	  0.416	 -0.164	 -0.725	 29.700	 99.502	 -0.332
26756	 -0.443	  0.190	  0.252	  0.348	 -0.219	 -11.141	  0.384	 -0.310	 -0.912	 29.700	 99.486	  1.142
26806	 -0.445	  0.201	  0.265	  0.568	 -0.412	 -10.067	  0.411	 -0.459	 -0.861	 29.700	 99.486	  1.142
26856	 -0.448	  0.202	  0.264	 -0.344	 -0.973	 -9.060	  0.180	 -0.764	 -1.151	 29.700	 99.502	 -0.332
26906	 -0.446	  0.191	  0.271	 -1.034	 -1.475	 -7.953	 -0.249	 -0.549	 -1.014	 29.700	 99.486	  1.142
26956	 -0.454	  0.183	  0.284	 -1.495	 -1.212	 -7.650	 -0.589	 -0.121	 -0.881	 29.700	 99.498	  0.037
27006	 -0.461	  0.164	  0.299	 -1.327	 -1.178	 -8.076	 -0.671	  0.103	 -0.258	 29.700	 99.490	  0.773
27056	 -0.471	  0.147	  0.301	 -0.554	 -0.736	 -8.438	 -0.486	  0.165	 -0.050	 29.700	 99.502	 -0.332
27106	 -0.480	  0.144	  0.307	 -0.221	  0.353	 -8.864	  0.051	  0.029	  0.201	 29.700	 99.490	  0.773
27156	 -0.477	  0.181	  0.309	 -0.002	 -0.137	 -9.532	  0.464	 -0.172	  0.317	 29.700	 99.502	 -0.332
27206	 -0.469	  0.185	  0.309	 -0.100	 -1.414	 -10.633	  0.386	 -0.147	  0.607	 29.700	 99.498	  0.037
27256	 -0.462	  0.220	  0.310	  0.673	 -1.627	 -11.252	  0.305	  0.136	  0.480	 29.700	 99.502	 -0.332
27306	 -0.461	  0.223	  0.305	  1.314	 -1.538	 -11.495	  0.044	  0.208	  0.494	 29.700	 99.490	  0.773
27356	 -0.458	  0.230	  0.299	  1.701	 -1.652	 -11.418	 -0.222	  0.189	  0.672	 29.700	 99.490	  0.773
27406	 -0.446	  0.224	  0.298	  2.334	 -2.235	 -9.498	 -0.581	  0.033	  0.515	 29.700	 99.486	  1.142
27456	 -0.438	  0.206	  0.312	  1.558	 -1.732	 -7.237	 -0.933	 -0.283	 -0.088	 29.700	 99.486	  1.142
27506	 -0.429	  0.186	  0.315	  0.947	 -0.247	 -6.635	 -0.534	 -0.217	 -0.032	 29.700	 99.514	 -1.436
27556	 -0.421	  0.178	  0.312	  0.653	 -0.479	 -7.165	  0.010	 -0.425	  0.061	 29.700	 99.502	 -0.332
27606	 -0.407	  0.195	  0.306	  0.291	 -1.313	 -8.685	  0.423	 -0.490	 -0.031	 29.700	 99.490	  0.773
27656	 -0.394	  0.194	  0.305	 -0.087	 -1.587	 -10.055	  0.351	 -0.395	 -0.111	 29.700	 99.498	  0.037
27706	 -0.389	  0.198	  0.296	 -0.235	 -1.771	 -10.506	  0.089	 -0.104	 -0.135	 29.700	 99.502	 -0.332
27755	 -0.392	  0.191	  0.288	  0.103	 -1.392	 -10.757	 -0.362	  0.169	 -0.082	 29.700	 99.502	 -0.332
27806	 -0.401	  0.185	  0.295	 -0.170	 -0.363	 -10.891	 -0.353	  0.352	 -0.171	 29.700	 99.502	 -0.332
27855	 -0.412	  0.167	  0.290	 -0.194	 -0.277	 -10.808	 -0.041	  0.626	 -0.217	 29.700	 99.486	  1.142
27905	 -0.429	  0.172	  0.284	  0.482	  0.535	 -10.333	  0.504	  0.541	  0.030	 29.700	 99.498	  0.037
27955	 -0.437	  0.186	  0.278	  0.505	 -0.499	 -9.935	  0.691	  0.185	 -0.049	 29.700	 99.502	 -0.332
28005	 -0.441	  0.197	  0.274	  0.249	 -0.234	 -9.860	  0.546	  0.063	 -0.104	 29.700	 99.486	  1.142
28055	 -0.445	  0.198	  0.273	  0.334	 -0.932	 -9.324	  0.282	 -0.057	 -0.124	 29.700	 99.486	  1.142
28106	 -0.441	  0.212	  0.279	 -0.244	 -0.719	 -8.662	  0.226	  0.174	 -0.030	 29.700	 99.498	  0.037
28155	 -0.453	  0.210	  0.274	 -0.090	 -1.788	 -8.435	  0.132	  0.535	  0.150	 29.700	 99.486	  1.142
28205	 -0.458	  0.219	  0.269	  0.297	 -1.566	 -8.441	  0.046	  0.637	  0.375	 29.700	 99.486	  1.142
28255	 -0.469	  0.226	  0.279	  1.219	 -1.666	 -8.569	  0.168	  0.390	  0.636	 29.700	 99.490	  0.773
28305	 -0.464	  0.236	  0.287	  1.228	 -1.716	 -9.169	  0.251	 -0.006	  0.617	 29.700	 99.498	  0.037
28355	 -0.456	  0.241	  0.283	  1.071	 -1.561	 -9.885	  0.312	 -0.062	  0.575	 29.700	 99.490	  0.773
28405	 -0.442	  0.255	  0.299	  1.335	 -2.244	 -9.860	  0.231	 -0.022	  0.342	 29.700	 99.498	  0.037
28455	 -0.435	  0.262	  0.312	  0.213	 -2.692	 -10.813	 -0.221	  0.110	  0.184	 29.700	 99.486	  1.142
28505	 -0.432	  0.254	  0.336	  0.918	 -0.214	 -10.205	 -0.182	  0.634	  0.544	 29.700	 99.498	  0.037
28555	 -0.433	  0.270	  0.345	  2.597	 -1.280	 -9.520	  0.189	  0.540	  0.309	 29.700	 99.498	  0.037
28605	 -0.433	  0.270	  0.361	  2.334	 -1.834	 -8.801	 -0.077	  0.283	 -0.111	 29.700	 99.502	 -0.332
28655	 -0.418	  0.279	  0.382	  2.178	 -0.729	 -8.193	 -0.288	 -0.244	 -0.118	 29.700	 99.502	 -0.332
28705	 -0.396	  0.285	  0.405	  0.923	 -0.128	 -7.676	 -0.042	 -0.315	 -0.274	 29.700	 99.502	 -0.332
28755	 -0.380	  0.297	  0.424	  0.763	 -0.610	 -7.575	  0.258	  0.070	 -0.317	 29.700	 99.490	  0.773
28806	 -0.367	  0.321	  0.439	  0.634	 -0.781	 -7.913	  0.340	  0.101	 -0.145	 29.700	 99.490	  0.773
28855	 -0.354	  0.345	  0.463	  1.579	 -0.847	 -8.491	  0.369	 -0.073	 -0.260	 29.700	 99.486	  1.142
28906	 -0.334	  0.349	  0.484	  0.954	 -1.041	 -9.115	  0.138	 -0.389	 -0.421	 29.700	 99.486	  1.142
28955	 -0.304	  0.356	  0.519	  0.519	 -0.734	 -9.200	 -0.169	 -0.346	 -0.432	 29.700	 99.490	  0.773
29005	 -0.281	  0.365	  0.549	  0.475	 -0.708	 -8.888	 -0.408	 -0.125	 -0.514	 29.700	 99.502	 -0.332
29055	 -0.269	  0.350	  0.581	 -0.315	  0.976	 -8.243	 -0.362	 -0.005	 -0.475	 29.700	 99.490	  0.773
29105	 -0.264	  0.359	  0.620	  1.021	  1.552	 -8.488	 -0.100	  0.016	 -0.519	 29.700	 99.490	  0.773
29155	 -0.267	  0.362	  0.642	  0.494	  1.192	 -9.008	  0.146	 -0.124	 -0.786	 29.700	 99.502	 -0.332
29205	 -0.276	  0.386	  0.663	  1.664	  0.112	 -10.198	  0.093	  0.012	 -0.708	 29.700	 99.498	  0.037
29255	 -0.287	  0.400	  0.683	 -6.670	 -7.961	 -24.520	 -0.300	  0.041	 -0.889	 29.700	 99.514	 -1.436
29305	 -0.325	  0.276	  0.728	  1.300	  1.805	 -9.024	 -2.741	  0.513	 -0.852	 29.700	 99.498	  0.037
29356	 -0.375	  0.189	  0.750	  4.333	  3.383	 -6.736	 -1.247	  1.224	 -0.762	 29.700	 99.490	  0.773
29406	 -0.409	  0.167	  0.766	  1.658	  1.659	 -7.415	  0.033	 -0.051	 -0.391	 29.700	 99.490	  0.773
29456	 -0.384	  0.211	  0.774	  2.862	  2.227	 -7.870	  1.060	 -0.901	  0.168	 29.700	 99.490	  0.773
29506	 -0.333	  0.289	  0.780	  2.006	  0.313	 -8.408	  1.629	 -1.411	  0.017	 29.700	 99.486	  1.142
29556	 -0.267	  0.382	  0.768	  0.519	 -0.492	 -9.480	  1.266	 -1.181	  0.389	 29.700	 99.490	  0.773
29606	 -0.208	  0.441	  0.765	  0.372	 -1.349	 -10.075	  0.714	 -0.856	  0.500	 29.700	 99.502	 -0.332
29656	 -0.206	  0.475	  0.773	  0.849	 -1.502	 -11.007	  0.120	  1.244	  0.073	 29.700	 99.502	 -0.332
29706	 -0.252	  0.495	  0.781	  2.588	 -0.863	 -9.055	 -0.174	  0.700	 -0.216	 29.700	 99.486	  1.142
29756	 -0.276	  0.488	  0.805	  0.577	 -0.798	 -8.780	 -0.245	  0.267	 -0.217	 29.700	 99.486	  1.142
29806	 -0.299	  0.493	  0.813	  1.869	 -1.270	 -9.260	 -0.099	  0.445	 -0.377	 29.700	 99.502	 -0.332
29856	 -0.304	  0.513	  0.842	  1.922	 -0.485	 -8.614	 -0.047	 -0.266	 -0.033	 29.700	 99.486	  1.142
29906	 -0.259	  0.535	  0.858	  0.775	 -0.499	 -8.646	 -0.145	 -0.959	  0.341	 29.700	 99.490	  0.773
29956	 -0.197	  0.564	  0.877	  0.647	 -1.302	 -10.549	 -0.098	 -0.745	 -0.202	 29.700	 99.498	  0.037
30006	 -0.182	  0.601	  0.893	 -0.121	 -0.583	 -12.464	  0.083	  0.257	 -0.648	 29.700	 99.490	  0.773
30056	 -0.206	  0.617	  0.892	  0.716	 -0.474	 -9.607	  0.114	 -0.027	 -0.271	 29.700	 99.498	  0.037
30106	 -0.190	  0.625	  0.886	  0.478	 -0.808	 -8.656	 -0.176	 -0.535	 -0.015	 29.700	 99.478	  1.879
30156	 -0.171	  0.617	  0.892	 -0.526	 -0.547	 -9.523	 -0.256	 -0.132	 -0.013	 29.700	 99.486	  1.142
30206	 -0.169	  0.617	  0.880	  0.244	 -0.028	 -10.090	 -0.096	  0.218	  0.194	 29.700	 99.498	  0.037
30256	 -0.172	  0.620	  0.884	  0.287	 -0.024	 -9.366	  0.015	  0.014	  0.265	 29.700	 99.486	  1.142
30306	 -0.153	  0.620	  0.879	  0.243	 -0.190	 -9.454	 -0.003	  0.087	  0.615	 29.700	 99.502	 -0.332
30356	 -0.132	  0.610	  0.871	  0.872	  0.001	 -8.328	 -0.060	 -0.298	  0.726	 29.700	 99.498	  0.037
30406	 -0.088	  0.629	  0.883	 -1.021	  0.310	 -9.344	  0.128	 -0.105	  0.489	 29.700	 99.502	 -0.332
30456	 -0.075	  0.635	  0.879	  0.210	  0.135	 -9.678	  0.479	  0.369	  0.604	 29.700	 99.498	  0.037
30506	 -0.041	  0.658	  0.892	  1.108	 -0.932	 -10.330	  0.418	 -0.254	  0.629	 29.700	 99.486	  1.142
30556	 -0.020	  0.670	  0.903	  0.783	 -2.302	 -9.398	  0.045	  0.148	  0.343	 29.700	 99.502	 -0.332
30606	 -0.010	  0.655	  0.919	  0.445	 -1.672	 -8.046	 -0.453	 -0.010	  0.138	 29.700	 99.510	 -1.068
30656	  0.007	  0.656	  0.950	 -0.837	  0.005	 -2.947	 -0.530	  0.326	  0.008	 29.700	 99.486	  1.142
30706	  0.057	  0.562	  0.977	 -0.565	  4.308	 -15.515	  0.454	 -1.323	 -0.133	 29.700	 99.490	  0.773
30756	  0.063	  0.582	  0.982	  2.015	  3.832	 -7.224	 -0.054	  0.271	 -0.012	 29.700	 99.498	  0.037
30806	  0.061	  0.572	  0.979	  1.594	  1.138	 -8.116	 -0.018	  0.039	  0.008	 29.700	 99.486	  1.142
30856	  0.063	  0.576	  0.982	 -0.197	  0.078	 -9.387	  0.001	 -0.003	  0.009	 29.700	 99.498	  0.037
30906	  0.059	  0.573	  0.989	 -0.147	  0.284	 -9.507	 -0.000	  0.007	  0.009	 29.700	 99.502	 -0.332
30956	  0.063	  0.573	  0.981	 -0.012	  0.221	 -9.478	  0.004	 -0.005	  0.011	 29.700	 99.486	  1.142
31006	  0.064	  0.574	  0.984	 -0.242	  0.163	 -9.511	  0.001	 -0.001	  0.012	 29.700	 99.502	 -0.332
31056	  0.060	  0.580	  0.985	 -0.016	  0.235	 -9.485	  0.001	 -0.000	  0.011	 29.700	 99.502	 -0.332
31106	  0.063	  0.571	  0.985	 -0.160	  0.204	 -9.479	  0.002	 -0.002	  0.010	 29.700	 99.498	  0.037
31156	  0.063	  0.576	  0.979	 -0.108	  0.205	 -9.464	  0.002	  0.001	  0.012	 29.700	 99.502	 -0.332
31206	  0.063	  0.572	  0.988	 -0.153	  0.228	 -9.499	  0.003	 -0.000	  0.012	 29.700	 99.486	  1.142
31256	  0.059	  0.580	  0.983	 -0.089	  0.198	 -9.490	  0.002	 -0.001	  0.011	 29.700	 99.502	 -0.332
31306	  0.064	  0.587	  0.982	 -0.168	  0.220	 -9.513	  0.003	 -0.001	  0.009	 29.700	 99.498	  0.037
31356	  0.063	  0.566	  0.981	 -0.072	  0.189	 -9.474	  0.003	 -0.001	  0.013	 29.700	 99.498	  0.037
31406	  0.061	  0.572	  0.983	 -0.174	  0.237	 -9.471	  0.002	 -0.000	  0.012	 29.700	 99.498	  0.037
31456	  0.058	  0.571	  0.985	 -0.069	  0.193	 -9.459	  0.003	 -0.001	  0.012	 29.700	 99.486	  1.142
31506	  0.058	  0.576	  0.985	 -0.161	  0.237	 -9.463	  0.002	 -0.000	  0.011	 29.700	 99.510	 -1.068
31556	  0.058	  0.572	  0.987	 -0.080	  0.198	 -9.476	  0.003	 -0.001	  0.011	 29.700	 99.490	  0.773
31606	  0.061	  0.576	  0.981	 -0.172	  0.207	 -9.522	  0.002	 -0.000	  0.010	 29.700	 99.502	 -0.332
31656	  0.060	  0.569	  0.982	 -0.031	  0.213	 -9.494	  0.002	 -0.000	  0.011	 29.700	 99.502	 -0.332
31706	  0.064	  0.569	  0.982	 -0.183	  0.247	 -9.507	  0.003	 -0.001	  0.011	 29.700	 99.502	 -0.332
31756	  0.060	  0.581	  0.979	 -0.079	  0.209	 -9.446	  0.002	  0.000	  0.011	 29.700	 99.502	 -0.332
31806	  0.062	  0.567	  0.986	 -0.147	  0.213	 -9.475	  0.001	 -0.001	  0.011	 29.700	 99.486	  1.142
31856	  0.061	  0.581	  0.985	 -0.068	  0.202	 -9.485	  0.003	 -0.002	  0.008	 29.700	 99.514	 -1.436
31906	  0.060	  0.571	  0.986	 -0.157	  0.244	 -9.465	  0.003	 -0.001	  0.011	 29.700	 99.498	  0.037
31956	  0.064	  0.573	  0.984	 -0.060	  0.230	 -9.477	  0.002	 -0.001	  0.009	 29.700	 99.498	  0.037
32006	  0.066	  0.567	  0.985	 -0.175	  0.184	 -9.476	  0.002	 -0.000	  0.011	 29.700	 99.486	  1.142
32056	  0.066	  0.569	  0.974	 -0.048	  0.217	 -9.487	  0.003	 -0.003	  0.014	 29.700	 99.498	  0.037
32106	  0.060	  0.566	  0.982	 -0.143	  0.220	 -9.496	  0.002	 -0.000	  0.008	 29.700	 99.498	  0.037
32156	  0.059	  0.576	  0.973	 -0.078	  0.213	 -9.480	  0.003	 -0.001	  0.010	 29.700	 99.502	 -0.332
32206	  0.063	  0.572	  0.988	 -0.120	  0.255	 -9.454	  0.003	 -0.001	  0.009	 29.700	 99.502	 -0.332
32255	  0.064	  0.569	  0.978	 -0.072	  0.208	 -9.502	  0.002	 -0.001	  0.012	 29.700	 99.498	  0.037
32305	  0.064	  0.563	  0.973	 -0.114	  0.176	 -9.445	  0.002	 -0.003	  0.013	 29.700	 99.502	 -0.332
32355	  0.064	  0.583	  0.981	 -0.157	  0.209	 -9.491	  0.001	 -0.000	  0.010	 29.700	 99.502	 -0.332
32405	  0.062	  0.564	  0.989	 -0.134	  0.239	 -9.514	  0.003	 -0.001	  0.011	 29.700	 99.498	  0.037
32455	  0.065	  0.568	  0.977	 -0.101	  0.227	 -9.464	  0.001	 -0.000	  0.011	 29.700	 99.498	  0.037
32505	  0.059	  0.572	  0.982	 -0.122	  0.224	 -9.447	  0.003	 -0.001	  0.010	 29.700	 99.498	  0.037
32555	  0.059	  0.572	  0.983	 -0.148	  0.230	 -9.480	  0.003	 -0.001	  0.010	 29.700	 99.498	  0.037
32605	  0.061	  0.571	  0.983	 -0.105	  0.220	 -9.484	  0.003	 -0.001	  0.012	 29.700	 99.498	  0.037
32655	  0.061	  0.585	  0.986	 -0.124	  0.242	 -9.481	  0.002	  0.000	  0.010	 29.700	 99.498	  0.037
32705	  0.066	  0.569	  0.982	 -0.132	  0.197	 -9.509	  0.003	  0.000	  0.013	 29.700	 99.502	 -0.332
32755	  0.064	  0.566	  0.989	 -0.131	  0.242	 -9.517	  0.003	 -0.001	  0.009	 29.700	 99.502	 -0.332
32806	  0.058	  0.578	  0.983	 -0.079	  0.173	 -9.504	  0.002	  0.001	  0.011	 29.700	 99.498	  0.037
32855	  0.060	  0.581	  0.984	 -0.112	  0.248	 -9.468	  0.002	 -0.002	  0.012	 29.700	 99.486	  1.142
32905	  0.062	  0.567	  0.986	 -0.111	  0.182	 -9.457	  0.002	 -0.000	  0.009	 29.700	 99.502	 -0.332
32955	  0.063	  0.564	  0.981	 -0.125	  0.191	 -9.517	  0.003	 -0.000	  0.010	 29.700	 99.498	  0.037
33005	  0.063	  0.569	  0.986	 -0.145	  0.223	 -9.507	  0.003	 -0.002	  0.010	 29.700	 99.498	  0.037
33055	  0.060	  0.563	  0.986	 -0.114	  0.226	 -9.489	  0.002	 -0.001	  0.011	 29.700	 99.502	 -0.332
33105	  0.062	  0.563	  0.982	 -0.101	  0.191	 -9.500	  0.003	 -0.001	  0.010	 29.700	 99.498	  0.037
33155	  0.062	  0.568	  0.986	 -0.116	  0.208	 -9.453	  0.002	 -0.002	  0.011	 29.700	 99.498	  0.037
33205	  0.064	  0.583	  0.986	 -0.118	  0.208	 -9.491	  0.003	 -0.002	  0.011	 29.700	 99.498	  0.037
33255	  0.060	  0.566	  0.982	 -0.139	  0.229	 -9.493	  0.003	 -0.002	  0.011	 29.700	 99.498	  0.037
33305	  0.061	  0.576	  0.982	 -0.110	  0.191	 -9.515	  0.002	 -0.001	  0.011	 29.700	 99.498	  0.037
33355	  0.062	  0.564	  0.977	 -0.132	  0.244	 -9.509	  0.003	 -0.002	  0.011	 29.700	 99.486	  1.142
33405	  0.060	  0.566	  0.988	 -0.111	  0.201	 -9.489	  0.002	 -0.001	  0.011	 29.700	 99.486	  1.142
33455	  0.062	  0.566	  0.986	 -0.130	  0.226	 -9.513	  0.001	  0.000	  0.011	 29.700	 99.502	 -0.332
33505	  0.059	  0.566	  0.977	 -0.092	  0.206	 -9.449	  0.003	  0.000	  0.010	 29.700	 99.486	  1.142
33555	  0.061	  0.571	  0.982	 -0.135	  0.235	 -9.497	  0.002	 -0.000	  0.010	 29.700	 99.502	 -0.332
33605	  0.060	  0.566	  0.985	 -0.089	  0.174	 -9.507	  0.002	  0.001	  0.011	 29.700	 99.486	  1.142
33655	  0.059	  0.569	  0.982	 -0.154	  0.218	 -9.517	  0.001	 -0.000	  0.011	 29.700	 99.498	  0.037
33705	  0.060	  0.563	  0.984	 -0.087	  0.197	 -9.508	  0.002	 -0.003	  0.011	 29.700	 99.486	  1.142
33755	  0.058	  0.567	  0.987	 -0.157	  0.232	 -9.518	  0.002	 -0.001	  0.012	 29.700	 99.486	  1.142
33805	  0.062	  0.566	  0.985	 -0.091	  0.193	 -9.493	  0.003	  0.000	  0.012	 29.700	 99.498	  0.037
33855	  0.060	  0.568	  0.986	 -0.174	  0.240	 -9.491	  0.004	 -0.001	  0.011	 29.700	 99.498	  0.037
33905	  0.059	  0.567	  0.979	  0.047	  0.477	 -9.405	  0.008	 -0.008	  0.012	 29.700	 99.514	 -1.436
33955	  0.059	  0.572	  0.981	 -0.138	  0.226	 -9.472	  0.004	 -0.000	  0.011	 29.700	 99.502	 -0.332
34005	  0.061	  0.571	  0.977	 -0.027	  0.182	 -9.438	  0.002	 -0.000	  0.011	 29.700	 99.498	  0.037
34055	  0.060	  0.573	  0.981	 -0.126	  0.238	 -9.473	  0.004	 -0.001	  0.010	 29.700	 99.502	 -0.332
34105	  0.060	  0.568	  0.985	 -0.004	  0.190	 -9.494	  0.001	 -0.000	  0.011	 29.700	 99.498	  0.037
34155	  0.063	  0.563	  0.984	 -0.114	  0.230	 -9.429	  0.002	 -0.001	  0.008	 29.700	 99.498	  0.037
34205	  0.059	  0.586	  0.979	 -0.096	  0.204	 -9.499	  0.003	 -0.001	  0.011	 29.700	 99.498	  0.037
34255	  0.057	  0.564	  0.978	 -0.158	  0.227	 -9.478	  0.003	  0.000	  0.012	 29.700	 99.498	  0.037
34305	  0.060	  0.578	  0.982	 -0.071	  0.190	 -9.475	  0.003	 -0.001	  0.012	 29.700	 99.490	  0.773
34355	  0.060	  0.567	  0.981	 -0.190	  0.223	 -9.486	  0.002	 -0.001	  0.010	 29.700	 99.486	  1.142
34405	  0.058	  0.573	  0.982	 -0.096	  0.215	 -9.479	  0.003	 -0.003	  0.011	 29.700	 99.486	  1.142
34455	  0.059	  0.563	  0.985	 -0.205	  0.154	 -9.558	  0.003	  0.001	  0.011	 29.700	 99.510	 -1.068
34505	  0.063	  0.566	  0.981	 -0.117	  0.250	 -9.334	  0.003	  0.002	  0.010	 29.700	 99.498	  0.037
34555	  0.059	  0.567	  0.978	 -0.127	  0.238	 -9.469	  0.004	 -0.003	  0.012	 29.700	 99.502	 -0.332
34605	  0.060	  0.574	  0.985	 -0.299	  0.156	 -9.633	  0.001	  0.006	  0.011	 29.700	 99.498	  0.037
34656	  0.060	  0.573	  0.979	  0.029	  0.310	 -9.395	  0.003	  0.001	  0.010	 29.700	 99.490	  0.773
34705	  0.060	  0.574	  0.983	 -0.150	  0.224	 -9.565	  0.001	 -0.002	  0.013	 29.700	 99.490	  0.773
34756	  0.062	  0.569	  0.985	 -0.105	  0.233	 -9.474	  0.003	  0.000	  0.011	 29.700	 99.510	 -1.068
34805	  0.066	  0.567	  0.986	 -0.144	  0.227	 -9.499	  0.002	 -0.000	  0.011	 29.700	 99.502	 -0.332
34855	  0.059	  0.566	  0.985	 -0.128	  0.178	 -9.485	  0.003	 -0.002	  0.012	 29.700	 99.486	  1.142
34905	  0.060	  0.563	  0.978	 -0.064	  0.215	 -9.508	  0.000	 -0.001	  0.010	 29.700	 99.498	  0.037
34955	  0.058	  0.572	  0.977	 -0.122	  0.232	 -9.506	  0.003	 -0.003	  0.011	 29.700	 99.502	 -0.332
35005	  0.059	  0.563	  0.982	 -0.124	  0.211	 -9.484	  0.002	  0.001	  0.011	 29.700	 99.490	  0.773
35055	  0.062	  0.564	  0.985	 -0.091	  0.192	 -9.469	 -0.000	  0.002	  0.010	 29.700	 99.498	  0.037
35105	  0.058	  0.568	  0.985	 -0.192	  0.163	 -9.756	  0.001	 -0.001	  0.013	 29.700	 99.498	  0.037
35155	  0.061	  0.572	  0.978	 -0.288	  0.207	 -9.473	  0.001	  0.000	  0.011	 29.700	 99.502	 -0.332
35205	  0.060	  0.564	  0.978	 -0.072	  0.207	 -9.466	  0.002	 -0.002	  0.011	 29.700	 99.486	  1.142
35255	  0.062	  0.566	  0.982	 -0.199	  0.265	 -9.569	  0.003	  0.000	  0.012	 29.700	 99.486	  1.142
35306	  0.062	  0.564	  0.974	 -0.160	  0.204	 -9.538	 -0.001	  0.008	  0.009	 29.700	 99.498	  0.037
35356	  0.064	  0.566	  0.981	  0.545	 -0.157	 -9.820	  0.015	  0.004	  0.087	 29.700	 99.510	 -1.068
35406	  0.061	  0.572	  0.981	 -0.138	  0.011	 -9.399	  0.001	 -0.005	  0.013	 29.700	 99.478	  1.879
35456	  0.063	  0.571	  0.990	 -0.119	  0.239	 -9.500	  0.004	 -0.002	  0.011	 29.700	 99.510	 -1.068
35506	  0.063	  0.567	  0.977	 -0.193	  0.246	 -9.431	  0.002	  0.000	  0.010	 29.700	 99.498	  0.037
