Time	 MagX	 MagY	 MagZ	 AccelX	 AccelY	 AccelZ	 Yaw	 Pitch	 Roll	 Temperature	 Pressure	 Altitude
2245	  0.080	  0.208	  0.268	  0.050	  0.194	 -9.495	  0.001	 -0.002	  0.011	 29.600	 99.497	 -99999.000
2295	  0.083	  0.217	  0.268	  0.022	  0.257	 -9.484	  0.003	 -0.001	  0.012	 29.600	 99.510	 -99999.000
2345	  0.078	  0.206	  0.271	  0.013	  0.194	 -9.454	  0.003	 -0.001	  0.011	 29.600	 99.497	 -99999.000
2395	  0.078	  0.216	  0.265	  0.007	  0.236	 -9.471	  0.002	 -0.001	  0.011	 29.600	 99.485	 -99999.000
2445	  0.080	  0.211	  0.272	  0.022	  0.216	 -9.475	  0.003	  0.000	  0.012	 29.600	 99.497	 -99999.000
2495	  0.080	  0.209	  0.267	 -0.034	  0.242	 -9.498	  0.002	 -0.001	  0.011	 29.600	 99.510	 -99999.000
2545	  0.085	  0.211	  0.267	  0.040	  0.206	 -9.513	  0.003	 -0.000	  0.012	 29.600	 99.505	 -99999.000
2595	  0.080	  0.211	  0.271	 -0.010	  0.262	 -9.470	  0.002	 -0.000	  0.011	 29.600	 99.510	 -99999.000
2645	  0.082	  0.208	  0.268	  0.023	  0.209	 -9.473	  0.003	 -0.001	  0.011	 29.600	 99.497	 -99999.000
2695	  0.085	  0.213	  0.259	 -0.014	  0.270	 -9.515	  0.002	 -0.002	  0.010	 29.600	 99.510	 -99999.000
2745	  0.080	  0.217	  0.276	  0.030	  0.191	 -9.480	  0.002	 -0.000	  0.011	 29.600	 99.510	 -99999.000
2795	  0.080	  0.221	  0.269	  0.010	  0.228	 -9.451	  0.002	 -0.000	  0.011	 29.600	 99.510	 -99999.000
2845	  0.082	  0.209	  0.267	  0.086	  0.203	 -9.472	  0.003	 -0.001	  0.011	 29.600	 99.497	 -99999.000
2895	  0.083	  0.214	  0.269	 -0.041	  0.233	 -9.478	  0.003	 -0.001	  0.011	 29.600	 99.510	 -99999.000
2945	  0.080	  0.216	  0.268	  0.051	  0.199	 -9.489	  0.002	 -0.000	  0.011	 29.600	 99.505	 -99999.000
2995	  0.082	  0.209	  0.271	 -0.058	  0.245	 -9.510	  0.002	 -0.001	  0.012	 29.600	 99.497	 -99999.000
3045	  0.080	  0.212	  0.266	  0.076	  0.204	 -9.476	  0.003	 -0.001	  0.011	 29.600	 99.505	 -99999.000
3095	  0.083	  0.211	  0.272	 -0.025	  0.256	 -9.464	  0.002	 -0.001	  0.011	 29.600	 99.510	 -99999.000
3145	  0.083	  0.209	  0.263	  0.032	  0.203	 -9.492	  0.003	 -0.002	  0.012	 29.600	 99.510	 -99999.000
3195	  0.082	  0.213	  0.266	 -0.011	  0.250	 -9.482	  0.002	 -0.001	  0.012	 29.600	 99.510	 -99999.000
3245	  0.083	  0.219	  0.275	  0.054	  0.201	 -9.493	  0.002	  0.001	  0.010	 29.600	 99.497	 -99999.000
3295	  0.082	  0.212	  0.264	 -0.059	  0.238	 -9.626	  0.003	  0.000	  0.011	 29.600	 99.510	 -99999.000
3345	  0.083	  0.214	  0.259	  0.051	  0.225	 -9.522	  0.003	 -0.002	  0.012	 29.600	 99.510	 -99999.000
3395	  0.083	  0.208	  0.272	 -0.025	  0.262	 -9.468	  0.003	 -0.001	  0.011	 29.600	 99.505	 -99999.000
3445	  0.082	  0.216	  0.268	  0.058	  0.215	 -9.461	  0.002	  0.000	  0.012	 29.600	 99.497	 -99999.000
3495	  0.085	  0.209	  0.268	 -0.029	  0.255	 -9.487	  0.003	 -0.001	  0.012	 29.600	 99.493	 -99999.000
3545	  0.082	  0.214	  0.271	  0.049	  0.167	 -9.499	  0.004	 -0.001	  0.011	 29.600	 99.510	 -99999.000
3596	  0.084	  0.205	  0.256	 -0.026	  0.223	 -9.485	  0.002	 -0.001	  0.011	 29.600	 99.497	 -99999.000
3645	  0.080	  0.219	  0.269	  0.071	  0.220	 -9.469	  0.002	 -0.000	  0.012	 29.600	 99.497	 -99999.000
3696	  0.080	  0.214	  0.271	 -0.045	  0.249	 -9.469	  0.004	 -0.001	  0.011	 29.600	 99.497	 -99999.000
3745	  0.080	  0.209	  0.272	  0.027	  0.240	 -9.506	  0.003	  0.000	  0.012	 29.600	 99.493	 -99999.000
3796	  0.084	  0.209	  0.267	 -0.049	  0.240	 -9.459	  0.002	 -0.001	  0.012	 29.600	 99.497	 -99999.000
3846	  0.084	  0.223	  0.269	  0.005	  0.229	 -9.459	  0.003	 -0.001	  0.013	 29.600	 99.497	 -99999.000
3896	  0.083	  0.211	  0.269	 -0.006	  0.207	 -9.444	  0.002	 -0.001	  0.014	 29.600	 99.497	 -99999.000
3946	  0.080	  0.228	  0.266	 -0.009	  0.226	 -9.481	  0.002	 -0.000	  0.011	 29.600	 99.522	 -99999.000
3996	  0.080	  0.212	  0.261	  0.008	  0.224	 -9.484	  0.003	 -0.002	  0.011	 29.600	 99.497	 -99999.000
4046	  0.083	  0.212	  0.271	  0.011	  0.269	 -9.481	  0.002	 -0.002	  0.012	 29.600	 99.497	 -99999.000
4095	  0.079	  0.212	  0.269	  0.019	  0.213	 -9.495	  0.003	 -0.001	  0.011	 29.600	 99.497	 -99999.000
4145	  0.082	  0.212	  0.265	 -0.010	  0.234	 -9.484	  0.002	 -0.000	  0.012	 29.600	 99.497	 -99999.000
4195	  0.080	  0.217	  0.266	  0.034	  0.228	 -9.554	  0.004	 -0.002	  0.011	 29.600	 99.493	 -99999.000
4245	  0.084	  0.216	  0.267	  0.024	  0.250	 -9.478	  0.002	 -0.002	  0.012	 29.600	 99.510	 -99999.000
4295	  0.083	  0.222	  0.270	  0.060	  0.207	 -9.473	  0.003	 -0.001	  0.009	 29.600	 99.510	 -99999.000
4345	  0.080	  0.209	  0.268	 -0.019	  0.249	 -9.519	  0.003	 -0.001	  0.011	 29.600	 99.505	 -99999.000
4395	  0.086	  0.207	  0.267	  0.082	  0.217	 -9.483	  0.002	 -0.000	  0.010	 29.600	 99.522	 -99999.000
4445	  0.083	  0.216	  0.261	 -0.019	  0.247	 -9.485	  0.002	  0.000	  0.009	 29.600	 99.497	 -99999.000
4495	  0.082	  0.228	  0.268	  0.068	  0.235	 -9.496	  0.003	 -0.001	  0.011	 29.600	 99.510	 -99999.000
4545	  0.080	  0.211	  0.264	 -0.013	  0.234	 -9.504	  0.002	 -0.001	  0.011	 29.600	 99.497	 -99999.000
4595	  0.084	  0.211	  0.261	  0.065	  0.215	 -9.466	  0.003	 -0.001	  0.011	 29.600	 99.510	 -99999.000
4645	  0.082	  0.211	  0.272	 -0.030	  0.245	 -9.511	  0.003	 -0.001	  0.010	 29.700	 99.514	 -99999.000
4695	  0.083	  0.212	  0.267	  0.065	  0.218	 -9.473	  0.002	 -0.001	  0.012	 29.600	 99.510	 -99999.000
4745	  0.080	  0.211	  0.255	 -0.006	  0.241	 -9.472	  0.002	 -0.000	  0.011	 29.600	 99.510	 -99999.000
4795	  0.084	  0.225	  0.269	  0.058	  0.231	 -9.446	  0.002	  0.000	  0.011	 29.600	 99.497	 -99999.000
4845	  0.085	  0.214	  0.268	 -0.036	  0.258	 -9.468	  0.004	 -0.001	  0.012	 29.600	 99.497	 -99999.000
4895	  0.082	  0.216	  0.265	  0.054	  0.182	 -9.468	  0.001	 -0.001	  0.008	 29.600	 99.510	 -99999.000
4945	  0.083	  0.218	  0.271	 -0.043	  0.253	 -9.472	  0.002	 -0.000	  0.012	 29.600	 99.493	 -99999.000
4995	  0.082	  0.212	  0.267	  0.087	  0.214	 -9.510	  0.003	 -0.000	  0.012	 29.600	 99.497	 -99999.000
5046	  0.078	  0.213	  0.273	 -0.052	  0.246	 -9.467	  0.001	 -0.002	  0.011	 29.600	 99.505	 -99999.000
5096	  0.084	  0.213	  0.264	  0.043	  0.211	 -9.491	  0.002	 -0.001	  0.011	 29.600	 99.510	 -99999.000
5145	  0.079	  0.217	  0.266	 -0.026	  0.223	 -9.480	  0.003	 -0.002	  0.011	 29.600	 99.510	 -99999.000
5195	  0.080	  0.213	  0.269	  0.044	  0.217	 -9.500	  0.003	 -0.001	  0.011	 29.600	 99.510	 -99999.000
6420	  0.082	  0.209	  0.265	  0.027	  0.219	 -9.545	  0.003	 -0.002	  0.011	 29.600	 99.510	 -0.606
6470	  0.082	  0.214	  0.266	  0.020	  0.200	 -9.483	  0.002	 -0.001	  0.012	 29.600	 99.497	  0.591
6520	  0.084	  0.216	  0.260	  0.012	  0.225	 -9.482	  0.002	 -0.001	  0.011	 29.600	 99.510	 -0.606
6570	  0.078	  0.212	  0.266	  0.015	  0.213	 -9.507	  0.002	 -0.001	  0.010	 29.600	 99.510	 -0.606
6620	  0.080	  0.211	  0.265	  0.024	  0.223	 -9.473	  0.002	 -0.002	  0.010	 29.600	 99.497	  0.591
6670	  0.080	  0.217	  0.268	 -0.030	  0.223	 -9.438	  0.002	 -0.001	  0.010	 29.600	 99.497	  0.591
6720	  0.082	  0.213	  0.259	  0.025	  0.214	 -9.494	  0.001	 -0.000	  0.011	 29.600	 99.493	  0.959
6770	  0.083	  0.218	  0.266	 -0.005	  0.262	 -9.501	  0.003	 -0.001	  0.011	 29.600	 99.522	 -1.710
6820	  0.082	  0.209	  0.264	  0.041	  0.215	 -9.510	  0.002	 -0.001	  0.011	 29.600	 99.510	 -0.606
6870	  0.083	  0.209	  0.263	 -0.027	  0.254	 -9.502	  0.003	  0.000	  0.011	 29.600	 99.497	  0.591
6920	  0.080	  0.208	  0.260	  0.035	  0.210	 -9.492	  0.003	 -0.001	  0.011	 29.600	 99.510	 -0.606
6970	  0.082	  0.212	  0.268	 -0.011	  0.246	 -9.503	  0.002	 -0.002	  0.011	 29.600	 99.493	  0.959
7020	  0.080	  0.218	  0.260	  0.068	  0.216	 -9.497	  0.003	 -0.002	  0.010	 29.600	 99.510	 -0.606
7070	  0.080	  0.211	  0.269	 -0.026	  0.239	 -9.530	  0.002	 -0.001	  0.011	 29.600	 99.497	  0.591
7120	  0.079	  0.223	  0.264	  0.086	  0.183	 -9.467	  0.002	 -0.002	  0.012	 29.600	 99.493	  0.959
7170	  0.085	  0.212	  0.263	 -0.032	  0.243	 -9.510	  0.003	 -0.001	  0.010	 29.600	 99.510	 -0.606
7220	  0.078	  0.222	  0.265	  0.057	  0.209	 -9.471	  0.002	  0.000	  0.012	 29.600	 99.497	  0.591
7270	  0.082	  0.208	  0.267	 -0.015	  0.254	 -9.484	  0.002	 -0.001	  0.011	 29.600	 99.510	 -0.606
7320	  0.079	  0.207	  0.267	  0.053	  0.231	 -9.497	  0.003	 -0.002	  0.011	 29.600	 99.497	  0.591
7370	  0.083	  0.213	  0.265	 -0.015	  0.235	 -9.533	  0.002	  0.001	  0.011	 29.600	 99.505	 -0.145
7420	  0.082	  0.209	  0.265	  0.079	  0.205	 -9.469	  0.003	 -0.000	  0.010	 29.600	 99.497	  0.591
7470	  0.080	  0.223	  0.264	 -0.013	  0.242	 -9.468	  0.003	 -0.002	  0.012	 29.600	 99.497	  0.591
7520	  0.079	  0.208	  0.264	  0.061	  0.203	 -9.460	  0.003	  0.000	  0.012	 29.600	 99.522	 -1.710
7570	  0.084	  0.213	  0.264	 -0.016	  0.228	 -9.535	  0.003	 -0.001	  0.010	 29.600	 99.493	  0.959
7620	  0.083	  0.213	  0.260	  0.038	  0.205	 -9.452	  0.002	 -0.000	  0.011	 29.600	 99.497	  0.591
7670	  0.078	  0.212	  0.268	 -0.019	  0.243	 -9.474	  0.003	 -0.001	  0.012	 29.600	 99.510	 -0.606
7720	  0.082	  0.211	  0.265	  0.052	  0.189	 -9.504	  0.003	 -0.002	  0.010	 29.600	 99.497	  0.591
7770	  0.080	  0.219	  0.266	 -0.040	  0.247	 -9.510	  0.003	 -0.002	  0.012	 29.600	 99.493	  0.959
7820	  0.079	  0.211	  0.266	  0.075	  0.201	 -9.470	  0.003	 -0.001	  0.010	 29.600	 99.493	  0.959
7870	  0.078	  0.212	  0.265	 -0.016	  0.242	 -9.472	  0.003	 -0.001	  0.011	 29.600	 99.510	 -0.606
7920	  0.082	  0.212	  0.261	  0.058	  0.211	 -9.478	  0.002	 -0.000	  0.012	 29.600	 99.510	 -0.606
7970	  0.082	  0.213	  0.260	 -0.062	  0.248	 -9.532	  0.002	 -0.001	  0.011	 29.600	 99.497	  0.591
8020	  0.078	  0.212	  0.264	  0.048	  0.220	 -9.523	  0.002	 -0.001	  0.011	 29.600	 99.497	  0.591
8070	  0.082	  0.208	  0.265	 -0.026	  0.226	 -9.491	  0.001	 -0.002	  0.011	 29.600	 99.510	 -0.606
8120	  0.082	  0.212	  0.264	  0.059	  0.217	 -9.548	  0.003	 -0.001	  0.011	 29.600	 99.497	  0.591
8170	  0.082	  0.209	  0.263	 -0.010	  0.220	 -9.503	  0.003	 -0.000	  0.011	 29.600	 99.510	 -0.606
8220	  0.080	  0.211	  0.267	  0.083	  0.222	 -9.515	  0.002	 -0.000	  0.012	 29.600	 99.497	  0.591
8270	  0.078	  0.211	  0.269	 -0.018	  0.216	 -9.488	  0.002	 -0.000	  0.011	 29.600	 99.510	 -0.606
8320	  0.080	  0.214	  0.265	  0.085	  0.225	 -9.500	  0.001	 -0.001	  0.011	 29.600	 99.497	  0.591
8370	  0.078	  0.212	  0.265	 -0.037	  0.228	 -9.513	  0.002	 -0.001	  0.012	 29.600	 99.497	  0.591
8420	  0.083	  0.226	  0.266	  0.076	  0.230	 -9.481	  0.002	  0.000	  0.011	 29.600	 99.522	 -1.710
8470	  0.083	  0.209	  0.264	 -0.031	  0.212	 -9.513	  0.002	 -0.001	  0.010	 29.600	 99.510	 -0.606
8520	  0.082	  0.212	  0.268	  0.056	  0.222	 -9.483	  0.001	 -0.001	  0.011	 29.600	 99.510	 -0.606
8570	  0.080	  0.214	  0.266	 -0.042	  0.208	 -9.496	  0.002	 -0.001	  0.010	 29.600	 99.497	  0.591
8620	  0.080	  0.208	  0.268	  0.062	  0.239	 -9.484	  0.001	 -0.001	  0.011	 29.600	 99.502	  0.130
8670	  0.077	  0.208	  0.265	 -0.006	  0.235	 -9.496	  0.001	  0.000	  0.011	 29.600	 99.497	  0.591
8720	  0.080	  0.209	  0.265	  0.038	  0.229	 -9.491	  0.002	  0.000	  0.011	 29.600	 99.497	  0.591
8770	  0.080	  0.211	  0.267	  0.022	  0.216	 -9.487	  0.002	 -0.000	  0.011	 29.600	 99.497	  0.591
8820	  0.079	  0.209	  0.257	  0.019	  0.179	 -9.598	  0.004	 -0.003	  0.010	 29.600	 99.510	 -0.606
8870	  0.082	  0.218	  0.265	  0.022	  0.139	 -9.654	 -0.003	  0.004	  0.011	 29.600	 99.522	 -1.710
8920	  0.078	  0.211	  0.268	  0.142	  0.309	 -9.309	  0.001	 -0.001	  0.011	 29.600	 99.497	  0.591
8970	  0.080	  0.222	  0.264	 -0.011	  0.193	 -9.588	  0.002	 -0.001	  0.011	 29.600	 99.497	  0.591
9020	  0.077	  0.211	  0.265	  0.043	  0.249	 -9.461	  0.001	 -0.002	  0.011	 29.600	 99.510	 -0.606
9070	  0.085	  0.217	  0.264	  0.042	  0.193	 -9.483	  0.004	 -0.002	  0.012	 29.600	 99.497	  0.591
9120	  0.078	  0.212	  0.264	 -0.014	  0.226	 -9.587	  0.001	 -0.000	  0.012	 29.600	 99.510	 -0.606
9170	  0.079	  0.216	  0.269	  0.068	  0.243	 -9.392	  0.001	 -0.001	  0.012	 29.600	 99.497	  0.591
9221	  0.078	  0.214	  0.265	 -0.014	  0.255	 -9.418	  0.003	 -0.003	  0.011	 29.600	 99.510	 -0.606
9270	  0.079	  0.216	  0.268	  0.047	  0.215	 -9.477	  0.004	 -0.001	  0.011	 29.600	 99.510	 -0.606
9320	  0.083	  0.222	  0.269	 -0.016	  0.240	 -9.487	  0.002	 -0.001	  0.011	 29.600	 99.510	 -0.606
9369	  0.080	  0.211	  0.268	  0.048	  0.225	 -9.461	  0.003	 -0.001	  0.010	 29.600	 99.510	 -0.606
9419	  0.080	  0.206	  0.261	 -0.035	  0.233	 -9.495	  0.002	  0.000	  0.012	 29.600	 99.493	  0.959
9469	  0.082	  0.212	  0.269	  0.060	  0.217	 -9.517	  0.003	 -0.001	  0.010	 29.600	 99.497	  0.591
9519	  0.083	  0.223	  0.265	 -0.041	  0.241	 -9.507	  0.001	 -0.001	  0.010	 29.600	 99.493	  0.959
9569	  0.083	  0.212	  0.268	  0.062	  0.230	 -9.495	  0.002	 -0.000	  0.012	 29.600	 99.497	  0.591
9619	  0.084	  0.227	  0.269	 -0.027	  0.240	 -9.476	  0.002	 -0.001	  0.011	 29.600	 99.522	 -1.710
9669	  0.079	  0.208	  0.272	  0.051	  0.197	 -9.470	  0.003	 -0.001	  0.011	 29.600	 99.497	  0.591
9719	  0.082	  0.214	  0.271	 -0.013	  0.236	 -9.453	  0.003	 -0.002	  0.011	 29.600	 99.510	 -0.606
9769	  0.077	  0.207	  0.271	  0.078	  0.225	 -9.463	  0.002	 -0.000	  0.012	 29.600	 99.510	 -0.606
9819	  0.079	  0.216	  0.270	 -0.068	  0.248	 -9.509	  0.003	 -0.000	  0.011	 29.600	 99.510	 -0.606
9870	  0.079	  0.209	  0.272	  0.073	  0.224	 -9.473	  0.003	 -0.003	  0.010	 29.600	 99.497	  0.591
9920	  0.079	  0.211	  0.275	 -0.007	  0.226	 -9.478	  0.003	  0.001	  0.011	 29.600	 99.497	  0.591
9970	  0.078	  0.217	  0.270	  0.076	  0.204	 -9.476	  0.003	 -0.001	  0.011	 29.600	 99.497	  0.591
10019	  0.080	  0.212	  0.276	 -0.001	  0.195	 -9.473	  0.002	 -0.000	  0.011	 29.600	 99.505	 -0.145
10069	  0.078	  0.212	  0.271	  0.070	  0.230	 -9.493	  0.002	 -0.001	  0.010	 29.600	 99.493	  0.959
10119	  0.078	  0.207	  0.271	 -0.029	  0.224	 -9.467	  0.003	 -0.001	  0.011	 29.600	 99.510	 -0.606
10170	  0.082	  0.211	  0.275	  0.051	  0.211	 -9.499	  0.002	 -0.001	  0.011	 29.600	 99.510	 -0.606
10221	  0.078	  0.209	  0.275	  0.001	  0.230	 -9.499	  0.003	 -0.003	  0.012	 29.600	 99.497	  0.591
10270	  0.080	  0.211	  0.275	  0.008	  0.244	 -9.458	  0.001	 -0.001	  0.012	 29.600	 99.497	  0.591
10321	  0.079	  0.223	  0.277	 -0.021	  0.232	 -9.502	  0.004	 -0.000	  0.010	 29.600	 99.497	  0.591
10371	  0.078	  0.208	  0.269	  0.011	  0.239	 -9.494	  0.003	 -0.001	  0.010	 29.600	 99.497	  0.591
10421	  0.082	  0.211	  0.264	  0.053	  0.231	 -9.493	  0.001	 -0.000	  0.010	 29.600	 99.510	 -0.606
10471	  0.080	  0.209	  0.271	  0.004	  0.277	 -9.463	  0.003	  0.000	  0.012	 29.600	 99.510	 -0.606
10521	  0.082	  0.212	  0.269	  0.047	  0.218	 -9.496	  0.004	 -0.004	  0.011	 29.600	 99.497	  0.591
10571	  0.078	  0.209	  0.275	  0.029	  0.233	 -9.496	 -0.002	  0.001	  0.011	 29.600	 99.497	  0.591
10621	  0.082	  0.211	  0.272	 -0.065	  0.207	 -9.509	  0.006	 -0.001	  0.009	 29.600	 99.497	  0.591
10671	  0.080	  0.211	  0.273	  0.012	  0.233	 -9.449	  0.000	 -0.000	  0.009	 29.600	 99.510	 -0.606
10721	  0.083	  0.209	  0.268	  0.021	  0.345	 -9.477	 -0.001	  0.002	 -0.126	 29.600	 99.510	 -0.606
10771	  0.079	  0.216	  0.272	 -0.029	  0.177	 -9.515	 -0.002	  0.002	 -0.055	 29.600	 99.510	 -0.606
10821	  0.075	  0.214	  0.276	  0.307	 -0.028	 -9.516	 -0.002	  0.005	 -0.274	 29.600	 99.497	  0.591
10871	  0.076	  0.223	  0.273	 -0.900	  0.482	 -10.928	  0.030	  0.038	 -0.032	 29.600	 99.497	  0.591
10921	  0.078	  0.219	  0.270	 -0.735	  1.095	 -13.924	  0.201	  0.138	  0.457	 29.700	 99.514	 -0.974
10971	  0.067	  0.211	  0.273	  0.340	  0.301	 -15.861	 -0.165	  0.239	  0.621	 29.600	 99.510	 -0.606
11021	  0.055	  0.185	  0.253	  0.880	  0.691	 -11.716	 -0.449	  0.021	  0.601	 29.600	 99.497	  0.591
11071	  0.049	  0.177	  0.250	  0.210	 -0.091	 -6.654	 -0.227	 -0.367	  0.260	 29.600	 99.510	 -0.606
11121	  0.044	  0.166	  0.241	  0.551	  0.645	 -2.943	  0.057	 -0.728	  0.111	 29.600	 99.497	  0.591
11171	  0.065	  0.165	  0.212	 -0.045	 -0.690	 -1.485	  0.649	 -1.444	 -0.155	 29.600	 99.497	  0.591
11221	  0.083	  0.176	  0.184	 -1.981	 -0.076	 -3.982	  0.486	 -0.906	  0.116	 29.600	 99.510	 -0.606
11271	  0.103	  0.190	  0.176	 -2.047	 -0.220	 -7.297	  0.596	  0.635	  0.647	 29.600	 99.497	  0.591
11321	  0.102	  0.181	  0.201	  0.063	 -0.614	 -13.156	  0.347	  1.495	  0.556	 29.600	 99.510	 -0.606
11371	  0.093	  0.179	  0.225	  1.305	 -1.013	 -13.637	 -0.501	  0.528	 -0.017	 29.600	 99.510	 -0.606
11421	  0.092	  0.170	  0.231	  0.078	 -0.234	 -11.225	 -0.722	 -0.361	 -0.392	 29.600	 99.497	  0.591
11471	  0.101	  0.162	  0.232	 -1.904	  0.388	 -9.305	 -0.130	 -0.442	 -0.187	 29.600	 99.497	  0.591
11521	  0.102	  0.172	  0.233	 -0.931	 -0.020	 -9.721	  0.365	  0.074	  0.289	 29.600	 99.510	 -0.606
11571	  0.105	  0.172	  0.229	 -0.076	 -0.072	 -9.813	  0.205	  0.262	  0.218	 29.600	 99.497	  0.591
11621	  0.101	  0.168	  0.235	  0.267	 -0.141	 -9.719	 -0.068	  0.241	  0.011	 29.600	 99.505	 -0.145
11671	  0.095	  0.168	  0.238	 -0.327	  0.064	 -9.244	 -0.235	  0.213	 -0.113	 29.600	 99.497	  0.591
11721	  0.092	  0.165	  0.250	 -0.327	  0.314	 -9.234	 -0.125	  0.300	 -0.017	 29.600	 99.497	  0.591
11771	  0.084	  0.173	  0.254	  0.026	  0.184	 -9.165	 -0.011	  0.163	  0.022	 29.600	 99.510	 -0.606
11821	  0.086	  0.169	  0.257	  0.056	  0.166	 -9.379	 -0.027	 -0.014	  0.040	 29.600	 99.497	  0.591
11871	  0.089	  0.166	  0.260	  0.066	  0.023	 -9.703	 -0.147	  0.037	  0.129	 29.600	 99.497	  0.591
11921	  0.090	  0.174	  0.260	  0.237	  0.325	 -9.508	 -0.227	  0.119	  0.176	 29.600	 99.510	 -0.606
11970	  0.092	  0.151	  0.260	 -0.104	  0.371	 -9.759	 -0.133	  0.197	  0.272	 29.600	 99.497	  0.591
12021	  0.089	  0.146	  0.264	  0.330	  0.619	 -9.688	 -0.098	  0.003	  0.135	 29.600	 99.505	 -0.145
12070	  0.088	  0.140	  0.268	 -1.124	  0.153	 -10.783	  0.041	  0.026	  0.082	 29.700	 99.502	  0.130
12120	  0.081	  0.144	  0.277	 -1.515	  0.020	 -15.938	 -0.049	  0.667	 -0.007	 29.600	 99.510	 -0.606
12170	  0.062	  0.132	  0.280	  1.336	  1.672	 -15.256	 -0.444	  0.490	 -0.068	 29.600	 99.497	  0.591
12220	  0.053	  0.138	  0.258	  2.618	  0.645	 -10.268	 -0.485	 -1.400	 -0.042	 29.600	 99.497	  0.591
12271	  0.075	  0.116	  0.217	  1.881	  1.038	 -1.082	 -0.197	 -2.286	 -0.210	 29.600	 99.497	  0.591
12321	  0.101	  0.122	  0.168	  0.774	  0.298	 -0.356	  0.303	 -1.106	 -0.538	 29.600	 99.497	  0.591
12370	  0.104	  0.139	  0.176	 -1.292	  0.041	 -1.322	  0.693	  1.033	 -0.086	 29.600	 99.497	  0.591
12421	  0.089	  0.160	  0.211	  0.459	  0.633	 -6.159	  0.784	  2.071	  0.150	 29.600	 99.497	  0.591
12471	  0.071	  0.174	  0.256	  1.554	 -0.777	 -15.386	  0.192	  1.401	 -0.424	 29.600	 99.510	 -0.606
12521	  0.049	  0.207	  0.286	  0.257	 -0.174	 -20.980	 -0.509	  0.709	 -1.072	 29.600	 99.497	  0.591
12570	  0.034	  0.200	  0.289	 -0.016	 -0.002	 -16.442	 -0.117	 -0.256	 -0.281	 29.600	 99.497	  0.591
12620	  0.048	  0.194	  0.266	 -0.234	  0.407	 -9.302	  0.308	 -1.814	  0.392	 29.700	 99.514	 -0.974
12670	  0.083	  0.188	  0.200	  1.441	  1.393	 -4.234	  0.925	 -1.649	  0.449	 29.600	 99.497	  0.591
12720	  0.102	  0.219	  0.172	  1.058	  0.573	 -1.319	  1.583	 -0.999	  0.067	 29.600	 99.497	  0.591
12770	  0.116	  0.232	  0.144	 -0.882	 -1.164	 -4.313	  0.829	  0.045	  0.199	 29.600	 99.497	  0.591
12821	  0.112	  0.232	  0.172	 -2.825	 -2.093	 -11.177	 -1.006	  2.025	  0.197	 29.600	 99.510	 -0.606
12870	  0.078	  0.193	  0.253	  0.277	 -1.267	 -15.716	 -2.132	  2.445	  0.171	 29.600	 99.497	  0.591
12920	  0.044	  0.155	  0.297	  1.531	  0.623	 -16.523	 -1.260	  0.620	 -0.255	 29.600	 99.497	  0.591
12970	  0.055	  0.142	  0.276	  1.088	  1.336	 -13.828	  0.102	 -1.797	  0.153	 29.600	 99.510	 -0.606
13020	  0.091	  0.134	  0.220	  0.714	  1.445	 -11.367	  0.341	 -2.357	  0.325	 29.600	 99.505	 -0.145
13070	  0.109	  0.127	  0.182	  0.875	  1.162	 -8.013	  0.067	 -1.182	  0.240	 29.600	 99.510	 -0.606
13121	  0.109	  0.128	  0.167	  0.040	  0.955	 -3.729	 -0.071	 -0.465	 -0.160	 29.600	 99.510	 -0.606
13170	  0.104	  0.128	  0.159	 -1.513	  0.108	 -0.769	  0.108	 -0.386	 -0.276	 29.600	 99.497	  0.591
13220	  0.110	  0.147	  0.151	 -3.159	 -1.332	 -1.674	  0.166	  0.381	 -0.026	 29.600	 99.510	 -0.606
13270	  0.111	  0.139	  0.178	 -1.606	  0.790	 -6.030	  0.126	  1.153	  0.331	 29.600	 99.497	  0.591
13320	  0.110	  0.161	  0.204	  0.447	  0.048	 -12.858	  0.164	  1.549	  0.089	 29.600	 99.497	  0.591
13370	  0.094	  0.164	  0.238	  1.328	  1.424	 -18.398	  0.777	  1.254	 -0.405	 29.600	 99.497	  0.591
13420	  0.082	  0.199	  0.251	  1.494	 -1.866	 -19.306	  1.010	 -0.091	 -0.327	 29.600	 99.510	 -0.606
13470	  0.090	  0.213	  0.214	 -0.732	 -1.249	 -11.172	  0.894	 -1.987	  0.011	 29.600	 99.510	 -0.606
13520	  0.120	  0.223	  0.159	 -1.515	  0.015	 -4.890	  0.742	 -1.793	  0.357	 29.600	 99.493	  0.959
13570	  0.133	  0.220	  0.122	 -0.333	 -0.427	 -0.665	  0.465	 -0.921	  0.321	 29.600	 99.497	  0.591
13620	  0.148	  0.220	  0.107	 -1.159	 -1.080	 -3.383	 -0.215	  0.222	  0.277	 29.600	 99.497	  0.591
13670	  0.142	  0.214	  0.157	 -1.526	 -1.289	 -13.587	 -1.723	  2.595	 -0.014	 29.600	 99.510	 -0.606
13720	  0.091	  0.180	  0.242	 -0.717	  0.394	 -17.076	 -2.024	  2.957	 -0.315	 29.600	 99.510	 -0.606
13770	  0.057	  0.141	  0.275	  1.114	  1.607	 -15.106	 -0.413	 -0.246	  0.202	 29.600	 99.493	  0.959
13820	  0.087	  0.148	  0.232	  1.020	  0.513	 -8.156	  1.421	 -2.975	  0.160	 29.600	 99.510	 -0.606
13870	  0.136	  0.184	  0.143	  0.262	  0.366	 -4.026	  1.822	 -2.633	 -0.182	 29.600	 99.497	  0.591
13920	  0.151	  0.210	  0.097	 -1.015	 -0.678	 -2.321	  1.068	 -0.634	 -0.070	 29.600	 99.510	 -0.606
13970	  0.156	  0.213	  0.111	 -1.357	 -1.443	 -5.938	 -0.801	  1.336	  0.088	 29.600	 99.497	  0.591
14020	  0.130	  0.199	  0.164	 -2.887	 -0.889	 -11.238	 -1.288	  2.682	 -0.184	 29.600	 99.497	  0.591
14070	  0.097	  0.203	  0.232	 -1.139	 -0.992	 -18.330	  0.688	  1.611	  0.045	 29.600	 99.510	 -0.606
14120	  0.103	  0.221	  0.215	  0.799	 -1.838	 -16.824	  1.264	 -2.053	  0.071	 29.600	 99.510	 -0.606
14170	  0.141	  0.229	  0.135	 -0.794	 -1.336	 -10.673	  0.587	 -2.609	  0.181	 29.600	 99.497	  0.591
14220	  0.149	  0.233	  0.088	 -0.146	  0.317	 -4.098	 -0.388	 -1.132	  0.295	 29.600	 99.497	  0.591
14270	  0.154	  0.218	  0.077	  0.437	 -0.291	 -0.298	 -0.615	 -0.234	  0.296	 29.600	 99.493	  0.959
14320	  0.162	  0.190	  0.090	 -1.762	 -0.829	 -3.013	 -0.639	  0.908	  0.255	 29.600	 99.497	  0.591
14370	  0.148	  0.186	  0.147	 -2.916	 -0.970	 -13.301	 -0.923	  2.843	 -0.152	 29.600	 99.497	  0.591
14420	  0.106	  0.175	  0.224	 -0.343	 -0.423	 -19.831	 -0.893	  2.174	  0.094	 29.600	 99.510	 -0.606
14470	  0.087	  0.156	  0.232	  0.469	 -0.134	 -16.177	 -0.457	 -1.013	  0.164	 29.600	 99.510	 -0.606
14520	  0.112	  0.142	  0.186	  0.172	  0.759	 -7.527	  0.079	 -2.289	  0.126	 29.600	 99.497	  0.591
14570	  0.130	  0.143	  0.138	  0.124	  0.353	 -1.584	  0.724	 -1.882	 -0.059	 29.600	 99.497	  0.591
14620	  0.149	  0.149	  0.101	 -1.970	 -1.258	 -0.187	  0.114	 -0.385	  0.287	 29.600	 99.510	 -0.606
14670	  0.151	  0.139	  0.124	 -2.623	 -0.087	 -5.272	 -0.655	  2.122	  0.769	 29.600	 99.510	 -0.606
14720	  0.124	  0.118	  0.207	 -0.037	  0.844	 -14.318	 -0.293	  3.247	  0.150	 29.600	 99.510	 -0.606
14770	  0.086	  0.127	  0.258	  2.352	  0.255	 -20.115	  0.719	  0.748	 -0.206	 29.600	 99.510	 -0.606
14820	  0.101	  0.156	  0.223	  0.140	 -0.075	 -16.677	  0.479	 -2.184	 -0.473	 29.700	 99.502	  0.130
14870	  0.123	  0.160	  0.167	 -0.796	  0.778	 -7.826	  0.315	 -1.783	  0.173	 29.600	 99.510	 -0.606
14920	  0.132	  0.165	  0.134	  0.388	 -0.317	 -1.402	  0.191	 -1.081	  0.074	 29.600	 99.510	 -0.606
14970	  0.143	  0.146	  0.116	 -2.933	 -1.835	  0.540	 -0.396	  0.161	  0.313	 29.600	 99.497	  0.591
15020	  0.136	  0.142	  0.158	 -0.882	  0.987	 -4.225	 -0.584	  1.944	  0.560	 29.600	 99.510	 -0.606
15071	  0.117	  0.142	  0.222	  0.581	  1.264	 -15.502	  0.489	  2.763	 -0.377	 29.600	 99.497	  0.591
15120	  0.081	  0.168	  0.263	  3.078	 -1.016	 -23.327	  0.448	  0.675	 -0.620	 29.600	 99.510	 -0.606
15170	  0.088	  0.171	  0.238	 -1.225	 -0.471	 -15.742	  0.215	 -2.218	 -0.016	 29.600	 99.497	  0.591
15220	  0.122	  0.160	  0.178	  0.031	  0.581	 -7.642	 -0.189	 -2.516	  0.691	 29.600	 99.502	  0.130
15270	  0.147	  0.142	  0.118	  1.788	 -0.021	 -1.200	  0.089	 -1.744	  0.545	 29.600	 99.497	  0.591
15320	  0.158	  0.143	  0.092	 -0.475	 -1.812	  1.083	  0.704	 -0.557	 -0.180	 29.600	 99.497	  0.591
15370	  0.165	  0.165	  0.105	 -3.647	 -0.634	 -2.791	  0.652	  1.476	 -0.142	 29.600	 99.497	  0.591
15420	  0.152	  0.175	  0.152	 -2.150	 -0.533	 -14.244	 -0.219	  2.937	 -0.149	 29.600	 99.510	 -0.606
15470	  0.114	  0.186	  0.232	  0.112	 -0.704	 -24.861	 -0.554	  2.567	  0.197	 29.600	 99.510	 -0.606
15520	  0.093	  0.144	  0.254	  3.083	 -1.531	 -18.791	 -0.917	 -0.729	  0.159	 29.700	 99.497	  0.591
15571	  0.116	  0.131	  0.185	  2.103	  0.455	 -6.704	 -0.191	 -3.392	 -0.407	 29.600	 99.510	 -0.606
15621	  0.146	  0.135	  0.115	 -0.736	  0.426	 -0.618	  0.946	 -2.410	 -0.175	 29.600	 99.510	 -0.606
15670	  0.159	  0.153	  0.088	 -1.558	 -0.774	  1.613	  0.915	 -0.260	  0.032	 29.600	 99.497	  0.591
15720	  0.165	  0.162	  0.100	 -3.181	 -1.108	 -1.748	 -0.191	  1.696	  0.159	 29.600	 99.497	  0.591
15770	  0.148	  0.163	  0.158	 -1.176	  0.153	 -13.869	 -0.335	  3.353	  0.214	 29.600	 99.497	  0.591
15821	  0.110	  0.171	  0.239	  3.076	 -1.056	 -24.405	  0.242	  1.875	 -0.401	 29.600	 99.497	  0.591
15870	  0.105	  0.180	  0.238	  1.052	 -1.602	 -18.344	  0.089	 -1.833	 -0.474	 29.600	 99.510	 -0.606
15919	  0.137	  0.182	  0.160	 -0.571	  0.046	 -10.418	 -0.126	 -3.012	  0.338	 29.600	 99.493	  0.959
15970	  0.153	  0.158	  0.113	  0.998	 -0.536	 -2.509	 -0.481	 -2.068	  0.287	 29.600	 99.510	 -0.606
16020	  0.163	  0.144	  0.089	 -1.719	 -1.330	  2.696	  0.137	 -0.397	 -0.067	 29.600	 99.510	 -0.606
16070	  0.162	  0.167	  0.083	 -3.381	 -0.830	  2.018	  0.728	  1.031	 -0.092	 29.600	 99.497	  0.591
16120	  0.165	  0.182	  0.118	 -1.088	  0.430	 -10.174	  1.006	  2.181	 -0.254	 29.600	 99.510	 -0.606
16170	  0.145	  0.222	  0.179	  1.580	 -3.880	 -26.509	  0.770	  2.486	 -0.781	 29.600	 99.497	  0.591
16220	  0.113	  0.236	  0.209	 -0.369	 -5.159	 -20.564	 -0.484	 -0.137	 -0.409	 29.600	 99.493	  0.959
16270	  0.127	  0.210	  0.162	 -1.398	 -0.694	 -10.920	 -0.727	 -2.741	  0.413	 29.600	 99.497	  0.591
16320	  0.149	  0.177	  0.107	  0.580	  0.264	 -3.240	 -0.205	 -2.881	  0.686	 29.600	 99.497	  0.591
16370	  0.172	  0.167	  0.049	 -0.247	 -0.726	  2.448	  0.518	 -1.749	 -0.055	 29.600	 99.497	  0.591
16420	  0.180	  0.201	  0.026	 -3.046	 -1.101	  2.003	  1.016	  0.566	 -0.392	 29.600	 99.510	 -0.606
16470	  0.178	  0.216	  0.067	 -2.672	 -0.915	 -11.545	 -0.396	  2.922	 -0.185	 29.600	 99.510	 -0.606
16520	  0.148	  0.201	  0.170	 -0.967	 -2.999	 -21.007	 -2.230	  3.914	  0.114	 29.600	 99.510	 -0.606
16570	  0.088	  0.144	  0.252	  1.346	 -0.213	 -18.983	 -1.844	  1.607	  0.564	 29.600	 99.510	 -0.606
16620	  0.087	  0.107	  0.235	  2.274	  1.195	 -13.588	 -0.729	 -2.312	  0.168	 29.600	 99.497	  0.591
16670	  0.127	  0.107	  0.168	  0.623	  1.247	 -5.143	  0.222	 -3.398	 -0.069	 29.600	 99.497	  0.591
16720	  0.152	  0.110	  0.094	 -0.506	 -0.661	  0.827	  1.067	 -2.632	 -0.357	 29.700	 99.514	 -0.974
16770	  0.174	  0.134	  0.055	 -2.826	  0.019	  3.415	  0.973	 -0.386	 -0.441	 29.600	 99.497	  0.591
16820	  0.176	  0.150	  0.069	 -1.442	 -0.288	 -4.453	  0.570	  2.228	  0.264	 29.600	 99.497	  0.591
16870	  0.159	  0.162	  0.149	 -1.055	 -2.238	 -17.726	 -0.169	  3.839	 -0.538	 29.600	 99.510	 -0.606
16920	  0.104	  0.180	  0.234	  0.373	 -1.684	 -23.778	 -0.124	  2.219	 -0.682	 29.600	 99.497	  0.591
16970	  0.093	  0.174	  0.233	 -0.845	 -0.425	 -16.602	 -0.365	 -2.038	 -0.062	 29.600	 99.510	 -0.606
17020	  0.132	  0.158	  0.158	 -0.207	  1.046	 -5.938	  0.102	 -3.274	  0.654	 29.600	 99.497	  0.591
17070	  0.165	  0.168	  0.084	  1.866	 -0.035	  0.242	  0.967	 -2.642	 -0.044	 29.600	 99.497	  0.591
17120	  0.182	  0.178	  0.037	 -1.425	 -1.113	  0.744	  1.071	 -0.253	 -0.508	 29.600	 99.510	 -0.606
17170	  0.178	  0.197	  0.067	 -3.097	 -1.350	 -8.184	 -0.403	  2.414	 -0.222	 29.600	 99.497	  0.591
17220	  0.143	  0.184	  0.171	 -3.137	 -1.539	 -17.633	 -2.362	  4.389	 -0.016	 29.600	 99.497	  0.591
17270	  0.076	  0.145	  0.265	  1.068	 -0.512	 -19.490	 -1.154	  2.383	 -0.039	 29.600	 99.510	 -0.606
17320	  0.070	  0.128	  0.257	  0.807	  0.978	 -13.341	  0.012	 -2.496	 -0.068	 29.600	 99.510	 -0.606
17370	  0.119	  0.131	  0.173	  0.252	  0.666	 -6.859	  1.001	 -4.060	  0.078	 29.600	 99.497	  0.591
17420	  0.164	  0.152	  0.079	  0.725	 -1.032	 -2.220	  1.141	 -2.814	 -0.270	 29.600	 99.510	 -0.606
17470	  0.174	  0.164	  0.042	 -2.018	 -2.168	 -1.020	  0.605	 -0.013	  0.300	 29.600	 99.497	  0.591
17520	  0.171	  0.150	  0.064	 -3.236	 -1.415	 -7.035	 -0.546	  2.492	  0.551	 29.600	 99.493	  0.959
17570	  0.142	  0.132	  0.152	 -1.817	  2.559	 -12.187	 -0.670	  3.487	  0.308	 29.600	 99.510	 -0.606
17620	  0.109	  0.128	  0.213	  0.783	  4.053	 -14.958	  0.069	  1.057	 -0.049	 29.600	 99.510	 -0.606
17670	  0.113	  0.142	  0.206	 -1.008	  5.176	 -11.112	  0.263	 -1.434	 -0.437	 29.600	 99.505	 -0.145
17720	  0.131	  0.163	  0.167	 -0.617	  1.794	 -9.015	  0.137	 -1.394	 -0.668	 29.600	 99.497	  0.591
17770	  0.136	  0.181	  0.154	 -2.304	 -8.172	 -11.142	 -1.155	 -0.247	 -0.192	 29.600	 99.497	  0.591
17820	  0.121	  0.136	  0.189	 -2.780	 -9.148	 -11.568	 -2.604	  1.696	  0.357	 29.600	 99.510	 -0.606
17870	  0.084	  0.066	  0.231	 -0.963	 -2.523	 -8.350	 -1.393	  1.819	  1.184	 29.700	 99.514	 -0.974
17920	  0.071	  0.045	  0.239	  1.819	  4.923	 -5.655	  1.409	 -0.734	  1.176	 29.600	 99.510	 -0.606
17970	  0.118	  0.065	  0.182	  3.856	  5.047	 -5.453	  2.373	 -3.005	  0.665	 29.600	 99.510	 -0.606
18020	  0.162	  0.099	  0.123	  3.799	  4.658	 -9.686	  2.077	 -1.579	 -0.227	 29.600	 99.497	  0.591
18070	  0.159	  0.136	  0.138	 -2.600	  0.681	 -9.188	  0.499	  1.872	 -0.510	 29.600	 99.497	  0.591
18120	  0.109	  0.143	  0.213	 -6.594	 -2.003	 -10.712	 -0.530	  3.241	 -0.495	 29.600	 99.497	  0.591
18170	  0.057	  0.149	  0.276	 -7.204	 -5.387	 -13.883	 -0.849	  1.541	 -0.447	 29.600	 99.497	  0.591
18220	  0.070	  0.131	  0.262	 -2.965	 -3.056	 -11.162	 -0.611	 -1.611	  0.079	 29.600	 99.510	 -0.606
18270	  0.128	  0.118	  0.195	  2.989	 -0.735	 -9.542	  0.532	 -2.957	  0.466	 29.600	 99.497	  0.591
18320	  0.179	  0.131	  0.109	  8.698	  0.228	 -10.188	  1.497	 -2.068	 -0.092	 29.600	 99.497	  0.591
18370	  0.183	  0.161	  0.084	  4.534	  1.390	 -10.462	  0.848	  0.330	 -0.626	 29.600	 99.497	  0.591
18420	  0.155	  0.178	  0.129	 -3.773	 -0.212	 -8.725	  0.006	  2.164	 -0.232	 29.600	 99.497	  0.591
18470	  0.104	  0.179	  0.205	 -8.980	 -3.139	 -9.604	 -0.542	  2.482	 -0.152	 29.600	 99.493	  0.959
18520	  0.076	  0.165	  0.240	 -8.668	 -4.362	 -11.251	 -0.961	  0.445	  0.222	 29.600	 99.497	  0.591
18570	  0.105	  0.127	  0.203	 -0.185	 -0.606	 -7.924	 -0.257	 -2.591	  1.141	 29.600	 99.510	 -0.606
18620	  0.169	  0.119	  0.101	  6.927	 -0.534	 -11.848	  1.692	 -3.187	  0.378	 29.600	 99.493	  0.959
18670	  0.189	  0.153	  0.032	  5.370	 -1.250	 -16.982	  1.328	 -0.807	 -1.024	 29.600	 99.510	 -0.606
18720	  0.167	  0.182	  0.060	 -1.933	 -1.300	 -8.575	 -0.199	  1.006	 -0.134	 29.600	 99.497	  0.591
18770	  0.144	  0.164	  0.098	 -3.531	 -0.809	 -4.079	 -1.508	  0.527	  0.001	 29.600	 99.510	 -0.606
18820	  0.137	  0.147	  0.111	 -4.103	 -0.074	 -0.372	 -1.314	 -0.155	 -0.158	 29.600	 99.497	  0.591
18870	  0.146	  0.137	  0.124	 -1.326	 -2.086	 -0.678	 -0.499	  0.293	 -0.059	 29.600	 99.510	 -0.606
18920	  0.145	  0.146	  0.157	 -2.354	 -1.915	 -10.877	  0.814	  1.918	 -0.524	 29.600	 99.497	  0.591
18970	  0.112	  0.197	  0.217	 -0.994	 -4.189	 -24.792	  0.351	  2.910	 -0.787	 29.600	 99.510	 -0.606
19020	  0.076	  0.189	  0.252	  0.120	 -1.261	 -21.317	 -1.342	 -0.285	 -0.074	 29.600	 99.510	 -0.606
19070	  0.094	  0.142	  0.211	  1.242	  0.308	 -10.541	 -1.459	 -2.776	  0.690	 29.600	 99.510	 -0.606
19120	  0.129	  0.106	  0.141	  1.921	 -0.079	 -3.874	 -0.630	 -2.481	  0.376	 29.600	 99.497	  0.591
19170	  0.141	  0.091	  0.096	  2.229	 -0.917	 -0.478	  0.223	 -1.247	 -0.160	 29.600	 99.510	 -0.606
19220	  0.148	  0.104	  0.082	 -1.249	 -0.424	  1.047	  0.794	 -0.165	 -0.315	 29.600	 99.497	  0.591
19270	  0.153	  0.140	  0.101	 -5.914	 -0.427	 -3.686	  0.481	  1.626	  0.167	 29.600	 99.510	 -0.606
19320	  0.128	  0.132	  0.174	 -3.032	 -0.147	 -15.477	  0.055	  4.078	  0.507	 29.600	 99.510	 -0.606
19370	  0.078	  0.131	  0.255	  4.291	 -0.410	 -24.462	 -0.253	  2.145	 -0.054	 29.600	 99.522	 -1.710
19420	  0.069	  0.107	  0.250	  2.125	  1.017	 -16.615	 -0.890	 -2.312	 -0.238	 29.600	 99.510	 -0.606
19470	  0.116	  0.095	  0.169	  1.172	  0.180	 -4.840	  0.155	 -3.796	  0.050	 29.600	 99.497	  0.591
19520	  0.151	  0.111	  0.094	 -0.158	 -0.232	  1.598	  0.774	 -2.837	 -0.596	 29.600	 99.510	 -0.606
19570	  0.169	  0.131	  0.052	 -2.979	  0.074	  2.266	  1.233	  0.139	 -0.118	 29.600	 99.510	 -0.606
19620	  0.170	  0.150	  0.077	 -1.772	 -1.561	 -4.613	  0.952	  2.182	 -0.123	 29.600	 99.497	  0.591
19670	  0.148	  0.180	  0.157	 -0.748	 -1.968	 -17.462	  0.568	  3.873	 -0.658	 29.600	 99.497	  0.591
19720	  0.102	  0.205	  0.220	  0.988	 -4.516	 -22.036	  0.294	  1.518	 -0.740	 29.600	 99.510	 -0.606
19770	  0.103	  0.212	  0.201	  0.039	 -2.300	 -14.969	  0.093	 -2.118	  0.051	 29.600	 99.522	 -1.710
19820	  0.133	  0.204	  0.141	  0.167	 -1.829	 -10.229	  0.148	 -2.262	  0.488	 29.600	 99.497	  0.591
19870	  0.142	  0.182	  0.105	  0.489	 -0.618	 -4.781	 -0.585	 -1.302	  0.375	 29.600	 99.497	  0.591
19920	  0.149	  0.166	  0.093	 -1.157	 -0.168	  0.670	 -1.056	 -0.337	  0.167	 29.600	 99.497	  0.591
19970	  0.145	  0.151	  0.113	 -3.862	 -1.338	  1.374	 -0.641	  1.070	  0.229	 29.600	 99.510	 -0.606
20020	  0.141	  0.143	  0.161	 -1.751	  0.693	 -8.472	  0.239	  2.434	  0.388	 29.600	 99.510	 -0.606
20070	  0.116	  0.152	  0.218	  3.959	 -0.423	 -22.687	  0.327	  2.209	 -0.742	 29.600	 99.510	 -0.606
20120	  0.092	  0.175	  0.243	  0.062	 -1.851	 -21.600	 -0.387	 -0.342	 -0.536	 29.600	 99.505	 -0.145
20170	  0.101	  0.156	  0.211	 -1.122	 -0.916	 -12.394	 -0.222	 -2.016	  0.366	 29.600	 99.510	 -0.606
20220	  0.125	  0.143	  0.151	  1.615	 -0.318	 -5.469	 -0.061	 -2.464	  0.346	 29.600	 99.497	  0.591
20270	  0.142	  0.140	  0.106	 -0.216	 -0.962	  0.084	  0.298	 -1.631	  0.020	 29.600	 99.510	 -0.606
20320	  0.155	  0.140	  0.086	 -2.192	 -1.523	  1.993	  0.455	  0.054	 -0.054	 29.600	 99.502	  0.130
20370	  0.152	  0.162	  0.107	 -3.184	  0.007	 -3.546	  0.469	  1.981	  0.036	 29.600	 99.510	 -0.606
20420	  0.137	  0.167	  0.171	  1.255	 -1.341	 -16.314	  0.532	  3.050	 -0.065	 29.600	 99.493	  0.959
20470	  0.100	  0.188	  0.227	  2.290	 -1.817	 -22.975	 -0.235	  1.786	 -0.723	 29.600	 99.522	 -1.710
20520	  0.076	  0.179	  0.245	 -1.319	 -1.082	 -17.649	 -0.397	 -0.348	  0.071	 29.600	 99.493	  0.959
20570	  0.089	  0.156	  0.213	  0.986	 -0.659	 -11.979	 -0.630	 -2.138	  0.549	 29.600	 99.493	  0.959
20620	  0.110	  0.134	  0.162	  1.743	 -0.347	 -4.591	 -0.640	 -2.577	  0.106	 29.600	 99.510	 -0.606
20670	  0.131	  0.133	  0.103	 -0.873	 -1.653	  1.682	 -0.047	 -1.551	 -0.248	 29.600	 99.497	  0.591
20720	  0.136	  0.139	  0.105	 -3.383	 -2.526	  3.363	  0.003	  0.295	  0.248	 29.600	 99.497	  0.591
20770	  0.138	  0.130	  0.129	 -0.996	  0.638	 -1.664	  0.505	  2.320	  0.467	 29.600	 99.497	  0.591
20820	  0.119	  0.146	  0.193	  2.700	 -0.583	 -17.492	  0.857	  3.102	 -0.310	 29.600	 99.510	 -0.606
20870	  0.080	  0.170	  0.261	  1.521	 -3.097	 -24.026	  0.042	  1.786	 -0.754	 29.600	 99.510	 -0.606
20921	  0.073	  0.180	  0.268	 -0.071	 -2.193	 -17.657	 -0.246	 -1.054	  0.053	 29.600	 99.497	  0.591
20970	  0.098	  0.169	  0.220	  0.723	 -0.318	 -8.989	  0.136	 -2.655	  0.414	 29.600	 99.497	  0.591
21021	  0.130	  0.158	  0.146	  0.681	  0.216	 -1.849	  0.753	 -2.523	  0.167	 29.600	 99.510	 -0.606
21070	  0.154	  0.171	  0.097	 -0.664	 -1.138	  1.979	  1.279	 -1.266	 -0.032	 29.600	 99.497	  0.591
21120	  0.168	  0.188	  0.078	 -2.113	 -1.123	 -4.370	  0.533	  0.886	  0.133	 29.600	 99.510	 -0.606
21170	  0.153	  0.181	  0.146	 -1.276	 -2.629	 -15.950	 -2.083	  3.551	 -0.093	 29.600	 99.510	 -0.606
21220	  0.092	  0.149	  0.252	  1.030	 -0.995	 -16.786	 -2.141	  3.219	 -0.263	 29.600	 99.497	  0.591
21273	  0.063	  0.115	  0.284	  1.073	  0.722	 -13.088	 -0.315	 -0.937	 -0.068	 29.600	 99.497	  0.591
21321	  0.110	  0.124	  0.216	  0.105	 -0.371	 -8.281	  1.270	 -2.873	 -0.022	 29.600	 99.497	  0.591
21371	  0.142	  0.152	  0.160	 -0.883	 -0.810	 -5.042	  1.613	 -2.152	 -0.316	 29.600	 99.485	  1.695
21421	  0.160	  0.185	  0.118	 -2.368	 -1.333	 -5.434	  0.969	 -0.238	 -0.288	 29.600	 99.493	  0.959
21471	  0.156	  0.205	  0.130	 -1.306	 -1.796	 -8.250	 -0.461	  1.035	 -0.041	 29.600	 99.497	  0.591
21521	  0.146	  0.181	  0.166	 -0.739	 -1.309	 -9.394	 -1.226	  1.143	  0.051	 29.600	 99.497	  0.591
21571	  0.139	  0.162	  0.193	 -0.528	 -0.335	 -9.876	 -0.561	  0.554	  0.165	 29.600	 99.497	  0.591
21621	  0.136	  0.148	  0.205	 -0.550	 -0.711	 -10.875	 -0.286	  0.094	  0.125	 29.600	 99.505	 -0.145
21671	  0.146	  0.142	  0.203	 -0.763	 -0.774	 -10.368	 -0.355	 -0.034	  0.221	 29.600	 99.522	 -1.710
21721	  0.149	  0.144	  0.215	 -0.484	 -0.634	 -10.135	 -0.570	  0.103	  0.215	 29.600	 99.510	 -0.606
21771	  0.150	  0.130	  0.220	 -0.315	  0.099	 -9.049	 -0.221	  0.121	  0.209	 29.600	 99.497	  0.591
21821	  0.150	  0.111	  0.216	 -0.388	  0.426	 -9.209	  0.019	  0.022	  0.167	 29.600	 99.510	 -0.606
21871	  0.151	  0.109	  0.219	 -0.374	 -0.021	 -9.427	  0.163	  0.062	  0.127	 29.600	 99.510	 -0.606
21921	  0.149	  0.103	  0.219	 -0.517	 -0.090	 -9.693	 -0.013	  0.092	  0.083	 29.600	 99.497	  0.591
21971	  0.152	  0.102	  0.230	  0.009	  0.034	 -9.848	 -0.108	  0.222	  0.139	 29.600	 99.510	 -0.606
22021	  0.152	  0.099	  0.232	 -0.075	  0.150	 -9.292	 -0.132	  0.068	  0.035	 29.600	 99.510	 -0.606
22071	  0.153	  0.105	  0.232	 -1.721	  2.462	 -9.403	 -0.183	  0.149	  0.026	 29.600	 99.510	 -0.606
22121	  0.155	  0.096	  0.237	 -0.395	 -0.012	 -9.495	  0.005	 -0.002	  0.018	 29.600	 99.497	  0.591
22171	  0.152	  0.098	  0.241	 -0.189	  0.080	 -9.383	 -0.039	  0.063	  0.003	 29.600	 99.522	 -1.710
22221	  0.150	  0.092	  0.239	 -0.146	  0.214	 -9.476	 -0.019	  0.068	  0.019	 29.600	 99.510	 -0.606
22271	  0.152	  0.092	  0.241	 -0.268	  0.094	 -9.461	 -0.020	  0.058	  0.011	 29.600	 99.493	  0.959
22321	  0.147	  0.087	  0.245	 -0.889	  0.286	 -9.857	 -0.126	  0.355	  0.160	 29.600	 99.497	  0.591
22371	  0.143	  0.084	  0.244	 -0.872	  0.312	 -9.570	  0.005	 -0.046	  0.011	 29.600	 99.497	  0.591
22421	  0.147	  0.091	  0.243	 -0.072	  0.129	 -9.458	  0.003	  0.021	  0.011	 29.600	 99.497	  0.591
22471	  0.141	  0.092	  0.242	 -0.343	  0.151	 -9.558	  0.005	  0.022	  0.009	 29.600	 99.510	 -0.606
22521	  0.147	  0.091	  0.247	 -0.173	  0.045	 -9.553	  0.001	  0.000	 -0.000	 29.600	 99.510	 -0.606
22571	  0.147	  0.088	  0.247	 -0.090	  0.155	 -9.472	  0.002	  0.001	 -0.034	 29.600	 99.497	  0.591
22621	  0.140	  0.093	  0.247	  0.055	  0.116	 -9.516	  0.001	 -0.003	 -0.143	 29.600	 99.497	  0.591
22671	  0.143	  0.107	  0.249	  0.113	  0.177	 -9.439	  0.005	 -0.013	  0.012	 29.600	 99.493	  0.959
22721	  0.143	  0.107	  0.245	 -0.086	  0.128	 -9.525	  0.003	  0.005	  0.009	 29.600	 99.497	  0.591
22771	  0.145	  0.106	  0.248	  0.071	  0.207	 -9.472	  0.002	 -0.007	  0.012	 29.600	 99.497	  0.591
22821	  0.141	  0.096	  0.236	  0.040	  0.192	 -9.470	  0.003	 -0.004	  0.011	 29.600	 99.505	 -0.145
22871	  0.144	  0.101	  0.237	  0.059	  0.164	 -9.512	  0.001	 -0.002	  0.011	 29.600	 99.497	  0.591
22921	  0.147	  0.092	  0.249	  0.154	  0.134	 -9.482	  0.002	 -0.020	  0.011	 29.600	 99.510	 -0.606
22971	  0.144	  0.092	  0.243	 -0.265	  0.205	 -9.474	  0.001	 -0.014	  0.011	 29.600	 99.497	  0.591
23021	  0.144	  0.107	  0.250	 -0.762	  0.158	 -9.651	  0.003	  0.018	 -0.046	 29.600	 99.497	  0.591
23071	  0.146	  0.097	  0.248	 -0.172	  0.199	 -9.474	 -0.002	 -0.004	 -0.353	 29.600	 99.510	 -0.606
23121	  0.143	  0.105	  0.244	  0.149	  0.180	 -9.434	 -0.001	 -0.004	 -0.364	 29.600	 99.497	  0.591
23171	  0.144	  0.123	  0.244	  0.183	  0.196	 -9.416	 -0.000	  0.002	 -0.178	 29.600	 99.497	  0.591
23221	  0.140	  0.116	  0.241	 -0.280	  0.183	 -9.542	  0.005	  0.018	  0.004	 29.600	 99.493	  0.959
23271	  0.141	  0.131	  0.249	  0.082	  0.173	 -9.441	  0.001	 -0.004	  0.010	 29.600	 99.505	 -0.145
23321	  0.139	  0.121	  0.248	 -0.054	  0.123	 -9.532	  0.002	  0.003	  0.013	 29.600	 99.493	  0.959
23371	  0.141	  0.127	  0.246	 -0.082	  0.194	 -9.489	  0.003	 -0.001	  0.015	 29.600	 99.510	 -0.606
23421	  0.140	  0.127	  0.249	  0.004	  0.332	 -9.457	  0.005	 -0.001	  0.176	 29.600	 99.485	  1.695
23470	  0.140	  0.106	  0.247	 -0.040	  0.128	 -9.493	  0.004	 -0.003	  0.188	 29.600	 99.497	  0.591
23521	  0.140	  0.105	  0.248	  0.121	  0.238	 -9.474	  0.004	 -0.005	  0.167	 29.600	 99.497	  0.591
23571	  0.139	  0.106	  0.249	 -0.201	  0.221	 -9.616	  0.004	  0.021	  0.092	 29.600	 99.493	  0.959
23621	  0.145	  0.097	  0.234	 -0.022	 -0.197	 -9.468	  0.004	  0.020	  0.006	 29.600	 99.497	  0.591
23671	  0.139	  0.099	  0.229	  0.082	  0.503	 -9.549	  0.001	 -0.020	 -0.041	 29.600	 99.510	 -0.606
23721	  0.140	  0.090	  0.219	 -0.636	  0.216	 -9.543	  0.004	  0.023	  0.009	 29.600	 99.505	 -0.145
23772	  0.135	  0.089	  0.224	  0.454	  0.190	 -9.399	  0.001	 -0.023	 -0.008	 29.600	 99.493	  0.959
23821	  0.134	  0.090	  0.224	  0.086	  0.231	 -9.447	 -0.002	  0.002	  0.012	 29.600	 99.510	 -0.606
23871	  0.131	  0.089	  0.222	  0.086	  0.147	 -9.426	  0.003	 -0.003	  0.011	 29.600	 99.510	 -0.606
23920	  0.129	  0.103	  0.219	  0.047	  0.146	 -9.510	  0.004	  0.001	  0.010	 29.600	 99.493	  0.959
23970	  0.130	  0.087	  0.210	  0.007	  0.145	 -9.468	  0.002	  0.000	  0.008	 29.600	 99.493	  0.959
24020	  0.133	  0.083	  0.216	 -0.002	 -0.000	 -9.565	 -0.004	  0.000	  0.012	 29.600	 99.493	  0.959
24070	  0.129	  0.092	  0.217	 -0.053	  0.217	 -9.469	  0.003	 -0.004	  0.013	 29.600	 99.497	  0.591
24120	  0.130	  0.089	  0.218	  0.300	  0.289	 -9.414	 -0.003	 -0.086	  0.013	 29.600	 99.510	 -0.606
24170	  0.130	  0.082	  0.213	  0.056	  0.249	 -9.439	  0.007	  0.023	  0.110	 29.600	 99.505	 -0.145
24220	  0.131	  0.084	  0.211	 -0.822	  0.339	 -9.676	  0.002	  0.030	  0.258	 29.600	 99.522	 -1.710
24270	  0.128	  0.076	  0.216	  0.037	  0.405	 -9.461	  0.009	 -0.005	  0.217	 29.600	 99.497	  0.591
24320	  0.132	  0.069	  0.211	 -0.104	  0.251	 -9.583	  0.005	 -0.007	  0.171	 29.600	 99.510	 -0.606
24370	  0.133	  0.070	  0.216	  0.131	  0.293	 -9.325	 -0.003	 -0.015	  0.095	 29.600	 99.493	  0.959
24420	  0.137	  0.069	  0.226	  0.458	 -0.875	 -9.606	  0.004	  0.049	 -0.114	 29.600	 99.497	  0.591
24470	  0.143	  0.064	  0.218	  0.148	  0.041	 -9.410	  0.000	 -0.011	 -0.234	 29.600	 99.510	 -0.606
24520	  0.133	  0.070	  0.223	 -0.372	  0.761	 -9.453	 -0.000	  0.010	 -0.211	 29.600	 99.510	 -0.606
24570	  0.137	  0.073	  0.227	 -0.296	  0.201	 -9.499	 -0.001	 -0.007	  0.009	 29.600	 99.505	 -0.145
24620	  0.134	  0.079	  0.224	 -0.048	  0.085	 -9.544	  0.004	 -0.019	  0.012	 29.600	 99.510	 -0.606
24670	  0.138	  0.080	  0.226	  0.110	  0.141	 -9.466	  0.002	 -0.006	  0.013	 29.600	 99.522	 -1.710
24720	  0.134	  0.084	  0.228	  0.065	  0.178	 -9.462	  0.003	 -0.002	  0.011	 29.600	 99.505	 -0.145
24770	  0.138	  0.075	  0.223	  0.035	  0.121	 -9.498	  0.003	 -0.002	  0.012	 29.600	 99.510	 -0.606
24820	  0.138	  0.084	  0.221	 -0.154	  0.287	 -9.449	  0.005	 -0.005	  0.011	 29.600	 99.505	 -0.145
24870	  0.134	  0.079	  0.228	  0.096	  0.149	 -9.443	  0.005	 -0.006	  0.012	 29.600	 99.505	 -0.145
24920	  0.132	  0.076	  0.227	  0.017	  0.156	 -9.517	  0.003	 -0.005	  0.013	 29.600	 99.497	  0.591
24970	  0.136	  0.075	  0.223	 -1.466	  0.650	 -9.601	  0.011	 -0.062	  0.113	 29.600	 99.493	  0.959
25020	  0.137	  0.066	  0.225	 -1.269	  0.121	 -9.797	  0.002	  0.050	  0.377	 29.600	 99.497	  0.591
25070	  0.138	  0.066	  0.222	 -0.666	  0.340	 -9.553	  0.015	 -0.008	  0.566	 29.600	 99.497	  0.591
25120	  0.142	  0.044	  0.217	  0.414	  0.315	 -9.507	  0.011	 -0.041	  0.747	 29.600	 99.505	 -0.145
25170	  0.140	  0.021	  0.218	  0.325	  0.267	 -9.399	  0.018	 -0.045	  0.883	 29.600	 99.510	 -0.606
25220	  0.147	  0.003	  0.219	  0.258	  0.194	 -9.548	  0.009	 -0.007	  0.797	 29.600	 99.505	 -0.145
25270	  0.144	 -0.025	  0.217	  0.093	  0.099	 -9.547	  0.010	 -0.007	  0.547	 29.600	 99.510	 -0.606
25320	  0.144	 -0.037	  0.212	  0.091	  0.160	 -9.451	  0.012	 -0.040	  0.307	 29.600	 99.518	 -1.342
25370	  0.140	 -0.040	  0.212	 -0.429	 -0.117	 -9.414	  0.002	  0.017	  0.317	 29.600	 99.497	  0.591
25420	  0.139	 -0.049	  0.212	 -0.376	  0.111	 -9.446	  0.016	 -0.021	  0.472	 29.600	 99.510	 -0.606
25470	  0.137	 -0.051	  0.209	 -0.245	  0.079	 -9.519	  0.004	  0.003	  0.294	 29.600	 99.505	 -0.145
25520	  0.134	 -0.063	  0.210	 -0.673	 -0.060	 -9.614	 -0.011	  0.078	  0.575	 29.600	 99.505	 -0.145
25570	  0.135	 -0.073	  0.210	  1.324	 -0.342	 -9.485	  0.003	 -0.013	  0.182	 29.600	 99.497	  0.591
25620	  0.133	 -0.073	  0.214	 -0.544	  0.115	 -9.575	  0.003	  0.078	  0.011	 29.600	 99.510	 -0.606
25670	  0.134	 -0.073	  0.211	  0.212	 -0.097	 -9.557	  0.002	 -0.029	  0.013	 29.600	 99.505	 -0.145
25720	  0.132	 -0.073	  0.207	  0.496	  0.223	 -9.409	  0.002	 -0.112	  0.014	 29.600	 99.510	 -0.606
25770	  0.137	 -0.078	  0.211	 -0.428	  0.216	 -9.476	 -0.006	  0.071	  0.126	 29.600	 99.510	 -0.606
25820	  0.134	 -0.074	  0.211	  1.036	  0.720	 -8.345	  0.016	 -0.056	  0.048	 29.600	 99.510	 -0.606
25870	  0.137	 -0.069	  0.211	 -0.110	  0.146	 -9.476	  0.003	 -0.002	 -0.048	 29.600	 99.510	 -0.606
25920	  0.132	 -0.073	  0.216	  0.144	  0.232	 -9.488	 -0.001	 -0.005	  0.001	 29.600	 99.510	 -0.606
25970	  0.134	 -0.073	  0.213	  1.256	  0.087	 -9.253	 -0.001	 -0.035	 -0.258	 29.600	 99.497	  0.591
26020	  0.132	 -0.060	  0.204	 -0.453	  0.416	 -9.593	 -0.004	  0.002	 -0.417	 29.600	 99.497	  0.591
26070	  0.133	 -0.055	  0.215	 -0.009	  0.135	 -9.527	 -0.004	  0.008	 -0.334	 29.600	 99.497	  0.591
26121	  0.132	 -0.027	  0.217	 -0.215	  0.246	 -9.455	  0.000	  0.001	 -0.265	 29.600	 99.497	  0.591
26170	  0.133	 -0.040	  0.217	 -0.124	  0.151	 -9.523	 -0.001	  0.005	 -0.304	 29.600	 99.493	  0.959
26220	  0.130	 -0.025	  0.215	  0.432	 -0.004	 -9.089	 -0.003	 -0.000	 -0.387	 29.600	 99.497	  0.591
26270	  0.133	 -0.025	  0.218	  0.686	  0.114	 -9.433	 -0.002	 -0.109	 -0.004	 29.600	 99.497	  0.591
26320	  0.136	 -0.022	  0.217	  0.056	  0.302	 -9.514	  0.002	 -0.024	 -0.113	 29.600	 99.505	 -0.145
26370	  0.135	 -0.020	  0.215	 -0.304	  0.239	 -9.512	  0.041	 -0.118	  0.006	 29.600	 99.510	 -0.606
26420	  0.136	 -0.018	  0.217	  0.182	  0.069	 -9.521	 -0.006	  0.027	  0.019	 29.600	 99.493	  0.959
26470	  0.129	 -0.016	  0.223	  0.127	  0.094	 -9.457	 -0.004	  0.002	 -0.142	 29.600	 99.510	 -0.606
26520	  0.135	 -0.009	  0.221	 -0.023	  0.070	 -9.404	  0.051	 -0.130	 -0.126	 29.600	 99.505	 -0.145
26570	  0.131	  0.002	  0.219	 -0.371	  0.098	 -10.095	  0.163	 -0.238	 -0.011	 29.600	 99.510	 -0.606
26620	  0.142	 -0.011	  0.207	  0.060	 -0.102	 -9.754	  0.297	 -0.403	  0.136	 29.600	 99.510	 -0.606
26670	  0.142	  0.003	  0.203	 -0.175	 -0.529	 -11.965	  0.074	 -0.159	 -0.034	 29.600	 99.493	  0.959
26720	  0.137	  0.006	  0.204	 -2.436	  0.284	 -13.301	  0.086	  0.286	 -0.083	 29.600	 99.510	 -0.606
26771	  0.125	  0.012	  0.206	 -1.891	 -0.925	 -15.227	  0.262	  0.085	  0.231	 29.600	 99.497	  0.591
26820	  0.112	  0.003	  0.191	 -0.877	 -0.568	 -14.838	 -0.461	 -0.673	  0.256	 29.600	 99.505	 -0.145
26871	  0.104	 -0.007	  0.164	 -0.385	  0.796	 -10.089	 -0.601	 -0.912	  0.515	 29.600	 99.493	  0.959
26921	  0.106	 -0.039	  0.137	  3.175	 -1.652	 -1.853	 -0.658	 -1.506	  0.427	 29.600	 99.505	 -0.145
26971	  0.121	 -0.061	  0.079	  1.494	 -1.589	  4.770	 -0.491	 -2.678	  0.675	 29.600	 99.493	  0.959
27021	  0.150	 -0.086	  0.037	  3.491	 -0.371	  2.824	 -0.103	 -0.945	  0.699	 29.600	 99.505	 -0.145
27071	  0.150	 -0.075	  0.081	 -1.473	  0.727	 -3.601	  1.245	  3.655	 -1.233	 29.600	 99.493	  0.959
27121	  0.115	 -0.002	  0.193	 -2.113	  1.794	 -16.985	  2.117	  4.044	 -1.594	 29.600	 99.510	 -0.606
27171	  0.084	  0.037	  0.254	 -2.343	 -3.877	 -26.148	 -0.724	  0.365	 -0.383	 29.600	 99.510	 -0.606
27221	  0.084	  0.002	  0.255	 -1.532	  0.344	 -13.208	 -1.229	 -0.267	  0.582	 29.600	 99.510	 -0.606
27271	  0.088	 -0.026	  0.239	  0.931	  0.656	 -8.179	 -0.078	 -0.668	  0.603	 29.600	 99.510	 -0.606
27321	  0.103	 -0.027	  0.217	  0.559	  0.025	 -7.309	  0.255	 -0.949	 -0.032	 29.600	 99.510	 -0.606
27371	  0.112	 -0.007	  0.208	 -0.833	  0.349	 -7.506	  0.348	 -0.194	 -0.177	 29.600	 99.493	  0.959
27421	  0.117	 -0.012	  0.207	 -0.159	 -0.179	 -8.313	 -0.032	  0.045	 -0.008	 29.600	 99.493	  0.959
27471	  0.111	 -0.020	  0.201	 -0.122	  0.262	 -8.937	 -0.351	  0.363	 -0.019	 29.600	 99.518	 -1.342
27521	  0.104	 -0.012	  0.217	  0.249	  0.278	 -9.693	 -0.351	  0.377	  0.104	 29.600	 99.505	 -0.145
27571	  0.105	 -0.041	  0.224	 -0.501	  0.653	 -9.760	 -0.279	 -0.439	  0.305	 29.600	 99.510	 -0.606
27621	  0.119	 -0.055	  0.206	 -0.546	  0.494	 -9.870	 -0.287	 -0.434	  0.373	 29.600	 99.510	 -0.606
27670	  0.119	 -0.067	  0.205	 -0.649	  0.561	 -10.058	 -0.092	  0.218	  0.008	 29.600	 99.505	 -0.145
27720	  0.113	 -0.060	  0.215	 -0.480	  0.649	 -9.513	 -0.062	  0.304	 -0.304	 29.600	 99.497	  0.591
27770	  0.108	 -0.050	  0.223	 -0.882	  0.903	 -9.633	  0.107	 -0.026	 -0.401	 29.600	 99.505	 -0.145
27820	  0.109	 -0.039	  0.218	 -1.600	  0.539	 -11.391	  0.325	  0.077	 -0.246	 29.600	 99.510	 -0.606
27870	  0.105	 -0.026	  0.219	 -1.463	  0.005	 -16.407	  0.242	  0.215	 -0.304	 29.600	 99.505	 -0.145
27920	  0.100	 -0.022	  0.205	 -1.578	  0.739	 -18.902	 -0.561	 -0.268	  0.260	 29.600	 99.510	 -0.606
27970	  0.099	 -0.044	  0.170	  1.505	  2.053	 -11.131	 -0.861	 -1.956	  0.671	 29.600	 99.493	  0.959
28020	  0.121	 -0.066	  0.115	  2.695	  0.944	 -2.114	  0.148	 -2.989	  0.500	 29.600	 99.493	  0.959
28070	  0.140	 -0.066	  0.042	  2.793	 -2.794	  5.346	  0.178	 -2.761	 -0.304	 29.600	 99.493	  0.959
28120	  0.161	 -0.057	  0.018	 -0.174	 -0.849	  6.156	 -0.545	  0.663	 -0.103	 29.600	 99.485	  1.695
28170	  0.157	 -0.061	  0.065	 -0.097	  1.487	 -5.622	  0.328	  3.472	  0.026	 29.600	 99.493	  0.959
28220	  0.121	 -0.040	  0.167	 -2.843	  2.303	 -17.365	  1.257	  3.887	 -0.911	 29.600	 99.505	 -0.145
28270	  0.097	  0.032	  0.222	 -3.713	 -2.092	 -30.849	  1.356	  0.479	 -1.130	 29.600	 99.510	 -0.606
28320	  0.114	  0.040	  0.184	 -1.663	 -0.994	 -20.140	  0.157	 -2.438	  0.248	 29.600	 99.510	 -0.606
28371	  0.139	  0.047	  0.117	  2.041	 -0.309	 -7.258	  0.188	 -2.560	  0.002	 29.600	 99.510	 -0.606
28420	  0.149	  0.042	  0.061	  4.182	  0.327	  1.333	  0.446	 -2.050	 -0.331	 29.600	 99.505	 -0.145
28470	  0.163	  0.065	  0.025	  1.287	  0.433	  3.595	  0.659	 -0.908	 -0.102	 29.600	 99.493	  0.959
28520	  0.167	  0.057	  0.035	  0.650	 -0.271	 -1.271	 -0.489	  2.020	 -0.189	 29.600	 99.493	  0.959
28570	  0.146	  0.066	  0.116	 -3.856	 -1.460	 -11.993	 -0.999	  3.899	 -0.598	 29.600	 99.505	 -0.145
28620	  0.096	  0.076	  0.216	 -2.059	 -0.229	 -19.658	 -0.240	  2.610	 -0.577	 29.600	 99.510	 -0.606
28670	  0.082	  0.070	  0.232	 -1.088	 -1.085	 -20.288	 -0.258	 -0.452	  0.001	 29.600	 99.510	 -0.606
28720	  0.107	  0.061	  0.199	 -0.151	 -0.862	 -11.384	 -0.226	 -1.682	  0.215	 29.600	 99.505	 -0.145
28770	  0.121	  0.055	  0.160	  0.304	 -0.038	 -6.755	  0.048	 -1.250	  0.083	 29.600	 99.497	  0.591
28820	  0.133	  0.058	  0.132	  0.175	 -0.096	 -5.726	  0.088	 -0.486	 -0.037	 29.600	 99.493	  0.959
28870	  0.132	  0.073	  0.133	 -0.613	  0.060	 -6.794	  0.120	  0.175	 -0.128	 29.600	 99.493	  0.959
28921	  0.128	  0.065	  0.137	 -0.768	 -0.118	 -7.863	  0.032	  0.355	 -0.143	 29.600	 99.510	 -0.606
28971	  0.125	  0.076	  0.149	 -0.684	 -0.305	 -8.418	 -0.110	  0.416	 -0.111	 29.600	 99.510	 -0.606
29021	  0.116	  0.074	  0.167	 -0.622	 -0.468	 -9.173	 -0.200	  0.681	 -0.081	 29.600	 99.510	 -0.606
29071	  0.109	  0.061	  0.183	 -0.464	 -0.365	 -10.057	 -0.320	  0.607	 -0.099	 29.600	 99.505	 -0.145
29121	  0.105	  0.054	  0.195	 -0.461	 -0.026	 -9.847	 -0.341	  0.321	  0.111	 29.600	 99.518	 -1.342
29171	  0.106	  0.049	  0.202	 -0.393	  0.378	 -9.958	 -0.178	  0.268	  0.128	 29.600	 99.505	 -0.145
29221	  0.106	  0.038	  0.213	 -0.022	  0.330	 -9.685	 -0.116	  0.075	  0.178	 29.600	 99.497	  0.591
29271	  0.112	  0.033	  0.208	 -0.222	  0.674	 -9.437	  0.021	 -0.062	  0.115	 29.600	 99.510	 -0.606
29321	  0.108	  0.035	  0.227	 -0.025	  0.394	 -10.077	  0.079	  0.095	  0.117	 29.600	 99.497	  0.591
29371	  0.117	  0.035	  0.219	  0.210	  0.289	 -9.853	 -0.028	 -0.095	  0.052	 29.600	 99.505	 -0.145
29421	  0.117	  0.031	  0.214	 -0.396	  0.336	 -9.890	 -0.016	 -0.162	  0.015	 29.600	 99.497	  0.591
29471	  0.123	  0.033	  0.210	 -0.333	  0.371	 -9.535	 -0.041	 -0.023	  0.104	 29.600	 99.505	 -0.145
29521	  0.125	  0.027	  0.220	 -0.098	  0.315	 -9.515	  0.015	  0.053	  0.065	 29.600	 99.493	  0.959
29571	  0.126	  0.022	  0.210	 -0.326	  0.516	 -10.135	 -0.053	 -0.152	  0.097	 29.600	 99.493	  0.959
29621	  0.130	  0.017	  0.204	 -0.132	  0.405	 -9.402	 -0.087	  0.008	  0.114	 29.600	 99.505	 -0.145
29671	  0.129	  0.013	  0.214	 -0.056	  0.372	 -9.271	 -0.134	 -0.080	  0.051	 29.600	 99.505	 -0.145
29721	  0.134	  0.021	  0.213	 -0.142	  0.539	 -9.065	 -0.207	 -0.278	  0.037	 29.600	 99.510	 -0.606
29770	  0.137	 -0.004	  0.200	 -0.458	  0.671	 -9.045	 -0.291	 -0.397	  0.088	 29.600	 99.505	 -0.145
29821	  0.145	  0.001	  0.199	 -0.645	  0.551	 -9.071	 -0.008	  0.002	  0.181	 29.600	 99.505	 -0.145
29871	  0.146	 -0.003	  0.197	 -0.762	  0.530	 -9.511	  0.024	 -0.027	  0.011	 29.600	 99.505	 -0.145
29921	  0.147	  0.008	  0.197	 -0.347	  0.777	 -9.506	 -0.003	  0.010	  0.007	 29.600	 99.510	 -0.606
29970	  0.147	 -0.001	  0.199	  0.150	  1.259	 -9.009	  0.165	 -0.213	 -0.006	 29.600	 99.505	 -0.145
30021	  0.152	  0.007	  0.183	 -1.334	 -0.065	 -9.879	  0.211	 -0.242	 -0.125	 29.600	 99.505	 -0.145
30070	  0.150	  0.008	  0.187	 -2.017	 -0.322	 -9.797	 -0.156	  0.170	 -0.108	 29.600	 99.505	 -0.145
30120	  0.141	  0.006	  0.194	 -0.951	  0.385	 -9.533	 -0.388	  0.527	 -0.005	 29.600	 99.505	 -0.145
30170	  0.139	 -0.002	  0.208	  0.762	  1.642	 -8.731	 -0.123	  0.243	  0.047	 29.600	 99.505	 -0.145
30221	  0.140	 -0.007	  0.194	  0.638	  1.396	 -8.920	  0.212	 -0.370	  0.006	 29.600	 99.493	  0.959
30270	  0.147	  0.006	  0.191	 -1.021	  0.663	 -9.269	  0.342	 -0.481	 -0.020	 29.600	 99.505	 -0.145
30320	  0.155	  0.013	  0.187	 -1.912	 -0.201	 -9.608	  0.038	 -0.041	 -0.023	 29.600	 99.510	 -0.606
30370	  0.150	  0.008	  0.193	 -1.133	  0.435	 -9.552	 -0.191	  0.236	  0.038	 29.600	 99.493	  0.959
30420	  0.148	  0.009	  0.195	  0.062	  0.826	 -9.281	  0.022	 -0.016	  0.094	 29.600	 99.505	 -0.145
30470	  0.147	  0.008	  0.190	 -0.959	  0.463	 -9.729	  0.116	 -0.145	 -0.012	 29.600	 99.493	  0.959
30520	  0.152	  0.018	  0.191	 -0.764	  0.541	 -9.428	  0.063	 -0.067	  0.018	 29.600	 99.505	 -0.145
30570	  0.154	  0.009	  0.183	 -1.029	  0.376	 -9.520	  0.047	 -0.048	  0.011	 29.600	 99.505	 -0.145
30620	  0.153	  0.008	  0.189	 -0.878	  0.317	 -9.475	 -0.022	  0.032	  0.069	 29.600	 99.493	  0.959
30670	  0.154	  0.003	  0.186	 -0.630	  0.591	 -9.332	  0.019	 -0.008	  0.116	 29.600	 99.505	 -0.145
30720	  0.154	  0.014	  0.191	 -0.479	  0.782	 -9.358	  0.046	 -0.038	  0.058	 29.600	 99.505	 -0.145
30770	  0.152	  0.006	  0.181	 -1.204	  0.256	 -9.675	 -0.127	  0.152	  0.018	 29.600	 99.505	 -0.145
30820	  0.147	  0.006	  0.194	 -0.043	  0.903	 -8.902	 -0.049	  0.071	  0.015	 29.600	 99.493	  0.959
30870	  0.149	 -0.003	  0.193	 -1.236	  0.266	 -9.696	 -0.114	  0.169	  0.094	 29.600	 99.505	 -0.145
30920	  0.144	 -0.013	  0.198	 -0.497	  0.758	 -9.330	 -0.122	  0.182	  0.093	 29.600	 99.497	  0.591
30970	  0.143	 -0.009	  0.199	 -0.554	  0.758	 -9.348	 -0.043	  0.059	  0.024	 29.600	 99.505	 -0.145
31020	  0.139	 -0.003	  0.203	 -0.443	  0.727	 -9.400	  0.001	  0.001	  0.013	 29.600	 99.505	 -0.145
31070	  0.141	 -0.009	  0.199	 -0.464	  0.773	 -9.408	  0.002	  0.001	  0.017	 29.600	 99.505	 -0.145
31120	  0.139	 -0.008	  0.197	 -0.439	  0.752	 -9.376	  0.012	 -0.011	  0.014	 29.600	 99.510	 -0.606
31170	  0.141	 -0.016	  0.199	 -0.506	  0.719	 -9.414	  0.012	 -0.010	  0.014	 29.600	 99.505	 -0.145
31220	  0.146	  0.006	  0.198	 -0.619	  0.640	 -9.505	  0.038	 -0.046	  0.013	 29.600	 99.497	  0.591
31270	  0.146	 -0.007	  0.202	 -0.931	  0.632	 -9.614	  0.001	 -0.008	  0.037	 29.600	 99.493	  0.959
31320	  0.143	 -0.011	  0.199	 -0.585	  0.515	 -9.427	 -0.054	  0.069	  0.063	 29.600	 99.522	 -1.710
31370	  0.141	 -0.009	  0.199	 -0.383	  0.637	 -9.320	 -0.009	  0.021	  0.052	 29.600	 99.505	 -0.145
31420	  0.143	 -0.011	  0.198	 -0.468	  0.734	 -9.479	  0.004	  0.008	  0.043	 29.600	 99.505	 -0.145
31470	  0.142	 -0.011	  0.201	 -0.600	  0.735	 -9.507	 -0.002	  0.009	  0.050	 29.600	 99.510	 -0.606
31520	  0.144	 -0.015	  0.201	 -0.125	  0.790	 -9.343	 -0.002	  0.007	  0.076	 29.600	 99.518	 -1.342
31570	  0.141	 -0.018	  0.198	 -0.380	  0.908	 -9.274	  0.056	 -0.087	 -0.001	 29.600	 99.505	 -0.145
31620	  0.147	 -0.001	  0.199	 -0.844	  0.524	 -9.507	  0.119	 -0.163	  0.012	 29.600	 99.505	 -0.145
31670	  0.146	 -0.013	  0.197	 -0.718	  0.579	 -9.466	  0.083	 -0.117	  0.007	 29.600	 99.505	 -0.145
31720	  0.152	 -0.009	  0.194	 -1.285	  0.225	 -9.875	  0.060	 -0.073	  0.028	 29.600	 99.505	 -0.145
31770	  0.148	  0.002	  0.195	 -0.797	  0.528	 -9.463	 -0.003	  0.009	  0.029	 29.600	 99.510	 -0.606
31820	  0.151	 -0.003	  0.191	 -0.722	  0.597	 -9.451	  0.007	 -0.010	 -0.003	 29.600	 99.505	 -0.145
31870	  0.149	  0.003	  0.189	 -1.179	  0.824	 -8.949	  0.071	 -0.068	 -0.023	 29.600	 99.505	 -0.145
31920	  0.154	 -0.002	  0.193	 -0.786	  0.550	 -9.420	  0.012	 -0.025	 -0.058	 29.600	 99.505	 -0.145
31971	  0.148	 -0.006	  0.189	 -0.969	  0.189	 -9.565	 -0.064	  0.073	 -0.016	 29.600	 99.505	 -0.145
32020	  0.149	 -0.009	  0.189	  6.588	  5.708	 -4.803	  0.210	 -0.338	  0.120	 29.600	 99.497	  0.591
32070	  0.160	  0.014	  0.177	 -0.884	  0.565	 -9.490	  0.516	 -0.485	 -0.221	 29.600	 99.493	  0.959
32120	  0.160	  0.020	  0.176	 -2.126	 -0.745	 -9.774	 -0.144	  0.140	 -0.163	 29.600	 99.505	 -0.145
32170	  0.156	  0.022	  0.178	 -1.708	 -0.025	 -9.256	 -0.214	  0.197	  0.035	 29.600	 99.505	 -0.145
32220	  0.152	  0.012	  0.176	 -1.037	 -0.158	 -9.507	 -0.209	  0.198	  0.091	 29.600	 99.505	 -0.145
32270	  0.148	  0.003	  0.189	 -0.875	  0.505	 -9.414	 -0.213	  0.248	  0.078	 29.600	 99.505	 -0.145
32320	  0.145	  0.001	  0.195	 -0.127	  0.880	 -9.346	 -0.059	  0.093	  0.061	 29.600	 99.493	  0.959
32370	  0.142	 -0.003	  0.191	 -0.511	  0.493	 -9.430	 -0.002	  0.011	  0.048	 29.600	 99.505	 -0.145
32420	  0.142	 -0.007	  0.193	 -0.436	  0.816	 -9.315	  0.076	 -0.091	  0.060	 29.600	 99.493	  0.959
32470	  0.146	  0.004	  0.190	 -1.346	  0.283	 -9.623	  0.063	 -0.084	 -0.023	 29.600	 99.505	 -0.145
32521	  0.143	 -0.006	  0.186	 -1.111	  0.260	 -9.623	 -0.058	  0.070	  0.009	 29.600	 99.505	 -0.145
32571	  0.146	 -0.006	  0.191	 -0.053	  1.005	 -9.144	  0.038	 -0.041	  0.035	 29.600	 99.505	 -0.145
32621	  0.143	 -0.002	  0.190	 -0.918	  0.454	 -9.551	  0.028	 -0.035	  0.011	 29.600	 99.518	 -1.342
