Time	 MagX	 MagY	 MagZ	 AccelX	 AccelY	 AccelZ	 Yaw	 Pitch	 Roll	 Temperature	 Pressure	 Altitude
14327	 -0.165	  0.595	  0.469	  0.165	 -0.134	 -9.842	 -0.003	  0.000	  0.001	 31.800	 99.522	 -99999.000
14377	 -0.169	  0.587	  0.463	  0.159	 -0.112	 -9.851	 -0.003	  0.002	  0.001	 31.800	 99.522	 -99999.000
14427	 -0.168	  0.585	  0.468	  0.157	 -0.093	 -9.819	 -0.002	  0.001	  0.001	 31.800	 99.533	 -99999.000
14477	 -0.167	  0.578	  0.470	  0.131	 -0.086	 -9.850	 -0.004	  0.002	  0.001	 31.800	 99.522	 -99999.000
14527	 -0.166	  0.586	  0.464	 -0.183	  0.310	 -9.842	 -0.001	  0.002	  0.004	 31.800	 99.533	 -99999.000
14577	 -0.163	  0.584	  0.474	  0.159	 -0.249	 -9.881	 -0.002	  0.000	 -0.002	 31.800	 99.533	 -99999.000
14627	 -0.163	  0.584	  0.469	  0.121	 -0.092	 -9.863	 -0.003	  0.001	  0.001	 31.800	 99.533	 -99999.000
14677	 -0.162	  0.589	  0.475	  0.169	 -0.144	 -9.870	 -0.004	  0.001	  0.000	 31.800	 99.522	 -99999.000
14727	 -0.163	  0.582	  0.471	  0.131	 -0.157	 -9.865	 -0.003	  0.002	  0.001	 31.800	 99.533	 -99999.000
14777	 -0.163	  0.582	  0.471	  0.173	 -0.116	 -9.865	 -0.004	  0.003	  0.001	 31.800	 99.522	 -99999.000
14827	 -0.162	  0.583	  0.470	  0.155	 -0.097	 -9.821	 -0.003	  0.002	  0.002	 31.800	 99.529	 -99999.000
14877	 -0.162	  0.580	  0.476	  0.236	 -0.282	 -9.823	 -0.002	 -0.001	  0.003	 31.800	 99.522	 -99999.000
14927	 -0.161	  0.585	  0.475	  0.096	  0.030	 -9.807	 -0.001	 -0.004	  0.001	 31.800	 99.522	 -99999.000
14977	 -0.161	  0.580	  0.474	  0.111	 -0.101	 -9.835	 -0.002	 -0.003	  0.001	 31.800	 99.533	 -99999.000
15027	 -0.157	  0.584	  0.476	  0.161	 -0.083	 -9.808	 -0.003	  0.001	  0.001	 31.800	 99.533	 -99999.000
15077	 -0.157	  0.583	  0.473	  0.151	 -0.097	 -9.875	 -0.003	  0.001	  0.001	 31.800	 99.522	 -99999.000
15127	 -0.162	  0.579	  0.474	  0.188	 -0.148	 -9.890	 -0.005	  0.002	 -0.000	 31.800	 99.522	 -99999.000
15177	 -0.161	  0.579	  0.475	  0.170	 -0.138	 -9.862	 -0.005	  0.002	 -0.001	 31.800	 99.522	 -99999.000
15227	 -0.161	  0.578	  0.472	  0.153	 -0.166	 -9.902	 -0.003	  0.003	  0.001	 31.800	 99.533	 -99999.000
15277	 -0.162	  0.585	  0.477	  0.117	 -0.046	 -9.846	 -0.002	  0.004	 -0.002	 31.800	 99.522	 -99999.000
15327	 -0.159	  0.577	  0.476	  0.121	 -0.155	 -9.910	 -0.004	  0.002	 -0.001	 31.800	 99.533	 -99999.000
15377	 -0.165	  0.577	  0.475	  0.185	 -0.108	 -9.814	 -0.002	 -0.000	 -0.001	 31.800	 99.533	 -99999.000
15427	 -0.161	  0.586	  0.479	  0.138	 -0.123	 -9.875	 -0.002	  0.002	  0.002	 31.800	 99.526	 -99999.000
15476	 -0.159	  0.581	  0.472	  0.144	 -0.126	 -9.822	 -0.003	  0.002	 -0.000	 31.800	 99.522	 -99999.000
15526	 -0.160	  0.579	  0.479	  0.159	 -0.115	 -9.849	 -0.004	  0.001	 -0.001	 31.800	 99.522	 -99999.000
15576	 -0.160	  0.576	  0.472	  0.158	 -0.105	 -9.864	 -0.003	  0.002	 -0.000	 31.800	 99.522	 -99999.000
15626	 -0.158	  0.581	  0.478	  0.168	 -0.166	 -9.869	 -0.003	  0.002	  0.001	 31.800	 99.533	 -99999.000
15676	 -0.160	  0.579	  0.477	  0.131	 -0.088	 -9.851	 -0.003	  0.001	 -0.001	 31.800	 99.533	 -99999.000
15726	 -0.158	  0.580	  0.473	  0.150	 -0.136	 -9.865	 -0.003	  0.001	 -0.001	 31.800	 99.533	 -99999.000
15776	 -0.161	  0.582	  0.474	  0.181	 -0.170	 -9.836	 -0.003	  0.002	  0.001	 31.800	 99.533	 -99999.000
15826	 -0.158	  0.572	  0.477	  0.137	 -0.135	 -9.840	 -0.003	  0.002	 -0.000	 31.800	 99.533	 -99999.000
15876	 -0.161	  0.577	  0.472	  0.180	 -0.108	 -9.862	 -0.003	  0.001	  0.000	 31.800	 99.533	 -99999.000
15926	 -0.157	  0.575	  0.479	  0.113	 -0.108	 -9.836	 -0.004	  0.002	 -0.000	 31.800	 99.533	 -99999.000
15976	 -0.158	  0.583	  0.475	  0.154	 -0.151	 -9.849	 -0.004	  0.000	 -0.000	 31.800	 99.533	 -99999.000
16026	 -0.158	  0.584	  0.476	  0.156	 -0.164	 -9.827	 -0.003	 -0.000	  0.000	 31.800	 99.533	 -99999.000
16076	 -0.160	  0.579	  0.479	  0.314	 -0.174	 -9.790	 -0.003	 -0.002	  0.001	 31.800	 99.533	 -99999.000
16126	 -0.158	  0.573	  0.483	  0.105	 -0.120	 -9.874	 -0.005	  0.005	 -0.001	 31.800	 99.522	 -99999.000
16176	 -0.158	  0.583	  0.484	  0.117	 -0.068	 -9.863	 -0.001	  0.000	 -0.000	 31.800	 99.533	 -99999.000
16226	 -0.156	  0.571	  0.485	  0.172	 -0.159	 -9.789	 -0.003	  0.001	 -0.001	 31.800	 99.533	 -99999.000
16276	 -0.157	  0.577	  0.486	  0.217	 -0.163	 -9.836	 -0.005	  0.003	  0.000	 31.800	 99.522	 -99999.000
16326	 -0.159	  0.577	  0.484	  0.106	 -0.104	 -9.822	 -0.003	  0.001	  0.001	 31.800	 99.533	 -99999.000
16376	 -0.160	  0.576	  0.483	  0.152	 -0.088	 -9.836	 -0.002	  0.000	 -0.001	 31.800	 99.533	 -99999.000
16426	 -0.160	  0.577	  0.483	  0.135	 -0.123	 -9.838	 -0.004	  0.003	 -0.001	 31.800	 99.529	 -99999.000
16476	 -0.159	  0.578	  0.482	  0.174	 -0.221	 -9.851	 -0.002	 -0.001	  0.001	 31.800	 99.522	 -99999.000
16526	 -0.161	  0.579	  0.481	  0.196	 -0.114	 -9.840	 -0.003	  0.000	  0.000	 31.800	 99.522	 -99999.000
16576	 -0.163	  0.579	  0.483	  0.102	 -0.079	 -9.884	 -0.003	  0.001	  0.003	 31.800	 99.533	 -99999.000
16626	 -0.163	  0.579	  0.479	  0.140	 -0.083	 -9.831	 -0.004	  0.002	 -0.000	 31.800	 99.533	 -99999.000
16676	 -0.160	  0.579	  0.479	  0.134	 -0.153	 -9.862	 -0.004	  0.001	  0.000	 31.800	 99.533	 -99999.000
16726	 -0.162	  0.576	  0.485	  0.144	 -0.136	 -9.856	 -0.004	  0.001	  0.000	 31.800	 99.522	 -99999.000
16776	 -0.163	  0.578	  0.483	  0.154	 -0.150	 -9.834	 -0.003	  0.001	 -0.000	 31.800	 99.533	 -99999.000
16826	 -0.162	  0.581	  0.491	  0.095	 -0.074	 -9.903	 -0.003	  0.005	  0.002	 31.800	 99.533	 -99999.000
16876	 -0.162	  0.578	  0.484	  0.181	 -0.052	 -9.818	 -0.002	  0.002	 -0.001	 31.800	 99.533	 -99999.000
16926	 -0.164	  0.579	  0.489	  0.100	 -0.095	 -9.859	 -0.003	  0.002	  0.000	 31.800	 99.522	 -99999.000
16977	 -0.164	  0.580	  0.488	  0.132	 -0.111	 -9.873	 -0.004	  0.002	  0.000	 31.800	 99.533	 -99999.000
17026	 -0.165	  0.569	  0.493	  0.167	 -0.155	 -9.862	 -0.002	 -0.000	 -0.001	 31.800	 99.522	 -99999.000
17076	 -0.165	  0.569	  0.492	  0.167	 -0.121	 -9.845	 -0.003	  0.001	  0.000	 31.800	 99.522	 -99999.000
17126	 -0.166	  0.570	  0.489	  0.152	 -0.161	 -9.871	 -0.004	  0.003	  0.000	 31.800	 99.533	 -99999.000
17176	 -0.169	  0.564	  0.491	  0.143	 -0.136	 -9.835	 -0.004	  0.002	  0.002	 31.800	 99.533	 -99999.000
17226	 -0.169	  0.566	  0.492	  0.174	 -0.134	 -9.832	 -0.003	  0.001	 -0.001	 31.800	 99.533	 -99999.000
17276	 -0.169	  0.569	  0.492	  0.149	 -0.124	 -9.843	 -0.003	  0.001	  0.002	 31.800	 99.522	 -99999.000
18327	 -0.176	  0.599	  0.497	  0.159	 -0.160	 -9.854	 -0.004	 -0.000	  0.000	 31.800	 99.522	 -99999.000
18377	 -0.178	  0.603	  0.492	  0.129	 -0.105	 -9.822	 -0.005	  0.004	  0.002	 31.800	 99.522	 -99999.000
18427	 -0.185	  0.600	  0.487	  0.155	 -0.135	 -9.854	 -0.003	 -0.001	 -0.001	 31.800	 99.537	 -99999.000
18477	 -0.190	  0.605	  0.487	  0.155	 -0.096	 -9.826	 -0.004	  0.001	  0.001	 31.800	 99.529	 -99999.000
18527	 -0.190	  0.604	  0.497	  0.218	 -0.152	 -9.874	 -0.002	  0.001	  0.000	 31.800	 99.522	 -99999.000
18577	 -0.192	  0.607	  0.489	  0.170	 -0.117	 -9.847	 -0.003	 -0.001	 -0.001	 31.800	 99.533	 -99999.000
18627	 -0.195	  0.606	  0.489	  0.113	 -0.164	 -9.874	 -0.003	  0.004	  0.003	 31.800	 99.533	 -99999.000
18677	 -0.198	  0.614	  0.483	  0.171	 -0.132	 -9.848	 -0.004	 -0.000	 -0.000	 31.800	 99.537	 -99999.000
18727	 -0.204	  0.612	  0.488	  0.126	 -0.090	 -9.867	 -0.003	  0.000	  0.001	 31.800	 99.526	 -99999.000
18777	 -0.208	  0.607	  0.479	  0.199	 -0.240	 -9.868	 -0.004	  0.001	  0.001	 31.800	 99.533	 -99999.000
18827	 -0.210	  0.614	  0.480	  0.104	 -0.082	 -9.880	 -0.005	  0.002	  0.001	 31.800	 99.522	 -99999.000
18877	 -0.211	  0.603	  0.477	  0.186	 -0.127	 -9.810	 -0.003	  0.001	 -0.001	 31.800	 99.533	 -99999.000
18927	 -0.212	  0.612	  0.469	  0.150	 -0.150	 -9.802	 -0.003	  0.003	  0.001	 31.800	 99.533	 -99999.000
18977	 -0.215	  0.610	  0.480	  0.175	 -0.119	 -9.869	 -0.004	  0.002	  0.001	 31.800	 99.533	 -99999.000
19027	 -0.217	  0.612	  0.476	  0.160	 -0.140	 -9.875	 -0.003	  0.002	  0.001	 31.800	 99.533	 -99999.000
19077	 -0.214	  0.614	  0.474	  0.155	 -0.124	 -9.862	 -0.004	  0.002	  0.000	 31.800	 99.533	 -99999.000
19127	 -0.216	  0.613	  0.471	  0.132	 -0.103	 -9.814	 -0.003	  0.002	 -0.000	 31.800	 99.522	 -99999.000
19177	 -0.218	  0.616	  0.476	  0.142	 -0.121	 -9.856	 -0.003	  0.002	 -0.000	 31.800	 99.533	 -99999.000
19227	 -0.215	  0.614	  0.476	  0.162	 -0.130	 -9.858	 -0.004	  0.002	  0.001	 31.800	 99.522	 -99999.000
19277	 -0.217	  0.620	  0.475	  0.140	 -0.131	 -9.869	 -0.004	  0.001	  0.001	 31.800	 99.533	 -99999.000
19327	 -0.214	  0.613	  0.477	  0.183	 -0.136	 -9.820	 -0.003	  0.002	  0.001	 31.800	 99.533	 -99999.000
19377	 -0.216	  0.617	  0.479	  0.124	 -0.112	 -9.871	 -0.003	  0.001	 -0.001	 31.800	 99.533	 -99999.000
19427	 -0.218	  0.620	  0.478	  0.144	 -0.139	 -9.834	 -0.002	  0.002	 -0.000	 31.800	 99.522	 -99999.000
19477	 -0.217	  0.616	  0.476	  0.124	 -0.152	 -9.842	 -0.004	  0.001	 -0.000	 31.800	 99.533	 -99999.000
19527	 -0.215	  0.615	  0.481	  0.134	 -0.131	 -9.869	 -0.004	  0.003	  0.002	 31.800	 99.533	 -99999.000
19577	 -0.216	  0.612	  0.482	  0.175	 -0.111	 -9.850	 -0.003	  0.001	  0.001	 31.800	 99.533	 -99999.000
19627	 -0.215	  0.609	  0.477	  0.166	 -0.108	 -9.830	 -0.003	  0.001	 -0.001	 31.800	 99.545	 -99999.000
19677	 -0.215	  0.609	  0.482	  0.135	 -0.112	 -9.816	 -0.003	  0.001	 -0.000	 31.800	 99.537	 -99999.000
19727	 -0.209	  0.612	  0.482	  0.174	 -0.134	 -9.845	 -0.002	  0.001	  0.000	 31.800	 99.533	 -99999.000
19777	 -0.216	  0.608	  0.481	  0.181	 -0.133	 -9.845	 -0.005	  0.001	  0.000	 31.800	 99.522	 -99999.000
19827	 -0.213	  0.612	  0.480	  0.151	 -0.129	 -9.870	 -0.004	  0.004	 -0.000	 31.800	 99.522	 -99999.000
19877	 -0.215	  0.609	  0.479	  0.141	 -0.135	 -9.825	 -0.002	  0.002	  0.001	 31.800	 99.522	 -99999.000
19927	 -0.216	  0.612	  0.479	  0.154	 -0.148	 -9.848	 -0.004	  0.001	  0.002	 31.800	 99.533	 -99999.000
19977	 -0.213	  0.610	  0.482	  0.152	 -0.130	 -9.841	 -0.003	  0.001	  0.001	 31.800	 99.533	 -99999.000
20027	 -0.213	  0.614	  0.481	  0.162	 -0.112	 -9.839	 -0.004	  0.001	  0.000	 31.800	 99.533	 -99999.000
20077	 -0.214	  0.613	  0.480	  0.133	 -0.148	 -9.841	 -0.004	  0.003	  0.001	 31.800	 99.533	 -99999.000
20127	 -0.209	  0.604	  0.484	  0.162	 -0.121	 -9.844	 -0.003	  0.001	  0.001	 31.800	 99.533	 -99999.000
20177	 -0.213	  0.611	  0.479	  0.158	 -0.122	 -9.819	 -0.003	  0.001	  0.001	 31.800	 99.522	 -99999.000
20227	 -0.210	  0.612	  0.483	  0.139	 -0.126	 -9.902	 -0.003	  0.001	 -0.000	 31.800	 99.533	 -99999.000
20277	 -0.211	  0.612	  0.480	  0.164	 -0.131	 -9.872	 -0.002	  0.001	  0.001	 31.800	 99.522	 -99999.000
20327	 -0.210	  0.609	  0.481	  0.139	 -0.138	 -9.880	 -0.002	  0.000	  0.000	 31.800	 99.533	 -99999.000
20377	 -0.212	  0.611	  0.480	  0.161	 -0.126	 -9.799	 -0.003	  0.001	  0.001	 31.800	 99.533	 -99999.000
20427	 -0.211	  0.606	  0.481	  0.150	 -0.128	 -9.867	 -0.003	  0.001	 -0.000	 31.800	 99.533	 -99999.000
20477	 -0.210	  0.610	  0.481	  0.176	 -0.176	 -9.824	 -0.003	 -0.000	 -0.000	 31.800	 99.533	 -99999.000
20527	 -0.209	  0.612	  0.475	  0.128	 -0.063	 -9.842	 -0.003	  0.002	  0.001	 31.800	 99.533	 -99999.000
20577	 -0.212	  0.612	  0.481	  0.158	 -0.125	 -9.886	 -0.003	  0.000	  0.000	 31.800	 99.522	 -99999.000
20627	 -0.208	  0.611	  0.480	  0.150	 -0.108	 -9.860	 -0.003	  0.001	 -0.001	 31.800	 99.522	 -99999.000
20677	 -0.211	  0.610	  0.484	  0.156	 -0.136	 -9.851	 -0.002	  0.000	  0.000	 31.800	 99.526	 -99999.000
20727	 -0.210	  0.622	  0.480	  0.180	 -0.099	 -9.848	 -0.004	  0.003	  0.000	 31.800	 99.522	 -99999.000
20777	 -0.211	  0.612	  0.481	  0.139	 -0.121	 -9.849	 -0.003	  0.001	  0.000	 31.800	 99.533	 -99999.000
20827	 -0.216	  0.610	  0.479	  0.171	 -0.118	 -9.869	 -0.003	  0.001	  0.001	 31.800	 99.533	 -99999.000
20877	 -0.211	  0.608	  0.486	  0.136	 -0.142	 -9.862	 -0.003	 -0.000	  0.001	 31.800	 99.533	 -99999.000
20927	 -0.212	  0.612	  0.481	  0.139	 -0.144	 -9.835	 -0.002	 -0.000	  0.001	 31.800	 99.533	 -99999.000
20977	 -0.212	  0.617	  0.481	  0.154	 -0.127	 -9.841	 -0.003	  0.001	  0.001	 31.800	 99.533	 -99999.000
21027	 -0.212	  0.615	  0.481	  0.148	 -0.128	 -9.837	 -0.003	  0.001	  0.001	 31.800	 99.522	 -99999.000
21077	 -0.210	  0.615	  0.479	  0.157	 -0.118	 -9.841	 -0.003	  0.002	 -0.000	 31.800	 99.526	 -99999.000
21127	 -0.211	  0.620	  0.478	  0.146	 -0.130	 -9.845	 -0.004	  0.001	  0.000	 31.800	 99.511	 -99999.000
21177	 -0.208	  0.614	  0.481	  0.138	 -0.078	 -9.830	 -0.003	  0.001	  0.002	 31.800	 99.522	 -99999.000
21227	 -0.214	  0.612	  0.481	  0.172	 -0.150	 -9.830	 -0.003	  0.002	  0.000	 31.800	 99.522	 -99999.000
21277	 -0.212	  0.610	  0.483	  0.154	 -0.116	 -9.862	 -0.004	 -0.000	 -0.001	 31.800	 99.522	 -99999.000
36130	 -0.209	  0.611	  0.477	  0.150	 -0.145	 -9.869	 -0.003	  0.001	  0.001	 31.900	 99.530	 -0.076
36177	 -0.205	  0.600	  0.508	  0.133	 -0.116	 -9.838	 -0.004	  0.002	  0.000	 31.800	 99.526	  0.281
36227	 -0.212	  0.613	  0.481	  0.160	 -0.132	 -9.840	 -0.005	  0.001	 -0.000	 31.800	 99.537	 -0.701
36277	 -0.208	  0.603	  0.487	  0.133	 -0.157	 -9.856	 -0.003	  0.003	  0.000	 31.800	 99.526	  0.281
36327	 -0.211	  0.611	  0.481	  0.145	 -0.130	 -9.820	 -0.004	  0.002	  0.001	 31.900	 99.533	 -0.344
36377	 -0.206	  0.603	  0.485	  0.148	 -0.122	 -9.861	 -0.003	  0.002	  0.001	 31.800	 99.526	  0.281
36427	 -0.211	  0.607	  0.478	  0.137	 -0.131	 -9.822	 -0.003	  0.002	  0.001	 31.800	 99.526	  0.281
36477	 -0.208	  0.610	  0.481	  0.169	 -0.129	 -9.844	 -0.003	  0.001	  0.001	 31.800	 99.526	  0.281
36527	 -0.213	  0.609	  0.484	  0.136	 -0.148	 -9.838	 -0.003	  0.002	  0.000	 31.800	 99.526	  0.281
36577	 -0.209	  0.610	  0.486	  0.168	 -0.118	 -9.872	 -0.002	  0.002	  0.002	 31.800	 99.537	 -0.701
36627	 -0.210	  0.603	  0.485	  0.142	 -0.128	 -9.824	 -0.004	  0.001	  0.001	 31.800	 99.526	  0.281
36677	 -0.208	  0.611	  0.485	  0.153	 -0.131	 -9.848	 -0.003	  0.001	 -0.000	 31.800	 99.526	  0.281
36727	 -0.210	  0.607	  0.482	  0.149	 -0.136	 -9.825	 -0.003	  0.001	  0.001	 31.800	 99.526	  0.281
36777	 -0.211	  0.610	  0.485	  0.162	 -0.118	 -9.842	 -0.003	  0.002	  0.000	 31.900	 99.526	  0.281
36827	 -0.208	  0.609	  0.484	  0.131	 -0.140	 -9.813	 -0.002	  0.002	  0.000	 31.800	 99.526	  0.281
36877	 -0.209	  0.608	  0.482	  0.161	 -0.147	 -9.841	 -0.003	  0.002	 -0.000	 31.800	 99.526	  0.281
36927	 -0.210	  0.606	  0.486	  0.163	 -0.127	 -9.832	 -0.003	  0.001	  0.000	 31.900	 99.537	 -0.701
36977	 -0.211	  0.610	  0.483	  0.137	 -0.134	 -9.884	 -0.004	  0.002	 -0.000	 31.800	 99.526	  0.281
37027	 -0.211	  0.610	  0.482	  0.145	 -0.124	 -9.832	 -0.003	  0.002	  0.000	 31.800	 99.526	  0.281
37077	 -0.211	  0.604	  0.487	  0.163	 -0.131	 -9.854	 -0.003	  0.000	  0.000	 31.800	 99.537	 -0.701
37127	 -0.210	  0.607	  0.480	  0.157	 -0.139	 -9.831	 -0.003	  0.002	  0.000	 31.800	 99.526	  0.281
37177	 -0.211	  0.608	  0.475	  0.178	 -0.130	 -9.849	 -0.003	  0.000	  0.000	 31.800	 99.515	  1.263
37227	 -0.208	  0.614	  0.482	  0.119	 -0.112	 -9.831	 -0.003	  0.001	 -0.000	 31.900	 99.537	 -0.701
37277	 -0.205	  0.614	  0.484	  0.138	 -0.112	 -9.834	 -0.004	  0.001	  0.001	 31.800	 99.526	  0.281
37327	 -0.207	  0.612	  0.475	  0.153	 -0.152	 -9.853	 -0.004	  0.002	  0.000	 31.800	 99.526	  0.281
37377	 -0.210	  0.621	  0.484	  0.144	 -0.131	 -9.855	 -0.004	  0.001	  0.001	 31.800	 99.526	  0.281
37427	 -0.208	  0.609	  0.484	  0.141	 -0.125	 -9.866	 -0.004	 -0.000	 -0.000	 31.800	 99.526	  0.281
37477	 -0.210	  0.609	  0.479	  0.159	 -0.150	 -9.851	 -0.002	  0.002	  0.001	 31.800	 99.537	 -0.701
37526	 -0.210	  0.615	  0.483	  0.134	 -0.146	 -9.849	 -0.003	  0.002	  0.001	 31.900	 99.526	  0.281
37576	 -0.209	  0.609	  0.481	  0.157	 -0.111	 -9.843	 -0.003	  0.002	 -0.001	 31.800	 99.526	  0.281
37626	 -0.208	  0.604	  0.484	  0.176	 -0.114	 -9.874	 -0.002	  0.001	  0.000	 31.800	 99.526	  0.281
37676	 -0.209	  0.613	  0.474	  0.146	 -0.111	 -9.876	 -0.003	  0.002	 -0.001	 31.800	 99.526	  0.281
37726	 -0.210	  0.607	  0.485	  0.136	 -0.132	 -9.817	 -0.004	  0.001	  0.000	 31.800	 99.526	  0.281
37776	 -0.207	  0.609	  0.481	  0.153	 -0.117	 -9.833	 -0.002	  0.002	 -0.001	 31.800	 99.526	  0.281
37826	 -0.206	  0.610	  0.482	  0.170	 -0.126	 -9.834	 -0.003	  0.000	  0.000	 31.800	 99.526	  0.281
37876	 -0.208	  0.608	  0.481	  0.137	 -0.116	 -9.852	 -0.004	  0.003	  0.000	 31.900	 99.537	 -0.701
