Time	 MagX	 MagY	 MagZ	 AccelX	 AccelY	 AccelZ	 Yaw	 Pitch	 Roll	 Temperature	 Pressure	 Altitude
15242	  0.304	  0.429	  0.502	 -0.294	 -0.101	 -9.522	  0.002	 -0.002	  0.020	 30.000	 99.375	 -99999.000
15292	  0.309	  0.429	  0.505	 -0.278	 -0.086	 -9.506	  0.002	 -0.000	  0.019	 30.000	 99.371	 -99999.000
15342	  0.309	  0.426	  0.497	 -0.288	 -0.111	 -9.465	  0.004	  0.001	  0.020	 30.100	 99.375	 -99999.000
15392	  0.308	  0.426	  0.502	 -0.280	 -0.110	 -9.501	  0.003	 -0.000	  0.020	 30.100	 99.363	 -99999.000
15442	  0.304	  0.432	  0.506	 -0.299	 -0.112	 -9.511	  0.003	 -0.000	  0.019	 30.100	 99.359	 -99999.000
15492	  0.305	  0.432	  0.497	 -0.225	 -0.115	 -9.507	  0.003	 -0.001	  0.020	 30.000	 99.346	 -99999.000
15542	  0.309	  0.442	  0.509	 -0.297	 -0.071	 -9.476	  0.003	 -0.001	  0.019	 30.100	 99.375	 -99999.000
15592	  0.307	  0.428	  0.502	 -0.225	 -0.112	 -9.500	  0.002	 -0.002	  0.019	 30.100	 99.363	 -99999.000
15642	  0.309	  0.426	  0.500	 -0.334	 -0.112	 -9.493	  0.003	 -0.001	  0.019	 30.000	 99.363	 -99999.000
15692	  0.307	  0.424	  0.500	 -0.239	 -0.129	 -9.468	  0.003	 -0.000	  0.020	 30.000	 99.359	 -99999.000
15742	  0.309	  0.432	  0.499	 -0.314	 -0.072	 -9.487	  0.003	 -0.002	  0.019	 30.100	 99.359	 -99999.000
15792	  0.309	  0.440	  0.506	 -0.240	 -0.108	 -9.472	  0.002	 -0.001	  0.020	 30.100	 99.375	 -99999.000
15842	  0.309	  0.426	  0.506	 -0.292	 -0.077	 -9.491	  0.002	 -0.001	  0.019	 30.100	 99.351	 -99999.000
15892	  0.304	  0.442	  0.503	 -0.251	 -0.120	 -9.495	  0.003	 -0.001	  0.020	 30.100	 99.375	 -99999.000
15942	  0.307	  0.431	  0.503	 -0.276	 -0.075	 -9.494	  0.004	 -0.001	  0.020	 30.000	 99.359	 -99999.000
15992	  0.308	  0.438	  0.505	 -0.296	 -0.143	 -9.514	  0.002	 -0.001	  0.021	 30.100	 99.375	 -99999.000
16042	  0.306	  0.427	  0.502	 -0.254	 -0.096	 -9.458	  0.003	 -0.000	  0.019	 30.100	 99.363	 -99999.000
16092	  0.308	  0.433	  0.501	 -0.300	 -0.104	 -9.446	  0.003	 -0.002	  0.020	 30.100	 99.375	 -99999.000
16142	  0.307	  0.428	  0.505	 -0.271	 -0.128	 -9.477	  0.002	 -0.002	  0.020	 30.100	 99.375	 -99999.000
16192	  0.307	  0.429	  0.505	 -0.316	 -0.108	 -9.476	  0.003	  0.000	  0.020	 30.000	 99.371	 -99999.000
16242	  0.311	  0.433	  0.506	 -0.266	 -0.086	 -9.500	  0.003	 -0.000	  0.020	 30.100	 99.371	 -99999.000
16292	  0.308	  0.423	  0.500	 -0.329	 -0.116	 -9.484	  0.003	 -0.001	  0.019	 30.100	 99.375	 -99999.000
16342	  0.307	  0.433	  0.501	 -0.224	 -0.119	 -9.492	  0.003	  0.000	  0.021	 30.100	 99.371	 -99999.000
16392	  0.308	  0.428	  0.506	 -0.338	 -0.092	 -9.485	  0.002	 -0.001	  0.019	 30.100	 99.363	 -99999.000
16442	  0.305	  0.428	  0.499	 -0.211	 -0.127	 -9.464	  0.003	 -0.001	  0.020	 30.100	 99.346	 -99999.000
16492	  0.305	  0.431	  0.502	 -0.354	 -0.099	 -9.501	  0.003	 -0.002	  0.020	 30.100	 99.387	 -99999.000
16542	  0.308	  0.431	  0.502	 -0.236	 -0.104	 -9.497	  0.003	  0.001	  0.019	 30.100	 99.363	 -99999.000
16592	  0.307	  0.426	  0.500	 -0.323	 -0.085	 -9.490	  0.003	 -0.001	  0.019	 30.100	 99.363	 -99999.000
16642	  0.309	  0.432	  0.507	 -0.238	 -0.098	 -9.488	  0.002	 -0.001	  0.020	 30.100	 99.351	 -99999.000
16691	  0.307	  0.423	  0.495	 -0.325	 -0.090	 -9.467	  0.003	 -0.001	  0.020	 30.100	 99.375	 -99999.000
16742	  0.307	  0.429	  0.503	 -0.273	 -0.065	 -9.636	  0.003	  0.000	  0.019	 30.000	 99.363	 -99999.000
16791	  0.305	  0.429	  0.502	 -0.286	 -0.127	 -9.628	  0.002	 -0.002	  0.020	 30.100	 99.375	 -99999.000
16841	  0.308	  0.426	  0.502	 -0.302	 -0.081	 -9.508	  0.003	 -0.001	  0.020	 30.100	 99.359	 -99999.000
16891	  0.311	  0.442	  0.507	 -0.252	 -0.119	 -9.481	  0.002	  0.002	  0.019	 30.100	 99.363	 -99999.000
16941	  0.307	  0.433	  0.503	 -0.304	 -0.108	 -9.496	  0.001	 -0.002	  0.021	 30.000	 99.375	 -99999.000
16991	  0.308	  0.433	  0.503	 -0.295	 -0.103	 -9.504	  0.003	 -0.000	  0.020	 30.000	 99.359	 -99999.000
17041	  0.309	  0.438	  0.507	 -0.286	 -0.115	 -9.438	  0.002	 -0.001	  0.020	 30.100	 99.363	 -99999.000
17091	  0.309	  0.429	  0.507	 -0.260	 -0.086	 -9.534	  0.003	  0.000	  0.020	 30.100	 99.363	 -99999.000
17141	  0.310	  0.432	  0.502	 -0.290	 -0.129	 -9.462	  0.003	 -0.001	  0.020	 30.100	 99.363	 -99999.000
17191	  0.307	  0.433	  0.505	 -0.234	 -0.120	 -9.506	  0.003	 -0.001	  0.019	 30.100	 99.363	 -99999.000
17241	  0.305	  0.437	  0.498	 -0.344	 -0.114	 -9.461	  0.004	 -0.000	  0.020	 30.000	 99.363	 -99999.000
17291	  0.308	  0.429	  0.502	 -0.201	 -0.118	 -9.478	  0.002	 -0.001	  0.019	 30.000	 99.359	 -99999.000
17341	  0.309	  0.428	  0.494	 -0.353	 -0.112	 -9.470	  0.004	 -0.001	  0.019	 30.100	 99.363	 -99999.000
17391	  0.305	  0.429	  0.506	 -0.240	 -0.138	 -9.517	  0.004	 -0.001	  0.020	 30.100	 99.375	 -99999.000
17441	  0.307	  0.440	  0.505	 -0.301	 -0.081	 -9.461	  0.002	  0.001	  0.021	 30.100	 99.375	 -99999.000
17491	  0.309	  0.431	  0.498	 -0.217	 -0.107	 -9.465	  0.003	 -0.002	  0.020	 30.000	 99.359	 -99999.000
17541	  0.309	  0.442	  0.503	 -0.309	 -0.119	 -9.471	  0.002	  0.000	  0.019	 30.100	 99.363	 -99999.000
17591	  0.307	  0.423	  0.497	 -0.206	 -0.105	 -9.482	  0.004	 -0.001	  0.018	 30.100	 99.363	 -99999.000
17641	  0.308	  0.423	  0.501	 -0.322	 -0.092	 -9.511	  0.003	 -0.002	  0.020	 30.100	 99.351	 -99999.000
17691	  0.306	  0.422	  0.501	 -0.244	 -0.123	 -9.483	  0.003	 -0.001	  0.019	 30.100	 99.363	 -99999.000
17741	  0.306	  0.442	  0.501	 -0.300	 -0.095	 -9.499	  0.003	 -0.001	  0.021	 30.100	 99.371	 -99999.000
17791	  0.307	  0.431	  0.503	 -0.288	 -0.119	 -9.478	  0.002	 -0.002	  0.020	 30.100	 99.375	 -99999.000
17841	  0.307	  0.421	  0.504	 -0.270	 -0.076	 -9.509	  0.003	 -0.001	  0.021	 30.000	 99.363	 -99999.000
17891	  0.307	  0.438	  0.498	 -0.265	 -0.094	 -9.536	  0.003	  0.000	  0.018	 30.100	 99.363	 -99999.000
17941	  0.307	  0.429	  0.505	 -0.286	 -0.097	 -9.581	  0.002	  0.001	  0.020	 30.100	 99.363	 -99999.000
17992	  0.304	  0.426	  0.493	 -0.279	 -0.108	 -9.465	  0.002	 -0.001	  0.019	 30.100	 99.351	 -99999.000
18041	  0.307	  0.424	  0.502	 -0.307	 -0.085	 -9.493	  0.003	 -0.002	  0.019	 30.100	 99.363	 -99999.000
18092	  0.303	  0.424	  0.501	 -0.297	 -0.130	 -9.510	  0.004	 -0.000	  0.019	 30.100	 99.363	 -99999.000
18141	  0.304	  0.428	  0.498	 -0.294	 -0.086	 -9.521	  0.003	 -0.001	  0.019	 30.100	 99.371	 -99999.000
18191	  0.307	  0.419	  0.501	 -0.306	 -0.100	 -9.482	  0.002	 -0.000	  0.020	 30.100	 99.375	 -99999.000
23067	  0.312	  0.429	  0.504	 -0.227	 -0.081	 -9.543	  0.003	 -0.001	  0.020	 30.100	 99.363	  0.229
23117	  0.308	  0.436	  0.502	 -0.319	 -0.093	 -9.470	  0.003	 -0.001	  0.019	 30.100	 99.363	  0.229
23168	  0.304	  0.429	  0.497	 -0.230	 -0.104	 -9.495	  0.003	 -0.001	  0.019	 30.100	 99.363	  0.229
23217	  0.304	  0.419	  0.501	 -0.319	 -0.089	 -9.507	  0.003	 -0.001	  0.018	 30.100	 99.363	  0.229
23268	  0.304	  0.424	  0.505	 -0.238	 -0.128	 -9.485	  0.003	 -0.002	  0.019	 30.000	 99.371	 -0.509
23318	  0.302	  0.422	  0.501	 -0.317	 -0.084	 -9.529	  0.003	 -0.001	  0.019	 30.100	 99.359	  0.597
23368	  0.308	  0.426	  0.501	 -0.285	 -0.133	 -9.482	  0.003	  0.000	  0.019	 30.000	 99.371	 -0.509
23418	  0.306	  0.424	  0.501	 -0.299	 -0.076	 -9.484	  0.002	 -0.000	  0.019	 30.100	 99.363	  0.229
23468	  0.307	  0.426	  0.502	 -0.259	 -0.118	 -9.467	  0.003	 -0.002	  0.020	 30.100	 99.363	  0.229
23518	  0.304	  0.418	  0.502	 -0.290	 -0.100	 -9.510	  0.003	 -0.000	  0.020	 30.100	 99.371	 -0.509
23568	  0.304	  0.424	  0.501	 -0.277	 -0.109	 -9.476	  0.002	 -0.000	  0.020	 30.000	 99.371	 -0.509
23618	  0.304	  0.426	  0.491	 -0.264	 -0.092	 -9.499	  0.002	 -0.000	  0.018	 30.100	 99.375	 -0.878
23668	  0.308	  0.436	  0.501	 -0.309	 -0.096	 -9.481	  0.003	  0.000	  0.020	 30.100	 99.375	 -0.878
23718	  0.304	  0.429	  0.502	 -0.229	 -0.080	 -9.508	  0.004	  0.001	  0.019	 30.100	 99.371	 -0.509
23768	  0.306	  0.426	  0.495	 -0.325	 -0.094	 -9.485	  0.003	 -0.001	  0.020	 30.000	 99.371	 -0.509
23818	  0.307	  0.429	  0.499	 -0.252	 -0.101	 -9.523	  0.002	 -0.001	  0.019	 30.000	 99.371	 -0.509
23868	  0.303	  0.426	  0.503	 -0.333	 -0.092	 -9.529	  0.003	 -0.001	  0.019	 30.100	 99.375	 -0.878
23918	  0.307	  0.433	  0.503	 -0.215	 -0.112	 -9.446	  0.003	  0.000	  0.019	 30.100	 99.375	 -0.878
23968	  0.308	  0.433	  0.502	 -0.333	 -0.102	 -9.471	  0.003	 -0.001	  0.020	 30.000	 99.359	  0.597
24018	  0.305	  0.438	  0.502	 -0.227	 -0.126	 -9.509	  0.004	 -0.002	  0.018	 30.000	 99.371	 -0.509
24068	  0.308	  0.438	  0.501	 -0.327	 -0.101	 -9.504	  0.003	 -0.000	  0.019	 30.100	 99.351	  1.335
24118	  0.306	  0.424	  0.499	 -0.254	 -0.129	 -9.473	  0.003	 -0.001	  0.019	 30.000	 99.359	  0.597
24168	  0.305	  0.428	  0.498	 -0.316	 -0.079	 -9.489	  0.003	 -0.001	  0.020	 30.100	 99.363	  0.229
24218	  0.304	  0.424	  0.497	 -0.242	 -0.123	 -9.473	  0.003	  0.000	  0.020	 30.100	 99.375	 -0.878
24268	  0.304	  0.421	  0.498	 -0.320	 -0.104	 -9.479	  0.003	  0.000	  0.020	 30.100	 99.363	  0.229
24318	  0.304	  0.429	  0.503	 -0.262	 -0.140	 -9.460	  0.003	 -0.002	  0.019	 30.100	 99.363	  0.229
24368	  0.306	  0.423	  0.494	 -0.311	 -0.073	 -9.521	  0.002	 -0.000	  0.019	 30.000	 99.346	  1.796
24418	  0.304	  0.433	  0.502	 -0.266	 -0.126	 -9.502	  0.003	 -0.001	  0.019	 30.100	 99.375	 -0.878
24468	  0.304	  0.426	  0.501	 -0.275	 -0.087	 -9.510	  0.003	 -0.000	  0.019	 30.000	 99.359	  0.597
24518	  0.304	  0.437	  0.502	 -0.283	 -0.108	 -9.458	  0.002	 -0.000	  0.021	 30.100	 99.363	  0.229
24568	  0.302	  0.423	  0.498	 -0.256	 -0.105	 -9.494	  0.003	  0.000	  0.019	 30.000	 99.359	  0.597
24618	  0.305	  0.428	  0.501	 -0.297	 -0.081	 -9.491	  0.003	 -0.000	  0.020	 30.100	 99.375	 -0.878
24668	  0.305	  0.429	  0.498	 -0.240	 -0.104	 -9.495	  0.003	 -0.001	  0.019	 30.000	 99.359	  0.597
24718	  0.303	  0.428	  0.493	 -0.320	 -0.082	 -9.496	  0.004	 -0.001	  0.018	 30.000	 99.359	  0.597
24768	  0.308	  0.426	  0.505	 -0.218	 -0.124	 -9.492	  0.005	 -0.001	  0.020	 30.100	 99.363	  0.229
24817	  0.301	  0.421	  0.499	 -0.318	 -0.095	 -9.480	  0.003	 -0.000	  0.019	 30.000	 99.359	  0.597
24868	  0.305	  0.429	  0.503	 -0.249	 -0.044	 -9.425	 -0.001	  0.001	  0.020	 30.100	 99.363	  0.229
24917	  0.307	  0.431	  0.498	 -0.340	 -0.040	 -9.468	  0.005	 -0.000	  0.019	 30.100	 99.363	  0.229
24967	  0.306	  0.422	  0.502	 -0.227	 -0.087	 -9.466	  0.002	 -0.002	  0.019	 30.100	 99.375	 -0.878
25017	  0.307	  0.426	  0.497	 -0.317	 -0.100	 -9.504	  0.004	 -0.002	  0.021	 30.100	 99.375	 -0.878
25067	  0.309	  0.418	  0.497	 -0.227	 -0.130	 -9.480	  0.004	 -0.001	  0.020	 30.100	 99.375	 -0.878
25117	  0.307	  0.424	  0.502	 -0.334	 -0.102	 -9.510	  0.001	  0.001	  0.018	 30.100	 99.383	 -1.615
25167	  0.309	  0.427	  0.500	 -0.253	 -0.130	 -9.488	  0.004	 -0.001	  0.018	 30.100	 99.363	  0.229
25217	  0.307	  0.427	  0.499	 -0.323	 -0.098	 -9.554	  0.003	 -0.001	  0.019	 30.100	 99.371	 -0.509
25267	  0.308	  0.438	  0.501	 -0.246	 -0.096	 -9.511	  0.003	 -0.000	  0.020	 30.100	 99.363	  0.229
25317	  0.308	  0.423	  0.501	 -0.286	 -0.081	 -9.462	  0.003	 -0.000	  0.020	 30.000	 99.375	 -0.878
25367	  0.303	  0.429	  0.499	 -0.271	 -0.141	 -9.475	  0.003	 -0.001	  0.021	 30.100	 99.387	 -1.984
25417	  0.308	  0.423	  0.502	 -0.291	 -0.083	 -9.468	  0.003	 -0.000	  0.020	 30.100	 99.363	  0.229
25467	  0.303	  0.422	  0.501	 -0.265	 -0.102	 -9.498	  0.003	 -0.000	  0.019	 30.100	 99.363	  0.229
25517	  0.308	  0.427	  0.495	 -0.274	 -0.078	 -9.486	  0.002	 -0.003	  0.019	 30.000	 99.359	  0.597
25567	  0.305	  0.429	  0.493	 -0.297	 -0.103	 -9.490	  0.003	  0.001	  0.019	 30.100	 99.363	  0.229
25617	  0.303	  0.437	  0.502	 -0.245	 -0.134	 -9.506	  0.003	 -0.002	  0.019	 30.000	 99.375	 -0.878
25667	  0.306	  0.427	  0.493	 -0.286	 -0.088	 -9.509	  0.002	 -0.002	  0.020	 30.000	 99.371	 -0.509
25717	  0.304	  0.421	  0.502	 -0.258	 -0.119	 -9.461	  0.003	 -0.000	  0.019	 30.100	 99.359	  0.597
25767	  0.305	  0.432	  0.502	 -0.339	 -0.097	 -9.499	  0.003	 -0.000	  0.019	 30.000	 99.359	  0.597
25817	  0.308	  0.424	  0.494	 -0.244	 -0.124	 -9.463	  0.002	 -0.002	  0.020	 30.100	 99.375	 -0.878
25867	  0.306	  0.424	  0.503	 -0.293	 -0.103	 -9.536	  0.001	  0.000	  0.019	 30.100	 99.363	  0.229
25917	  0.307	  0.427	  0.498	 -0.261	 -0.127	 -9.473	  0.003	 -0.002	  0.021	 30.000	 99.363	  0.229
25967	  0.306	  0.424	  0.503	 -0.307	 -0.055	 -9.493	  0.004	 -0.002	  0.019	 30.000	 99.359	  0.597
26017	  0.304	  0.424	  0.502	 -0.193	 -0.101	 -9.386	  0.002	 -0.001	  0.019	 30.100	 99.375	 -0.878
26067	  0.304	  0.427	  0.495	 -0.414	 -0.137	 -9.566	  0.004	  0.002	  0.020	 30.000	 99.359	  0.597
26117	  0.303	  0.421	  0.501	 -0.252	 -0.113	 -9.481	  0.002	 -0.001	  0.019	 30.000	 99.363	  0.229
26167	  0.307	  0.424	  0.501	 -0.296	 -0.042	 -9.412	  0.003	 -0.000	  0.020	 30.100	 99.363	  0.229
26217	  0.306	  0.424	  0.501	 -0.197	 -0.157	 -9.451	  0.002	 -0.001	  0.020	 30.000	 99.363	  0.229
26267	  0.305	  0.429	  0.497	 -0.263	 -0.084	 -9.389	  0.002	 -0.001	  0.021	 30.000	 99.346	  1.796
26317	  0.303	  0.437	  0.496	 -0.277	 -0.155	 -9.509	  0.003	  0.001	  0.020	 30.100	 99.375	 -0.878
26367	  0.301	  0.423	  0.499	 -0.283	 -0.075	 -9.482	  0.004	 -0.001	  0.019	 30.000	 99.359	  0.597
26417	  0.304	  0.421	  0.498	 -0.332	 -0.193	 -9.391	  0.005	 -0.003	  0.022	 30.100	 99.346	  1.796
26467	  0.302	  0.424	  0.498	 -0.263	 -0.102	 -9.530	  0.004	 -0.000	  0.020	 30.000	 99.359	  0.597
26517	  0.303	  0.437	  0.500	 -0.287	 -0.121	 -9.472	  0.002	  0.000	  0.018	 30.100	 99.359	  0.597
26567	  0.307	  0.426	  0.502	 -0.273	 -0.104	 -9.506	  0.003	 -0.002	  0.019	 30.100	 99.375	 -0.878
26617	  0.304	  0.431	  0.493	 -0.281	 -0.098	 -9.487	  0.003	 -0.001	  0.019	 30.100	 99.375	 -0.878
26667	  0.304	  0.441	  0.498	 -0.252	 -0.068	 -9.508	  0.002	  0.000	  0.020	 30.100	 99.363	  0.229
26717	  0.306	  0.426	  0.501	 -0.365	 -0.112	 -9.517	  0.002	  0.004	  0.017	 30.100	 99.371	 -0.509
26767	  0.304	  0.426	  0.498	 -0.303	 -0.066	 -9.461	  0.003	 -0.000	  0.020	 30.100	 99.375	 -0.878
26817	  0.305	  0.429	  0.501	 -0.400	 -0.095	 -9.475	  0.003	 -0.002	  0.020	 30.100	 99.371	 -0.509
26867	  0.302	  0.428	  0.494	 -0.226	 -0.104	 -9.447	  0.004	 -0.001	  0.021	 30.000	 99.371	 -0.509
26917	  0.303	  0.428	  0.501	 -0.334	 -0.131	 -9.468	  0.003	 -0.002	  0.018	 30.000	 99.359	  0.597
26967	  0.309	  0.424	  0.501	 -0.296	 -0.110	 -9.550	  0.002	  0.000	  0.019	 30.000	 99.359	  0.597
27017	  0.308	  0.422	  0.502	 -0.342	 -0.081	 -9.465	  0.004	 -0.001	  0.020	 30.000	 99.359	  0.597
27067	  0.306	  0.426	  0.501	 -0.260	 -0.120	 -9.459	  0.002	  0.003	  0.016	 30.000	 99.359	  0.597
27117	  0.305	  0.432	  0.501	 -0.398	 -0.073	 -9.469	  0.003	 -0.002	  0.021	 30.100	 99.351	  1.335
27167	  0.306	  0.418	  0.501	 -0.251	 -0.113	 -9.434	 -0.000	 -0.003	  0.019	 30.100	 99.363	  0.229
27217	  0.308	  0.426	  0.502	 -0.235	 -0.085	 -9.459	  0.002	 -0.001	  0.019	 30.100	 99.363	  0.229
27267	  0.303	  0.426	  0.499	 -0.309	 -0.084	 -9.482	  0.003	  0.000	  0.020	 30.100	 99.363	  0.229
27317	  0.303	  0.429	  0.495	 -0.183	 -0.012	 -9.403	  0.003	 -0.000	  0.019	 30.100	 99.375	 -0.878
27367	  0.306	  0.426	  0.498	 -0.324	 -0.113	 -9.482	  0.002	  0.000	  0.020	 30.000	 99.371	 -0.509
27417	  0.305	  0.427	  0.490	 -0.196	 -0.112	 -9.234	 -0.000	 -0.007	  0.020	 30.000	 99.359	  0.597
27467	  0.306	  0.427	  0.495	 -0.304	 -0.073	 -9.426	  0.003	  0.002	  0.018	 30.100	 99.375	 -0.878
27517	  0.306	  0.426	  0.499	 -0.260	 -0.104	 -9.479	  0.004	 -0.001	  0.019	 30.000	 99.371	 -0.509
27567	  0.305	  0.429	  0.502	 -0.336	 -0.077	 -9.525	  0.004	 -0.001	  0.018	 30.000	 99.359	  0.597
27617	  0.304	  0.438	  0.499	 -0.240	 -0.141	 -9.458	  0.000	 -0.000	  0.019	 30.000	 99.371	 -0.509
27667	  0.307	  0.424	  0.498	 -0.321	 -0.055	 -9.468	  0.005	 -0.001	  0.018	 30.000	 99.359	  0.597
27717	  0.307	  0.427	  0.502	 -0.247	 -0.112	 -9.452	  0.004	 -0.001	  0.019	 30.100	 99.363	  0.229
27767	  0.308	  0.429	  0.502	 -0.317	 -0.090	 -9.519	  0.002	 -0.002	  0.020	 30.100	 99.375	 -0.878
27817	  0.306	  0.424	  0.502	 -0.266	 -0.163	 -9.548	  0.006	 -0.000	  0.021	 30.000	 99.371	 -0.509
27867	  0.309	  0.422	  0.502	 -0.296	 -0.104	 -9.497	  0.004	 -0.001	  0.021	 30.100	 99.351	  1.335
27917	  0.309	  0.426	  0.501	 -0.230	 -0.065	 -9.496	  0.002	  0.000	  0.019	 30.000	 99.346	  1.796
27967	  0.310	  0.424	  0.497	 -0.335	 -0.099	 -9.430	  0.003	 -0.002	  0.018	 30.100	 99.363	  0.229
28017	  0.304	  0.427	  0.505	 -0.097	 -0.210	 -9.490	  0.001	  0.001	  0.018	 30.100	 99.359	  0.597
28067	  0.307	  0.433	  0.497	 -0.360	 -0.114	 -9.451	  0.002	 -0.001	  0.022	 30.100	 99.359	  0.597
28117	  0.303	  0.422	  0.505	 -0.318	 -0.137	 -9.462	  0.003	 -0.002	  0.020	 30.100	 99.375	 -0.878
28167	  0.306	  0.426	  0.498	 -0.242	 -0.092	 -9.545	  0.003	 -0.001	  0.019	 30.000	 99.375	 -0.878
28217	  0.307	  0.437	  0.503	 -0.312	 -0.132	 -9.579	  0.000	  0.000	  0.020	 30.100	 99.375	 -0.878
28267	  0.306	  0.424	  0.498	 -0.319	 -0.076	 -9.297	  0.003	 -0.002	  0.021	 30.100	 99.363	  0.229
28317	  0.307	  0.428	  0.497	 -0.307	 -0.145	 -9.506	  0.005	  0.002	  0.019	 30.100	 99.363	  0.229
28367	  0.306	  0.423	  0.502	 -0.269	 -0.109	 -9.481	  0.005	  0.001	  0.020	 30.100	 99.387	 -1.984
28417	  0.308	  0.427	  0.500	 -0.314	 -0.135	 -9.470	  0.003	  0.000	  0.018	 30.100	 99.363	  0.229
28467	  0.306	  0.423	  0.497	 -0.239	 -0.087	 -9.461	  0.002	 -0.001	  0.020	 30.100	 99.363	  0.229
28517	  0.309	  0.423	  0.504	 -0.372	 -0.286	 -9.658	  0.004	 -0.009	  0.021	 30.100	 99.375	 -0.878
28567	  0.306	  0.426	  0.498	 -0.062	 -0.159	 -9.606	  0.004	  0.001	  0.020	 30.000	 99.363	  0.229
28618	  0.305	  0.437	  0.498	 -0.377	 -0.075	 -9.582	  0.005	  0.000	  0.021	 30.100	 99.375	 -0.878
28667	  0.306	  0.424	  0.502	 -0.253	 -0.107	 -9.551	  0.003	 -0.000	  0.019	 30.000	 99.371	 -0.509
28718	  0.308	  0.423	  0.502	 -0.329	 -0.080	 -9.551	  0.004	  0.000	  0.020	 30.000	 99.359	  0.597
28768	  0.304	  0.424	  0.503	 -0.206	  0.053	 -9.338	 -0.002	  0.003	  0.015	 30.000	 99.346	  1.796
28818	  0.304	  0.428	  0.497	 -0.341	 -0.217	 -9.481	  0.001	 -0.001	  0.018	 30.100	 99.375	 -0.878
28868	  0.308	  0.436	  0.502	 -0.204	 -0.088	 -9.458	  0.005	  0.000	  0.019	 30.100	 99.363	  0.229
28918	  0.306	  0.419	  0.494	 -0.322	 -0.106	 -9.493	  0.003	  0.000	  0.019	 30.100	 99.375	 -0.878
28968	  0.308	  0.424	  0.498	 -0.214	 -0.090	 -9.471	  0.003	  0.000	  0.019	 30.100	 99.363	  0.229
29018	  0.306	  0.424	  0.491	 -0.336	 -0.097	 -9.500	  0.004	 -0.002	  0.020	 30.100	 99.363	  0.229
29068	  0.306	  0.427	  0.497	 -0.211	 -0.111	 -9.460	  0.004	  0.001	  0.019	 30.000	 99.359	  0.597
29118	  0.306	  0.426	  0.494	 -0.338	 -0.084	 -9.456	  0.005	 -0.001	  0.019	 30.100	 99.375	 -0.878
29168	  0.306	  0.424	  0.506	 -0.228	 -0.112	 -9.491	  0.003	  0.000	  0.019	 30.100	 99.363	  0.229
29218	  0.307	  0.442	  0.498	 -0.303	 -0.086	 -9.467	  0.003	 -0.001	  0.020	 30.000	 99.375	 -0.878
29267	  0.307	  0.421	  0.502	 -0.270	 -0.119	 -9.450	  0.002	 -0.001	  0.019	 30.000	 99.359	  0.597
29317	  0.308	  0.421	  0.504	 -0.261	 -0.091	 -9.435	  0.003	 -0.001	  0.020	 30.000	 99.363	  0.229
29367	  0.308	  0.423	  0.498	 -0.293	 -0.119	 -9.464	  0.001	 -0.001	  0.020	 30.100	 99.363	  0.229
29417	  0.306	  0.419	  0.497	 -0.291	 -0.106	 -9.450	  0.003	 -0.001	  0.020	 30.000	 99.363	  0.229
29467	  0.308	  0.441	  0.499	 -0.260	 -0.119	 -9.467	  0.002	 -0.001	  0.019	 30.100	 99.363	  0.229
29517	  0.307	  0.427	  0.499	 -0.235	 -0.113	 -9.488	  0.003	 -0.001	  0.020	 30.100	 99.363	  0.229
29567	  0.308	  0.429	  0.495	 -0.296	 -0.094	 -9.456	  0.003	  0.001	  0.020	 30.000	 99.359	  0.597
29617	  0.304	  0.429	  0.495	 -0.261	 -0.120	 -9.472	  0.003	  0.000	  0.019	 30.100	 99.363	  0.229
29667	  0.304	  0.427	  0.501	 -0.318	 -0.102	 -9.470	  0.001	 -0.001	  0.020	 30.100	 99.363	  0.229
29717	  0.306	  0.423	  0.502	 -0.229	 -0.110	 -9.475	  0.004	 -0.001	  0.018	 30.100	 99.371	 -0.509
29767	  0.308	  0.431	  0.499	 -0.342	 -0.095	 -9.442	  0.004	  0.001	  0.019	 30.100	 99.375	 -0.878
29817	  0.310	  0.429	  0.500	 -0.223	 -0.118	 -9.494	  0.002	 -0.001	  0.019	 30.100	 99.363	  0.229
29867	  0.308	  0.428	  0.493	 -0.342	 -0.094	 -9.458	  0.003	 -0.002	  0.019	 30.100	 99.363	  0.229
29918	  0.309	  0.429	  0.500	 -0.234	 -0.112	 -9.494	  0.002	 -0.001	  0.019	 30.100	 99.371	 -0.509
29968	  0.310	  0.428	  0.501	 -0.329	 -0.089	 -9.512	  0.004	 -0.003	  0.018	 30.000	 99.371	 -0.509
30018	  0.309	  0.429	  0.502	 -0.242	 -0.117	 -9.493	  0.002	 -0.002	  0.019	 30.100	 99.375	 -0.878
30068	  0.309	  0.432	  0.502	 -0.317	 -0.079	 -9.479	  0.002	 -0.000	  0.019	 30.000	 99.359	  0.597
30118	  0.312	  0.426	  0.498	 -0.254	 -0.148	 -9.507	  0.002	 -0.000	  0.019	 30.100	 99.363	  0.229
30168	  0.312	  0.427	  0.500	 -0.299	 -0.095	 -9.479	  0.004	  0.000	  0.020	 30.000	 99.359	  0.597
30218	  0.309	  0.426	  0.500	 -0.250	 -0.107	 -9.502	  0.002	 -0.000	  0.020	 30.000	 99.375	 -0.878
30268	  0.309	  0.426	  0.501	 -0.298	 -0.072	 -9.494	  0.003	 -0.001	  0.019	 30.100	 99.375	 -0.878
30318	  0.308	  0.431	  0.501	 -0.283	 -0.124	 -9.513	  0.003	 -0.001	  0.021	 30.100	 99.351	  1.335
30368	  0.308	  0.427	  0.498	 -0.266	 -0.085	 -9.493	  0.003	 -0.001	  0.020	 30.100	 99.363	  0.229
30418	  0.309	  0.428	  0.501	 -0.296	 -0.101	 -9.471	  0.003	 -0.000	  0.020	 30.100	 99.375	 -0.878
30468	  0.310	  0.424	  0.506	 -0.268	 -0.107	 -9.488	  0.003	 -0.001	  0.019	 30.000	 99.371	 -0.509
30518	  0.310	  0.429	  0.501	 -0.297	 -0.091	 -9.470	  0.002	 -0.002	  0.019	 30.100	 99.359	  0.597
30568	  0.309	  0.436	  0.502	 -0.253	 -0.107	 -9.488	  0.003	 -0.002	  0.020	 30.100	 99.363	  0.229
30618	  0.310	  0.424	  0.505	 -0.303	 -0.108	 -9.484	  0.004	 -0.002	  0.019	 30.100	 99.375	 -0.878
30668	  0.310	  0.421	  0.497	 -0.284	 -0.111	 -9.482	  0.003	 -0.003	  0.021	 30.000	 99.359	  0.597
30718	  0.310	  0.421	  0.506	 -0.316	 -0.091	 -9.497	  0.002	 -0.001	  0.019	 30.000	 99.371	 -0.509
30768	  0.309	  0.419	  0.501	 -0.220	 -0.140	 -9.478	  0.003	 -0.002	  0.019	 30.000	 99.371	 -0.509
30818	  0.312	  0.426	  0.501	 -0.323	 -0.123	 -9.526	  0.002	 -0.001	  0.020	 30.100	 99.363	  0.229
30868	  0.308	  0.424	  0.504	 -0.209	 -0.099	 -9.494	  0.002	 -0.001	  0.019	 30.100	 99.375	 -0.878
30918	  0.310	  0.421	  0.505	 -0.341	 -0.075	 -9.457	  0.003	 -0.001	  0.018	 30.100	 99.346	  1.796
30968	  0.306	  0.423	  0.501	 -0.209	 -0.112	 -9.469	  0.004	 -0.001	  0.022	 30.000	 99.359	  0.597
31018	  0.312	  0.428	  0.505	 -0.333	 -0.065	 -9.504	  0.003	 -0.000	  0.020	 30.100	 99.359	  0.597
31068	  0.310	  0.436	  0.502	 -0.241	 -0.125	 -9.486	  0.003	 -0.002	  0.020	 30.000	 99.359	  0.597
31118	  0.309	  0.419	  0.498	 -0.336	 -0.075	 -9.520	  0.003	 -0.001	  0.019	 30.000	 99.363	  0.229
31168	  0.308	  0.432	  0.502	 -0.249	 -0.135	 -9.478	  0.004	 -0.001	  0.020	 30.000	 99.371	 -0.509
31218	  0.309	  0.421	  0.498	 -0.289	 -0.096	 -9.466	  0.003	 -0.001	  0.019	 30.100	 99.359	  0.597
31268	  0.310	  0.424	  0.505	 -0.288	 -0.109	 -9.505	  0.002	  0.000	  0.020	 30.100	 99.363	  0.229
31318	  0.307	  0.421	  0.498	 -0.263	 -0.087	 -9.448	  0.003	  0.000	  0.020	 30.100	 99.363	  0.229
31368	  0.307	  0.418	  0.502	 -0.262	 -0.119	 -9.506	  0.003	 -0.002	  0.020	 30.100	 99.375	 -0.878
31418	  0.308	  0.421	  0.493	 -0.289	 -0.105	 -9.465	  0.003	 -0.001	  0.019	 30.000	 99.375	 -0.878
31468	  0.308	  0.435	  0.501	 -0.292	 -0.118	 -9.484	  0.002	 -0.001	  0.019	 30.100	 99.363	  0.229
31518	  0.307	  0.422	  0.505	 -0.262	 -0.102	 -9.445	  0.003	 -0.001	  0.020	 30.100	 99.375	 -0.878
31568	  0.308	  0.428	  0.501	 -0.303	 -0.093	 -9.459	  0.003	 -0.000	  0.019	 30.100	 99.363	  0.229
31618	  0.307	  0.426	  0.501	 -0.233	 -0.122	 -9.473	  0.002	 -0.001	  0.020	 30.100	 99.351	  1.335
31668	  0.312	  0.423	  0.500	 -0.330	 -0.082	 -9.520	  0.003	 -0.001	  0.020	 30.100	 99.363	  0.229
31718	  0.306	  0.427	  0.495	 -0.213	 -0.131	 -9.488	  0.002	 -0.001	  0.019	 30.100	 99.375	 -0.878
31768	  0.307	  0.438	  0.505	 -0.325	 -0.072	 -9.497	  0.003	 -0.000	  0.020	 30.100	 99.363	  0.229
31818	  0.306	  0.427	  0.498	 -0.245	 -0.128	 -9.498	  0.002	 -0.000	  0.019	 30.000	 99.375	 -0.878
31868	  0.306	  0.419	  0.498	 -0.336	 -0.099	 -9.490	  0.003	  0.000	  0.020	 30.100	 99.363	  0.229
31918	  0.307	  0.422	  0.497	 -0.244	 -0.117	 -9.500	  0.004	 -0.001	  0.020	 30.100	 99.375	 -0.878
31967	  0.307	  0.432	  0.501	 -0.330	 -0.098	 -9.503	  0.003	  0.001	  0.020	 30.100	 99.363	  0.229
32018	  0.308	  0.433	  0.501	 -0.233	 -0.116	 -9.451	  0.004	 -0.001	  0.020	 30.100	 99.359	  0.597
32067	  0.306	  0.428	  0.495	 -0.340	 -0.084	 -9.472	  0.004	 -0.002	  0.019	 30.100	 99.363	  0.229
32117	  0.307	  0.431	  0.490	 -0.246	 -0.116	 -9.473	  0.002	 -0.001	  0.019	 30.000	 99.371	 -0.509
32167	  0.308	  0.419	  0.497	 -0.293	 -0.107	 -9.494	  0.003	 -0.002	  0.020	 30.100	 99.363	  0.229
32217	  0.305	  0.437	  0.499	 -0.252	 -0.106	 -9.455	  0.003	 -0.001	  0.020	 30.100	 99.371	 -0.509
32267	  0.309	  0.426	  0.498	 -0.271	 -0.086	 -9.518	  0.002	 -0.001	  0.020	 30.100	 99.363	  0.229
32317	  0.307	  0.440	  0.503	 -0.281	 -0.129	 -9.452	  0.003	  0.001	  0.020	 30.000	 99.371	 -0.509
32367	  0.306	  0.421	  0.502	 -0.387	 -0.108	 -9.557	  0.002	 -0.002	  0.019	 30.100	 99.375	 -0.878
32417	  0.308	  0.424	  0.494	 -0.230	 -0.096	 -9.460	  0.005	 -0.003	  0.020	 30.100	 99.363	  0.229
32467	  0.308	  0.428	  0.497	 -0.229	 -0.101	 -9.474	  0.003	 -0.000	  0.020	 30.000	 99.371	 -0.509
32517	  0.304	  0.422	  0.500	 -0.314	 -0.112	 -9.488	  0.002	 -0.000	  0.019	 30.000	 99.363	  0.229
32567	  0.309	  0.424	  0.502	 -0.229	 -0.106	 -9.500	  0.002	 -0.001	  0.019	 30.000	 99.346	  1.796
32617	  0.306	  0.421	  0.501	 -0.309	 -0.097	 -9.498	  0.003	 -0.001	  0.020	 30.000	 99.363	  0.229
32668	  0.304	  0.422	  0.498	 -0.245	 -0.122	 -9.508	  0.003	 -0.002	  0.019	 30.100	 99.375	 -0.878
32717	  0.302	  0.438	  0.495	 -0.333	 -0.089	 -9.491	  0.003	 -0.001	  0.020	 30.100	 99.375	 -0.878
32767	  0.308	  0.427	  0.497	 -0.244	 -0.126	 -9.479	  0.003	 -0.000	  0.020	 30.100	 99.363	  0.229
32817	  0.304	  0.427	  0.499	 -0.350	 -0.094	 -9.488	  0.003	 -0.001	  0.020	 30.100	 99.375	 -0.878
32867	  0.307	  0.432	  0.497	 -0.227	 -0.133	 -9.474	  0.002	 -0.000	  0.020	 30.100	 99.363	  0.229
32917	  0.307	  0.426	  0.500	 -0.325	 -0.095	 -9.461	  0.002	 -0.001	  0.020	 30.100	 99.351	  1.335
32967	  0.307	  0.427	  0.501	 -0.241	 -0.123	 -9.518	  0.003	 -0.001	  0.020	 30.100	 99.363	  0.229
33017	  0.302	  0.422	  0.497	 -0.248	 -0.017	 -9.507	  0.003	 -0.002	  0.021	 30.100	 99.363	  0.229
33067	  0.304	  0.421	  0.494	 -0.222	 -0.137	 -9.574	  0.001	 -0.002	  0.019	 30.100	 99.375	 -0.878
33117	  0.309	  0.438	  0.498	 -0.358	 -0.114	 -9.559	  0.001	 -0.003	  0.020	 30.100	 99.363	  0.229
33167	  0.303	  0.428	  0.499	 -0.225	 -0.053	 -9.417	  0.007	 -0.001	  0.019	 30.000	 99.359	  0.597
33217	  0.303	  0.423	  0.489	 -0.282	 -0.031	 -9.346	  0.004	 -0.001	  0.019	 30.000	 99.371	 -0.509
33267	  0.307	  0.426	  0.486	 -0.272	 -0.120	 -9.478	  0.004	 -0.001	  0.020	 30.100	 99.375	 -0.878
33317	  0.304	  0.423	  0.503	 -0.284	 -0.063	 -9.521	  0.004	 -0.000	  0.019	 30.000	 99.375	 -0.878
33367	  0.304	  0.429	  0.491	 -0.314	 -0.158	 -9.535	  0.003	 -0.000	  0.018	 30.100	 99.363	  0.229
33417	  0.307	  0.419	  0.497	 -0.245	 -0.077	 -9.465	  0.003	 -0.001	  0.019	 30.000	 99.363	  0.229
33467	  0.303	  0.419	  0.489	 -0.329	 -0.127	 -9.508	  0.003	 -0.001	  0.020	 30.000	 99.359	  0.597
33517	  0.306	  0.424	  0.498	 -0.239	 -0.080	 -9.470	  0.004	  0.000	  0.019	 30.000	 99.371	 -0.509
33567	  0.304	  0.423	  0.498	 -0.316	 -0.121	 -9.475	  0.002	 -0.000	  0.020	 30.000	 99.359	  0.597
33617	  0.304	  0.424	  0.502	 -0.239	 -0.112	 -9.491	  0.002	 -0.001	  0.020	 30.100	 99.359	  0.597
33667	  0.306	  0.422	  0.502	 -0.333	 -0.130	 -9.478	  0.003	 -0.001	  0.020	 30.100	 99.363	  0.229
33717	  0.307	  0.426	  0.501	 -0.241	 -0.103	 -9.482	  0.003	 -0.000	  0.020	 30.100	 99.363	  0.229
33767	  0.309	  0.424	  0.500	 -0.313	 -0.108	 -9.493	  0.003	 -0.001	  0.018	 30.100	 99.375	 -0.878
33817	  0.309	  0.426	  0.497	 -0.230	 -0.127	 -9.514	  0.002	 -0.002	  0.020	 30.100	 99.363	  0.229
33867	  0.306	  0.423	  0.498	 -0.343	 -0.052	 -9.494	  0.003	 -0.000	  0.020	 30.000	 99.371	 -0.509
33918	  0.301	  0.433	  0.498	 -0.228	 -0.130	 -9.471	  0.003	 -0.000	  0.020	 30.000	 99.363	  0.229
33967	  0.304	  0.432	  0.502	 -0.315	 -0.079	 -9.520	  0.002	 -0.002	  0.021	 30.100	 99.375	 -0.878
34018	  0.304	  0.428	  0.497	 -0.269	 -0.143	 -9.505	  0.002	 -0.001	  0.019	 30.100	 99.363	  0.229
34067	  0.304	  0.428	  0.489	 -0.312	 -0.099	 -9.492	  0.003	 -0.001	  0.019	 30.100	 99.375	 -0.878
34117	  0.303	  0.441	  0.500	 -0.254	 -0.124	 -9.518	  0.003	 -0.001	  0.019	 30.100	 99.371	 -0.509
34167	  0.307	  0.423	  0.498	 -0.310	 -0.078	 -9.505	  0.003	 -0.001	  0.020	 30.100	 99.375	 -0.878
34218	  0.306	  0.423	  0.500	 -0.275	 -0.117	 -9.483	  0.004	 -0.001	  0.020	 30.100	 99.363	  0.229
34267	  0.306	  0.428	  0.499	 -0.272	 -0.074	 -9.522	  0.002	 -0.000	  0.021	 30.000	 99.359	  0.597
34318	  0.306	  0.422	  0.493	 -0.303	 -0.107	 -9.465	  0.002	 -0.001	  0.020	 30.100	 99.375	 -0.878
34367	  0.307	  0.423	  0.501	 -0.263	 -0.107	 -9.512	  0.004	 -0.001	  0.020	 30.100	 99.375	 -0.878
34417	  0.304	  0.423	  0.498	 -0.293	 -0.115	 -9.510	  0.002	 -0.001	  0.019	 30.100	 99.371	 -0.509
34468	  0.302	  0.423	  0.497	 -0.254	 -0.095	 -9.509	  0.003	 -0.002	  0.019	 30.100	 99.375	 -0.878
34518	  0.303	  0.418	  0.489	 -0.307	 -0.111	 -9.505	  0.002	  0.000	  0.019	 30.100	 99.363	  0.229
34568	  0.304	  0.423	  0.494	 -0.217	 -0.096	 -9.514	  0.004	 -0.000	  0.020	 30.100	 99.363	  0.229
34618	  0.304	  0.423	  0.498	 -0.337	 -0.086	 -9.506	  0.003	 -0.003	  0.020	 30.100	 99.363	  0.229
34668	  0.304	  0.426	  0.498	 -0.221	 -0.127	 -9.457	  0.002	 -0.001	  0.020	 30.000	 99.359	  0.597
34718	  0.307	  0.440	  0.501	 -0.325	 -0.096	 -9.481	  0.002	 -0.000	  0.020	 30.100	 99.371	 -0.509
34768	  0.303	  0.424	  0.499	 -0.228	 -0.120	 -9.446	  0.003	 -0.000	  0.019	 30.100	 99.363	  0.229
34818	  0.309	  0.428	  0.493	 -0.319	 -0.086	 -9.479	  0.004	 -0.000	  0.020	 30.100	 99.363	  0.229
34868	  0.306	  0.426	  0.490	 -0.227	 -0.137	 -9.480	  0.002	 -0.000	  0.019	 30.100	 99.363	  0.229
34918	  0.302	  0.428	  0.494	 -0.338	 -0.103	 -9.471	  0.002	 -0.002	  0.020	 30.000	 99.375	 -0.878
34968	  0.304	  0.427	  0.498	 -0.225	 -0.109	 -9.476	  0.002	 -0.001	  0.018	 30.000	 99.359	  0.597
35018	  0.307	  0.424	  0.501	 -0.309	 -0.084	 -9.492	  0.003	 -0.000	  0.020	 30.000	 99.363	  0.229
35068	  0.306	  0.428	  0.498	 -0.259	 -0.116	 -9.485	  0.003	 -0.002	  0.019	 30.000	 99.371	 -0.509
35118	  0.304	  0.426	  0.499	 -0.313	 -0.082	 -9.492	  0.003	 -0.001	  0.020	 30.100	 99.363	  0.229
35168	  0.307	  0.424	  0.501	 -0.269	 -0.122	 -9.491	  0.002	 -0.001	  0.021	 30.000	 99.359	  0.597
35218	  0.304	  0.428	  0.497	 -0.298	 -0.088	 -9.465	  0.003	 -0.000	  0.020	 30.000	 99.363	  0.229
35268	  0.306	  0.422	  0.498	 -0.260	 -0.111	 -9.490	  0.003	 -0.000	  0.020	 30.000	 99.359	  0.597
35318	  0.304	  0.427	  0.498	 -0.278	 -0.118	 -9.476	  0.003	  0.001	  0.020	 30.100	 99.375	 -0.878
35368	  0.306	  0.423	  0.502	 -0.305	 -0.110	 -9.467	  0.003	 -0.001	  0.019	 30.000	 99.371	 -0.509
35418	  0.305	  0.440	  0.499	 -0.230	 -0.121	 -9.513	  0.002	 -0.000	  0.019	 30.100	 99.359	  0.597
35468	  0.309	  0.424	  0.497	 -0.298	 -0.116	 -9.501	  0.002	 -0.001	  0.019	 30.100	 99.363	  0.229
35518	  0.306	  0.426	  0.502	 -0.220	 -0.110	 -9.474	  0.003	 -0.001	  0.020	 30.100	 99.359	  0.597
35568	  0.308	  0.423	  0.501	 -0.337	 -0.096	 -9.482	  0.004	 -0.000	  0.019	 30.100	 99.375	 -0.878
35618	  0.302	  0.426	  0.499	 -0.243	 -0.098	 -9.464	  0.003	  0.000	  0.019	 30.000	 99.363	  0.229
35668	  0.304	  0.424	  0.501	 -0.338	 -0.089	 -9.485	  0.003	 -0.001	  0.019	 30.000	 99.371	 -0.509
35718	  0.307	  0.424	  0.497	 -0.234	 -0.124	 -9.496	  0.003	 -0.000	  0.019	 30.100	 99.359	  0.597
35768	  0.306	  0.427	  0.501	 -0.322	 -0.091	 -9.523	  0.003	 -0.000	  0.020	 30.100	 99.363	  0.229
35818	  0.306	  0.424	  0.498	 -0.244	 -0.125	 -9.424	  0.004	 -0.001	  0.020	 30.100	 99.371	 -0.509
35868	  0.307	  0.423	  0.497	 -0.337	 -0.072	 -9.476	  0.003	 -0.001	  0.019	 30.100	 99.363	  0.229
35918	  0.307	  0.415	  0.505	 -0.231	 -0.138	 -9.487	  0.003	 -0.000	  0.019	 30.000	 99.375	 -0.878
35968	  0.308	  0.422	  0.497	 -0.311	 -0.092	 -9.467	  0.002	  0.000	  0.018	 30.000	 99.371	 -0.509
36018	  0.306	  0.424	  0.502	 -0.234	 -0.111	 -9.504	  0.003	 -0.001	  0.020	 30.100	 99.375	 -0.878
36068	  0.302	  0.421	  0.499	 -0.315	 -0.111	 -9.480	  0.003	 -0.002	  0.020	 30.100	 99.363	  0.229
36118	  0.307	  0.419	  0.493	 -0.259	 -0.156	 -9.487	  0.003	  0.000	  0.020	 30.100	 99.363	  0.229
36168	  0.306	  0.426	  0.502	 -0.312	 -0.089	 -9.483	  0.004	 -0.001	  0.018	 30.100	 99.363	  0.229
36218	  0.306	  0.423	  0.501	 -0.261	 -0.131	 -9.496	  0.001	 -0.001	  0.020	 30.000	 99.351	  1.335
36268	  0.302	  0.421	  0.491	 -0.294	 -0.097	 -9.493	  0.004	 -0.000	  0.020	 30.000	 99.359	  0.597
36318	  0.308	  0.422	  0.498	 -0.279	 -0.106	 -9.480	  0.002	 -0.001	  0.020	 30.100	 99.363	  0.229
36368	  0.304	  0.423	  0.498	 -0.246	 -0.132	 -9.488	  0.004	 -0.001	  0.019	 30.100	 99.363	  0.229
36418	  0.306	  0.424	  0.493	 -0.305	 -0.106	 -9.493	  0.003	 -0.001	  0.020	 30.100	 99.363	  0.229
36468	  0.306	  0.423	  0.503	 -0.260	 -0.097	 -9.490	  0.003	 -0.000	  0.020	 30.100	 99.363	  0.229
36518	  0.304	  0.423	  0.497	 -0.320	 -0.098	 -9.482	  0.002	 -0.000	  0.020	 30.000	 99.375	 -0.878
36568	  0.304	  0.422	  0.500	 -0.264	 -0.182	 -9.487	  0.008	 -0.002	  0.020	 30.100	 99.375	 -0.878
36618	  0.306	  0.424	  0.493	 -0.310	 -0.013	 -9.539	  0.003	 -0.002	  0.021	 30.000	 99.363	  0.229
36667	  0.306	  0.426	  0.501	 -0.255	 -0.155	 -9.502	  0.004	 -0.001	  0.019	 30.000	 99.359	  0.597
36717	  0.302	  0.423	  0.493	 -0.328	 -0.094	 -9.521	  0.003	 -0.002	  0.020	 30.100	 99.371	 -0.509
36767	  0.305	  0.441	  0.503	 -0.256	 -0.129	 -9.539	  0.004	 -0.001	  0.020	 30.100	 99.375	 -0.878
36817	  0.309	  0.433	  0.495	 -0.323	 -0.101	 -9.540	  0.003	 -0.001	  0.018	 30.100	 99.363	  0.229
36867	  0.307	  0.426	  0.493	 -0.199	 -0.124	 -9.528	  0.003	 -0.000	  0.020	 30.000	 99.359	  0.597
36917	  0.304	  0.424	  0.497	 -0.336	 -0.092	 -9.512	  0.002	 -0.001	  0.020	 30.100	 99.363	  0.229
36967	  0.307	  0.434	  0.499	 -0.245	 -0.131	 -9.523	  0.003	 -0.000	  0.020	 30.000	 99.371	 -0.509
37017	  0.310	  0.423	  0.500	 -0.328	 -0.105	 -9.507	  0.003	 -0.001	  0.019	 30.100	 99.359	  0.597
37067	  0.306	  0.427	  0.498	 -0.250	 -0.116	 -9.533	  0.002	 -0.003	  0.019	 30.100	 99.363	  0.229
37117	  0.306	  0.419	  0.497	 -0.314	 -0.113	 -9.519	  0.003	 -0.001	  0.020	 30.100	 99.359	  0.597
37167	  0.306	  0.426	  0.495	 -0.242	 -0.119	 -9.479	  0.003	 -0.002	  0.019	 30.100	 99.375	 -0.878
37217	  0.308	  0.419	  0.498	 -0.049	 -0.649	 -9.728	 -0.010	  0.002	  0.016	 30.100	 99.363	  0.229
37267	  0.304	  0.427	  0.498	 -0.322	  0.306	 -9.182	  0.007	 -0.001	  0.021	 30.000	 99.383	 -1.615
37317	  0.308	  0.423	  0.497	 -0.262	 -0.004	 -9.448	  0.003	  0.001	  0.021	 30.100	 99.375	 -0.878
37367	  0.304	  0.419	  0.498	 -0.304	 -0.086	 -9.488	  0.005	 -0.002	  0.020	 30.100	 99.363	  0.229
37417	  0.308	  0.428	  0.495	 -0.248	 -0.134	 -9.501	  0.003	 -0.002	  0.020	 30.000	 99.363	  0.229
37467	  0.304	  0.427	  0.499	 -0.305	 -0.115	 -9.483	  0.002	 -0.001	  0.020	 30.000	 99.371	 -0.509
37517	  0.307	  0.422	  0.505	 -0.204	 -0.169	 -9.491	  0.001	  0.000	  0.019	 30.000	 99.371	 -0.509
37567	  0.306	  0.427	  0.502	 -0.290	 -0.109	 -9.467	  0.002	 -0.002	  0.020	 30.000	 99.371	 -0.509
37617	  0.307	  0.423	  0.505	 -0.258	 -0.075	 -9.447	  0.003	 -0.002	  0.019	 30.100	 99.375	 -0.878
37667	  0.304	  0.421	  0.500	 -0.285	 -0.110	 -9.423	 -0.001	 -0.001	  0.021	 30.000	 99.359	  0.597
37717	  0.306	  0.423	  0.500	 -0.203	 -0.085	 -9.479	  0.002	 -0.000	  0.020	 30.000	 99.363	  0.229
37767	  0.304	  0.423	  0.503	 -0.325	 -0.080	 -9.497	  0.001	 -0.001	  0.022	 30.100	 99.363	  0.229
37817	  0.307	  0.421	  0.495	 -0.236	 -0.125	 -9.492	  0.003	 -0.001	  0.019	 30.100	 99.375	 -0.878
37867	  0.310	  0.421	  0.500	 -0.318	 -0.072	 -9.471	  0.002	  0.000	  0.021	 30.000	 99.371	 -0.509
37917	  0.304	  0.427	  0.502	 -0.323	  0.053	 -9.383	  0.008	 -0.004	  0.020	 30.000	 99.363	  0.229
37967	  0.304	  0.420	  0.487	 -0.319	 -0.101	 -9.476	  0.004	 -0.002	  0.020	 30.100	 99.363	  0.229
38017	  0.307	  0.426	  0.502	 -0.245	 -0.130	 -9.454	  0.003	 -0.002	  0.019	 30.100	 99.371	 -0.509
38067	  0.304	  0.429	  0.503	 -1.225	  0.233	 -9.559	 -0.007	 -0.003	  0.044	 30.100	 99.375	 -0.878
38117	  0.304	  0.423	  0.495	 -0.233	 -0.157	 -9.490	  0.003	 -0.002	  0.018	 30.000	 99.375	 -0.878
38167	  0.304	  0.426	  0.495	 -0.322	 -0.107	 -9.525	  0.003	 -0.001	  0.020	 30.100	 99.363	  0.229
38217	  0.303	  0.421	  0.503	 -0.321	 -0.109	 -9.523	  0.002	  0.000	  0.020	 30.100	 99.363	  0.229
38267	  0.307	  0.431	  0.505	 -0.213	 -0.140	 -9.496	  0.003	 -0.000	  0.020	 30.000	 99.371	 -0.509
38317	  0.303	  0.423	  0.491	 -0.320	 -0.116	 -9.510	  0.004	 -0.000	  0.019	 30.100	 99.363	  0.229
38367	  0.304	  0.424	  0.487	 -0.254	 -0.115	 -9.455	  0.002	  0.000	  0.019	 30.100	 99.363	  0.229
38417	  0.306	  0.422	  0.501	 -0.332	 -0.103	 -9.484	  0.005	 -0.001	  0.020	 30.100	 99.375	 -0.878
38467	  0.306	  0.422	  0.497	 -0.232	 -0.105	 -9.483	  0.003	  0.000	  0.018	 30.100	 99.375	 -0.878
38517	  0.308	  0.421	  0.504	 -0.319	 -0.084	 -9.497	  0.003	 -0.000	  0.019	 30.100	 99.363	  0.229
38567	  0.308	  0.421	  0.501	 -0.259	 -0.134	 -9.468	  0.002	 -0.000	  0.019	 30.100	 99.363	  0.229
38617	  0.307	  0.418	  0.502	 -0.328	 -0.079	 -9.479	  0.003	 -0.001	  0.020	 30.100	 99.363	  0.229
38667	  0.305	  0.431	  0.502	 -0.257	 -0.115	 -9.475	  0.004	 -0.001	  0.020	 30.100	 99.351	  1.335
38717	  0.308	  0.424	  0.494	 -0.317	 -0.084	 -9.470	  0.003	 -0.001	  0.020	 30.100	 99.375	 -0.878
38767	  0.304	  0.423	  0.491	 -0.252	 -0.095	 -9.471	  0.003	 -0.001	  0.020	 30.000	 99.375	 -0.878
38817	  0.304	  0.426	  0.501	 -0.290	 -0.090	 -9.527	  0.002	 -0.000	  0.020	 30.100	 99.363	  0.229
38867	  0.308	  0.423	  0.494	 -0.267	 -0.117	 -9.476	  0.004	  0.000	  0.020	 30.100	 99.363	  0.229
38917	  0.304	  0.422	  0.505	 -0.269	 -0.094	 -9.508	  0.003	 -0.001	  0.019	 30.100	 99.363	  0.229
38967	  0.308	  0.432	  0.502	 -0.288	 -0.098	 -9.505	  0.001	 -0.001	  0.019	 30.000	 99.359	  0.597
39017	  0.307	  0.432	  0.497	 -0.251	 -0.102	 -9.499	  0.003	 -0.002	  0.019	 30.000	 99.359	  0.597
39067	  0.307	  0.422	  0.501	 -0.309	 -0.097	 -9.515	  0.002	  0.000	  0.018	 30.000	 99.371	 -0.509
39117	  0.306	  0.424	  0.491	 -0.253	 -0.115	 -9.523	  0.003	 -0.000	  0.019	 30.000	 99.359	  0.597
39167	  0.307	  0.422	  0.506	 -0.320	 -0.097	 -9.485	  0.003	 -0.000	  0.019	 30.100	 99.363	  0.229
39218	  0.308	  0.421	  0.491	 -0.236	 -0.119	 -9.476	  0.003	 -0.000	  0.020	 30.100	 99.375	 -0.878
39267	  0.309	  0.431	  0.501	 -0.283	 -0.112	 -9.493	  0.002	 -0.001	  0.019	 30.100	 99.351	  1.335
39317	  0.306	  0.424	  0.502	 -0.221	 -0.134	 -9.492	  0.004	 -0.001	  0.019	 30.100	 99.363	  0.229
39367	  0.304	  0.428	  0.499	 -0.340	 -0.077	 -9.487	  0.002	 -0.001	  0.019	 30.000	 99.383	 -1.615
39417	  0.308	  0.427	  0.501	 -0.234	 -0.131	 -9.481	  0.004	  0.001	  0.019	 30.100	 99.363	  0.229
39467	  0.307	  0.427	  0.503	 -0.351	 -0.090	 -9.478	  0.003	 -0.002	  0.020	 30.100	 99.371	 -0.509
39517	  0.304	  0.426	  0.497	 -0.226	 -0.136	 -9.476	  0.003	 -0.000	  0.019	 30.100	 99.351	  1.335
39567	  0.308	  0.424	  0.493	 -0.332	 -0.105	 -9.519	  0.004	  0.000	  0.020	 30.000	 99.359	  0.597
39617	  0.310	  0.424	  0.497	 -0.212	 -0.114	 -9.486	  0.004	 -0.002	  0.019	 30.100	 99.363	  0.229
39668	  0.308	  0.433	  0.499	 -0.305	 -0.095	 -9.493	  0.002	 -0.001	  0.020	 30.000	 99.359	  0.597
39717	  0.306	  0.427	  0.505	 -0.223	 -0.103	 -9.481	  0.002	  0.000	  0.020	 30.100	 99.375	 -0.878
39768	  0.308	  0.423	  0.498	 -0.286	 -0.087	 -9.512	  0.004	 -0.001	  0.020	 30.100	 99.375	 -0.878
39817	  0.306	  0.421	  0.498	 -0.217	 -0.108	 -9.492	  0.004	 -0.001	  0.019	 30.100	 99.375	 -0.878
39868	  0.308	  0.429	  0.497	 -0.283	 -0.102	 -9.496	  0.002	 -0.000	  0.020	 30.100	 99.363	  0.229
39918	  0.308	  0.424	  0.500	 -0.258	 -0.110	 -9.510	  0.003	 -0.001	  0.020	 30.100	 99.363	  0.229
39968	  0.308	  0.426	  0.498	 -0.308	 -0.067	 -9.521	  0.003	 -0.001	  0.020	 30.100	 99.375	 -0.878
40018	  0.306	  0.423	  0.498	 -0.232	 -0.121	 -9.487	  0.004	 -0.001	  0.021	 30.100	 99.375	 -0.878
40068	  0.307	  0.429	  0.501	 -0.327	 -0.105	 -9.484	  0.003	 -0.000	  0.020	 30.000	 99.371	 -0.509
40118	  0.308	  0.431	  0.502	 -0.283	 -0.108	 -9.502	  0.003	 -0.002	  0.020	 30.100	 99.363	  0.229
40168	  0.303	  0.424	  0.497	 -0.278	 -0.105	 -9.480	  0.003	 -0.001	  0.021	 30.000	 99.359	  0.597
40218	  0.306	  0.427	  0.499	 -0.301	 -0.117	 -9.487	  0.002	  0.001	  0.018	 30.000	 99.363	  0.229
40268	  0.304	  0.427	  0.498	 -0.289	 -0.102	 -9.521	  0.002	  0.000	  0.019	 30.000	 99.359	  0.597
40318	  0.307	  0.426	  0.498	 -0.304	 -0.103	 -9.485	  0.003	 -0.001	  0.019	 30.000	 99.363	  0.229
40368	  0.306	  0.423	  0.497	 -0.249	 -0.116	 -9.496	  0.002	 -0.001	  0.019	 30.000	 99.371	 -0.509
40418	  0.304	  0.422	  0.500	 -0.308	 -0.107	 -9.506	  0.003	 -0.001	  0.020	 30.000	 99.371	 -0.509
40468	  0.307	  0.421	  0.500	 -0.244	 -0.120	 -9.434	  0.003	 -0.001	  0.019	 30.000	 99.371	 -0.509
40518	  0.304	  0.426	  0.495	 -0.326	 -0.089	 -9.471	  0.002	 -0.001	  0.020	 30.000	 99.363	  0.229
40568	  0.306	  0.427	  0.498	 -0.237	 -0.116	 -9.481	  0.003	 -0.001	  0.019	 30.100	 99.351	  1.335
40618	  0.304	  0.424	  0.497	 -0.336	 -0.077	 -9.489	  0.002	  0.001	  0.019	 30.100	 99.359	  0.597
40668	  0.307	  0.423	  0.495	 -0.235	 -0.127	 -9.495	  0.003	 -0.001	  0.019	 30.000	 99.359	  0.597
40718	  0.304	  0.422	  0.500	 -0.339	 -0.078	 -9.458	  0.004	 -0.001	  0.019	 30.100	 99.359	  0.597
40768	  0.305	  0.431	  0.495	 -0.232	 -0.117	 -9.503	  0.004	 -0.000	  0.019	 30.000	 99.359	  0.597
40818	  0.306	  0.423	  0.497	 -0.320	 -0.070	 -9.527	  0.003	 -0.001	  0.020	 30.100	 99.363	  0.229
40868	  0.306	  0.422	  0.502	 -0.248	 -0.100	 -9.476	  0.003	 -0.000	  0.020	 30.000	 99.371	 -0.509
40918	  0.308	  0.429	  0.499	 -0.342	 -0.101	 -9.509	  0.002	 -0.001	  0.019	 30.000	 99.371	 -0.509
40968	  0.307	  0.422	  0.495	 -0.239	 -0.098	 -9.509	  0.004	 -0.000	  0.020	 30.100	 99.375	 -0.878
41018	  0.308	  0.426	  0.495	 -0.329	 -0.096	 -9.485	  0.004	 -0.001	  0.019	 30.100	 99.359	  0.597
41068	  0.304	  0.424	  0.495	 -0.254	 -0.097	 -9.494	  0.002	 -0.001	  0.020	 30.000	 99.359	  0.597
41118	  0.306	  0.421	  0.502	 -0.273	 -0.100	 -9.495	  0.004	 -0.000	  0.020	 30.000	 99.359	  0.597
41168	  0.305	  0.428	  0.503	 -0.265	 -0.096	 -9.497	  0.003	 -0.001	  0.020	 30.100	 99.375	 -0.878
41217	  0.309	  0.427	  0.493	 -0.281	 -0.087	 -9.465	  0.003	 -0.001	  0.019	 30.100	 99.375	 -0.878
41267	  0.305	  0.427	  0.493	 -0.288	 -0.117	 -9.506	  0.002	 -0.002	  0.020	 30.000	 99.359	  0.597
41317	  0.307	  0.434	  0.498	 -0.250	 -0.108	 -9.482	  0.001	 -0.001	  0.020	 30.000	 99.359	  0.597
41367	  0.309	  0.423	  0.500	 -0.311	 -0.129	 -9.515	  0.002	 -0.000	  0.020	 30.000	 99.371	 -0.509
41417	  0.306	  0.426	  0.498	 -0.239	 -0.131	 -9.500	  0.003	  0.000	  0.019	 30.100	 99.375	 -0.878
41467	  0.307	  0.422	  0.500	 -0.344	 -0.089	 -9.477	  0.003	 -0.000	  0.020	 30.000	 99.371	 -0.509
41517	  0.308	  0.427	  0.500	 -0.211	 -0.121	 -9.424	  0.003	 -0.000	  0.018	 30.100	 99.363	  0.229
41567	  0.307	  0.422	  0.500	 -0.360	 -0.102	 -9.509	  0.003	 -0.002	  0.019	 30.000	 99.359	  0.597
41617	  0.307	  0.429	  0.499	 -0.252	 -0.157	 -9.439	  0.004	 -0.001	  0.019	 30.100	 99.375	 -0.878
41667	  0.307	  0.422	  0.495	 -0.317	 -0.066	 -9.468	  0.003	  0.001	  0.020	 30.000	 99.359	  0.597
41717	  0.303	  0.419	  0.497	 -0.230	 -0.138	 -9.474	  0.003	 -0.002	  0.020	 30.000	 99.375	 -0.878
41768	  0.308	  0.429	  0.505	 -0.303	 -0.100	 -9.489	  0.003	 -0.001	  0.019	 30.100	 99.375	 -0.878
41818	  0.304	  0.422	  0.495	 -0.262	 -0.135	 -9.491	  0.003	  0.001	  0.019	 30.000	 99.363	  0.229
41868	  0.309	  0.421	  0.498	 -0.313	 -0.116	 -9.475	  0.003	 -0.000	  0.020	 30.100	 99.363	  0.229
41918	  0.306	  0.423	  0.500	 -0.232	 -0.124	 -9.486	  0.002	 -0.002	  0.020	 30.000	 99.363	  0.229
41968	  0.304	  0.422	  0.497	 -0.317	 -0.076	 -9.511	  0.003	 -0.001	  0.020	 30.000	 99.359	  0.597
42018	  0.303	  0.421	  0.494	 -0.247	 -0.178	 -9.507	  0.003	 -0.002	  0.020	 30.100	 99.363	  0.229
42068	  0.304	  0.428	  0.502	 -0.263	 -0.100	 -9.477	  0.002	 -0.001	  0.020	 30.100	 99.375	 -0.878
42118	  0.304	  0.423	  0.499	 -0.284	 -0.081	 -9.494	  0.002	 -0.001	  0.020	 30.100	 99.375	 -0.878
42168	  0.309	  0.427	  0.504	 -0.281	 -0.090	 -9.483	  0.003	  0.000	  0.020	 30.000	 99.359	  0.597
42218	  0.307	  0.426	  0.498	 -0.275	 -0.109	 -9.472	  0.003	 -0.001	  0.019	 30.000	 99.375	 -0.878
42268	  0.303	  0.423	  0.494	 -0.253	 -0.092	 -9.476	  0.003	 -0.001	  0.020	 30.000	 99.383	 -1.615
42318	  0.304	  0.421	  0.491	 -0.313	 -0.131	 -9.478	  0.002	 -0.001	  0.020	 30.100	 99.371	 -0.509
42368	  0.302	  0.419	  0.490	 -0.223	 -0.088	 -9.464	  0.003	 -0.000	  0.019	 30.100	 99.363	  0.229
42418	  0.304	  0.424	  0.497	 -0.340	 -0.101	 -9.478	  0.004	 -0.002	  0.019	 30.100	 99.346	  1.796
42468	  0.306	  0.424	  0.498	 -0.210	 -0.108	 -9.472	  0.003	 -0.000	  0.019	 30.000	 99.359	  0.597
42518	  0.306	  0.427	  0.502	 -0.312	 -0.092	 -9.519	  0.002	 -0.001	  0.020	 30.100	 99.371	 -0.509
42568	  0.304	  0.423	  0.499	 -0.238	 -0.094	 -9.458	  0.003	 -0.000	  0.020	 30.000	 99.371	 -0.509
42618	  0.303	  0.421	  0.497	 -0.325	 -0.114	 -9.506	  0.003	 -0.001	  0.020	 30.100	 99.363	  0.229
42668	  0.306	  0.426	  0.497	 -0.233	 -0.131	 -9.512	  0.003	 -0.001	  0.020	 30.000	 99.371	 -0.509
42718	  0.309	  0.422	  0.497	 -0.495	  0.030	 -9.738	  0.007	  0.001	  0.021	 30.100	 99.359	  0.597
42768	  0.307	  0.440	  0.499	 -0.291	 -0.269	 -9.782	  0.003	  0.001	  0.019	 30.100	 99.363	  0.229
42818	  0.304	  0.426	  0.498	 -0.315	 -0.037	 -9.675	  0.003	 -0.001	  0.020	 30.000	 99.363	  0.229
42868	  0.310	  0.427	  0.501	 -0.296	 -0.143	 -9.651	  0.005	 -0.000	  0.019	 30.100	 99.375	 -0.878
42918	  0.308	  0.421	  0.501	 -0.270	 -0.088	 -9.617	  0.004	 -0.001	  0.020	 30.000	 99.371	 -0.509
42968	  0.308	  0.426	  0.494	 -0.294	 -0.098	 -9.637	  0.003	 -0.001	  0.020	 30.100	 99.375	 -0.878
43018	  0.304	  0.419	  0.501	 -0.295	 -0.113	 -9.546	  0.002	 -0.001	  0.019	 30.100	 99.375	 -0.878
43068	  0.304	  0.418	  0.500	 -0.267	 -0.098	 -9.544	  0.002	  0.000	  0.020	 30.100	 99.363	  0.229
43117	  0.305	  0.438	  0.495	 -0.303	 -0.107	 -9.606	  0.003	 -0.002	  0.020	 30.100	 99.375	 -0.878
43168	  0.308	  0.436	  0.491	 -0.254	 -0.071	 -9.527	  0.003	 -0.002	  0.019	 30.000	 99.371	 -0.509
43217	  0.304	  0.423	  0.498	 -0.288	 -0.141	 -9.548	  0.002	 -0.001	  0.019	 30.000	 99.363	  0.229
43268	  0.310	  0.424	  0.497	 -0.300	 -0.083	 -9.513	  0.004	 -0.000	  0.020	 30.000	 99.371	 -0.509
43317	  0.304	  0.427	  0.489	 -0.236	 -0.136	 -9.508	  0.003	 -0.001	  0.019	 30.100	 99.371	 -0.509
43367	  0.306	  0.424	  0.499	 -0.353	 -0.097	 -9.494	  0.002	 -0.000	  0.020	 30.000	 99.359	  0.597
43417	  0.306	  0.423	  0.498	 -0.235	 -0.115	 -9.527	  0.002	 -0.000	  0.019	 30.000	 99.359	  0.597
43467	  0.309	  0.422	  0.501	 -0.336	 -0.078	 -9.511	  0.002	 -0.001	  0.020	 30.000	 99.371	 -0.509
43518	  0.307	  0.426	  0.497	 -0.254	 -0.100	 -9.518	  0.003	 -0.000	  0.020	 30.000	 99.371	 -0.509
43567	  0.308	  0.423	  0.490	 -0.306	 -0.103	 -9.502	  0.003	 -0.000	  0.020	 30.100	 99.375	 -0.878
43617	  0.308	  0.421	  0.497	 -0.236	 -0.123	 -9.519	  0.002	 -0.001	  0.020	 30.100	 99.375	 -0.878
43667	  0.304	  0.422	  0.500	 -0.331	 -0.093	 -9.496	  0.004	 -0.002	  0.019	 30.100	 99.363	  0.229
43717	  0.304	  0.424	  0.501	 -0.242	 -0.123	 -9.495	  0.003	 -0.001	  0.020	 30.000	 99.371	 -0.509
43767	  0.304	  0.426	  0.499	 -0.337	 -0.075	 -9.490	  0.003	 -0.001	  0.019	 30.000	 99.371	 -0.509
43817	  0.307	  0.423	  0.498	 -0.225	 -0.123	 -9.483	  0.002	 -0.003	  0.020	 30.100	 99.363	  0.229
43867	  0.306	  0.426	  0.497	 -0.335	 -0.101	 -9.470	  0.003	 -0.001	  0.020	 30.100	 99.363	  0.229
43917	  0.307	  0.418	  0.498	 -0.262	 -0.107	 -9.486	  0.003	 -0.002	  0.020	 30.100	 99.359	  0.597
43967	  0.307	  0.427	  0.495	 -0.306	 -0.116	 -9.511	  0.002	 -0.000	  0.019	 30.100	 99.363	  0.229
44017	  0.306	  0.441	  0.495	 -0.255	 -0.118	 -9.501	  0.002	 -0.002	  0.019	 30.100	 99.371	 -0.509
44067	  0.308	  0.421	  0.501	 -0.292	 -0.104	 -9.500	  0.002	 -0.001	  0.020	 30.000	 99.371	 -0.509
44117	  0.308	  0.428	  0.502	 -0.281	 -0.112	 -9.469	  0.003	 -0.002	  0.020	 30.000	 99.371	 -0.509
44168	  0.307	  0.436	  0.499	 -0.261	 -0.118	 -9.505	  0.003	 -0.002	  0.019	 30.100	 99.363	  0.229
44217	  0.308	  0.431	  0.495	 -0.324	 -0.092	 -9.487	  0.003	  0.000	  0.018	 30.000	 99.359	  0.597
44267	  0.303	  0.422	  0.494	 -0.261	 -0.113	 -9.497	  0.003	  0.000	  0.020	 30.100	 99.363	  0.229
44317	  0.303	  0.427	  0.499	 -0.329	 -0.074	 -9.499	  0.004	 -0.000	  0.019	 30.100	 99.363	  0.229
44367	  0.306	  0.424	  0.502	 -0.236	 -0.117	 -9.503	  0.003	 -0.002	  0.020	 30.100	 99.363	  0.229
44417	  0.304	  0.424	  0.494	 -0.346	 -0.077	 -9.470	  0.003	 -0.002	  0.018	 30.100	 99.363	  0.229
44467	  0.306	  0.419	  0.495	 -0.221	 -0.106	 -9.508	  0.002	 -0.002	  0.019	 30.100	 99.375	 -0.878
44517	  0.301	  0.422	  0.498	 -0.313	 -0.093	 -9.494	  0.003	 -0.002	  0.021	 30.000	 99.359	  0.597
44567	  0.304	  0.423	  0.498	 -0.222	 -0.106	 -9.503	  0.003	 -0.001	  0.020	 30.000	 99.359	  0.597
44617	  0.304	  0.422	  0.501	 -0.321	 -0.089	 -9.531	  0.002	 -0.002	  0.019	 30.100	 99.363	  0.229
44667	  0.304	  0.423	  0.498	 -0.238	 -0.119	 -9.476	  0.003	 -0.000	  0.019	 30.000	 99.359	  0.597
44717	  0.304	  0.424	  0.499	 -0.313	 -0.099	 -9.512	  0.002	 -0.002	  0.020	 30.000	 99.359	  0.597
44767	  0.308	  0.427	  0.501	 -0.252	 -0.119	 -9.517	  0.003	 -0.001	  0.020	 30.000	 99.359	  0.597
44817	  0.308	  0.427	  0.498	 -0.303	 -0.102	 -9.511	  0.002	 -0.001	  0.020	 30.000	 99.375	 -0.878
44867	  0.306	  0.418	  0.497	 -0.247	 -0.114	 -9.501	  0.003	 -0.002	  0.020	 30.000	 99.359	  0.597
44917	  0.308	  0.422	  0.501	 -0.303	 -0.126	 -9.491	  0.003	  0.000	  0.019	 30.100	 99.375	 -0.878
44968	  0.305	  0.436	  0.496	 -0.288	 -0.105	 -9.459	  0.003	 -0.001	  0.020	 30.100	 99.375	 -0.878
45017	  0.307	  0.423	  0.501	 -0.275	 -0.098	 -9.484	  0.003	 -0.001	  0.019	 30.000	 99.363	  0.229
45068	  0.308	  0.424	  0.493	 -0.272	 -0.112	 -9.478	  0.004	 -0.002	  0.019	 30.100	 99.375	 -0.878
45117	  0.307	  0.426	  0.497	 -0.256	 -0.103	 -9.517	  0.003	  0.000	  0.020	 30.000	 99.359	  0.597
45167	  0.303	  0.423	  0.491	 -0.303	 -0.110	 -9.433	  0.003	 -0.001	  0.019	 30.100	 99.375	 -0.878
45217	  0.304	  0.422	  0.497	 -0.249	 -0.101	 -9.509	  0.003	 -0.000	  0.019	 30.100	 99.375	 -0.878
45268	  0.306	  0.421	  0.497	 -0.306	 -0.109	 -9.468	  0.002	  0.001	  0.019	 30.100	 99.387	 -1.984
45317	  0.306	  0.424	  0.491	 -0.240	 -0.113	 -9.500	  0.003	 -0.001	  0.019	 30.000	 99.346	  1.796
45367	  0.307	  0.422	  0.502	 -0.316	 -0.102	 -9.503	  0.004	 -0.001	  0.019	 30.100	 99.375	 -0.878
45418	  0.309	  0.427	  0.501	 -0.229	 -0.116	 -9.456	  0.003	 -0.001	  0.021	 30.000	 99.371	 -0.509
45468	  0.307	  0.424	  0.501	 -0.330	 -0.103	 -9.491	  0.002	 -0.000	  0.020	 30.100	 99.375	 -0.878
45518	  0.307	  0.421	  0.501	 -0.230	 -0.114	 -9.483	  0.002	  0.000	  0.020	 30.100	 99.363	  0.229
45568	  0.310	  0.423	  0.502	 -0.344	 -0.087	 -9.506	  0.002	 -0.000	  0.019	 30.100	 99.375	 -0.878
45618	  0.307	  0.418	  0.498	 -0.228	 -0.114	 -9.502	  0.003	 -0.001	  0.018	 30.100	 99.359	  0.597
45668	  0.308	  0.422	  0.501	 -0.341	 -0.083	 -9.479	  0.004	 -0.000	  0.021	 30.100	 99.363	  0.229
45718	  0.305	  0.428	  0.484	 -0.253	 -0.127	 -9.467	  0.003	 -0.001	  0.019	 30.100	 99.363	  0.229
45768	  0.306	  0.421	  0.501	 -0.316	 -0.075	 -9.493	  0.003	  0.000	  0.019	 30.100	 99.375	 -0.878
45818	  0.303	  0.429	  0.501	 -0.243	 -0.116	 -9.490	  0.003	 -0.001	  0.019	 30.000	 99.371	 -0.509
45868	  0.310	  0.427	  0.495	 -0.324	 -0.091	 -9.496	  0.003	 -0.001	  0.020	 30.000	 99.359	  0.597
45918	  0.308	  0.423	  0.490	 -0.282	 -0.126	 -9.488	  0.003	 -0.002	  0.020	 30.000	 99.371	 -0.509
45968	  0.307	  0.427	  0.498	 -0.306	 -0.095	 -9.491	  0.003	 -0.001	  0.019	 30.100	 99.363	  0.229
46018	  0.304	  0.433	  0.496	 -0.283	 -0.122	 -9.488	  0.003	 -0.002	  0.020	 30.000	 99.359	  0.597
46068	  0.306	  0.426	  0.498	 -0.279	 -0.108	 -9.499	  0.003	 -0.001	  0.019	 30.000	 99.371	 -0.509
46118	  0.305	  0.428	  0.495	 -0.305	 -0.119	 -9.482	  0.004	 -0.001	  0.019	 30.000	 99.363	  0.229
46168	  0.308	  0.419	  0.493	 -0.270	 -0.104	 -9.528	  0.003	 -0.001	  0.019	 30.100	 99.363	  0.229
46218	  0.306	  0.421	  0.497	 -0.294	 -0.079	 -9.493	  0.003	 -0.001	  0.019	 30.100	 99.359	  0.597
46268	  0.306	  0.424	  0.498	 -0.265	 -0.088	 -9.493	  0.004	 -0.001	  0.019	 30.100	 99.375	 -0.878
46318	  0.304	  0.422	  0.501	 -0.333	 -0.094	 -9.433	  0.002	 -0.001	  0.020	 30.100	 99.359	  0.597
46368	  0.303	  0.429	  0.498	 -0.238	 -0.119	 -9.511	  0.003	 -0.001	  0.019	 30.100	 99.351	  1.335
46418	  0.308	  0.429	  0.501	 -0.315	 -0.091	 -9.462	  0.003	 -0.001	  0.019	 30.000	 99.371	 -0.509
46468	  0.307	  0.422	  0.500	 -0.207	 -0.117	 -9.467	  0.003	 -0.000	  0.019	 30.000	 99.359	  0.597
46518	  0.308	  0.421	  0.496	 -0.329	 -0.072	 -9.465	  0.002	 -0.000	  0.019	 30.000	 99.363	  0.229
46568	  0.304	  0.436	  0.498	 -0.221	 -0.109	 -9.461	  0.002	 -0.001	  0.020	 30.100	 99.375	 -0.878
46618	  0.306	  0.422	  0.497	 -0.316	 -0.098	 -9.511	  0.003	  0.000	  0.020	 30.000	 99.375	 -0.878
46668	  0.306	  0.419	  0.498	 -0.219	 -0.127	 -9.531	  0.003	  0.000	  0.019	 30.000	 99.359	  0.597
46718	  0.308	  0.437	  0.503	 -0.310	 -0.093	 -9.532	  0.003	 -0.002	  0.019	 30.000	 99.363	  0.229
46768	  0.305	  0.429	  0.501	 -0.243	 -0.152	 -9.485	  0.001	 -0.001	  0.020	 30.000	 99.359	  0.597
46818	  0.308	  0.427	  0.497	 -0.308	 -0.084	 -9.525	  0.002	 -0.000	  0.019	 30.100	 99.375	 -0.878
46868	  0.304	  0.426	  0.503	 -0.249	 -0.131	 -9.525	  0.003	 -0.000	  0.019	 30.000	 99.371	 -0.509
46918	  0.308	  0.424	  0.501	 -0.312	 -0.092	 -9.503	  0.004	 -0.003	  0.020	 30.100	 99.371	 -0.509
46968	  0.306	  0.421	  0.495	 -0.295	 -0.109	 -9.519	  0.003	 -0.001	  0.021	 30.100	 99.375	 -0.878
47018	  0.304	  0.433	  0.494	 -0.253	 -0.076	 -9.489	  0.002	 -0.001	  0.020	 30.100	 99.379	 -1.246
47068	  0.307	  0.426	  0.498	 -0.290	 -0.096	 -9.448	  0.003	 -0.002	  0.019	 30.000	 99.371	 -0.509
47118	  0.304	  0.427	  0.501	 -0.264	 -0.111	 -9.492	  0.002	 -0.001	  0.019	 30.000	 99.359	  0.597
47168	  0.305	  0.436	  0.499	 -0.302	 -0.115	 -9.436	  0.002	 -0.001	  0.020	 30.000	 99.371	 -0.509
47218	  0.303	  0.421	  0.499	 -0.256	 -0.118	 -9.441	  0.003	 -0.002	  0.020	 30.000	 99.363	  0.229
47268	  0.307	  0.426	  0.502	 -0.317	 -0.098	 -9.483	  0.003	 -0.001	  0.020	 30.100	 99.375	 -0.878
47318	  0.306	  0.422	  0.500	 -0.234	 -0.115	 -9.450	  0.003	 -0.002	  0.019	 30.000	 99.359	  0.597
47368	  0.308	  0.423	  0.502	 -0.326	 -0.099	 -9.482	  0.003	  0.000	  0.020	 30.000	 99.371	 -0.509
47418	  0.308	  0.418	  0.502	 -0.235	 -0.115	 -9.481	  0.003	 -0.002	  0.019	 30.100	 99.371	 -0.509
47468	  0.308	  0.436	  0.501	 -0.336	 -0.094	 -9.500	  0.002	  0.000	  0.019	 30.000	 99.359	  0.597
47518	  0.308	  0.422	  0.502	 -0.227	 -0.111	 -9.529	  0.002	 -0.000	  0.019	 30.100	 99.371	 -0.509
47568	  0.304	  0.417	  0.495	 -0.325	 -0.080	 -9.512	  0.002	 -0.001	  0.020	 30.100	 99.375	 -0.878
47618	  0.309	  0.423	  0.502	 -0.241	 -0.095	 -9.510	  0.003	 -0.001	  0.020	 30.000	 99.363	  0.229
47668	  0.308	  0.418	  0.498	 -0.329	 -0.121	 -9.532	  0.003	  0.000	  0.019	 30.100	 99.375	 -0.878
47718	  0.306	  0.427	  0.499	 -0.224	 -0.110	 -9.500	  0.002	 -0.001	  0.019	 30.100	 99.363	  0.229
47768	  0.305	  0.442	  0.499	 -0.332	 -0.109	 -9.517	  0.002	 -0.000	  0.020	 30.000	 99.371	 -0.509
47818	  0.306	  0.422	  0.500	 -0.251	 -0.120	 -9.504	  0.003	 -0.000	  0.019	 30.000	 99.363	  0.229
47868	  0.307	  0.423	  0.490	 -0.299	 -0.104	 -9.487	  0.003	 -0.001	  0.020	 30.000	 99.359	  0.597
47918	  0.307	  0.437	  0.501	 -0.143	 -0.063	 -9.508	  0.006	 -0.002	  0.018	 30.100	 99.363	  0.229
47968	  0.307	  0.424	  0.495	 -0.312	 -0.173	 -9.751	  0.003	  0.001	  0.021	 30.100	 99.375	 -0.878
48018	  0.306	  0.424	  0.498	 -0.285	 -0.101	 -9.572	  0.003	  0.000	  0.019	 30.000	 99.359	  0.597
48068	  0.304	  0.428	  0.499	 -0.272	 -0.122	 -9.619	  0.003	 -0.000	  0.019	 30.000	 99.371	 -0.509
48118	  0.306	  0.426	  0.498	 -0.287	 -0.112	 -9.515	  0.004	 -0.000	  0.019	 30.000	 99.363	  0.229
48168	  0.306	  0.424	  0.501	 -0.232	 -0.121	 -9.526	  0.002	  0.000	  0.019	 30.000	 99.359	  0.597
48218	  0.306	  0.423	  0.498	 -0.313	 -0.097	 -9.491	  0.003	  0.002	  0.020	 30.000	 99.359	  0.597
48268	  0.307	  0.424	  0.502	 -0.231	 -0.114	 -9.542	  0.003	 -0.000	  0.020	 30.000	 99.359	  0.597
48318	  0.304	  0.421	  0.497	  0.023	 -0.179	 -9.606	 -0.005	 -0.002	  0.014	 30.000	 99.363	  0.229
48368	  0.306	  0.424	  0.497	 -0.189	 -0.069	 -9.566	 -0.001	 -0.000	  0.019	 30.000	 99.359	  0.597
48418	  0.306	  0.423	  0.497	 -0.368	 -0.027	 -9.598	  0.002	 -0.001	  0.019	 30.100	 99.359	  0.597
48468	  0.306	  0.424	  0.498	 -0.225	 -0.075	 -9.596	  0.001	 -0.002	  0.018	 30.000	 99.371	 -0.509
48517	  0.306	  0.421	  0.495	 -0.327	 -0.107	 -9.599	  0.003	 -0.001	  0.019	 30.100	 99.363	  0.229
48567	  0.308	  0.424	  0.498	 -0.244	 -0.095	 -9.580	  0.002	 -0.000	  0.020	 30.100	 99.375	 -0.878
48617	  0.306	  0.419	  0.504	 -0.332	 -0.103	 -9.597	  0.003	 -0.002	  0.020	 30.100	 99.375	 -0.878
48667	  0.309	  0.426	  0.494	 -0.228	 -0.098	 -9.540	  0.002	 -0.003	  0.019	 30.100	 99.379	 -1.246
48717	  0.306	  0.424	  0.498	 -0.322	 -0.111	 -9.533	  0.002	 -0.001	  0.019	 30.000	 99.359	  0.597
48767	  0.308	  0.423	  0.493	 -0.254	 -0.092	 -9.568	  0.003	  0.001	  0.020	 30.100	 99.363	  0.229
48817	  0.309	  0.431	  0.506	 -0.294	 -0.112	 -9.517	  0.003	 -0.001	  0.019	 30.100	 99.363	  0.229
48867	  0.305	  0.431	  0.498	 -0.290	 -0.107	 -9.498	  0.002	 -0.001	  0.020	 30.000	 99.371	 -0.509
48917	  0.306	  0.418	  0.494	 -0.296	 -0.094	 -9.481	  0.003	  0.000	  0.020	 30.000	 99.359	  0.597
48967	  0.306	  0.423	  0.490	 -0.287	 -0.132	 -9.463	  0.004	 -0.001	  0.018	 30.100	 99.375	 -0.878
49017	  0.304	  0.424	  0.494	 -0.251	 -0.100	 -9.471	  0.002	 -0.001	  0.019	 30.100	 99.359	  0.597
49067	  0.307	  0.438	  0.498	 -0.300	 -0.094	 -9.454	  0.003	 -0.000	  0.020	 30.100	 99.363	  0.229
49117	  0.308	  0.419	  0.498	 -0.257	 -0.106	 -9.441	  0.002	  0.000	  0.020	 30.000	 99.371	 -0.509
49167	  0.302	  0.426	  0.497	 -0.289	 -0.098	 -9.460	  0.003	 -0.002	  0.020	 30.100	 99.363	  0.229
49217	  0.307	  0.424	  0.494	 -0.257	 -0.122	 -9.506	  0.002	 -0.001	  0.020	 30.100	 99.363	  0.229
