Time	 MagX	 MagY	 MagZ	 AccelX	 AccelY	 AccelZ	 Yaw	 Pitch	 Roll	 Temperature	 Pressure	 Altitude
15222	  0.170	 -0.023	  0.219	 -0.014	 -0.066	 -9.526	  0.002	 -0.001	  0.015	 29.300	 99.499	 -99999.000
15272	  0.169	 -0.052	  0.223	 -0.080	 -0.037	 -9.476	  0.002	  0.001	  0.009	 29.300	 99.499	 -99999.000
15322	  0.168	 -0.045	  0.220	 -0.070	 -0.041	 -9.477	  0.002	 -0.001	  0.012	 29.300	 99.499	 -99999.000
15373	  0.172	 -0.051	  0.213	 -0.033	 -0.037	 -9.505	  0.002	 -0.002	  0.012	 29.300	 99.499	 -99999.000
15423	  0.172	 -0.041	  0.210	 -0.019	 -0.075	 -9.514	  0.003	 -0.001	  0.011	 29.300	 99.494	 -99999.000
15473	  0.169	 -0.051	  0.217	 -0.083	 -0.060	 -9.534	  0.002	 -0.002	  0.011	 29.300	 99.499	 -99999.000
15523	  0.172	 -0.054	  0.216	 -0.013	 -0.088	 -9.478	  0.002	 -0.002	  0.010	 29.300	 99.499	 -99999.000
15573	  0.170	 -0.052	  0.215	 -0.124	 -0.042	 -9.491	  0.002	  0.000	  0.013	 29.300	 99.486	 -99999.000
15623	  0.171	 -0.054	  0.219	  0.001	 -0.060	 -9.474	  0.002	 -0.001	  0.011	 29.300	 99.486	 -99999.000
15672	  0.169	 -0.054	  0.217	 -0.087	 -0.003	 -9.510	  0.002	  0.000	  0.013	 29.300	 99.499	 -99999.000
15723	  0.172	 -0.041	  0.210	 -0.030	 -0.077	 -9.504	  0.003	 -0.000	  0.008	 29.300	 99.486	 -99999.000
15773	  0.171	 -0.048	  0.217	 -0.056	 -0.045	 -9.490	  0.003	 -0.002	  0.013	 29.300	 99.499	 -99999.000
15823	  0.172	 -0.041	  0.216	  0.006	 -0.065	 -9.508	  0.003	 -0.002	  0.012	 29.300	 99.499	 -99999.000
15873	  0.170	 -0.046	  0.216	 -0.094	 -0.038	 -9.506	  0.002	 -0.001	  0.011	 29.300	 99.499	 -99999.000
15923	  0.172	 -0.050	  0.216	  0.034	 -0.074	 -9.480	  0.003	 -0.001	  0.013	 29.300	 99.499	 -99999.000
15973	  0.174	 -0.034	  0.213	 -0.073	 -0.048	 -9.495	  0.002	 -0.000	  0.011	 29.300	 99.486	 -99999.000
16023	  0.172	 -0.050	  0.215	  0.016	 -0.046	 -9.497	  0.002	 -0.001	  0.009	 29.300	 99.486	 -99999.000
16073	  0.170	 -0.054	  0.217	 -0.076	 -0.069	 -9.506	  0.001	 -0.001	  0.010	 29.300	 99.499	 -99999.000
16123	  0.169	 -0.049	  0.201	  0.035	 -0.050	 -9.471	  0.002	  0.000	  0.012	 29.300	 99.486	 -99999.000
16173	  0.170	 -0.051	  0.216	 -0.100	 -0.046	 -9.459	  0.004	 -0.000	  0.011	 29.300	 99.499	 -99999.000
16223	  0.171	 -0.050	  0.215	 -0.064	 -0.066	 -9.484	  0.003	 -0.001	  0.011	 29.300	 99.499	 -99999.000
16273	  0.172	 -0.037	  0.214	 -0.124	 -0.044	 -9.472	  0.002	 -0.003	  0.011	 29.300	 99.486	 -99999.000
16323	  0.169	 -0.046	  0.206	 -0.047	 -0.074	 -9.511	  0.002	 -0.002	  0.012	 29.300	 99.486	 -99999.000
16373	  0.171	 -0.056	  0.220	 -0.071	 -0.055	 -9.470	  0.003	 -0.002	  0.011	 29.300	 99.486	 -99999.000
16423	  0.170	 -0.033	  0.216	 -0.057	 -0.040	 -9.525	  0.003	 -0.001	  0.010	 29.300	 99.486	 -99999.000
47573	  0.172	 -0.046	  0.216	 -0.088	 -0.057	 -9.539	  0.004	 -0.002	  0.012	 29.300	 99.478	  1.435
47623	  0.172	 -0.052	  0.213	 -0.033	 -0.074	 -9.467	  0.002	  0.001	  0.011	 29.300	 99.478	  1.435
47673	  0.170	 -0.047	  0.216	 -0.097	 -0.035	 -9.473	  0.003	 -0.001	  0.010	 29.300	 99.478	  1.435
47723	  0.170	 -0.042	  0.217	  0.011	 -0.077	 -9.492	  0.002	 -0.000	  0.011	 29.300	 99.491	  0.240
47773	  0.174	 -0.051	  0.219	 -0.061	 -0.066	 -9.501	  0.003	 -0.001	  0.011	 29.300	 99.478	  1.435
47823	  0.174	 -0.051	  0.217	 -0.053	 -0.073	 -9.498	  0.003	 -0.001	  0.011	 29.300	 99.491	  0.240
47873	  0.171	 -0.050	  0.213	 -0.046	 -0.051	 -9.529	  0.002	 -0.001	  0.011	 29.300	 99.491	  0.240
47923	  0.170	 -0.055	  0.216	 -0.002	 -0.074	 -9.492	  0.002	 -0.001	  0.010	 29.300	 99.491	  0.240
47973	  0.168	 -0.050	  0.213	 -0.070	 -0.038	 -9.497	  0.002	 -0.002	  0.011	 29.300	 99.491	  0.240
48022	  0.171	 -0.051	  0.211	  0.014	 -0.061	 -9.490	  0.002	 -0.002	  0.010	 29.300	 99.478	  1.435
48072	  0.170	 -0.041	  0.216	 -0.103	 -0.028	 -9.498	  0.002	 -0.001	  0.011	 29.300	 99.491	  0.240
48122	  0.170	 -0.041	  0.216	  0.010	 -0.072	 -9.476	  0.003	  0.000	  0.011	 29.300	 99.491	  0.240
48173	  0.172	 -0.047	  0.217	 -0.083	 -0.030	 -9.470	  0.002	 -0.001	  0.012	 29.400	 99.507	 -1.230
48222	  0.171	 -0.037	  0.217	  0.005	 -0.070	 -9.502	  0.003	 -0.001	  0.011	 29.300	 99.491	  0.240
48272	  0.175	 -0.054	  0.213	 -0.117	 -0.050	 -9.496	  0.003	 -0.001	  0.011	 29.300	 99.491	  0.240
48323	  0.171	 -0.048	  0.215	  0.008	 -0.078	 -9.510	  0.003	 -0.001	  0.011	 29.300	 99.478	  1.435
48373	  0.166	 -0.050	  0.217	 -0.088	 -0.051	 -9.470	  0.002	  0.001	  0.010	 29.300	 99.491	  0.240
48423	  0.171	 -0.051	  0.220	 -0.014	 -0.069	 -9.515	  0.003	 -0.001	  0.009	 29.300	 99.491	  0.240
48473	  0.172	 -0.051	  0.216	 -0.068	 -0.081	 -9.504	  0.003	  0.000	  0.010	 29.300	 99.478	  1.435
48524	  0.171	 -0.048	  0.215	 -0.060	 -0.040	 -9.473	  0.003	  0.000	  0.009	 29.400	 99.495	 -0.128
48573	  0.171	 -0.050	  0.216	 -0.048	 -0.065	 -9.425	  0.003	 -0.003	  0.010	 29.300	 99.491	  0.240
48624	  0.171	 -0.051	  0.213	 -0.046	 -0.053	 -9.507	  0.004	 -0.001	  0.010	 29.300	 99.491	  0.240
48673	  0.170	 -0.047	  0.219	 -0.065	 -0.060	 -9.456	  0.003	 -0.001	  0.012	 29.400	 99.507	 -1.230
48724	  0.172	 -0.052	  0.207	 -0.096	 -0.048	 -9.430	  0.003	 -0.000	  0.011	 29.400	 99.478	  1.435
48774	  0.168	 -0.052	  0.217	 -0.057	 -0.082	 -9.497	  0.002	 -0.001	  0.012	 29.300	 99.491	  0.240
48824	  0.172	 -0.051	  0.211	 -0.087	 -0.048	 -9.488	  0.002	 -0.001	  0.010	 29.300	 99.503	 -0.862
48874	  0.170	 -0.054	  0.213	 -0.023	 -0.068	 -9.509	  0.001	  0.000	  0.009	 29.300	 99.478	  1.435
48924	  0.171	 -0.052	  0.212	 -0.062	 -0.038	 -9.463	  0.004	 -0.001	  0.011	 29.300	 99.478	  1.435
48974	  0.172	 -0.050	  0.220	  0.004	 -0.056	 -9.477	  0.002	 -0.001	  0.011	 29.300	 99.491	  0.240
49024	  0.171	 -0.047	  0.219	 -0.073	 -0.043	 -9.484	  0.003	 -0.001	  0.011	 29.300	 99.491	  0.240
49073	  0.170	 -0.052	  0.217	  0.005	 -0.065	 -9.438	  0.003	 -0.002	  0.011	 29.400	 99.478	  1.435
49123	  0.170	 -0.052	  0.213	 -0.077	 -0.051	 -9.503	  0.003	 -0.001	  0.010	 29.400	 99.483	  0.975
49173	  0.169	 -0.047	  0.217	  0.020	 -0.070	 -9.496	  0.002	 -0.000	  0.011	 29.300	 99.486	  0.700
49224	  0.171	 -0.052	  0.215	 -0.081	 -0.025	 -9.461	  0.002	 -0.001	  0.013	 29.400	 99.483	  0.975
49274	  0.175	 -0.055	  0.218	 -0.006	 -0.090	 -9.498	  0.002	 -0.001	  0.011	 29.300	 99.491	  0.240
49323	  0.172	 -0.045	  0.220	 -0.110	 -0.039	 -9.508	  0.002	 -0.002	  0.011	 29.300	 99.478	  1.435
49373	  0.171	 -0.050	  0.209	 -0.026	 -0.070	 -9.493	  0.002	 -0.002	  0.010	 29.300	 99.491	  0.240
49424	  0.170	 -0.052	  0.219	 -0.098	 -0.048	 -9.504	  0.002	 -0.001	  0.011	 29.300	 99.491	  0.240
49473	  0.172	 -0.055	  0.218	 -0.015	 -0.087	 -9.492	  0.002	 -0.002	  0.012	 29.400	 99.478	  1.435
49523	  0.170	 -0.042	  0.210	 -0.098	 -0.067	 -9.503	  0.003	 -0.001	  0.011	 29.400	 99.491	  0.240
49574	  0.170	 -0.042	  0.216	 -0.014	 -0.080	 -9.523	  0.002	 -0.000	  0.011	 29.300	 99.478	  1.435
49623	  0.169	 -0.050	  0.211	 -0.050	 -0.038	 -9.475	  0.003	 -0.001	  0.011	 29.300	 99.478	  1.435
49674	  0.174	 -0.050	  0.219	 -0.040	 -0.051	 -9.489	  0.001	 -0.002	  0.011	 29.300	 99.503	 -0.862
49723	  0.171	 -0.052	  0.217	 -0.088	 -0.046	 -9.494	  0.002	 -0.002	  0.010	 29.300	 99.478	  1.435
49773	  0.172	 -0.050	  0.213	 -0.025	 -0.069	 -9.484	  0.002	 -0.001	  0.011	 29.300	 99.491	  0.240
49823	  0.171	 -0.054	  0.215	 -0.074	 -0.055	 -9.500	  0.001	 -0.001	  0.012	 29.400	 99.478	  1.435
49873	  0.172	 -0.050	  0.212	 -0.026	 -0.061	 -9.459	  0.002	  0.000	  0.011	 29.300	 99.491	  0.240
49923	  0.172	 -0.054	  0.216	 -0.065	 -0.071	 -9.440	  0.003	 -0.002	  0.010	 29.300	 99.491	  0.240
49974	  0.170	 -0.051	  0.219	 -0.020	 -0.054	 -9.505	  0.003	 -0.001	  0.010	 29.300	 99.491	  0.240
50023	  0.175	 -0.051	  0.212	 -0.038	 -0.041	 -9.467	  0.003	 -0.000	  0.010	 29.400	 99.495	 -0.128
50073	  0.170	 -0.052	  0.216	 -0.024	 -0.063	 -9.474	  0.003	 -0.000	  0.011	 29.400	 99.491	  0.240
50123	  0.170	 -0.046	  0.216	 -0.035	 -0.065	 -9.516	  0.003	 -0.002	  0.012	 29.300	 99.478	  1.435
50173	  0.170	 -0.050	  0.216	 -0.051	 -0.035	 -9.513	  0.002	 -0.001	  0.010	 29.300	 99.491	  0.240
50223	  0.174	 -0.051	  0.216	 -0.046	 -0.057	 -9.489	  0.002	 -0.001	  0.011	 29.300	 99.491	  0.240
50273	  0.169	 -0.050	  0.217	 -0.071	 -0.040	 -9.506	  0.002	 -0.001	  0.011	 29.300	 99.491	  0.240
50324	  0.170	 -0.052	  0.215	 -0.001	 -0.068	 -9.488	  0.003	  0.000	  0.010	 29.300	 99.491	  0.240
50373	  0.174	 -0.043	  0.220	 -0.066	 -0.042	 -9.517	  0.002	  0.001	  0.010	 29.400	 99.491	  0.240
50423	  0.175	 -0.047	  0.215	  0.007	 -0.082	 -9.462	  0.003	 -0.001	  0.009	 29.300	 99.491	  0.240
50473	  0.169	 -0.045	  0.219	 -0.100	 -0.030	 -9.487	  0.002	 -0.001	  0.010	 29.300	 99.478	  1.435
50523	  0.172	 -0.048	  0.219	 -0.003	 -0.071	 -9.482	  0.003	 -0.000	  0.011	 29.300	 99.491	  0.240
50573	  0.171	 -0.055	  0.209	 -0.063	 -0.043	 -9.484	  0.003	 -0.000	  0.011	 29.300	 99.491	  0.240
50623	  0.169	 -0.055	  0.220	 -0.003	 -0.079	 -9.477	  0.003	  0.000	  0.012	 29.400	 99.491	  0.240
50673	  0.172	 -0.054	  0.212	 -0.075	 -0.035	 -9.463	  0.002	 -0.001	  0.009	 29.400	 99.478	  1.435
50723	  0.170	 -0.050	  0.212	 -0.039	 -0.080	 -9.448	  0.003	 -0.001	  0.011	 29.300	 99.491	  0.240
50773	  0.170	 -0.048	  0.219	 -0.106	 -0.043	 -9.492	  0.003	 -0.001	  0.011	 29.400	 99.495	 -0.128
50823	  0.170	 -0.052	  0.212	 -0.026	 -0.073	 -9.503	  0.003	 -0.001	  0.012	 29.300	 99.478	  1.435
50873	  0.171	 -0.038	  0.220	 -0.111	 -0.030	 -9.502	  0.001	  0.000	  0.011	 29.300	 99.478	  1.435
50923	  0.164	 -0.047	  0.218	 -0.016	 -0.071	 -9.481	  0.004	 -0.001	  0.011	 29.400	 99.495	 -0.128
50973	  0.166	 -0.050	  0.216	 -0.091	 -0.039	 -9.480	  0.002	 -0.002	  0.011	 29.400	 99.491	  0.240
51023	  0.170	 -0.045	  0.219	 -0.010	 -0.076	 -9.499	  0.003	  0.000	  0.011	 29.400	 99.491	  0.240
51073	  0.172	 -0.055	  0.215	 -0.084	 -0.049	 -9.472	  0.002	 -0.000	  0.010	 29.400	 99.491	  0.240
51123	  0.172	 -0.051	  0.217	  0.019	 -0.067	 -9.500	  0.002	 -0.001	  0.011	 29.300	 99.491	  0.240
51173	  0.171	 -0.054	  0.219	 -0.061	 -0.050	 -9.490	  0.004	  0.000	  0.011	 29.300	 99.478	  1.435
51223	  0.174	 -0.052	  0.208	 -0.002	 -0.046	 -9.494	  0.001	 -0.000	  0.010	 29.300	 99.491	  0.240
51273	  0.169	 -0.048	  0.223	 -0.059	 -0.037	 -9.472	  0.003	 -0.001	  0.010	 29.300	 99.491	  0.240
51323	  0.170	 -0.042	  0.210	 -0.027	 -0.044	 -9.507	  0.003	 -0.000	  0.011	 29.300	 99.491	  0.240
51373	  0.171	 -0.047	  0.220	 -0.059	 -0.058	 -9.514	  0.003	  0.001	  0.011	 29.300	 99.491	  0.240
51423	  0.170	 -0.047	  0.219	 -0.038	 -0.070	 -9.487	  0.003	 -0.001	  0.011	 29.300	 99.491	  0.240
51473	  0.171	 -0.054	  0.215	 -0.046	 -0.067	 -9.537	  0.002	 -0.001	  0.010	 29.300	 99.491	  0.240
51523	  0.168	 -0.041	  0.212	 -0.062	 -0.050	 -9.487	  0.002	 -0.001	  0.011	 29.300	 99.491	  0.240
51573	  0.170	 -0.041	  0.220	 -0.046	 -0.057	 -9.503	  0.003	 -0.001	  0.011	 29.300	 99.491	  0.240
51623	  0.168	 -0.051	  0.220	 -0.061	 -0.039	 -9.487	  0.003	 -0.001	  0.012	 29.300	 99.478	  1.435
51673	  0.170	 -0.038	  0.220	 -0.024	 -0.063	 -9.455	  0.003	  0.000	  0.011	 29.300	 99.478	  1.435
51723	  0.170	 -0.052	  0.215	 -0.068	 -0.038	 -9.514	  0.002	 -0.002	  0.010	 29.300	 99.491	  0.240
51773	  0.172	 -0.045	  0.216	 -0.039	 -0.070	 -9.521	  0.004	 -0.001	  0.011	 29.300	 99.491	  0.240
51823	  0.169	 -0.052	  0.213	 -0.088	 -0.047	 -9.468	  0.002	 -0.000	  0.011	 29.300	 99.491	  0.240
51873	  0.168	 -0.055	  0.216	 -0.038	 -0.083	 -9.492	  0.002	 -0.000	  0.010	 29.300	 99.491	  0.240
51923	  0.170	 -0.050	  0.212	 -0.098	 -0.056	 -9.486	  0.003	 -0.001	  0.010	 29.300	 99.491	  0.240
51973	  0.172	 -0.055	  0.207	 -0.020	 -0.077	 -9.463	  0.002	 -0.001	  0.011	 29.400	 99.491	  0.240
52023	  0.169	 -0.045	  0.217	 -0.084	 -0.035	 -9.512	  0.002	 -0.001	  0.011	 29.300	 99.478	  1.435
52073	  0.172	 -0.046	  0.220	 -0.018	 -0.078	 -9.476	  0.003	 -0.000	  0.011	 29.400	 99.478	  1.435
52123	  0.170	 -0.048	  0.214	 -0.084	 -0.055	 -9.489	  0.002	 -0.002	  0.011	 29.300	 99.491	  0.240
52173	  0.170	 -0.055	  0.215	  0.003	 -0.067	 -9.495	  0.003	 -0.000	  0.010	 29.300	 99.478	  1.435
52223	  0.168	 -0.045	  0.217	 -0.117	 -0.050	 -9.494	  0.002	 -0.002	  0.011	 29.300	 99.491	  0.240
52273	  0.170	 -0.052	  0.215	 -0.013	 -0.088	 -9.449	  0.002	 -0.001	  0.010	 29.300	 99.478	  1.435
52323	  0.169	 -0.041	  0.217	 -0.081	 -0.064	 -9.535	  0.001	 -0.001	  0.011	 29.300	 99.491	  0.240
52373	  0.174	 -0.047	  0.211	 -0.015	 -0.069	 -9.508	  0.003	  0.000	  0.010	 29.300	 99.491	  0.240
52423	  0.171	 -0.052	  0.215	 -0.077	 -0.034	 -9.445	  0.004	 -0.002	  0.010	 29.300	 99.491	  0.240
52473	  0.171	 -0.055	  0.212	  0.010	 -0.076	 -9.472	  0.002	 -0.001	  0.011	 29.300	 99.491	  0.240
52523	  0.172	 -0.055	  0.204	 -0.072	 -0.063	 -9.465	  0.003	 -0.001	  0.009	 29.300	 99.478	  1.435
52573	  0.170	 -0.054	  0.217	 -0.004	 -0.072	 -9.503	  0.002	 -0.001	  0.010	 29.300	 99.491	  0.240
52623	  0.171	 -0.047	  0.213	 -0.089	 -0.049	 -9.473	  0.002	 -0.001	  0.012	 29.300	 99.478	  1.435
52673	  0.166	 -0.047	  0.209	 -0.008	 -0.064	 -9.457	  0.002	 -0.001	  0.010	 29.300	 99.491	  0.240
52723	  0.169	 -0.048	  0.217	 -0.103	 -0.064	 -9.477	  0.003	 -0.000	  0.010	 29.300	 99.478	  1.435
52773	  0.169	 -0.047	  0.212	 -0.039	 -0.079	 -9.500	  0.002	 -0.001	  0.011	 29.300	 99.503	 -0.862
52823	  0.171	 -0.050	  0.217	 -0.056	 -0.074	 -9.523	  0.002	  0.000	  0.012	 29.300	 99.491	  0.240
52873	  0.169	 -0.051	  0.216	 -0.011	 -0.064	 -9.454	  0.003	 -0.002	  0.012	 29.300	 99.491	  0.240
52923	  0.170	 -0.047	  0.221	 -0.130	 -0.052	 -9.495	  0.002	  0.001	  0.011	 29.300	 99.478	  1.435
52973	  0.171	 -0.054	  0.217	  0.020	 -0.068	 -9.477	  0.002	 -0.002	  0.011	 29.400	 99.483	  0.975
53023	  0.170	 -0.050	  0.213	 -0.119	 -0.032	 -9.469	  0.003	 -0.002	  0.011	 29.300	 99.478	  1.435
53073	  0.174	 -0.043	  0.217	 -0.020	 -0.051	 -9.496	  0.003	 -0.001	  0.011	 29.400	 99.483	  0.975
53123	  0.168	 -0.045	  0.218	 -0.069	 -0.054	 -9.483	  0.002	 -0.001	  0.011	 29.300	 99.491	  0.240
53173	  0.168	 -0.046	  0.213	 -0.012	 -0.058	 -9.507	  0.002	 -0.001	  0.010	 29.300	 99.491	  0.240
53223	  0.168	 -0.050	  0.213	 -0.084	 -0.056	 -9.520	  0.003	 -0.002	  0.011	 29.300	 99.491	  0.240
53273	  0.170	 -0.054	  0.219	  0.002	 -0.070	 -9.496	  0.002	 -0.001	  0.010	 29.300	 99.478	  1.435
53323	  0.169	 -0.050	  0.217	 -0.074	 -0.050	 -9.489	  0.001	 -0.001	  0.011	 29.400	 99.495	 -0.128
53373	  0.170	 -0.052	  0.217	 -0.053	 -0.028	 -9.447	  0.002	 -0.001	  0.011	 29.400	 99.478	  1.435
53423	  0.171	 -0.050	  0.216	 -0.030	 -0.077	 -9.526	  0.002	 -0.001	  0.011	 29.300	 99.503	 -0.862
53473	  0.172	 -0.048	  0.215	 -0.025	 -0.072	 -9.500	  0.002	 -0.002	  0.014	 29.300	 99.503	 -0.862
53523	  0.169	 -0.047	  0.213	 -0.034	 -0.052	 -9.467	  0.003	 -0.001	  0.011	 29.300	 99.491	  0.240
53573	  0.170	 -0.046	  0.208	 -0.060	 -0.017	 -9.503	  0.001	 -0.000	  0.010	 29.300	 99.491	  0.240
53623	  0.170	 -0.051	  0.211	 -0.040	 -0.057	 -9.498	  0.002	  0.000	  0.011	 29.300	 99.491	  0.240
53673	  0.170	 -0.049	  0.213	 -0.042	 -0.052	 -9.492	  0.003	 -0.001	  0.012	 29.300	 99.491	  0.240
53723	  0.170	 -0.049	  0.206	 -0.052	 -0.066	 -9.478	  0.003	 -0.001	  0.010	 29.300	 99.491	  0.240
53773	  0.169	 -0.051	  0.217	 -0.056	 -0.029	 -9.495	  0.003	 -0.001	  0.010	 29.400	 99.483	  0.975
53824	  0.170	 -0.050	  0.216	 -0.014	 -0.088	 -9.470	  0.002	 -0.001	  0.010	 29.300	 99.491	  0.240
53873	  0.171	 -0.050	  0.217	 -0.099	 -0.063	 -9.487	  0.002	  0.000	  0.012	 29.300	 99.491	  0.240
53924	  0.174	 -0.051	  0.211	  0.015	 -0.075	 -9.466	  0.003	 -0.000	  0.011	 29.400	 99.495	 -0.128
53973	  0.169	 -0.047	  0.210	 -0.100	 -0.053	 -9.476	  0.003	 -0.001	  0.011	 29.400	 99.491	  0.240
54023	  0.170	 -0.052	  0.215	 -0.013	 -0.072	 -9.483	  0.002	 -0.001	  0.011	 29.300	 99.491	  0.240
54073	  0.170	 -0.051	  0.211	 -0.095	 -0.040	 -9.488	  0.002	 -0.001	  0.011	 29.300	 99.478	  1.435
54123	  0.171	 -0.051	  0.212	 -0.009	 -0.054	 -9.528	  0.002	 -0.000	  0.011	 29.400	 99.491	  0.240
54173	  0.171	 -0.055	  0.217	 -0.092	 -0.075	 -9.518	  0.002	 -0.001	  0.011	 29.400	 99.483	  0.975
54224	  0.170	 -0.056	  0.215	 -0.023	 -0.077	 -9.502	  0.003	 -0.000	  0.011	 29.400	 99.491	  0.240
54274	  0.168	 -0.050	  0.217	 -0.089	 -0.051	 -9.502	  0.002	 -0.001	  0.011	 29.400	 99.495	 -0.128
54324	  0.170	 -0.051	  0.213	 -0.012	 -0.030	 -9.480	  0.002	 -0.001	  0.011	 29.300	 99.478	  1.435
54374	  0.170	 -0.052	  0.216	 -0.062	 -0.051	 -9.513	  0.002	 -0.001	  0.011	 29.400	 99.483	  0.975
54424	  0.170	 -0.054	  0.216	 -0.020	 -0.041	 -9.501	  0.002	 -0.000	  0.011	 29.300	 99.503	 -0.862
54474	  0.170	 -0.050	  0.206	 -0.040	 -0.052	 -9.498	  0.003	 -0.001	  0.011	 29.400	 99.478	  1.435
54524	  0.169	 -0.054	  0.216	 -0.041	 -0.043	 -9.490	  0.002	 -0.001	  0.011	 29.300	 99.491	  0.240
54574	  0.169	 -0.047	  0.206	 -0.049	 -0.058	 -9.530	  0.002	 -0.001	  0.011	 29.400	 99.483	  0.975
54624	  0.169	 -0.054	  0.209	 -0.052	 -0.064	 -9.494	  0.004	 -0.001	  0.010	 29.300	 99.478	  1.435
54674	  0.172	 -0.051	  0.212	 -0.057	 -0.053	 -9.512	  0.003	 -0.000	  0.011	 29.400	 99.491	  0.240
54724	  0.170	 -0.054	  0.217	 -0.060	 -0.053	 -9.485	  0.002	 -0.001	  0.011	 29.400	 99.491	  0.240
54774	  0.169	 -0.057	  0.217	 -0.032	 -0.049	 -9.488	  0.003	 -0.001	  0.011	 29.400	 99.478	  1.435
54824	  0.166	 -0.046	  0.218	 -0.078	 -0.054	 -9.490	  0.002	 -0.002	  0.010	 29.400	 99.495	 -0.128
54874	  0.169	 -0.052	  0.211	 -0.042	 -0.075	 -9.449	  0.002	 -0.001	  0.010	 29.300	 99.491	  0.240
54924	  0.172	 -0.050	  0.215	 -0.101	 -0.023	 -9.491	  0.002	 -0.002	  0.012	 29.400	 99.495	 -0.128
54973	  0.172	 -0.052	  0.217	 -0.029	 -0.066	 -9.454	  0.003	 -0.000	  0.010	 29.300	 99.491	  0.240
55023	  0.172	 -0.048	  0.217	 -0.098	 -0.046	 -9.477	  0.002	 -0.002	  0.011	 29.300	 99.491	  0.240
55073	  0.169	 -0.050	  0.217	  0.019	 -0.066	 -9.492	  0.003	 -0.000	  0.012	 29.400	 99.491	  0.240
55123	  0.172	 -0.052	  0.216	 -0.084	 -0.066	 -9.493	  0.002	 -0.002	  0.012	 29.400	 99.466	  2.538
55173	  0.170	 -0.056	  0.216	  0.006	 -0.081	 -9.486	  0.003	 -0.002	  0.011	 29.300	 99.491	  0.240
55223	  0.169	 -0.055	  0.212	 -0.104	 -0.039	 -9.490	  0.002	 -0.001	  0.012	 29.400	 99.495	 -0.128
55274	  0.171	 -0.050	  0.219	 -0.009	 -0.081	 -9.551	  0.003	 -0.001	  0.012	 29.300	 99.491	  0.240
55323	  0.169	 -0.042	  0.220	 -0.101	 -0.042	 -9.482	  0.002	 -0.002	  0.011	 29.300	 99.503	 -0.862
55373	  0.172	 -0.051	  0.215	 -0.003	 -0.093	 -9.482	  0.004	 -0.002	  0.012	 29.300	 99.491	  0.240
55423	  0.168	 -0.051	  0.219	 -0.072	 -0.041	 -9.477	  0.003	 -0.001	  0.011	 29.400	 99.483	  0.975
55473	  0.168	 -0.050	  0.217	  0.009	 -0.083	 -9.473	  0.002	 -0.001	  0.012	 29.400	 99.491	  0.240
55523	  0.171	 -0.051	  0.208	 -0.072	 -0.046	 -9.524	  0.003	 -0.000	  0.011	 29.300	 99.478	  1.435
55573	  0.170	 -0.036	  0.221	 -0.011	 -0.054	 -9.497	  0.002	 -0.001	  0.012	 29.400	 99.495	 -0.128
55623	  0.172	 -0.055	  0.215	 -0.096	 -0.045	 -9.506	  0.003	 -0.001	  0.010	 29.400	 99.491	  0.240
55673	  0.174	 -0.052	  0.209	 -0.025	 -0.052	 -9.483	  0.002	 -0.002	  0.011	 29.300	 99.503	 -0.862
55723	  0.171	 -0.046	  0.216	 -0.052	 -0.072	 -9.497	  0.003	 -0.002	  0.012	 29.300	 99.478	  1.435
55773	  0.171	 -0.052	  0.221	 -0.017	 -0.070	 -9.518	  0.001	 -0.000	  0.010	 29.400	 99.491	  0.240
55823	  0.169	 -0.054	  0.215	 -0.075	 -0.090	 -9.491	  0.002	 -0.001	  0.012	 29.400	 99.495	 -0.128
55873	  0.171	 -0.050	  0.203	 -0.032	 -0.054	 -9.507	  0.002	 -0.002	  0.012	 29.400	 99.495	 -0.128
55923	  0.174	 -0.047	  0.215	 -0.063	 -0.064	 -9.494	  0.003	 -0.001	  0.011	 29.300	 99.478	  1.435
55973	  0.170	 -0.047	  0.219	 -0.044	 -0.052	 -9.504	  0.002	 -0.000	  0.010	 29.400	 99.483	  0.975
56023	  0.169	 -0.047	  0.217	 -0.065	 -0.073	 -9.513	  0.003	 -0.001	  0.013	 29.300	 99.491	  0.240
56073	  0.170	 -0.042	  0.220	 -0.056	 -0.047	 -9.454	  0.003	 -0.001	  0.010	 29.400	 99.495	 -0.128
56123	  0.168	 -0.047	  0.219	 -0.017	 -0.077	 -9.484	  0.003	  0.000	  0.008	 29.300	 99.503	 -0.862
56173	  0.168	 -0.049	  0.212	 -0.076	 -0.056	 -9.531	  0.003	 -0.001	  0.012	 29.400	 99.495	 -0.128
56223	  0.171	 -0.051	  0.220	 -0.023	 -0.096	 -9.455	  0.002	 -0.002	  0.012	 29.300	 99.491	  0.240
56273	  0.171	 -0.047	  0.211	 -0.084	 -0.069	 -9.460	  0.002	 -0.002	  0.012	 29.300	 99.478	  1.435
56323	  0.175	 -0.046	  0.205	 -0.016	 -0.088	 -9.488	  0.002	 -0.000	  0.014	 29.400	 99.495	 -0.128
56373	  0.171	 -0.047	  0.219	 -0.065	 -0.053	 -9.474	  0.002	  0.001	  0.012	 29.300	 99.503	 -0.862
56423	  0.169	 -0.051	  0.213	 -0.025	 -0.073	 -9.493	  0.002	  0.001	  0.012	 29.400	 99.491	  0.240
56473	  0.172	 -0.048	  0.219	 -0.109	 -0.032	 -9.500	  0.002	 -0.002	  0.010	 29.300	 99.491	  0.240
56523	  0.171	 -0.049	  0.209	  0.007	 -0.076	 -9.455	  0.003	 -0.002	  0.011	 29.400	 99.495	 -0.128
56573	  0.169	 -0.047	  0.220	 -0.097	 -0.025	 -9.495	  0.003	 -0.002	  0.012	 29.400	 99.491	  0.240
56623	  0.172	 -0.043	  0.219	  0.017	 -0.076	 -9.482	  0.002	 -0.001	  0.012	 29.400	 99.495	 -0.128
56673	  0.169	 -0.037	  0.213	 -0.103	 -0.015	 -9.494	  0.003	 -0.001	  0.012	 29.400	 99.495	 -0.128
56723	  0.171	 -0.055	  0.213	 -0.011	 -0.100	 -9.504	  0.002	 -0.000	  0.011	 29.300	 99.491	  0.240
56773	  0.169	 -0.046	  0.220	 -0.069	 -0.018	 -9.506	  0.002	 -0.001	  0.009	 29.400	 99.495	 -0.128
56823	  0.170	 -0.050	  0.219	 -0.002	 -0.067	 -9.502	  0.003	 -0.000	  0.009	 29.300	 99.478	  1.435
56873	  0.171	 -0.051	  0.221	 -0.028	 -0.062	 -9.474	  0.002	 -0.002	  0.010	 29.400	 99.483	  0.975
56923	  0.169	 -0.049	  0.209	  0.003	 -0.062	 -9.456	  0.003	  0.002	  0.009	 29.300	 99.491	  0.240
56973	  0.171	 -0.047	  0.219	 -0.085	 -0.032	 -9.428	  0.001	  0.000	  0.012	 29.400	 99.491	  0.240
57023	  0.170	 -0.042	  0.209	 -0.035	 -0.047	 -9.481	  0.003	 -0.001	  0.011	 29.400	 99.491	  0.240
57073	  0.168	 -0.052	  0.216	 -0.055	 -0.062	 -9.487	  0.002	 -0.002	  0.011	 29.300	 99.478	  1.435
57123	  0.169	 -0.047	  0.214	 -0.005	 -0.053	 -9.464	 -0.000	  0.001	  0.010	 29.300	 99.491	  0.240
57173	  0.170	 -0.049	  0.211	 -0.118	 -0.073	 -9.459	  0.002	  0.002	  0.012	 29.300	 99.491	  0.240
57223	  0.172	 -0.047	  0.220	 -0.004	 -0.052	 -9.486	  0.003	 -0.002	  0.011	 29.400	 99.495	 -0.128
57273	  0.172	 -0.052	  0.213	 -0.093	 -0.091	 -9.484	  0.002	 -0.001	  0.011	 29.300	 99.491	  0.240
57323	  0.169	 -0.047	  0.213	 -0.033	 -0.062	 -9.505	  0.002	 -0.000	  0.011	 29.400	 99.478	  1.435
57373	  0.170	 -0.045	  0.216	 -0.087	 -0.058	 -9.442	  0.002	 -0.000	  0.011	 29.400	 99.495	 -0.128
57423	  0.168	 -0.049	  0.212	 -0.035	 -0.064	 -9.466	  0.003	 -0.002	  0.011	 29.300	 99.491	  0.240
57473	  0.170	 -0.046	  0.217	 -0.080	 -0.087	 -9.540	  0.001	  0.001	  0.011	 29.400	 99.495	 -0.128
57523	  0.170	 -0.050	  0.209	 -0.045	 -0.021	 -9.497	  0.002	 -0.001	  0.010	 29.400	 99.478	  1.435
57573	  0.170	 -0.047	  0.220	 -0.024	 -0.088	 -9.500	  0.003	 -0.001	  0.011	 29.400	 99.491	  0.240
57623	  0.170	 -0.043	  0.213	 -0.082	 -0.040	 -9.483	  0.003	 -0.002	  0.012	 29.400	 99.491	  0.240
57673	  0.170	 -0.051	  0.216	 -0.007	 -0.062	 -9.491	  0.003	 -0.001	  0.010	 29.300	 99.503	 -0.862
57723	  0.169	 -0.047	  0.213	 -0.117	 -0.057	 -9.446	  0.001	  0.002	  0.010	 29.300	 99.478	  1.435
57773	  0.167	 -0.056	  0.213	 -0.141	 -0.115	 -9.537	  0.004	 -0.001	  0.010	 29.400	 99.495	 -0.128
57823	  0.168	 -0.047	  0.204	 -0.025	 -0.001	 -9.397	  0.004	 -0.004	  0.011	 29.400	 99.495	 -0.128
57873	  0.166	 -0.047	  0.218	 -0.030	 -0.091	 -9.442	  0.002	 -0.000	  0.009	 29.400	 99.491	  0.240
57923	  0.170	 -0.047	  0.214	 -0.179	 -0.058	 -9.483	  0.002	 -0.002	  0.010	 29.300	 99.491	  0.240
57973	  0.169	 -0.052	  0.213	  0.053	 -0.075	 -9.458	  0.003	 -0.003	  0.011	 29.400	 99.495	 -0.128
58023	  0.168	 -0.040	  0.214	 -0.100	 -0.066	 -9.508	  0.001	 -0.001	  0.011	 29.300	 99.491	  0.240
58073	  0.170	 -0.052	  0.215	  0.002	 -0.063	 -9.414	  0.002	  0.001	  0.011	 29.400	 99.503	 -0.862
58123	  0.171	 -0.054	  0.216	 -0.114	 -0.055	 -9.442	  0.003	 -0.002	  0.010	 29.400	 99.491	  0.240
58173	  0.172	 -0.046	  0.215	 -0.005	 -0.074	 -9.480	  0.003	 -0.002	  0.011	 29.400	 99.495	 -0.128
58223	  0.171	 -0.041	  0.217	 -0.074	 -0.061	 -9.471	  0.002	 -0.001	  0.010	 29.300	 99.491	  0.240
58273	  0.169	 -0.047	  0.216	 -0.056	 -0.073	 -9.508	  0.003	 -0.001	  0.012	 29.400	 99.495	 -0.128
58323	  0.170	 -0.052	  0.217	 -0.088	 -0.057	 -9.529	  0.002	  0.001	  0.011	 29.300	 99.478	  1.435
58373	  0.172	 -0.047	  0.211	 -0.045	 -0.078	 -9.486	  0.002	 -0.001	  0.011	 29.300	 99.478	  1.435
58423	  0.171	 -0.052	  0.213	 -0.120	 -0.068	 -9.536	  0.003	 -0.001	  0.011	 29.400	 99.495	 -0.128
58473	  0.169	 -0.047	  0.209	 -0.053	 -0.065	 -9.457	  0.002	  0.002	  0.012	 29.400	 99.483	  0.975
58523	  0.168	 -0.045	  0.220	 -0.145	 -0.044	 -9.474	  0.003	 -0.003	  0.012	 29.400	 99.495	 -0.128
58573	  0.172	 -0.048	  0.213	 -0.006	 -0.079	 -9.433	  0.003	 -0.000	  0.010	 29.400	 99.491	  0.240
58623	  0.171	 -0.046	  0.217	 -0.093	 -0.098	 -9.515	  0.003	 -0.002	  0.011	 29.400	 99.495	 -0.128
58673	  0.171	 -0.050	  0.215	 -0.009	 -0.057	 -9.521	  0.003	 -0.002	  0.011	 29.400	 99.483	  0.975
58723	  0.168	 -0.034	  0.220	 -0.092	 -0.058	 -9.514	  0.001	 -0.001	  0.011	 29.300	 99.503	 -0.862
58773	  0.170	 -0.045	  0.214	  0.018	 -0.038	 -9.500	  0.003	 -0.002	  0.010	 29.400	 99.495	 -0.128
58823	  0.169	 -0.050	  0.217	 -0.046	 -0.077	 -9.524	  0.003	  0.000	  0.011	 29.400	 99.491	  0.240
58873	  0.169	 -0.050	  0.211	 -0.008	 -0.081	 -9.498	  0.002	 -0.001	  0.011	 29.400	 99.483	  0.975
58923	  0.169	 -0.051	  0.206	 -0.023	 -0.075	 -9.502	  0.004	 -0.000	  0.012	 29.400	 99.495	 -0.128
58973	  0.170	 -0.052	  0.219	 -0.025	 -0.074	 -9.491	  0.003	 -0.002	  0.011	 29.400	 99.491	  0.240
59023	  0.169	 -0.046	  0.217	 -0.090	 -0.061	 -9.501	  0.003	 -0.001	  0.011	 29.400	 99.495	 -0.128
59073	  0.168	 -0.056	  0.219	 -0.013	 -0.091	 -9.517	  0.003	 -0.001	  0.011	 29.300	 99.491	  0.240
59123	  0.171	 -0.050	  0.213	 -0.018	 -0.066	 -9.473	  0.002	  0.002	  0.010	 29.400	 99.478	  1.435
59173	  0.170	 -0.046	  0.220	 -0.144	 -0.034	 -9.550	  0.004	 -0.003	  0.012	 29.300	 99.478	  1.435
59223	  0.170	 -0.047	  0.216	  0.034	 -0.083	 -9.506	  0.001	 -0.002	  0.010	 29.400	 99.495	 -0.128
59273	  0.170	 -0.047	  0.216	 -0.070	 -0.035	 -9.483	  0.003	  0.002	  0.012	 29.400	 99.491	  0.240
59323	  0.171	 -0.033	  0.213	 -0.072	 -0.109	 -9.550	  0.002	 -0.002	  0.010	 29.400	 99.478	  1.435
59373	  0.172	 -0.047	  0.209	 -0.033	 -0.052	 -9.499	  0.003	 -0.003	  0.012	 29.400	 99.478	  1.435
59423	  0.169	 -0.050	  0.211	 -0.078	 -0.097	 -9.480	  0.002	 -0.001	  0.011	 29.400	 99.495	 -0.128
59473	  0.167	 -0.055	  0.215	 -0.079	 -0.025	 -9.504	  0.001	 -0.000	  0.010	 29.400	 99.495	 -0.128
59523	  0.172	 -0.050	  0.209	 -0.045	 -0.064	 -9.517	  0.003	 -0.001	  0.011	 29.400	 99.495	 -0.128
59574	  0.171	 -0.043	  0.214	 -0.077	 -0.029	 -9.500	  0.003	 -0.003	  0.011	 29.300	 99.491	  0.240
59624	  0.169	 -0.048	  0.221	  0.010	 -0.067	 -9.510	  0.004	 -0.002	  0.011	 29.400	 99.495	 -0.128
59674	  0.174	 -0.050	  0.215	 -0.103	 -0.030	 -9.480	  0.003	  0.000	  0.011	 29.400	 99.507	 -1.230
59724	  0.167	 -0.056	  0.220	  0.028	 -0.136	 -9.479	  0.001	 -0.002	  0.012	 29.300	 99.478	  1.435
59774	  0.165	 -0.051	  0.205	 -0.123	 -0.057	 -9.431	  0.002	  0.002	  0.009	 29.400	 99.491	  0.240
59824	  0.168	 -0.045	  0.220	  0.024	 -0.049	 -9.469	  0.002	 -0.003	  0.010	 29.300	 99.491	  0.240
59874	  0.169	 -0.049	  0.213	 -0.066	 -0.058	 -9.504	  0.003	 -0.000	  0.011	 29.300	 99.491	  0.240
59924	  0.166	 -0.040	  0.217	 -0.004	 -0.069	 -9.497	  0.003	 -0.001	  0.009	 29.300	 99.478	  1.435
59974	  0.169	 -0.051	  0.213	 -0.069	 -0.066	 -9.480	  0.003	 -0.001	  0.011	 29.400	 99.491	  0.240
60024	  0.172	 -0.045	  0.216	  0.008	 -0.052	 -9.493	  0.003	 -0.000	  0.011	 29.400	 99.491	  0.240
60074	  0.168	 -0.042	  0.216	 -0.065	 -0.072	 -9.500	  0.002	 -0.002	  0.011	 29.400	 99.478	  1.435
60124	  0.170	 -0.050	  0.217	 -0.030	 -0.052	 -9.471	  0.002	 -0.001	  0.010	 29.400	 99.491	  0.240
60174	  0.169	 -0.042	  0.216	 -0.080	 -0.076	 -9.495	  0.002	 -0.000	  0.011	 29.400	 99.491	  0.240
60224	  0.171	 -0.047	  0.216	 -0.049	 -0.040	 -9.411	  0.003	  0.001	  0.011	 29.400	 99.495	 -0.128
60274	  0.169	 -0.055	  0.217	 -0.123	 -0.064	 -9.493	  0.003	 -0.002	  0.011	 29.400	 99.491	  0.240
60324	  0.169	 -0.043	  0.212	  0.013	 -0.041	 -9.513	  0.003	 -0.000	  0.010	 29.400	 99.495	 -0.128
60374	  0.169	 -0.046	  0.217	 -0.029	 -0.060	 -9.477	  0.002	  0.001	  0.011	 29.400	 99.491	  0.240
60424	  0.168	 -0.049	  0.205	 -0.179	 -0.050	 -9.526	  0.002	 -0.001	  0.011	 29.400	 99.495	 -0.128
60474	  0.169	 -0.055	  0.217	  0.017	 -0.090	 -9.495	  0.003	 -0.001	  0.011	 29.400	 99.495	 -0.128
60524	  0.169	 -0.047	  0.214	 -0.094	 -0.047	 -9.468	  0.003	  0.001	  0.012	 29.400	 99.507	 -1.230
60574	  0.169	 -0.049	  0.214	 -0.002	 -0.092	 -9.424	  0.002	 -0.000	  0.012	 29.400	 99.503	 -0.862
60624	  0.170	 -0.054	  0.211	 -0.107	 -0.059	 -9.437	  0.002	 -0.001	  0.011	 29.400	 99.495	 -0.128
60674	  0.171	 -0.034	  0.220	 -0.003	 -0.079	 -9.492	  0.002	 -0.003	  0.012	 29.400	 99.483	  0.975
60724	  0.169	 -0.051	  0.215	 -0.094	 -0.036	 -9.501	  0.003	 -0.002	  0.011	 29.400	 99.507	 -1.230
60774	  0.170	 -0.048	  0.219	  0.001	 -0.067	 -9.501	  0.003	 -0.002	  0.009	 29.400	 99.495	 -0.128
60824	  0.170	 -0.041	  0.216	 -0.093	 -0.027	 -9.491	  0.002	  0.000	  0.011	 29.400	 99.495	 -0.128
60874	  0.168	 -0.032	  0.213	 -0.016	 -0.094	 -9.487	  0.004	 -0.001	  0.010	 29.400	 99.478	  1.435
60924	  0.170	 -0.050	  0.213	 -0.109	 -0.064	 -9.497	  0.004	 -0.001	  0.010	 29.400	 99.503	 -0.862
60974	  0.169	 -0.054	  0.209	  0.004	 -0.064	 -9.480	  0.003	 -0.002	  0.010	 29.400	 99.491	  0.240
61024	  0.168	 -0.051	  0.219	 -0.090	 -0.051	 -9.468	  0.003	 -0.001	  0.012	 29.400	 99.483	  0.975
61074	  0.168	 -0.054	  0.213	  0.041	 -0.068	 -9.482	  0.002	 -0.001	  0.010	 29.400	 99.495	 -0.128
61124	  0.171	 -0.045	  0.216	 -0.141	 -0.024	 -9.476	  0.002	  0.000	  0.012	 29.300	 99.478	  1.435
61174	  0.170	 -0.049	  0.215	  0.032	 -0.048	 -9.507	  0.003	 -0.005	  0.013	 29.400	 99.483	  0.975
61224	  0.169	 -0.037	  0.220	 -0.040	 -0.045	 -9.489	  0.002	  0.001	  0.011	 29.400	 99.491	  0.240
61274	  0.170	 -0.043	  0.214	 -0.025	 -0.062	 -9.496	  0.002	 -0.000	  0.010	 29.400	 99.495	 -0.128
61324	  0.170	 -0.046	  0.216	 -0.124	 -0.054	 -9.509	  0.002	  0.001	  0.014	 29.400	 99.491	  0.240
61374	  0.169	 -0.050	  0.217	  0.043	 -0.063	 -9.467	  0.002	 -0.003	  0.011	 29.400	 99.483	  0.975
61424	  0.170	 -0.046	  0.211	 -0.078	 -0.042	 -9.530	  0.003	 -0.001	  0.011	 29.400	 99.495	 -0.128
61473	  0.172	 -0.037	  0.214	 -0.009	 -0.057	 -9.480	  0.002	  0.000	  0.009	 29.300	 99.491	  0.240
61523	  0.175	 -0.050	  0.216	 -0.149	 -0.052	 -9.487	  0.003	  0.001	  0.010	 29.400	 99.483	  0.975
61573	  0.168	 -0.043	  0.220	 -0.051	 -0.047	 -9.498	  0.003	 -0.002	  0.010	 29.400	 99.495	 -0.128
61623	  0.171	 -0.052	  0.207	 -0.094	 -0.061	 -9.495	  0.003	  0.001	  0.009	 29.400	 99.495	 -0.128
61673	  0.170	 -0.047	  0.217	 -0.026	 -0.037	 -9.453	  0.002	 -0.001	  0.013	 29.400	 99.495	 -0.128
61723	  0.168	 -0.050	  0.212	 -0.070	 -0.081	 -9.465	  0.002	 -0.001	  0.012	 29.400	 99.495	 -0.128
61773	  0.170	 -0.038	  0.218	 -0.027	 -0.038	 -9.469	  0.003	 -0.003	  0.011	 29.400	 99.495	 -0.128
61823	  0.171	 -0.047	  0.215	 -0.028	 -0.098	 -9.471	  0.002	 -0.001	  0.012	 29.400	 99.478	  1.435
61873	  0.170	 -0.051	  0.219	 -0.066	 -0.056	 -9.485	  0.001	  0.000	  0.010	 29.400	 99.483	  0.975
61923	  0.169	 -0.052	  0.217	 -0.060	 -0.084	 -9.525	  0.003	 -0.001	  0.012	 29.400	 99.495	 -0.128
61973	  0.171	 -0.055	  0.215	 -0.059	 -0.039	 -9.477	  0.003	 -0.003	  0.011	 29.400	 99.495	 -0.128
62023	  0.169	 -0.043	  0.217	  0.007	 -0.076	 -9.485	  0.003	 -0.001	  0.012	 29.400	 99.491	  0.240
62073	  0.171	 -0.043	  0.217	 -0.097	 -0.042	 -9.520	  0.003	 -0.001	  0.012	 29.300	 99.478	  1.435
62123	  0.171	 -0.050	  0.209	  0.008	 -0.125	 -9.564	  0.003	 -0.002	  0.010	 29.400	 99.495	 -0.128
62173	  0.172	 -0.055	  0.212	 -0.113	 -0.036	 -9.487	  0.003	 -0.002	  0.012	 29.400	 99.495	 -0.128
62223	  0.170	 -0.050	  0.219	  0.020	 -0.088	 -9.496	  0.002	 -0.001	  0.009	 29.400	 99.491	  0.240
62273	  0.171	 -0.049	  0.211	 -0.118	 -0.055	 -9.524	  0.003	 -0.000	  0.013	 29.400	 99.491	  0.240
62323	  0.168	 -0.050	  0.217	  0.008	 -0.100	 -9.491	  0.003	 -0.001	  0.012	 29.400	 99.483	  0.975
62373	  0.169	 -0.049	  0.214	 -0.132	 -0.013	 -9.481	  0.003	  0.003	  0.009	 29.400	 99.495	 -0.128
62423	  0.170	 -0.041	  0.218	 -0.039	 -0.070	 -9.441	  0.001	  0.001	  0.012	 29.400	 99.483	  0.975
62473	  0.170	 -0.042	  0.217	 -0.109	 -0.041	 -9.514	  0.002	 -0.002	  0.010	 29.400	 99.495	 -0.128
62523	  0.169	 -0.049	  0.214	  0.118	 -0.051	 -9.480	  0.002	 -0.002	  0.009	 29.400	 99.491	  0.240
62573	  0.170	 -0.052	  0.219	 -0.097	 -0.065	 -9.442	  0.003	  0.002	  0.011	 29.400	 99.483	  0.975
62623	  0.170	 -0.043	  0.213	 -0.129	 -0.068	 -9.485	  0.002	 -0.001	  0.011	 29.400	 99.491	  0.240
62673	  0.169	 -0.047	  0.216	 -0.082	 -0.048	 -9.464	  0.001	 -0.002	  0.009	 29.400	 99.478	  1.435
62723	  0.172	 -0.052	  0.217	  0.006	 -0.049	 -9.491	  0.003	 -0.000	  0.013	 29.400	 99.495	 -0.128
62773	  0.171	 -0.047	  0.219	 -0.095	 -0.055	 -9.516	  0.003	 -0.000	  0.012	 29.400	 99.478	  1.435
62823	  0.171	 -0.047	  0.216	  0.001	 -0.052	 -9.484	  0.002	 -0.002	  0.012	 29.400	 99.495	 -0.128
62873	  0.168	 -0.038	  0.218	 -0.082	 -0.079	 -9.495	  0.002	 -0.001	  0.010	 29.400	 99.495	 -0.128
62923	  0.165	 -0.042	  0.216	 -0.035	 -0.068	 -9.468	  0.003	 -0.001	  0.013	 29.400	 99.491	  0.240
62973	  0.169	 -0.051	  0.220	 -0.057	 -0.081	 -9.487	  0.002	 -0.002	  0.012	 29.400	 99.491	  0.240
63023	  0.166	 -0.047	  0.213	 -0.024	 -0.056	 -9.486	  0.002	  0.000	  0.013	 29.400	 99.495	 -0.128
63073	  0.169	 -0.046	  0.217	 -0.053	 -0.083	 -9.482	  0.003	 -0.002	  0.007	 29.400	 99.495	 -0.128
63123	  0.171	 -0.047	  0.212	 -0.018	 -0.052	 -9.536	  0.003	 -0.001	  0.010	 29.400	 99.483	  0.975
63173	  0.169	 -0.047	  0.214	 -0.033	 -0.029	 -9.495	  0.003	 -0.001	  0.011	 29.400	 99.495	 -0.128
63223	  0.169	 -0.049	  0.213	 -0.061	 -0.040	 -9.427	  0.001	  0.001	  0.012	 29.400	 99.495	 -0.128
63273	  0.169	 -0.035	  0.214	 -0.028	 -0.054	 -9.517	  0.002	 -0.002	  0.008	 29.400	 99.495	 -0.128
63323	  0.168	 -0.051	  0.214	 -0.041	 -0.069	 -9.470	  0.002	 -0.001	  0.009	 29.300	 99.503	 -0.862
63373	  0.171	 -0.051	  0.220	  0.008	 -0.081	 -9.453	 -0.000	  0.001	  0.012	 29.400	 99.491	  0.240
63423	  0.172	 -0.050	  0.217	 -0.071	 -0.028	 -9.479	  0.002	 -0.000	  0.011	 29.400	 99.495	 -0.128
63473	  0.169	 -0.051	  0.216	 -0.045	 -0.107	 -9.512	  0.002	 -0.001	  0.012	 29.400	 99.507	 -1.230
63523	  0.168	 -0.050	  0.216	 -0.062	 -0.032	 -9.516	  0.002	 -0.002	  0.011	 29.400	 99.483	  0.975
63573	  0.172	 -0.048	  0.215	  0.026	 -0.079	 -9.474	  0.002	 -0.001	  0.010	 29.400	 99.495	 -0.128
63623	  0.171	 -0.045	  0.216	 -0.140	 -0.029	 -9.492	  0.002	  0.000	  0.010	 29.400	 99.483	  0.975
63673	  0.172	 -0.052	  0.216	 -0.015	 -0.071	 -9.474	  0.002	 -0.002	  0.012	 29.400	 99.478	  1.435
63723	  0.172	 -0.051	  0.207	 -0.139	 -0.048	 -9.499	  0.002	 -0.000	  0.012	 29.400	 99.495	 -0.128
63773	  0.168	 -0.051	  0.213	 -0.030	 -0.072	 -9.482	  0.002	 -0.002	  0.010	 29.400	 99.495	 -0.128
63823	  0.170	 -0.032	  0.218	 -0.070	 -0.058	 -9.523	  0.002	 -0.001	  0.013	 29.400	 99.495	 -0.128
63873	  0.171	 -0.043	  0.217	 -0.014	 -0.064	 -9.507	  0.002	  0.000	  0.013	 29.400	 99.495	 -0.128
63923	  0.174	 -0.046	  0.219	 -0.070	 -0.040	 -9.516	  0.002	 -0.001	  0.008	 29.400	 99.495	 -0.128
63973	  0.170	 -0.051	  0.208	 -0.004	 -0.084	 -9.503	  0.002	 -0.001	  0.011	 29.300	 99.491	  0.240
64023	  0.171	 -0.048	  0.220	 -0.095	 -0.007	 -9.519	  0.003	 -0.002	  0.013	 29.400	 99.495	 -0.128
64073	  0.170	 -0.045	  0.219	 -0.011	 -0.082	 -9.482	  0.002	 -0.000	  0.012	 29.400	 99.491	  0.240
64123	  0.171	 -0.043	  0.214	 -0.083	 -0.031	 -9.479	  0.002	 -0.000	  0.011	 29.400	 99.491	  0.240
64173	  0.169	 -0.032	  0.221	 -0.001	 -0.066	 -9.494	  0.002	 -0.000	  0.010	 29.400	 99.495	 -0.128
64223	  0.170	 -0.055	  0.212	 -0.089	 -0.023	 -9.505	  0.002	 -0.001	  0.010	 29.400	 99.491	  0.240
64273	  0.169	 -0.050	  0.214	  0.009	 -0.048	 -9.478	  0.002	 -0.001	  0.010	 29.400	 99.491	  0.240
64323	  0.169	 -0.050	  0.216	 -0.125	 -0.062	 -9.520	  0.002	  0.001	  0.012	 29.400	 99.495	 -0.128
64373	  0.169	 -0.046	  0.217	 -0.037	 -0.044	 -9.508	  0.003	  0.000	  0.011	 29.400	 99.491	  0.240
64423	  0.169	 -0.048	  0.217	 -0.086	 -0.040	 -9.462	  0.003	 -0.000	  0.012	 29.400	 99.478	  1.435
64473	  0.170	 -0.051	  0.213	 -0.035	 -0.068	 -9.497	  0.003	 -0.001	  0.010	 29.400	 99.483	  0.975
64523	  0.170	 -0.048	  0.217	 -0.087	 -0.045	 -9.457	  0.002	 -0.000	  0.009	 29.400	 99.495	 -0.128
64573	  0.171	 -0.050	  0.219	 -0.022	 -0.037	 -9.388	  0.002	  0.002	  0.010	 29.400	 99.495	 -0.128
64623	  0.168	 -0.049	  0.213	 -0.105	 -0.043	 -9.474	  0.003	 -0.001	  0.010	 29.400	 99.495	 -0.128
64673	  0.169	 -0.056	  0.216	 -0.022	 -0.064	 -9.441	  0.002	 -0.001	  0.011	 29.400	 99.483	  0.975
64723	  0.170	 -0.047	  0.217	 -0.080	 -0.053	 -9.446	  0.002	 -0.000	  0.010	 29.400	 99.495	 -0.128
64773	  0.170	 -0.050	  0.216	 -0.063	 -0.077	 -9.505	  0.003	 -0.002	  0.009	 29.400	 99.495	 -0.128
64823	  0.169	 -0.055	  0.217	 -0.041	 -0.065	 -9.479	  0.002	 -0.002	  0.011	 29.400	 99.495	 -0.128
64874	  0.170	 -0.048	  0.216	 -0.057	 -0.045	 -9.475	  0.002	 -0.001	  0.012	 29.400	 99.478	  1.435
64923	  0.170	 -0.051	  0.217	 -0.010	 -0.082	 -9.452	  0.002	  0.000	  0.013	 29.400	 99.495	 -0.128
64974	  0.170	 -0.052	  0.205	 -0.032	 -0.060	 -9.461	  0.002	 -0.001	  0.012	 29.400	 99.491	  0.240
65023	  0.171	 -0.050	  0.219	 -0.015	 -0.051	 -9.482	  0.003	 -0.001	  0.013	 29.400	 99.495	 -0.128
65073	  0.169	 -0.050	  0.216	 -0.068	 -0.030	 -9.459	  0.002	 -0.001	  0.014	 29.400	 99.470	  2.170
65122	  0.175	 -0.048	  0.216	 -0.020	 -0.072	 -9.493	  0.002	 -0.002	  0.010	 29.400	 99.495	 -0.128
65173	  0.168	 -0.046	  0.216	 -0.082	 -0.022	 -9.529	  0.002	 -0.001	  0.008	 29.400	 99.491	  0.240
65224	  0.168	 -0.035	  0.217	  0.003	 -0.053	 -9.449	  0.003	  0.000	  0.010	 29.400	 99.483	  0.975
65274	  0.168	 -0.051	  0.216	 -0.105	 -0.075	 -9.494	  0.002	 -0.002	  0.013	 29.400	 99.495	 -0.128
65324	  0.171	 -0.050	  0.217	  0.010	 -0.074	 -9.490	  0.002	 -0.002	  0.011	 29.400	 99.495	 -0.128
65374	  0.172	 -0.047	  0.216	 -0.069	 -0.044	 -9.512	  0.002	 -0.000	  0.012	 29.400	 99.470	  2.170
65424	  0.171	 -0.049	  0.209	  0.004	 -0.067	 -9.549	  0.002	 -0.000	  0.013	 29.400	 99.483	  0.975
65474	  0.170	 -0.054	  0.213	 -0.050	 -0.058	 -9.496	  0.002	 -0.001	  0.011	 29.400	 99.495	 -0.128
65524	  0.166	 -0.050	  0.216	  0.022	 -0.037	 -9.475	  0.003	 -0.002	  0.012	 29.400	 99.483	  0.975
65574	  0.170	 -0.047	  0.217	 -0.088	 -0.024	 -9.454	  0.002	 -0.001	  0.008	 29.400	 99.483	  0.975
65624	  0.169	 -0.050	  0.213	 -0.016	 -0.065	 -9.499	  0.003	 -0.001	  0.013	 29.400	 99.483	  0.975
65674	  0.172	 -0.046	  0.220	 -0.075	 -0.089	 -9.477	  0.002	 -0.002	  0.012	 29.400	 99.495	 -0.128
65724	  0.169	 -0.051	  0.215	 -0.026	 -0.056	 -9.474	  0.001	 -0.000	  0.010	 29.400	 99.495	 -0.128
65774	  0.171	 -0.047	  0.216	 -0.052	 -0.066	 -9.500	  0.003	 -0.001	  0.015	 29.400	 99.495	 -0.128
65824	  0.169	 -0.040	  0.217	 -0.073	 -0.049	 -9.501	  0.003	 -0.000	  0.011	 29.400	 99.491	  0.240
65874	  0.170	 -0.052	  0.211	 -0.047	 -0.038	 -9.454	  0.002	 -0.001	  0.009	 29.400	 99.503	 -0.862
65924	  0.168	 -0.052	  0.216	 -0.077	 -0.041	 -9.476	  0.002	 -0.001	  0.009	 29.400	 99.495	 -0.128
65974	  0.169	 -0.052	  0.223	 -0.025	 -0.065	 -9.489	  0.002	 -0.002	  0.010	 29.400	 99.495	 -0.128
66024	  0.171	 -0.048	  0.217	 -0.065	 -0.042	 -9.489	  0.002	 -0.000	  0.009	 29.400	 99.495	 -0.128
66074	  0.170	 -0.052	  0.208	 -0.038	 -0.066	 -9.474	  0.002	  0.001	  0.009	 29.300	 99.491	  0.240
66123	  0.170	 -0.050	  0.217	 -0.085	 -0.069	 -9.496	  0.003	 -0.001	  0.008	 29.400	 99.483	  0.975
66173	  0.170	 -0.048	  0.221	 -0.012	 -0.082	 -9.494	  0.003	 -0.002	  0.011	 29.400	 99.495	 -0.128
66223	  0.168	 -0.049	  0.216	 -0.070	 -0.029	 -9.532	  0.002	 -0.001	  0.010	 29.400	 99.483	  0.975
66274	  0.172	 -0.033	  0.213	  0.005	 -0.082	 -9.458	  0.002	 -0.001	  0.010	 29.400	 99.495	 -0.128
66324	  0.172	 -0.043	  0.216	 -0.050	 -0.020	 -9.510	  0.003	 -0.003	  0.010	 29.400	 99.495	 -0.128
66373	  0.169	 -0.046	  0.219	  0.011	 -0.077	 -9.463	  0.002	  0.000	  0.012	 29.400	 99.483	  0.975
66423	  0.169	 -0.052	  0.216	 -0.099	 -0.030	 -9.523	  0.003	 -0.001	  0.009	 29.400	 99.478	  1.435
66474	  0.169	 -0.046	  0.208	  0.002	 -0.083	 -9.475	  0.003	 -0.002	  0.013	 29.400	 99.503	 -0.862
66524	  0.170	 -0.054	  0.217	 -0.099	 -0.037	 -9.505	  0.002	 -0.000	  0.011	 29.400	 99.495	 -0.128
66574	  0.170	 -0.037	  0.216	 -0.003	 -0.089	 -9.478	  0.002	 -0.001	  0.012	 29.400	 99.483	  0.975
66624	  0.168	 -0.047	  0.216	 -0.093	 -0.029	 -9.482	  0.003	 -0.001	  0.012	 29.400	 99.483	  0.975
66674	  0.170	 -0.050	  0.213	 -0.003	 -0.050	 -9.508	  0.003	 -0.000	  0.009	 29.400	 99.491	  0.240
66723	  0.168	 -0.052	  0.212	 -0.099	 -0.062	 -9.473	  0.003	 -0.001	  0.011	 29.400	 99.483	  0.975
66774	  0.170	 -0.054	  0.220	 -0.010	 -0.071	 -9.480	  0.002	 -0.001	  0.010	 29.400	 99.495	 -0.128
66824	  0.171	 -0.055	  0.209	 -0.086	 -0.047	 -9.501	  0.002	 -0.001	  0.011	 29.400	 99.495	 -0.128
66874	  0.166	 -0.048	  0.221	 -0.023	 -0.068	 -9.470	  0.003	 -0.000	  0.012	 29.400	 99.495	 -0.128
66924	  0.166	 -0.049	  0.210	 -0.093	 -0.056	 -9.502	  0.002	 -0.001	  0.011	 29.400	 99.495	 -0.128
66974	  0.166	 -0.050	  0.217	 -0.005	 -0.072	 -9.457	  0.003	 -0.001	  0.011	 29.400	 99.495	 -0.128
67024	  0.170	 -0.047	  0.220	 -0.073	 -0.064	 -9.497	  0.003	 -0.001	  0.011	 29.400	 99.495	 -0.128
67074	  0.171	 -0.050	  0.208	 -0.021	 -0.052	 -9.479	  0.004	  0.000	  0.012	 29.300	 99.478	  1.435
67124	  0.169	 -0.052	  0.211	 -0.069	 -0.069	 -9.505	  0.003	 -0.001	  0.012	 29.400	 99.495	 -0.128
67174	  0.168	 -0.047	  0.214	 -0.051	 -0.063	 -9.505	  0.002	 -0.002	  0.010	 29.400	 99.495	 -0.128
67224	  0.170	 -0.041	  0.216	 -0.053	 -0.072	 -9.485	  0.002	 -0.002	  0.012	 29.400	 99.495	 -0.128
67274	  0.169	 -0.051	  0.216	 -0.033	 -0.033	 -9.524	  0.003	 -0.002	  0.011	 29.400	 99.495	 -0.128
67324	  0.172	 -0.046	  0.212	 -0.044	 -0.081	 -9.488	  0.002	 -0.001	  0.011	 29.400	 99.495	 -0.128
67373	  0.172	 -0.050	  0.212	 -0.058	 -0.019	 -9.448	  0.002	 -0.001	  0.011	 29.400	 99.495	 -0.128
67423	  0.170	 -0.034	  0.220	 -0.029	 -0.068	 -9.498	  0.003	 -0.000	  0.013	 29.400	 99.507	 -1.230
67473	  0.170	 -0.051	  0.215	 -0.051	 -0.020	 -9.522	  0.003	 -0.001	  0.011	 29.400	 99.483	  0.975
67523	  0.171	 -0.050	  0.220	 -0.003	 -0.063	 -9.517	  0.003	 -0.002	  0.012	 29.400	 99.483	  0.975
67573	  0.170	 -0.054	  0.213	 -0.047	 -0.028	 -9.488	  0.003	 -0.001	  0.013	 29.400	 99.478	  1.435
67623	  0.170	 -0.050	  0.219	  0.013	 -0.081	 -9.489	  0.003	 -0.000	  0.010	 29.400	 99.478	  1.435
67673	  0.168	 -0.048	  0.217	 -0.092	 -0.042	 -9.469	  0.002	 -0.001	  0.008	 29.400	 99.478	  1.435
67723	  0.170	 -0.054	  0.215	  0.022	 -0.069	 -9.505	  0.003	  0.000	  0.009	 29.400	 99.483	  0.975
67773	  0.172	 -0.047	  0.216	 -0.134	 -0.058	 -9.502	  0.003	 -0.002	  0.012	 29.400	 99.483	  0.975
67823	  0.170	 -0.051	  0.208	 -0.010	 -0.079	 -9.514	  0.002	 -0.001	  0.011	 29.400	 99.495	 -0.128
67873	  0.170	 -0.047	  0.221	 -0.107	 -0.029	 -9.470	  0.002	  0.000	  0.011	 29.400	 99.495	 -0.128
67923	  0.174	 -0.043	  0.217	 -0.011	 -0.067	 -9.510	  0.002	 -0.001	  0.010	 29.400	 99.507	 -1.230
67973	  0.171	 -0.043	  0.217	 -0.088	 -0.033	 -9.547	  0.003	 -0.001	  0.011	 29.400	 99.491	  0.240
68023	  0.172	 -0.031	  0.216	 -0.118	 -0.086	 -9.701	  0.004	 -0.003	  0.010	 29.400	 99.495	 -0.128
68073	  0.170	 -0.046	  0.213	 -0.079	 -0.058	 -9.480	  0.003	 -0.003	  0.011	 29.400	 99.495	 -0.128
68123	  0.169	 -0.050	  0.214	 -0.002	 -0.093	 -9.476	  0.002	 -0.000	  0.010	 29.400	 99.495	 -0.128
68173	  0.170	 -0.048	  0.220	 -0.073	 -0.082	 -9.492	  0.003	 -0.003	  0.011	 29.400	 99.495	 -0.128
68223	  0.172	 -0.048	  0.213	 -0.026	 -0.075	 -9.527	  0.002	  0.000	  0.011	 29.400	 99.483	  0.975
68273	  0.169	 -0.037	  0.216	 -0.092	 -0.056	 -9.461	  0.003	 -0.001	  0.010	 29.400	 99.495	 -0.128
68323	  0.171	 -0.043	  0.216	 -0.020	 -0.059	 -9.551	  0.002	 -0.001	  0.010	 29.400	 99.495	 -0.128
68373	  0.171	 -0.052	  0.215	 -0.046	 -0.033	 -9.475	  0.003	 -0.000	  0.011	 29.400	 99.495	 -0.128
68423	  0.169	 -0.051	  0.211	 -0.002	 -0.066	 -9.498	  0.004	 -0.002	  0.012	 29.400	 99.483	  0.975
68473	  0.169	 -0.048	  0.221	 -0.066	 -0.052	 -9.509	  0.002	  0.001	  0.011	 29.400	 99.495	 -0.128
68523	  0.171	 -0.051	  0.217	 -0.014	 -0.062	 -9.480	  0.002	 -0.003	  0.011	 29.400	 99.483	  0.975
68573	  0.170	 -0.047	  0.220	 -0.045	 -0.056	 -9.524	  0.003	  0.000	  0.013	 29.400	 99.495	 -0.128
68623	  0.171	 -0.040	  0.217	 -0.051	 -0.064	 -9.540	  0.002	 -0.004	  0.011	 29.400	 99.491	  0.240
68673	  0.172	 -0.045	  0.215	  0.023	 -0.089	 -9.452	  0.002	  0.001	  0.011	 29.400	 99.495	 -0.128
68723	  0.174	 -0.055	  0.221	 -0.129	 -0.048	 -9.515	  0.003	  0.000	  0.010	 29.400	 99.495	 -0.128
68773	  0.170	 -0.047	  0.214	 -0.030	 -0.059	 -9.471	  0.002	 -0.001	  0.012	 29.400	 99.495	 -0.128
68823	  0.170	 -0.050	  0.220	 -0.081	 -0.046	 -9.494	  0.003	 -0.000	  0.012	 29.400	 99.495	 -0.128
68873	  0.171	 -0.047	  0.216	 -0.010	 -0.078	 -9.517	  0.003	 -0.002	  0.012	 29.400	 99.483	  0.975
68923	  0.171	 -0.051	  0.219	 -0.075	 -0.060	 -9.470	  0.002	  0.001	  0.009	 29.400	 99.495	 -0.128
68973	  0.170	 -0.049	  0.213	 -0.014	 -0.067	 -9.464	  0.003	 -0.001	  0.012	 29.400	 99.495	 -0.128
69023	  0.171	 -0.045	  0.216	 -0.107	 -0.058	 -9.510	  0.002	 -0.001	  0.012	 29.400	 99.495	 -0.128
69073	  0.169	 -0.048	  0.220	 -0.049	 -0.091	 -9.494	  0.003	  0.000	  0.012	 29.400	 99.495	 -0.128
69123	  0.171	 -0.054	  0.211	 -0.112	 -0.014	 -9.487	  0.002	 -0.001	  0.011	 29.400	 99.491	  0.240
69173	  0.169	 -0.047	  0.219	 -0.036	 -0.110	 -9.464	  0.003	 -0.002	  0.014	 29.400	 99.495	 -0.128
69223	  0.171	 -0.055	  0.215	 -0.080	 -0.049	 -9.466	  0.003	 -0.001	  0.011	 29.400	 99.495	 -0.128
69273	  0.170	 -0.050	  0.217	 -0.003	 -0.081	 -9.493	  0.003	  0.000	  0.013	 29.400	 99.495	 -0.128
69323	  0.170	 -0.048	  0.216	 -0.077	 -0.064	 -9.490	  0.002	 -0.001	  0.012	 29.400	 99.495	 -0.128
69373	  0.170	 -0.054	  0.212	 -0.011	 -0.053	 -9.487	  0.003	 -0.002	  0.011	 29.400	 99.495	 -0.128
69423	  0.169	 -0.054	  0.212	 -0.045	 -0.038	 -9.447	  0.003	 -0.002	  0.010	 29.400	 99.495	 -0.128
69473	  0.170	 -0.047	  0.219	 -0.041	 -0.060	 -9.526	  0.003	 -0.000	  0.012	 29.400	 99.495	 -0.128
69523	  0.169	 -0.051	  0.213	 -0.084	 -0.004	 -9.524	  0.002	 -0.001	  0.012	 29.400	 99.483	  0.975
69573	  0.170	 -0.034	  0.220	  0.028	 -0.060	 -9.476	  0.003	  0.000	  0.011	 29.400	 99.487	  0.608
69623	  0.169	 -0.046	  0.214	 -0.095	 -0.049	 -9.543	  0.003	 -0.001	  0.012	 29.400	 99.483	  0.975
69673	  0.170	 -0.048	  0.217	  0.033	 -0.067	 -9.491	  0.003	 -0.002	  0.011	 29.400	 99.507	 -1.230
69723	  0.169	 -0.052	  0.211	 -0.107	 -0.068	 -9.488	  0.001	  0.001	  0.011	 29.400	 99.495	 -0.128
69773	  0.171	 -0.047	  0.219	 -0.032	 -0.068	 -9.462	  0.003	 -0.000	  0.010	 29.400	 99.470	  2.170
69823	  0.168	 -0.047	  0.213	 -0.101	 -0.023	 -9.529	  0.001	 -0.003	  0.013	 29.400	 99.495	 -0.128
69873	  0.172	 -0.051	  0.221	  0.035	 -0.067	 -9.437	  0.002	  0.001	  0.011	 29.400	 99.495	 -0.128
69923	  0.169	 -0.045	  0.220	 -0.138	 -0.023	 -9.470	  0.002	 -0.000	  0.010	 29.400	 99.495	 -0.128
69973	  0.171	 -0.055	  0.217	  0.040	 -0.074	 -9.519	  0.002	 -0.002	  0.011	 29.400	 99.483	  0.975
70023	  0.169	 -0.042	  0.217	 -0.146	 -0.038	 -9.472	  0.003	  0.000	  0.011	 29.400	 99.483	  0.975
70073	  0.171	 -0.047	  0.219	 -0.045	 -0.061	 -9.499	  0.003	 -0.003	  0.011	 29.400	 99.483	  0.975
70123	  0.172	 -0.055	  0.216	 -0.060	 -0.065	 -9.428	  0.003	  0.000	  0.014	 29.400	 99.483	  0.975
70173	  0.172	 -0.050	  0.211	 -0.055	 -0.032	 -9.502	  0.002	  0.001	  0.012	 29.400	 99.478	  1.435
70223	  0.170	 -0.050	  0.219	 -0.072	 -0.063	 -9.465	  0.003	 -0.002	  0.010	 29.400	 99.483	  0.975
70273	  0.168	 -0.048	  0.217	 -0.042	 -0.063	 -9.475	  0.002	 -0.000	  0.012	 29.400	 99.483	  0.975
70323	  0.170	 -0.054	  0.217	 -0.098	 -0.070	 -9.535	  0.002	 -0.000	  0.010	 29.400	 99.483	  0.975
70373	  0.170	 -0.045	  0.217	 -0.030	 -0.056	 -9.526	  0.002	 -0.002	  0.011	 29.400	 99.483	  0.975
70423	  0.169	 -0.052	  0.219	 -0.006	 -0.088	 -9.474	  0.001	  0.002	  0.011	 29.400	 99.495	 -0.128
70473	  0.169	 -0.051	  0.211	 -0.056	 -0.035	 -9.427	  0.003	 -0.001	  0.012	 29.400	 99.483	  0.975
70523	  0.170	 -0.051	  0.219	  0.014	 -0.081	 -9.535	  0.003	 -0.000	  0.010	 29.400	 99.483	  0.975
70573	  0.172	 -0.048	  0.219	 -0.013	 -0.031	 -9.505	  0.002	 -0.001	  0.010	 29.400	 99.495	 -0.128
70624	  0.170	 -0.045	  0.208	 -0.015	 -0.083	 -9.509	  0.004	 -0.000	  0.011	 29.400	 99.495	 -0.128
70673	  0.171	 -0.050	  0.209	 -0.106	 -0.018	 -9.467	  0.002	 -0.000	  0.010	 29.400	 99.495	 -0.128
70724	  0.170	 -0.052	  0.215	 -0.010	 -0.075	 -9.490	  0.002	  0.001	  0.010	 29.400	 99.495	 -0.128
70774	  0.170	 -0.060	  0.219	 -0.119	 -0.042	 -9.489	  0.002	  0.000	  0.011	 29.400	 99.483	  0.975
70824	  0.172	 -0.052	  0.205	  0.013	 -0.074	 -9.471	  0.002	 -0.000	  0.010	 29.400	 99.483	  0.975
70874	  0.172	 -0.046	  0.212	 -0.130	 -0.071	 -9.497	  0.002	 -0.000	  0.011	 29.400	 99.478	  1.435
70924	  0.170	 -0.051	  0.217	  0.005	 -0.070	 -9.491	  0.002	  0.001	  0.011	 29.400	 99.483	  0.975
70974	  0.170	 -0.052	  0.209	 -0.110	 -0.076	 -9.496	  0.002	 -0.001	  0.011	 29.400	 99.495	 -0.128
71024	  0.169	 -0.054	  0.213	 -0.011	 -0.011	 -9.515	  0.002	 -0.006	  0.011	 29.400	 99.495	 -0.128
71074	  0.170	 -0.040	  0.218	 -0.006	 -0.072	 -9.492	  0.001	 -0.000	  0.012	 29.400	 99.487	  0.608
71124	  0.169	 -0.050	  0.214	 -0.107	 -0.070	 -9.477	  0.002	  0.003	  0.011	 29.400	 99.495	 -0.128
71174	  0.174	 -0.054	  0.212	 -0.131	 -0.057	 -9.445	  0.003	 -0.004	  0.011	 29.400	 99.483	  0.975
71224	  0.171	 -0.034	  0.216	  0.005	 -0.079	 -9.477	  0.002	 -0.002	  0.011	 29.400	 99.495	 -0.128
71274	  0.171	 -0.050	  0.208	 -0.088	 -0.057	 -9.515	  0.002	  0.000	  0.011	 29.400	 99.483	  0.975
71324	  0.170	 -0.048	  0.221	  0.000	 -0.031	 -9.502	  0.002	 -0.000	  0.011	 29.400	 99.483	  0.975
71374	  0.169	 -0.047	  0.217	 -0.088	 -0.051	 -9.529	  0.003	 -0.003	  0.011	 29.400	 99.495	 -0.128
71423	  0.169	 -0.055	  0.220	 -0.010	 -0.039	 -9.457	  0.002	 -0.001	  0.012	 29.400	 99.483	  0.975
71473	  0.169	 -0.051	  0.211	 -0.084	 -0.060	 -9.490	  0.002	 -0.002	  0.012	 29.400	 99.495	 -0.128
71523	  0.171	 -0.054	  0.217	 -0.063	 -0.071	 -9.534	  0.003	 -0.002	  0.011	 29.400	 99.483	  0.975
71574	  0.171	 -0.049	  0.213	 -0.015	 -0.086	 -9.505	  0.004	 -0.002	  0.012	 29.400	 99.495	 -0.128
71624	  0.171	 -0.052	  0.217	  0.023	 -0.036	 -9.447	  0.002	 -0.002	  0.011	 29.400	 99.495	 -0.128
71674	  0.168	 -0.050	  0.220	  0.017	 -0.041	 -9.484	  0.003	 -0.001	  0.010	 29.400	 99.495	 -0.128
71723	  0.168	 -0.040	  0.218	 -0.121	 -0.037	 -9.552	  0.002	 -0.003	  0.012	 29.400	 99.495	 -0.128
71774	  0.171	 -0.045	  0.216	  0.073	 -0.078	 -9.457	  0.004	 -0.003	  0.010	 29.400	 99.483	  0.975
71823	  0.174	 -0.036	  0.222	 -0.104	 -0.045	 -9.503	  0.002	  0.003	  0.010	 29.400	 99.495	 -0.128
71873	  0.172	 -0.051	  0.212	  0.023	 -0.080	 -9.468	  0.002	 -0.003	  0.010	 29.400	 99.495	 -0.128
71924	  0.171	 -0.050	  0.213	 -0.085	 -0.026	 -9.401	  0.003	  0.000	  0.012	 29.400	 99.483	  0.975
71973	  0.171	 -0.047	  0.219	 -0.043	 -0.068	 -9.507	  0.003	 -0.000	  0.011	 29.400	 99.483	  0.975
72023	  0.170	 -0.032	  0.216	 -0.066	 -0.019	 -9.483	  0.003	 -0.003	  0.012	 29.400	 99.507	 -1.230
72074	  0.169	 -0.041	  0.217	  0.009	 -0.074	 -9.448	  0.002	 -0.001	  0.010	 29.400	 99.483	  0.975
72123	  0.174	 -0.050	  0.208	 -0.116	 -0.030	 -9.503	  0.003	 -0.001	  0.009	 29.400	 99.483	  0.975
72173	  0.170	 -0.047	  0.216	  0.044	 -0.075	 -9.451	  0.004	 -0.001	  0.010	 29.400	 99.495	 -0.128
72224	  0.171	 -0.050	  0.213	 -0.116	 -0.040	 -9.523	  0.002	 -0.000	  0.011	 29.400	 99.495	 -0.128
72273	  0.170	 -0.052	  0.216	  0.028	 -0.083	 -9.491	  0.002	 -0.001	  0.011	 29.400	 99.483	  0.975
72323	  0.171	 -0.047	  0.209	 -0.080	 -0.043	 -9.489	  0.003	  0.001	  0.011	 29.400	 99.495	 -0.128
72373	  0.170	 -0.052	  0.213	 -0.045	 -0.066	 -9.533	  0.002	 -0.002	  0.011	 29.400	 99.483	  0.975
72423	  0.171	 -0.050	  0.213	 -0.058	 -0.039	 -9.429	  0.002	  0.000	  0.010	 29.400	 99.483	  0.975
72474	  0.171	 -0.046	  0.220	 -0.100	 -0.070	 -9.505	  0.003	  0.001	  0.010	 29.400	 99.499	 -0.495
72524	  0.174	 -0.054	  0.218	 -0.070	 -0.059	 -9.459	  0.003	 -0.002	  0.011	 29.400	 99.483	  0.975
72574	  0.171	 -0.046	  0.217	 -0.010	 -0.044	 -9.457	  0.002	 -0.001	  0.011	 29.400	 99.483	  0.975
72624	  0.169	 -0.057	  0.211	  0.010	 -0.082	 -9.497	  0.003	 -0.004	  0.010	 29.400	 99.483	  0.975
72674	  0.168	 -0.050	  0.213	 -0.035	 -0.056	 -9.466	  0.002	  0.001	  0.011	 29.400	 99.483	  0.975
72724	  0.169	 -0.051	  0.213	 -0.067	 -0.052	 -9.462	  0.003	 -0.001	  0.012	 29.400	 99.483	  0.975
72774	  0.169	 -0.047	  0.213	 -0.077	 -0.037	 -9.560	  0.003	 -0.000	  0.012	 29.400	 99.483	  0.975
72824	  0.168	 -0.041	  0.217	 -0.044	 -0.044	 -9.497	  0.003	 -0.002	  0.012	 29.400	 99.483	  0.975
72874	  0.172	 -0.042	  0.216	 -0.003	 -0.058	 -9.455	  0.003	 -0.001	  0.010	 29.400	 99.495	 -0.128
72924	  0.174	 -0.042	  0.216	 -0.048	 -0.079	 -9.470	  0.002	 -0.001	  0.011	 29.400	 99.483	  0.975
72974	  0.169	 -0.048	  0.217	 -0.071	 -0.028	 -9.505	  0.002	 -0.002	  0.011	 29.400	 99.483	  0.975
73024	  0.170	 -0.051	  0.217	  0.004	 -0.084	 -9.511	  0.002	  0.000	  0.011	 29.400	 99.495	 -0.128
73074	  0.171	 -0.038	  0.217	 -0.138	 -0.035	 -9.565	  0.003	 -0.002	  0.011	 29.400	 99.483	  0.975
73124	  0.175	 -0.050	  0.219	 -0.006	 -0.049	 -9.433	  0.001	  0.002	  0.012	 29.400	 99.495	 -0.128
73174	  0.170	 -0.049	  0.206	 -0.121	 -0.045	 -9.453	  0.003	 -0.002	  0.011	 29.400	 99.499	 -0.495
73224	  0.169	 -0.049	  0.213	  0.042	 -0.081	 -9.412	  0.002	  0.001	  0.011	 29.400	 99.483	  0.975
73274	  0.168	 -0.051	  0.217	 -0.099	 -0.057	 -9.479	  0.002	 -0.001	  0.010	 29.400	 99.483	  0.975
73324	  0.170	 -0.052	  0.217	  0.063	 -0.066	 -9.455	  0.002	 -0.002	  0.011	 29.400	 99.487	  0.608
73374	  0.171	 -0.051	  0.217	 -0.094	 -0.048	 -9.486	  0.002	 -0.001	  0.010	 29.400	 99.483	  0.975
73424	  0.169	 -0.049	  0.211	 -0.057	 -0.089	 -9.493	  0.003	 -0.001	  0.010	 29.400	 99.495	 -0.128
73474	  0.171	 -0.046	  0.211	 -0.035	 -0.015	 -9.463	  0.002	  0.000	  0.010	 29.400	 99.495	 -0.128
73524	  0.171	 -0.048	  0.217	 -0.054	 -0.093	 -9.525	  0.001	 -0.000	  0.011	 29.400	 99.495	 -0.128
73574	  0.169	 -0.054	  0.217	 -0.100	 -0.039	 -9.479	  0.003	 -0.001	  0.011	 29.400	 99.495	 -0.128
73623	  0.172	 -0.052	  0.209	  0.018	 -0.096	 -9.455	  0.003	 -0.001	  0.010	 29.400	 99.495	 -0.128
73674	  0.171	 -0.052	  0.216	 -0.130	 -0.056	 -9.506	  0.003	 -0.001	  0.011	 29.400	 99.483	  0.975
73723	  0.169	 -0.051	  0.213	  0.009	 -0.073	 -9.487	  0.004	 -0.001	  0.011	 29.400	 99.483	  0.975
73774	  0.171	 -0.060	  0.222	 -0.102	 -0.046	 -9.468	  0.003	 -0.002	  0.011	 29.400	 99.495	 -0.128
73823	  0.171	 -0.042	  0.217	  0.002	 -0.078	 -9.474	  0.003	 -0.001	  0.012	 29.400	 99.483	  0.975
73874	  0.170	 -0.040	  0.214	 -0.084	 -0.053	 -9.470	  0.003	 -0.001	  0.011	 29.400	 99.483	  0.975
73923	  0.171	 -0.052	  0.213	 -0.012	 -0.042	 -9.507	  0.001	 -0.001	  0.012	 29.400	 99.495	 -0.128
73973	  0.171	 -0.051	  0.212	 -0.097	 -0.039	 -9.510	  0.002	 -0.001	  0.010	 29.400	 99.483	  0.975
74023	  0.171	 -0.051	  0.220	 -0.008	 -0.049	 -9.483	  0.002	 -0.000	  0.011	 29.400	 99.495	 -0.128
74074	  0.169	 -0.036	  0.216	 -0.053	 -0.066	 -9.489	  0.002	 -0.001	  0.010	 29.400	 99.495	 -0.128
74124	  0.172	 -0.049	  0.209	 -0.047	 -0.024	 -9.489	  0.004	  0.000	  0.011	 29.400	 99.495	 -0.128
74173	  0.171	 -0.050	  0.215	 -0.020	 -0.053	 -9.472	  0.003	 -0.001	  0.012	 29.400	 99.483	  0.975
74223	  0.174	 -0.051	  0.217	 -0.068	 -0.025	 -9.517	  0.002	 -0.002	  0.011	 29.400	 99.483	  0.975
74273	  0.172	 -0.051	  0.215	 -0.036	 -0.061	 -9.508	  0.003	 -0.000	  0.011	 29.400	 99.495	 -0.128
74323	  0.170	 -0.038	  0.220	 -0.057	 -0.049	 -9.512	  0.002	  0.001	  0.011	 29.400	 99.499	 -0.495
74373	  0.170	 -0.043	  0.220	 -0.060	 -0.066	 -9.511	  0.003	 -0.001	  0.011	 29.400	 99.487	  0.608
74424	  0.172	 -0.056	  0.215	 -0.067	 -0.076	 -9.460	  0.002	 -0.003	  0.011	 29.400	 99.483	  0.975
74473	  0.168	 -0.055	  0.219	 -0.004	 -0.058	 -9.416	  0.003	  0.001	  0.012	 29.400	 99.495	 -0.128
74524	  0.169	 -0.036	  0.216	 -0.146	 -0.070	 -9.488	  0.002	 -0.000	  0.011	 29.400	 99.495	 -0.128
74574	  0.172	 -0.056	  0.220	 -0.019	 -0.074	 -9.555	  0.002	 -0.005	  0.015	 29.400	 99.499	 -0.495
74623	  0.170	 -0.051	  0.211	 -0.002	 -0.018	 -9.506	  0.002	 -0.003	  0.014	 29.400	 99.495	 -0.128
74673	  0.170	 -0.050	  0.212	  0.008	 -0.073	 -9.484	  0.002	  0.000	  0.012	 29.400	 99.507	 -1.230
74723	  0.171	 -0.041	  0.213	 -0.115	 -0.021	 -9.469	  0.003	 -0.000	  0.012	 29.400	 99.483	  0.975
74773	  0.172	 -0.054	  0.219	 -0.052	 -0.136	 -9.492	  0.002	  0.001	  0.012	 29.400	 99.487	  0.608
74823	  0.171	 -0.045	  0.216	 -0.133	 -0.038	 -9.469	  0.003	 -0.001	  0.011	 29.400	 99.495	 -0.128
74873	  0.170	 -0.051	  0.213	 -0.035	 -0.078	 -9.479	  0.002	 -0.003	  0.014	 29.400	 99.483	  0.975
74923	  0.170	 -0.054	  0.212	 -0.025	 -0.054	 -9.470	  0.003	 -0.001	  0.010	 29.400	 99.483	  0.975
74973	  0.172	 -0.050	  0.211	 -0.030	 -0.058	 -9.517	  0.002	 -0.001	  0.013	 29.400	 99.483	  0.975
75023	  0.168	 -0.052	  0.214	 -0.061	 -0.023	 -9.508	  0.003	 -0.000	  0.010	 29.400	 99.495	 -0.128
75073	  0.174	 -0.054	  0.220	  0.002	 -0.084	 -9.464	  0.002	 -0.001	  0.012	 29.400	 99.495	 -0.128
75123	  0.174	 -0.052	  0.217	 -0.095	 -0.034	 -9.501	  0.003	  0.000	  0.012	 29.400	 99.495	 -0.128
75173	  0.170	 -0.051	  0.211	 -0.006	 -0.069	 -9.490	  0.003	 -0.000	  0.008	 29.400	 99.483	  0.975
75223	  0.169	 -0.054	  0.215	 -0.081	 -0.043	 -9.491	  0.003	 -0.000	  0.010	 29.400	 99.495	 -0.128
75273	  0.172	 -0.056	  0.216	  0.009	 -0.063	 -9.514	  0.002	 -0.002	  0.009	 29.400	 99.483	  0.975
75323	  0.170	 -0.054	  0.217	 -0.105	 -0.044	 -9.478	  0.002	  0.000	  0.013	 29.400	 99.483	  0.975
75373	  0.169	 -0.042	  0.216	 -0.009	 -0.066	 -9.523	  0.002	 -0.001	  0.011	 29.400	 99.483	  0.975
75423	  0.172	 -0.043	  0.216	 -0.097	 -0.043	 -9.474	  0.003	  0.000	  0.013	 29.400	 99.495	 -0.128
75473	  0.174	 -0.038	  0.213	  0.002	 -0.077	 -9.507	  0.002	  0.000	  0.010	 29.400	 99.483	  0.975
75523	  0.172	 -0.055	  0.218	 -0.100	 -0.049	 -9.504	  0.002	 -0.000	  0.014	 29.400	 99.483	  0.975
75573	  0.171	 -0.055	  0.215	  0.006	 -0.076	 -9.475	  0.002	 -0.003	  0.011	 29.400	 99.495	 -0.128
