Time	 MagX	 MagY	 MagZ	 AccelX	 AccelY	 AccelZ	 Yaw	 Pitch	 Roll	 Temperature	 Pressure	 Altitude
16302	  0.388	 -0.174	  0.270	  0.171	 -0.014	 -9.930	 -0.002	  0.002	 -0.001	 32.800	 99.250	 -99999.000
16351	  0.388	 -0.174	  0.267	  0.191	  0.066	 -9.871	 -0.003	  0.004	  0.000	 32.800	 99.246	 -99999.000
16401	  0.389	 -0.174	  0.264	  0.228	  0.032	 -9.870	 -0.003	  0.002	  0.001	 32.800	 99.246	 -99999.000
16451	  0.388	 -0.176	  0.270	  0.179	  0.007	 -9.890	 -0.003	  0.002	 -0.000	 32.800	 99.246	 -99999.000
16501	  0.391	 -0.179	  0.274	  0.202	  0.027	 -9.895	 -0.003	  0.004	  0.001	 32.800	 99.258	 -99999.000
16551	  0.391	 -0.173	  0.271	  0.243	  0.081	 -9.837	 -0.002	  0.001	  0.000	 32.800	 99.246	 -99999.000
16601	  0.391	 -0.176	  0.266	  0.192	  0.040	 -9.895	 -0.004	  0.001	  0.001	 32.800	 99.250	 -99999.000
16651	  0.390	 -0.172	  0.271	  0.177	  0.070	 -9.866	 -0.003	  0.002	  0.000	 32.800	 99.250	 -99999.000
16701	  0.389	 -0.175	  0.267	  0.204	  0.028	 -9.867	 -0.003	  0.002	  0.002	 32.800	 99.258	 -99999.000
16751	  0.390	 -0.177	  0.271	  0.164	  0.031	 -9.873	 -0.003	  0.000	  0.001	 32.800	 99.239	 -99999.000
16801	  0.388	 -0.174	  0.271	  0.225	  0.060	 -9.869	 -0.003	  0.001	  0.001	 32.800	 99.262	 -99999.000
16851	  0.389	 -0.170	  0.273	  0.194	  0.088	 -9.862	 -0.002	  0.002	  0.001	 32.800	 99.250	 -99999.000
16901	  0.390	 -0.176	  0.272	  0.209	  0.053	 -9.883	 -0.003	  0.002	  0.002	 32.800	 99.262	 -99999.000
16951	  0.391	 -0.176	  0.265	  0.199	  0.018	 -9.893	 -0.004	  0.002	  0.001	 32.800	 99.246	 -99999.000
17001	  0.392	 -0.172	  0.270	  0.193	  0.045	 -9.909	 -0.002	  0.002	  0.000	 32.800	 99.262	 -99999.000
17051	  0.390	 -0.173	  0.269	  0.191	  0.027	 -9.840	 -0.003	  0.001	 -0.001	 32.800	 99.258	 -99999.000
17101	  0.390	 -0.180	  0.266	  0.194	  0.057	 -9.852	 -0.002	  0.002	  0.000	 32.800	 99.246	 -99999.000
17151	  0.389	 -0.174	  0.273	  0.215	  0.046	 -9.836	 -0.004	  0.001	  0.000	 32.800	 99.250	 -99999.000
17201	  0.392	 -0.167	  0.270	  0.206	  0.057	 -9.904	 -0.002	  0.002	  0.001	 32.800	 99.250	 -99999.000
17251	  0.390	 -0.178	  0.271	  0.196	  0.056	 -9.895	 -0.004	  0.002	  0.001	 32.800	 99.255	 -99999.000
17301	  0.389	 -0.171	  0.262	  0.184	  0.060	 -9.904	 -0.002	  0.003	 -0.000	 32.800	 99.246	 -99999.000
17351	  0.387	 -0.179	  0.272	  0.206	  0.051	 -9.883	 -0.001	  0.002	  0.000	 32.800	 99.250	 -99999.000
17401	  0.392	 -0.172	  0.266	  0.227	  0.046	 -9.885	 -0.003	  0.001	  0.001	 32.800	 99.250	 -99999.000
17451	  0.388	 -0.181	  0.271	  0.253	  0.086	 -9.806	 -0.004	  0.002	  0.002	 32.800	 99.250	 -99999.000
17501	  0.390	 -0.169	  0.270	  0.204	  0.049	 -9.837	 -0.004	  0.001	  0.001	 32.800	 99.262	 -99999.000
17551	  0.388	 -0.172	  0.262	  0.183	  0.046	 -9.870	 -0.005	  0.003	  0.000	 32.800	 99.262	 -99999.000
17601	  0.390	 -0.171	  0.272	  0.208	  0.035	 -9.856	 -0.003	  0.001	  0.000	 32.800	 99.262	 -99999.000
17651	  0.391	 -0.174	  0.265	  0.213	  0.079	 -9.854	 -0.003	  0.004	  0.001	 32.800	 99.250	 -99999.000
17701	  0.389	 -0.175	  0.269	  0.218	  0.048	 -9.887	 -0.002	  0.000	 -0.000	 32.800	 99.250	 -99999.000
17751	  0.390	 -0.177	  0.270	  0.216	  0.038	 -9.901	 -0.003	  0.003	  0.000	 32.800	 99.250	 -99999.000
17801	  0.391	 -0.176	  0.272	  0.150	  0.007	 -9.922	 -0.004	  0.002	 -0.000	 32.800	 99.246	 -99999.000
17851	  0.390	 -0.174	  0.271	  0.227	  0.026	 -9.862	 -0.002	  0.002	  0.000	 32.800	 99.250	 -99999.000
17901	  0.390	 -0.176	  0.269	  0.216	  0.046	 -9.891	 -0.003	  0.002	  0.000	 32.800	 99.250	 -99999.000
17951	  0.391	 -0.177	  0.265	  0.223	  0.015	 -9.841	 -0.003	  0.003	  0.002	 32.800	 99.250	 -99999.000
18002	  0.388	 -0.172	  0.267	  0.210	  0.029	 -9.857	 -0.004	  0.001	 -0.000	 32.800	 99.246	 -99999.000
18051	  0.389	 -0.175	  0.273	  0.245	  0.040	 -9.843	 -0.003	  0.000	  0.001	 32.800	 99.250	 -99999.000
18101	  0.389	 -0.175	  0.266	  0.227	  0.012	 -9.851	 -0.002	  0.001	 -0.001	 32.800	 99.250	 -99999.000
18151	  0.390	 -0.174	  0.270	  0.180	  0.021	 -9.897	 -0.003	  0.002	 -0.001	 32.800	 99.246	 -99999.000
18201	  0.389	 -0.176	  0.269	  0.200	  0.031	 -9.883	 -0.002	  0.002	  0.001	 32.800	 99.235	 -99999.000
18251	  0.389	 -0.172	  0.267	  0.222	  0.041	 -9.879	 -0.003	  0.002	 -0.000	 32.800	 99.262	 -99999.000
18301	  0.389	 -0.175	  0.271	  0.205	  0.025	 -9.872	 -0.004	  0.002	  0.000	 32.800	 99.246	 -99999.000
18352	  0.391	 -0.173	  0.267	  0.179	  0.039	 -9.871	 -0.003	  0.001	  0.001	 32.800	 99.246	 -99999.000
18401	  0.391	 -0.176	  0.268	  0.235	  0.063	 -9.805	 -0.002	  0.000	  0.001	 32.800	 99.250	 -99999.000
18452	  0.389	 -0.171	  0.270	  0.200	  0.075	 -9.881	 -0.002	  0.001	 -0.001	 32.800	 99.262	 -99999.000
18501	  0.390	 -0.174	  0.266	  0.189	  0.097	 -9.913	 -0.002	  0.002	  0.001	 32.800	 99.258	 -99999.000
18551	  0.390	 -0.175	  0.270	  0.214	  0.066	 -9.886	 -0.003	  0.001	  0.000	 32.800	 99.250	 -99999.000
18602	  0.389	 -0.175	  0.262	  0.164	  0.045	 -9.864	 -0.002	  0.003	 -0.001	 32.800	 99.262	 -99999.000
18651	  0.389	 -0.167	  0.270	  0.190	  0.042	 -9.855	 -0.003	  0.002	 -0.000	 32.800	 99.262	 -99999.000
18701	  0.391	 -0.175	  0.268	  0.204	  0.046	 -9.849	 -0.003	 -0.000	  0.001	 32.800	 99.258	 -99999.000
18751	  0.392	 -0.172	  0.273	  0.234	  0.056	 -9.860	 -0.003	  0.002	  0.001	 32.800	 99.250	 -99999.000
18800	  0.391	 -0.174	  0.272	  0.209	  0.057	 -9.875	 -0.004	  0.001	 -0.000	 32.800	 99.250	 -99999.000
18851	  0.390	 -0.176	  0.267	  0.192	  0.066	 -9.904	 -0.003	  0.002	 -0.000	 32.800	 99.250	 -99999.000
18902	  0.391	 -0.169	  0.272	  0.206	  0.039	 -9.840	 -0.004	  0.001	  0.000	 32.800	 99.246	 -99999.000
18952	  0.391	 -0.175	  0.269	  0.198	  0.025	 -9.844	 -0.004	  0.002	 -0.000	 32.800	 99.250	 -99999.000
19001	  0.390	 -0.177	  0.266	  0.203	  0.036	 -9.857	 -0.003	  0.002	  0.000	 32.800	 99.250	 -99999.000
19052	  0.387	 -0.173	  0.267	  0.214	  0.033	 -9.855	 -0.004	  0.002	  0.001	 32.800	 99.262	 -99999.000
19102	  0.389	 -0.177	  0.272	  0.184	  0.031	 -9.902	 -0.003	  0.002	  0.001	 32.800	 99.262	 -99999.000
19152	  0.390	 -0.173	  0.270	  0.216	  0.033	 -9.854	 -0.003	  0.003	  0.000	 32.800	 99.250	 -99999.000
19202	  0.389	 -0.175	  0.265	  0.213	  0.014	 -9.864	 -0.002	  0.001	  0.001	 32.800	 99.250	 -99999.000
19252	  0.392	 -0.180	  0.271	  0.204	  0.030	 -9.897	 -0.002	 -0.000	  0.000	 32.800	 99.250	 -99999.000
19302	  0.389	 -0.177	  0.269	  0.191	  0.035	 -9.867	 -0.004	  0.001	 -0.000	 32.800	 99.262	 -99999.000
19352	  0.389	 -0.179	  0.267	  0.249	  0.064	 -9.841	 -0.003	  0.001	 -0.000	 32.800	 99.262	 -99999.000
19401	  0.390	 -0.170	  0.270	  0.204	  0.028	 -9.897	 -0.003	 -0.000	  0.001	 32.800	 99.239	 -99999.000
19451	  0.390	 -0.174	  0.266	  0.191	  0.037	 -9.861	 -0.003	  0.002	  0.001	 32.800	 99.262	 -99999.000
19501	  0.392	 -0.174	  0.271	  0.193	  0.064	 -9.874	 -0.002	  0.001	  0.001	 32.800	 99.246	 -99999.000
19551	  0.389	 -0.175	  0.264	  0.222	  0.081	 -9.886	 -0.003	  0.000	  0.000	 32.800	 99.250	 -99999.000
19602	  0.392	 -0.175	  0.270	  0.205	  0.076	 -9.872	 -0.003	  0.002	 -0.001	 32.800	 99.246	 -99999.000
19651	  0.391	 -0.174	  0.266	  0.231	  0.052	 -9.890	 -0.002	  0.002	  0.001	 32.800	 99.246	 -99999.000
19701	  0.388	 -0.177	  0.273	  0.221	  0.046	 -9.901	 -0.003	  0.001	 -0.000	 32.800	 99.262	 -99999.000
19751	  0.391	 -0.170	  0.269	  0.217	  0.053	 -9.866	 -0.003	  0.002	  0.001	 32.800	 99.239	 -99999.000
19801	  0.391	 -0.177	  0.265	  0.225	  0.046	 -9.859	 -0.003	  0.001	  0.001	 32.800	 99.250	 -99999.000
19851	  0.389	 -0.177	  0.270	  0.223	  0.058	 -9.855	 -0.003	  0.001	  0.002	 32.800	 99.250	 -99999.000
19901	  0.392	 -0.170	  0.268	  0.203	  0.061	 -9.892	 -0.003	  0.001	  0.001	 32.800	 99.250	 -99999.000
19951	  0.389	 -0.175	  0.272	  0.229	  0.042	 -9.906	 -0.003	  0.001	 -0.001	 32.800	 99.250	 -99999.000
20001	  0.391	 -0.175	  0.269	  0.198	  0.036	 -9.881	 -0.006	  0.001	  0.001	 32.800	 99.262	 -99999.000
20051	  0.391	 -0.178	  0.268	  0.196	  0.068	 -9.908	 -0.004	  0.001	  0.001	 32.800	 99.250	 -99999.000
20101	  0.390	 -0.174	  0.272	  0.193	  0.020	 -9.866	 -0.003	  0.002	  0.001	 32.800	 99.250	 -99999.000
20152	  0.388	 -0.177	  0.269	  0.193	  0.005	 -9.866	 -0.002	  0.001	  0.000	 32.800	 99.246	 -99999.000
20201	  0.390	 -0.171	  0.271	  0.195	  0.043	 -9.885	 -0.003	  0.003	 -0.000	 32.800	 99.250	 -99999.000
20251	  0.390	 -0.175	  0.267	  0.221	  0.030	 -9.855	 -0.003	  0.002	  0.000	 32.800	 99.250	 -99999.000
20301	  0.391	 -0.175	  0.261	  0.213	  0.013	 -9.860	 -0.003	  0.003	  0.002	 32.800	 99.246	 -99999.000
20351	  0.390	 -0.175	  0.270	  0.213	  0.016	 -9.872	 -0.002	  0.001	  0.000	 32.800	 99.250	 -99999.000
20401	  0.393	 -0.177	  0.260	  0.212	  0.026	 -9.893	 -0.003	  0.001	  0.000	 32.800	 99.246	 -99999.000
20451	  0.388	 -0.172	  0.270	  0.204	  0.020	 -9.910	 -0.003	  0.002	  0.000	 32.800	 99.250	 -99999.000
20501	  0.391	 -0.173	  0.264	  0.206	  0.037	 -9.876	 -0.002	  0.002	  0.001	 32.800	 99.250	 -99999.000
20551	  0.391	 -0.174	  0.262	  0.217	  0.035	 -9.841	 -0.003	  0.002	 -0.000	 32.800	 99.250	 -99999.000
20601	  0.393	 -0.175	  0.273	  0.231	  0.033	 -9.841	 -0.002	  0.002	  0.002	 32.800	 99.250	 -99999.000
20651	  0.390	 -0.176	  0.265	  0.208	  0.049	 -9.868	 -0.002	  0.002	  0.001	 32.800	 99.246	 -99999.000
20701	  0.389	 -0.175	  0.270	  0.203	  0.033	 -9.875	 -0.002	  0.001	 -0.001	 32.800	 99.262	 -99999.000
20751	  0.392	 -0.176	  0.268	  0.217	  0.058	 -9.882	 -0.002	  0.002	  0.000	 32.800	 99.239	 -99999.000
20801	  0.391	 -0.172	  0.269	  0.215	  0.054	 -9.862	 -0.002	  0.002	  0.000	 32.800	 99.250	 -99999.000
20851	  0.389	 -0.178	  0.272	  0.213	  0.036	 -9.842	 -0.003	  0.002	  0.000	 32.800	 99.250	 -99999.000
20901	  0.389	 -0.175	  0.265	  0.210	  0.053	 -9.874	 -0.003	  0.001	  0.000	 32.800	 99.250	 -99999.000
20951	  0.388	 -0.182	  0.270	  0.182	  0.106	 -9.875	 -0.001	  0.002	 -0.000	 32.800	 99.250	 -99999.000
21001	  0.390	 -0.175	  0.262	  0.227	  0.093	 -9.876	 -0.002	  0.002	 -0.000	 32.800	 99.250	 -99999.000
21051	  0.391	 -0.174	  0.272	  0.197	  0.047	 -9.897	 -0.002	  0.003	  0.000	 32.800	 99.250	 -99999.000
21101	  0.392	 -0.177	  0.265	  0.204	  0.051	 -9.897	 -0.003	  0.002	  0.000	 32.800	 99.250	 -99999.000
21151	  0.390	 -0.175	  0.273	  0.190	  0.015	 -9.866	 -0.002	  0.002	  0.001	 32.800	 99.262	 -99999.000
21201	  0.388	 -0.172	  0.270	  0.214	  0.041	 -9.844	 -0.002	  0.001	 -0.000	 32.800	 99.250	 -99999.000
21251	  0.389	 -0.172	  0.272	  0.205	  0.055	 -9.869	 -0.002	  0.001	 -0.000	 32.800	 99.250	 -99999.000
21301	  0.392	 -0.173	  0.265	  0.235	  0.043	 -9.831	 -0.004	  0.001	  0.001	 32.800	 99.250	 -99999.000
21351	  0.390	 -0.172	  0.267	  0.205	  0.020	 -9.891	 -0.003	  0.001	  0.001	 32.800	 99.246	 -99999.000
21401	  0.391	 -0.177	  0.268	  0.182	  0.015	 -9.886	 -0.003	  0.003	  0.000	 32.800	 99.250	 -99999.000
21451	  0.389	 -0.172	  0.263	  0.208	  0.027	 -9.905	 -0.002	  0.002	  0.002	 32.800	 99.262	 -99999.000
21501	  0.391	 -0.168	  0.267	  0.230	  0.018	 -9.871	 -0.002	  0.001	 -0.001	 32.800	 99.235	 -99999.000
21551	  0.389	 -0.175	  0.270	  0.176	  0.069	 -9.883	 -0.002	  0.001	  0.000	 32.800	 99.250	 -99999.000
21601	  0.389	 -0.176	  0.266	  0.199	  0.063	 -9.887	 -0.002	  0.001	  0.000	 32.800	 99.250	 -99999.000
21651	  0.389	 -0.170	  0.267	  0.251	  0.016	 -9.865	 -0.002	  0.003	 -0.000	 32.800	 99.250	 -99999.000
21701	  0.388	 -0.174	  0.268	  0.218	  0.032	 -9.854	 -0.003	  0.002	  0.001	 32.800	 99.262	 -99999.000
21751	  0.392	 -0.177	  0.273	  0.197	  0.043	 -9.883	 -0.002	  0.001	  0.001	 32.800	 99.250	 -99999.000
21801	  0.386	 -0.178	  0.268	  0.203	  0.038	 -9.852	 -0.002	  0.001	 -0.000	 32.800	 99.250	 -99999.000
21851	  0.390	 -0.175	  0.262	  0.220	  0.069	 -9.879	 -0.003	  0.001	  0.001	 32.800	 99.250	 -99999.000
21901	  0.391	 -0.174	  0.271	  0.208	  0.079	 -9.885	 -0.003	  0.002	 -0.001	 32.800	 99.250	 -99999.000
21951	  0.388	 -0.170	  0.266	  0.210	  0.031	 -9.884	 -0.003	  0.001	  0.000	 32.800	 99.250	 -99999.000
22001	  0.390	 -0.175	  0.271	  0.233	  0.035	 -9.881	 -0.003	  0.002	  0.001	 32.800	 99.250	 -99999.000
22051	  0.391	 -0.177	  0.270	  0.193	  0.034	 -9.893	 -0.003	  0.001	  0.001	 32.800	 99.250	 -99999.000
22101	  0.391	 -0.181	  0.265	  0.205	  0.046	 -9.906	 -0.003	  0.001	  0.000	 32.800	 99.250	 -99999.000
22151	  0.390	 -0.174	  0.270	  0.207	  0.073	 -9.849	 -0.004	  0.002	  0.001	 32.800	 99.250	 -99999.000
22201	  0.389	 -0.178	  0.267	  0.205	  0.041	 -9.868	 -0.003	  0.002	 -0.000	 32.800	 99.250	 -99999.000
22251	  0.389	 -0.177	  0.271	  0.188	  0.044	 -9.916	 -0.003	  0.001	  0.001	 32.800	 99.250	 -99999.000
25426	  0.390	 -0.180	  0.271	  0.132	  0.056	 -9.909	 -0.004	  0.002	  0.001	 32.800	 99.250	  0.042
25476	  0.392	 -0.175	  0.270	  0.410	  0.055	 -9.611	 -0.003	  0.002	  0.001	 32.800	 99.262	 -1.032
25526	  0.391	 -0.177	  0.272	  0.225	  0.040	 -9.850	 -0.003	  0.000	  0.001	 32.800	 99.250	  0.042
25576	  0.392	 -0.178	  0.270	  0.137	  0.046	 -9.949	 -0.004	  0.001	  0.001	 32.800	 99.250	  0.042
25626	  0.393	 -0.179	  0.268	  0.220	  0.007	 -9.866	 -0.002	  0.002	  0.001	 32.800	 99.250	  0.042
25676	  0.394	 -0.180	  0.270	  0.229	  0.040	 -9.827	 -0.003	  0.000	  0.001	 32.800	 99.250	  0.042
25726	  0.392	 -0.180	  0.268	  0.275	  0.056	 -9.721	 -0.003	  0.002	  0.000	 32.800	 99.250	  0.042
25776	  0.391	 -0.173	  0.272	  0.145	  0.090	 -9.885	 -0.003	  0.001	  0.001	 32.800	 99.250	  0.042
25826	  0.393	 -0.179	  0.264	  0.181	  0.045	 -9.889	 -0.001	  0.002	  0.000	 32.800	 99.250	  0.042
25876	  0.392	 -0.177	  0.269	  0.210	  0.045	 -9.877	 -0.003	  0.002	  0.000	 32.800	 99.250	  0.042
25926	  0.393	 -0.176	  0.270	  0.191	  0.054	 -9.850	 -0.003	  0.004	  0.001	 32.800	 99.250	  0.042
25976	  0.393	 -0.181	  0.271	  0.209	  0.059	 -9.869	 -0.003	  0.002	  0.001	 32.800	 99.250	  0.042
26026	  0.391	 -0.176	  0.269	  0.218	  0.054	 -9.828	 -0.003	  0.003	  0.001	 32.800	 99.250	  0.042
26076	  0.393	 -0.179	  0.269	  0.190	  0.055	 -9.860	 -0.002	  0.001	 -0.000	 32.800	 99.239	  1.028
26126	  0.391	 -0.177	  0.271	  0.211	  0.057	 -9.896	 -0.003	  0.001	  0.002	 32.800	 99.250	  0.042
26176	  0.392	 -0.177	  0.271	  0.200	  0.027	 -9.882	 -0.004	  0.000	 -0.000	 32.800	 99.250	  0.042
26226	  0.391	 -0.178	  0.269	  0.204	  0.043	 -9.852	 -0.003	  0.002	  0.001	 32.800	 99.250	  0.042
26276	  0.391	 -0.178	  0.271	  0.198	  0.043	 -9.906	 -0.002	  0.001	  0.000	 32.800	 99.250	  0.042
26326	  0.394	 -0.180	  0.270	  0.180	  0.037	 -9.893	 -0.003	  0.002	 -0.001	 32.800	 99.250	  0.042
26376	  0.392	 -0.175	  0.268	  0.223	  0.050	 -9.856	 -0.003	  0.003	 -0.000	 32.800	 99.250	  0.042
26426	  0.392	 -0.178	  0.268	  0.185	  0.042	 -9.881	 -0.003	  0.001	  0.000	 32.800	 99.246	  0.401
26476	  0.393	 -0.178	  0.272	  0.190	  0.033	 -9.869	 -0.004	  0.001	  0.001	 32.800	 99.262	 -1.032
26526	  0.392	 -0.175	  0.271	  0.208	  0.002	 -9.872	 -0.002	  0.002	  0.000	 32.800	 99.262	 -1.032
26576	  0.393	 -0.173	  0.271	  0.189	  0.027	 -9.865	 -0.001	  0.000	  0.001	 32.800	 99.258	 -0.674
26626	  0.390	 -0.175	  0.267	  0.204	  0.051	 -9.864	 -0.003	  0.001	  0.000	 32.800	 99.246	  0.401
26676	  0.393	 -0.177	  0.269	  0.221	  0.046	 -9.889	 -0.003	  0.001	  0.000	 32.800	 99.250	  0.042
26726	  0.392	 -0.174	  0.270	  0.223	  0.045	 -9.866	 -0.003	  0.001	  0.002	 32.800	 99.250	  0.042
26776	  0.391	 -0.178	  0.273	  0.206	  0.058	 -9.886	 -0.003	  0.001	  0.001	 32.800	 99.239	  1.028
26826	  0.391	 -0.177	  0.264	  0.211	  0.032	 -9.883	 -0.003	  0.002	 -0.000	 32.800	 99.239	  1.028
26876	  0.391	 -0.178	  0.264	  0.199	  0.024	 -9.881	 -0.002	  0.002	  0.001	 32.800	 99.250	  0.042
26926	  0.393	 -0.180	  0.270	  0.203	  0.065	 -9.906	 -0.002	  0.001	  0.000	 32.800	 99.246	  0.401
26976	  0.390	 -0.173	  0.269	  0.232	  0.072	 -9.867	 -0.001	  0.001	  0.001	 32.800	 99.262	 -1.032
27026	  0.393	 -0.181	  0.270	  0.217	  0.076	 -9.869	 -0.002	  0.000	 -0.000	 32.800	 99.250	  0.042
27076	  0.392	 -0.181	  0.269	  0.216	  0.070	 -9.855	 -0.003	  0.001	  0.001	 32.800	 99.250	  0.042
27126	  0.393	 -0.178	  0.272	  0.218	  0.068	 -9.878	 -0.004	  0.002	  0.001	 32.800	 99.250	  0.042
27176	  0.392	 -0.182	  0.270	  0.196	  0.056	 -9.865	 -0.003	  0.002	  0.000	 32.800	 99.262	 -1.032
