Time	 MagX	 MagY	 MagZ	 AccelX	 AccelY	 AccelZ	 Yaw	 Pitch	 Roll	 Temperature	 Pressure	 Altitude
14322	  0.179	 -0.216	  0.453	  0.198	  0.121	 -9.726	  0.008	 -0.004	  0.003	 32.200	 98.753	 -99999.000
14372	  0.180	 -0.219	  0.452	  0.173	  0.050	 -9.772	  0.015	 -0.001	  0.005	 32.100	 98.749	 -99999.000
14422	  0.183	 -0.216	  0.448	  0.210	 -0.008	 -9.807	 -0.005	  0.010	  0.005	 32.200	 98.753	 -99999.000
14472	  0.182	 -0.223	  0.450	  0.214	  0.050	 -9.803	 -0.015	  0.006	  0.005	 32.100	 98.760	 -99999.000
14522	  0.180	 -0.226	  0.451	  0.226	  0.095	 -9.756	 -0.012	  0.000	  0.004	 32.200	 98.753	 -99999.000
14572	  0.180	 -0.226	  0.448	  0.195	  0.078	 -9.769	  0.007	 -0.007	  0.004	 32.100	 98.749	 -99999.000
14622	  0.180	 -0.224	  0.450	  0.176	  0.052	 -9.783	  0.004	  0.003	  0.004	 32.200	 98.764	 -99999.000
14672	  0.183	 -0.218	  0.449	  0.222	  0.027	 -9.789	 -0.011	  0.011	  0.003	 32.200	 98.753	 -99999.000
14722	  0.179	 -0.225	  0.451	  0.196	  0.082	 -9.839	 -0.014	  0.006	  0.003	 32.200	 98.753	 -99999.000
14772	  0.181	 -0.219	  0.451	  0.215	  0.096	 -9.770	 -0.004	 -0.003	  0.003	 32.200	 98.753	 -99999.000
14822	  0.179	 -0.228	  0.453	  0.180	  0.055	 -9.749	  0.011	 -0.006	  0.002	 32.200	 98.753	 -99999.000
14872	  0.181	 -0.219	  0.451	  0.184	  0.012	 -9.767	 -0.003	  0.007	  0.003	 32.200	 98.764	 -99999.000
14922	  0.182	 -0.224	  0.451	  0.215	  0.057	 -9.756	 -0.017	  0.015	  0.003	 32.200	 98.742	 -99999.000
14972	  0.180	 -0.221	  0.445	  0.270	  0.090	 -9.664	 -0.011	  0.003	  0.001	 32.200	 98.753	 -99999.000
15022	  0.180	 -0.219	  0.451	  0.227	  0.078	 -9.772	  0.006	 -0.010	  0.004	 32.200	 98.753	 -99999.000
15072	  0.182	 -0.221	  0.448	  0.197	 -0.012	 -9.795	  0.006	 -0.005	  0.004	 32.200	 98.753	 -99999.000
15122	  0.183	 -0.224	  0.447	  0.158	  0.030	 -9.825	 -0.011	  0.012	  0.005	 32.100	 98.749	 -99999.000
15172	  0.181	 -0.224	  0.450	  0.236	  0.065	 -9.755	 -0.013	  0.016	  0.005	 32.200	 98.753	 -99999.000
15222	  0.180	 -0.229	  0.451	  0.235	  0.124	 -9.755	 -0.004	 -0.000	  0.004	 32.200	 98.738	 -99999.000
15272	  0.183	 -0.216	  0.450	  0.184	  0.092	 -9.718	  0.007	 -0.008	  0.005	 32.200	 98.753	 -99999.000
15322	  0.181	 -0.225	  0.452	  0.164	  0.004	 -9.839	 -0.003	 -0.004	  0.003	 32.200	 98.742	 -99999.000
15372	  0.179	 -0.225	  0.450	  0.187	  0.053	 -9.797	 -0.013	  0.014	  0.002	 32.100	 98.738	 -99999.000
15422	  0.181	 -0.222	  0.448	  0.221	  0.070	 -9.776	 -0.006	  0.009	  0.002	 32.200	 98.753	 -99999.000
15472	  0.179	 -0.225	  0.445	  0.221	  0.055	 -9.740	 -0.001	 -0.000	  0.003	 32.200	 98.764	 -99999.000
15522	  0.180	 -0.226	  0.448	  0.205	  0.051	 -9.769	  0.003	 -0.008	  0.004	 32.200	 98.760	 -99999.000
15572	  0.181	 -0.223	  0.449	  0.186	  0.042	 -9.778	 -0.006	  0.004	  0.004	 32.200	 98.753	 -99999.000
15622	  0.183	 -0.222	  0.442	  0.210	  0.043	 -9.764	 -0.009	  0.009	  0.004	 32.200	 98.764	 -99999.000
15672	  0.182	 -0.225	  0.452	  0.224	  0.075	 -9.785	 -0.007	  0.009	  0.004	 32.200	 98.742	 -99999.000
15722	  0.181	 -0.221	  0.448	  0.242	  0.090	 -9.756	  0.001	 -0.001	  0.003	 32.200	 98.753	 -99999.000
15772	  0.183	 -0.227	  0.450	  0.170	  0.029	 -9.790	  0.004	 -0.006	  0.005	 32.200	 98.753	 -99999.000
15822	  0.182	 -0.228	  0.449	  0.188	  0.042	 -9.778	 -0.011	  0.004	  0.004	 32.200	 98.749	 -99999.000
15872	  0.178	 -0.227	  0.452	  0.208	  0.064	 -9.748	 -0.010	  0.011	  0.003	 32.200	 98.753	 -99999.000
15922	  0.181	 -0.224	  0.448	  0.222	  0.084	 -9.701	 -0.005	  0.008	  0.004	 32.200	 98.753	 -99999.000
15972	  0.181	 -0.217	  0.450	  0.222	  0.075	 -9.792	  0.006	 -0.005	  0.004	 32.200	 98.742	 -99999.000
16022	  0.183	 -0.224	  0.449	  0.181	  0.035	 -9.808	 -0.002	 -0.004	  0.003	 32.200	 98.764	 -99999.000
16072	  0.182	 -0.226	  0.449	  0.202	  0.050	 -9.762	 -0.011	  0.008	  0.005	 32.200	 98.753	 -99999.000
16122	  0.182	 -0.229	  0.450	  0.226	  0.078	 -9.781	 -0.007	  0.006	  0.003	 32.200	 98.757	 -99999.000
16172	  0.181	 -0.223	  0.449	  0.233	  0.086	 -9.781	 -0.000	  0.006	  0.004	 32.200	 98.753	 -99999.000
16222	  0.182	 -0.226	  0.450	  0.217	  0.029	 -9.752	  0.004	 -0.004	  0.005	 32.200	 98.742	 -99999.000
16272	  0.183	 -0.221	  0.447	  0.175	  0.038	 -9.775	 -0.008	  0.003	  0.004	 32.200	 98.753	 -99999.000
16322	  0.178	 -0.225	  0.454	  0.218	  0.091	 -9.737	 -0.012	  0.004	  0.003	 32.200	 98.753	 -99999.000
16372	  0.181	 -0.226	  0.448	  0.191	  0.092	 -9.757	 -0.004	  0.006	  0.005	 32.200	 98.742	 -99999.000
16422	  0.181	 -0.226	  0.448	  0.236	  0.069	 -9.771	  0.004	  0.000	  0.003	 32.200	 98.764	 -99999.000
16472	  0.182	 -0.223	  0.449	  0.217	  0.063	 -9.811	 -0.002	  0.002	  0.004	 32.200	 98.764	 -99999.000
16522	  0.182	 -0.229	  0.455	  0.214	  0.048	 -9.754	 -0.008	  0.003	  0.005	 32.200	 98.742	 -99999.000
16572	  0.181	 -0.216	  0.452	  0.206	  0.074	 -9.784	 -0.010	  0.002	  0.003	 32.200	 98.753	 -99999.000
16622	  0.180	 -0.223	  0.451	  0.213	  0.098	 -9.749	  0.001	  0.003	  0.004	 32.200	 98.753	 -99999.000
16672	  0.181	 -0.219	  0.450	  0.234	  0.078	 -9.770	 -0.000	  0.001	  0.004	 32.200	 98.753	 -99999.000
16722	  0.183	 -0.226	  0.452	  0.184	  0.056	 -9.769	 -0.003	  0.002	  0.004	 32.200	 98.742	 -99999.000
16772	  0.180	 -0.224	  0.452	  0.225	  0.055	 -9.763	 -0.009	  0.004	  0.004	 32.200	 98.753	 -99999.000
16823	  0.181	 -0.213	  0.449	  0.214	  0.093	 -9.788	 -0.006	  0.004	  0.003	 32.200	 98.753	 -99999.000
16872	  0.180	 -0.223	  0.451	  0.198	  0.094	 -9.793	 -0.000	  0.001	  0.004	 32.200	 98.753	 -99999.000
16922	  0.179	 -0.220	  0.446	  0.189	  0.071	 -9.814	  0.002	  0.004	  0.004	 32.200	 98.742	 -99999.000
16972	  0.181	 -0.224	  0.450	  0.202	  0.039	 -9.759	 -0.006	  0.002	  0.004	 32.200	 98.764	 -99999.000
17022	  0.179	 -0.225	  0.448	  0.222	  0.079	 -9.785	 -0.010	  0.004	  0.003	 32.200	 98.742	 -99999.000
17072	  0.180	 -0.217	  0.448	  0.225	  0.057	 -9.734	 -0.005	  0.001	  0.003	 32.200	 98.742	 -99999.000
17121	  0.179	 -0.223	  0.450	  0.217	  0.056	 -9.766	  0.004	  0.002	  0.005	 32.200	 98.753	 -99999.000
17171	  0.180	 -0.223	  0.444	  0.227	  0.023	 -9.741	 -0.001	  0.001	  0.005	 32.200	 98.753	 -99999.000
17221	  0.182	 -0.224	  0.450	  0.218	  0.044	 -9.792	 -0.010	  0.004	  0.004	 32.200	 98.742	 -99999.000
17272	  0.179	 -0.223	  0.451	  0.209	  0.092	 -9.743	 -0.009	  0.003	  0.004	 32.200	 98.753	 -99999.000
18323	  0.180	 -0.224	  0.453	  0.227	  0.071	 -9.724	 -0.001	  0.000	  0.004	 32.200	 98.753	 -99999.000
18373	  0.179	 -0.221	  0.446	  0.188	  0.053	 -9.781	 -0.006	  0.001	  0.004	 32.200	 98.742	 -99999.000
18422	  0.181	 -0.222	  0.453	  0.208	  0.077	 -9.752	 -0.012	  0.003	  0.004	 32.200	 98.753	 -99999.000
18472	  0.179	 -0.223	  0.453	  0.197	  0.102	 -9.759	 -0.001	  0.004	  0.004	 32.200	 98.742	 -99999.000
18522	  0.181	 -0.223	  0.448	  0.213	  0.067	 -9.781	 -0.001	  0.003	  0.005	 32.200	 98.742	 -99999.000
18572	  0.181	 -0.223	  0.454	  0.206	  0.055	 -9.751	 -0.004	  0.001	  0.005	 32.200	 98.742	 -99999.000
18622	  0.180	 -0.225	  0.451	  0.210	  0.079	 -9.765	 -0.010	  0.003	  0.005	 32.200	 98.742	 -99999.000
18672	  0.179	 -0.224	  0.452	  0.232	  0.069	 -9.718	 -0.003	  0.004	  0.003	 32.200	 98.753	 -99999.000
18722	  0.178	 -0.223	  0.452	  0.197	  0.098	 -9.768	 -0.003	  0.001	  0.005	 32.200	 98.742	 -99999.000
18772	  0.182	 -0.221	  0.451	  0.216	  0.056	 -9.796	 -0.004	  0.003	  0.003	 32.200	 98.753	 -99999.000
18822	  0.178	 -0.219	  0.451	  0.224	  0.071	 -9.781	 -0.004	  0.004	  0.003	 32.200	 98.753	 -99999.000
18872	  0.180	 -0.222	  0.450	  0.215	  0.072	 -9.770	 -0.005	  0.003	  0.003	 32.200	 98.764	 -99999.000
18922	  0.180	 -0.224	  0.449	  0.213	  0.069	 -9.759	 -0.004	  0.002	  0.003	 32.200	 98.749	 -99999.000
18972	  0.181	 -0.223	  0.449	  0.212	  0.091	 -9.712	 -0.004	  0.002	  0.004	 32.200	 98.753	 -99999.000
19022	  0.180	 -0.221	  0.449	  0.217	  0.060	 -9.792	 -0.003	  0.005	  0.005	 32.200	 98.753	 -99999.000
19072	  0.180	 -0.222	  0.451	  0.204	  0.056	 -9.764	 -0.003	  0.003	  0.004	 32.200	 98.742	 -99999.000
19122	  0.181	 -0.221	  0.447	  0.208	  0.068	 -9.783	 -0.006	  0.002	  0.005	 32.200	 98.753	 -99999.000
19172	  0.179	 -0.226	  0.451	  0.222	  0.071	 -9.794	 -0.002	  0.001	  0.004	 32.200	 98.753	 -99999.000
19222	  0.177	 -0.220	  0.452	  0.208	  0.074	 -9.772	 -0.005	  0.004	  0.005	 32.200	 98.742	 -99999.000
19272	  0.181	 -0.224	  0.449	  0.226	  0.076	 -9.754	 -0.004	  0.001	  0.003	 32.200	 98.757	 -99999.000
19322	  0.181	 -0.217	  0.451	  0.194	  0.056	 -9.769	 -0.006	  0.002	  0.003	 32.200	 98.753	 -99999.000
19372	  0.179	 -0.217	  0.452	  0.244	  0.065	 -9.741	 -0.004	  0.003	  0.003	 32.200	 98.742	 -99999.000
19422	  0.179	 -0.222	  0.449	  0.207	  0.059	 -9.769	 -0.004	  0.002	  0.003	 32.200	 98.753	 -99999.000
19472	  0.182	 -0.223	  0.451	  0.218	  0.044	 -9.790	 -0.002	  0.002	  0.004	 32.200	 98.742	 -99999.000
19522	  0.182	 -0.221	  0.449	  0.195	  0.059	 -9.819	 -0.005	  0.001	  0.003	 32.200	 98.742	 -99999.000
19572	  0.178	 -0.223	  0.443	  0.204	  0.077	 -9.764	 -0.007	  0.004	  0.004	 32.200	 98.753	 -99999.000
19622	  0.178	 -0.222	  0.453	  0.231	  0.053	 -9.799	 -0.001	  0.002	  0.003	 32.200	 98.753	 -99999.000
19672	  0.179	 -0.222	  0.452	  0.186	  0.083	 -9.770	 -0.004	  0.001	  0.005	 32.200	 98.753	 -99999.000
19722	  0.179	 -0.219	  0.449	  0.203	  0.058	 -9.736	 -0.004	  0.001	  0.004	 32.200	 98.753	 -99999.000
19772	  0.179	 -0.223	  0.453	  0.211	  0.060	 -9.777	 -0.006	  0.002	  0.004	 32.200	 98.742	 -99999.000
19822	  0.180	 -0.224	  0.451	  0.227	  0.064	 -9.767	 -0.004	  0.005	  0.003	 32.200	 98.753	 -99999.000
19872	  0.180	 -0.224	  0.451	  0.213	  0.075	 -9.776	 -0.002	 -0.001	  0.004	 32.200	 98.753	 -99999.000
19922	  0.181	 -0.223	  0.451	  0.205	  0.051	 -9.775	 -0.002	  0.004	  0.005	 32.200	 98.764	 -99999.000
19972	  0.179	 -0.219	  0.450	  0.216	  0.052	 -9.770	 -0.005	 -0.002	  0.004	 32.200	 98.753	 -99999.000
20022	  0.179	 -0.217	  0.452	  0.207	  0.067	 -9.797	 -0.006	  0.005	  0.003	 32.200	 98.742	 -99999.000
20072	  0.181	 -0.225	  0.448	  0.222	  0.071	 -9.781	 -0.006	  0.003	  0.004	 32.200	 98.753	 -99999.000
20122	  0.182	 -0.220	  0.444	  0.203	  0.051	 -9.759	 -0.002	  0.002	  0.004	 32.200	 98.753	 -99999.000
20172	  0.180	 -0.225	  0.451	  0.187	  0.077	 -9.772	 -0.006	  0.003	  0.004	 32.200	 98.753	 -99999.000
20222	  0.179	 -0.225	  0.449	  0.221	  0.080	 -9.746	 -0.001	 -0.000	  0.003	 32.200	 98.753	 -99999.000
20272	  0.181	 -0.216	  0.450	  0.192	  0.060	 -9.806	 -0.006	  0.003	  0.003	 32.200	 98.753	 -99999.000
20322	  0.178	 -0.217	  0.451	  0.243	  0.089	 -9.729	 -0.006	  0.006	  0.003	 32.200	 98.753	 -99999.000
20372	  0.179	 -0.224	  0.451	  0.192	  0.085	 -9.727	 -0.002	  0.001	  0.004	 32.200	 98.742	 -99999.000
20422	  0.182	 -0.221	  0.450	  0.203	  0.084	 -9.754	 -0.005	  0.000	  0.005	 32.200	 98.742	 -99999.000
20472	  0.181	 -0.224	  0.454	  0.207	  0.060	 -9.796	 -0.004	  0.005	  0.003	 32.200	 98.753	 -99999.000
20522	  0.180	 -0.225	  0.450	  0.214	  0.079	 -9.791	 -0.006	  0.003	  0.004	 32.200	 98.764	 -99999.000
20572	  0.177	 -0.224	  0.452	  0.183	  0.051	 -9.797	 -0.002	  0.003	  0.003	 32.200	 98.753	 -99999.000
20622	  0.181	 -0.214	  0.448	  0.227	  0.068	 -9.726	 -0.003	  0.004	  0.003	 32.200	 98.753	 -99999.000
20672	  0.179	 -0.221	  0.448	  0.224	  0.054	 -9.792	 -0.003	  0.002	  0.003	 32.200	 98.742	 -99999.000
20722	  0.178	 -0.224	  0.446	  0.189	  0.080	 -9.731	 -0.009	  0.001	  0.003	 32.200	 98.753	 -99999.000
20772	  0.179	 -0.221	  0.444	  0.194	  0.051	 -9.744	 -0.003	  0.005	  0.003	 32.200	 98.742	 -99999.000
20822	  0.179	 -0.223	  0.444	  0.198	  0.073	 -9.788	 -0.002	  0.004	  0.005	 32.200	 98.742	 -99999.000
20872	  0.177	 -0.218	  0.450	  0.217	  0.063	 -9.726	 -0.004	  0.005	  0.004	 32.200	 98.753	 -99999.000
20922	  0.180	 -0.224	  0.452	  0.199	  0.061	 -9.761	 -0.005	  0.001	  0.005	 32.200	 98.753	 -99999.000
20972	  0.180	 -0.225	  0.447	  0.215	  0.064	 -9.764	 -0.008	  0.003	  0.005	 32.200	 98.753	 -99999.000
21022	  0.179	 -0.214	  0.451	  0.181	  0.081	 -9.797	 -0.004	 -0.001	  0.003	 32.200	 98.764	 -99999.000
21072	  0.180	 -0.212	  0.452	  0.184	  0.044	 -9.747	 -0.001	  0.005	  0.004	 32.200	 98.753	 -99999.000
21122	  0.179	 -0.216	  0.450	  0.219	  0.043	 -9.803	 -0.002	  0.005	  0.003	 32.200	 98.742	 -99999.000
21172	  0.178	 -0.223	  0.447	  0.209	  0.050	 -9.744	 -0.007	  0.005	  0.003	 32.200	 98.753	 -99999.000
21222	  0.180	 -0.219	  0.448	  0.234	  0.070	 -9.738	 -0.009	 -0.001	  0.004	 32.200	 98.753	 -99999.000
21272	  0.179	 -0.223	  0.451	  0.216	  0.073	 -9.755	 -0.004	  0.000	  0.005	 32.200	 98.742	 -99999.000
27248	  0.179	 -0.222	  0.449	  0.167	  0.076	 -9.764	  0.001	  0.003	  0.002	 32.200	 98.753	 -0.267
27297	  0.181	 -0.222	  0.449	  0.199	  0.051	 -9.769	 -0.000	  0.003	  0.003	 32.200	 98.753	 -0.267
27347	  0.183	 -0.227	  0.452	  0.165	  0.076	 -9.736	 -0.013	 -0.001	  0.004	 32.200	 98.753	 -0.267
27398	  0.180	 -0.227	  0.450	  0.211	  0.082	 -9.783	 -0.009	 -0.000	  0.003	 32.200	 98.753	 -0.267
27447	  0.184	 -0.228	  0.447	  0.210	  0.059	 -9.794	 -0.001	  0.006	  0.001	 32.200	 98.742	  0.732
27498	  0.182	 -0.217	  0.448	  0.203	  0.045	 -9.769	  0.002	  0.005	  0.000	 32.200	 98.757	 -0.631
27547	  0.183	 -0.220	  0.453	  0.210	  0.011	 -9.786	 -0.003	  0.005	  0.002	 32.200	 98.742	  0.732
27597	  0.181	 -0.224	  0.450	  0.219	  0.048	 -9.748	 -0.012	  0.003	  0.004	 32.200	 98.753	 -0.267
27647	  0.180	 -0.226	  0.451	  0.220	  0.061	 -9.754	 -0.005	 -0.007	  0.003	 32.200	 98.768	 -1.630
27697	  0.180	 -0.222	  0.447	  0.192	  0.068	 -9.791	  0.000	  0.002	  0.004	 32.200	 98.764	 -1.267
27747	  0.181	 -0.224	  0.452	  0.198	  0.057	 -9.705	 -0.002	  0.013	  0.006	 32.200	 98.753	 -0.267
27797	  0.181	 -0.222	  0.447	  0.210	  0.060	 -9.752	 -0.005	  0.007	  0.008	 32.200	 98.753	 -0.267
27847	  0.183	 -0.222	  0.449	  0.251	  0.054	 -9.767	 -0.007	 -0.003	  0.005	 32.200	 98.742	  0.732
27898	  0.181	 -0.221	  0.448	  0.221	  0.055	 -9.811	 -0.010	 -0.011	  0.003	 32.200	 98.753	 -0.267
27948	  0.181	 -0.222	  0.449	  0.149	  0.061	 -9.754	 -0.001	  0.001	  0.003	 32.200	 98.753	 -0.267
27998	  0.180	 -0.223	  0.449	  0.167	  0.072	 -9.773	  0.001	  0.019	  0.004	 32.200	 98.753	 -0.267
28048	  0.180	 -0.224	  0.448	  0.243	  0.060	 -9.725	 -0.002	  0.009	  0.004	 32.200	 98.753	 -0.267
28098	  0.182	 -0.228	  0.454	  0.235	  0.033	 -9.771	 -0.006	 -0.009	  0.003	 32.200	 98.757	 -0.631
28148	  0.182	 -0.217	  0.449	  0.215	  0.059	 -9.762	 -0.010	 -0.008	  0.002	 32.200	 98.753	 -0.267
28198	  0.180	 -0.224	  0.454	  0.187	  0.086	 -9.797	 -0.002	  0.006	  0.004	 32.200	 98.757	 -0.631
28248	  0.179	 -0.223	  0.449	  0.242	  0.062	 -9.782	  0.001	  0.017	  0.003	 32.200	 98.757	 -0.631
28298	  0.183	 -0.222	  0.447	  0.240	  0.050	 -9.755	  0.001	  0.009	  0.002	 32.200	 98.764	 -1.267
28348	  0.183	 -0.219	  0.448	  0.233	  0.056	 -9.762	 -0.012	 -0.009	  0.004	 32.200	 98.742	  0.732
28398	  0.179	 -0.226	  0.450	  0.214	  0.069	 -9.766	 -0.009	 -0.004	  0.003	 32.200	 98.742	  0.732
28448	  0.183	 -0.225	  0.448	  0.196	  0.084	 -9.778	 -0.004	  0.003	  0.006	 32.200	 98.757	 -0.631
28498	  0.182	 -0.225	  0.451	  0.235	  0.052	 -9.745	  0.000	  0.012	  0.003	 32.200	 98.757	 -0.631
28548	  0.182	 -0.215	  0.450	  0.252	  0.038	 -9.827	 -0.002	  0.003	  0.004	 32.200	 98.753	 -0.267
28598	  0.183	 -0.218	  0.451	  0.225	  0.041	 -9.798	 -0.008	 -0.006	  0.002	 32.200	 98.753	 -0.267
28648	  0.182	 -0.226	  0.449	  0.168	  0.100	 -9.769	 -0.010	 -0.009	  0.004	 32.200	 98.768	 -1.630
28698	  0.182	 -0.224	  0.451	  0.153	  0.098	 -9.754	 -0.004	  0.001	  0.002	 32.200	 98.753	 -0.267
28748	  0.180	 -0.229	  0.450	  0.179	  0.093	 -9.768	 -0.002	  0.011	  0.005	 32.200	 98.753	 -0.267
28798	  0.180	 -0.217	  0.446	  0.234	  0.054	 -9.729	 -0.000	  0.010	  0.002	 32.200	 98.764	 -1.267
28848	  0.183	 -0.223	  0.450	  0.237	  0.038	 -9.783	 -0.009	 -0.003	  0.003	 32.200	 98.757	 -0.631
28898	  0.181	 -0.225	  0.448	  0.209	  0.074	 -9.783	 -0.011	 -0.005	  0.005	 32.200	 98.757	 -0.631
28948	  0.180	 -0.226	  0.449	  0.194	  0.067	 -9.767	  0.002	  0.008	  0.006	 32.200	 98.742	  0.732
28998	  0.181	 -0.225	  0.443	  0.229	  0.038	 -9.769	  0.001	  0.008	  0.004	 32.200	 98.742	  0.732
29048	  0.181	 -0.222	  0.452	  0.247	  0.026	 -9.796	 -0.007	  0.004	  0.005	 32.200	 98.742	  0.732
29098	  0.183	 -0.223	  0.450	  0.223	  0.050	 -9.762	 -0.010	 -0.000	  0.005	 32.200	 98.753	 -0.267
29148	  0.181	 -0.222	  0.448	  0.222	  0.056	 -9.795	 -0.004	 -0.003	  0.005	 32.200	 98.753	 -0.267
29198	  0.184	 -0.225	  0.450	  0.182	  0.095	 -9.770	 -0.002	  0.001	  0.004	 32.200	 98.753	 -0.267
29248	  0.180	 -0.219	  0.445	  0.176	  0.072	 -9.761	 -0.003	  0.009	  0.006	 32.200	 98.753	 -0.267
29298	  0.180	 -0.228	  0.451	  0.213	  0.059	 -9.782	 -0.003	  0.005	  0.005	 32.200	 98.768	 -1.630
29348	  0.180	 -0.223	  0.449	  0.227	  0.062	 -9.793	 -0.010	 -0.002	  0.003	 32.200	 98.742	  0.732
29398	  0.182	 -0.226	  0.449	  0.171	  0.084	 -9.755	 -0.004	 -0.001	  0.003	 32.200	 98.753	 -0.267
29448	  0.183	 -0.215	  0.449	  0.177	  0.070	 -9.719	 -0.003	 -0.000	  0.004	 32.200	 98.764	 -1.267
29498	  0.181	 -0.226	  0.450	  0.211	  0.058	 -9.746	 -0.002	  0.007	  0.004	 32.200	 98.753	 -0.267
29548	  0.185	 -0.224	  0.450	  0.238	  0.049	 -9.783	 -0.006	  0.011	  0.003	 32.200	 98.764	 -1.267
29598	  0.182	 -0.222	  0.452	  0.255	  0.066	 -9.755	 -0.005	  0.001	  0.006	 32.200	 98.753	 -0.267
29648	  0.183	 -0.220	  0.455	  0.178	  0.057	 -9.777	 -0.005	 -0.005	  0.005	 32.200	 98.753	 -0.267
29698	  0.181	 -0.220	  0.450	  0.155	  0.071	 -9.802	 -0.005	  0.001	  0.004	 32.200	 98.764	 -1.267
29748	  0.182	 -0.228	  0.452	  0.194	  0.067	 -9.782	 -0.004	  0.010	  0.003	 32.200	 98.753	 -0.267
29798	  0.178	 -0.223	  0.447	  0.208	  0.064	 -9.794	 -0.004	  0.009	  0.004	 32.200	 98.753	 -0.267
29848	  0.179	 -0.226	  0.451	  0.232	  0.074	 -9.765	 -0.004	 -0.002	  0.004	 32.200	 98.753	 -0.267
29898	  0.182	 -0.226	  0.449	  0.107	 -0.142	 -9.810	 -0.056	  0.056	  0.012	 32.200	 98.753	 -0.267
29948	  0.180	 -0.227	  0.449	  0.393	  0.307	 -9.646	 -0.053	  0.068	  0.013	 32.200	 98.764	 -1.267
29998	  0.179	 -0.226	  0.448	  0.101	  0.331	 -9.763	  0.044	 -0.005	  0.006	 32.200	 98.742	  0.732
30048	  0.180	 -0.221	  0.444	  0.239	  0.058	 -9.784	  0.021	 -0.009	 -0.009	 32.200	 98.753	 -0.267
30098	  0.180	 -0.223	  0.448	  0.420	  0.249	 -9.682	  0.028	 -0.078	 -0.012	 32.200	 98.753	 -0.267
30148	  0.184	 -0.218	  0.450	  0.170	 -0.385	 -9.879	  0.108	 -0.004	 -0.012	 32.200	 98.753	 -0.267
30198	  0.183	 -0.216	  0.450	  0.353	 -1.026	 -10.091	 -0.256	  0.098	 -0.168	 32.200	 98.742	  0.732
30248	  0.179	 -0.226	  0.452	  0.517	  0.952	 -9.422	 -0.121	  0.123	 -0.127	 32.200	 98.753	 -0.267
30298	  0.179	 -0.230	  0.451	  0.802	  0.704	 -9.416	  0.150	 -0.006	 -0.222	 32.200	 98.757	 -0.631
30348	  0.184	 -0.215	  0.448	  0.159	 -0.149	 -9.525	  0.292	 -0.070	 -0.286	 32.200	 98.757	 -0.631
30398	  0.185	 -0.216	  0.452	 -0.338	 -0.286	 -9.959	  0.015	 -0.044	 -0.104	 32.200	 98.764	 -1.267
30448	  0.187	 -0.211	  0.455	  0.289	 -0.299	 -9.880	 -0.116	  0.044	  0.010	 32.200	 98.768	 -1.630
30498	  0.188	 -0.218	  0.454	  0.547	  0.441	 -9.633	 -0.076	 -0.027	  0.011	 32.200	 98.753	 -0.267
30548	  0.187	 -0.217	  0.451	  0.152	  0.104	 -9.797	  0.043	 -0.084	  0.004	 32.200	 98.730	  1.821
30598	  0.190	 -0.217	  0.456	  0.139	 -0.125	 -9.821	  0.003	 -0.015	 -0.001	 32.200	 98.764	 -1.267
30648	  0.191	 -0.205	  0.457	  0.306	 -0.014	 -9.755	 -0.079	 -0.009	  0.002	 32.200	 98.753	 -0.267
30698	  0.189	 -0.217	  0.453	  0.110	  0.546	 -9.580	  0.017	  0.016	  0.002	 32.200	 98.753	 -0.267
30748	  0.191	 -0.218	  0.449	  0.324	 -0.280	 -9.862	  0.102	  0.037	 -0.077	 32.200	 98.757	 -0.631
30798	  0.191	 -0.209	  0.455	  0.209	  0.049	 -9.830	  0.050	  0.090	  0.032	 32.200	 98.753	 -0.267
30848	  0.186	 -0.211	  0.452	  0.640	 -0.453	 -9.861	  0.015	 -0.015	 -0.009	 32.200	 98.742	  0.732
30898	  0.188	 -0.213	  0.452	  0.250	 -0.024	 -9.716	 -0.120	 -0.047	  0.004	 32.200	 98.753	 -0.267
30948	  0.189	 -0.208	  0.456	  0.104	  0.084	 -9.882	 -0.097	 -0.004	  0.003	 32.200	 98.768	 -1.630
30998	  0.191	 -0.215	  0.456	  0.318	  0.375	 -9.624	 -0.018	  0.012	 -0.005	 32.200	 98.753	 -0.267
31047	  0.188	 -0.217	  0.454	  0.214	  0.218	 -9.740	  0.068	 -0.025	 -0.049	 32.200	 98.757	 -0.631
31097	  0.191	 -0.215	  0.450	  0.026	 -0.058	 -9.822	  0.040	 -0.001	 -0.002	 32.200	 98.753	 -0.267
31147	  0.191	 -0.216	  0.457	  0.203	 -0.125	 -9.856	 -0.047	  0.030	  0.008	 32.200	 98.753	 -0.267
31197	  0.188	 -0.214	  0.455	  0.492	  0.255	 -9.644	 -0.026	  0.057	 -0.008	 32.200	 98.757	 -0.631
31247	  0.191	 -0.213	  0.457	 -0.121	  0.040	 -9.852	  0.006	 -0.045	  0.000	 32.200	 98.753	 -0.267
31297	  0.189	 -0.214	  0.451	  0.439	  0.161	 -9.726	  0.002	 -0.007	  0.001	 32.200	 98.753	 -0.267
31347	  0.191	 -0.212	  0.451	  0.086	  0.132	 -9.656	  0.006	 -0.033	  0.009	 32.200	 98.753	 -0.267
31397	  0.192	 -0.214	  0.455	  0.201	  0.141	 -9.720	  0.032	 -0.053	 -0.005	 32.200	 98.753	 -0.267
31447	  0.191	 -0.212	  0.449	  0.152	 -0.079	 -9.831	 -0.009	  0.033	  0.009	 32.200	 98.753	 -0.267
31497	  0.190	 -0.216	  0.456	  0.281	  0.021	 -9.762	 -0.002	  0.009	  0.006	 32.200	 98.753	 -0.267
31547	  0.190	 -0.212	  0.454	  0.261	 -0.125	 -9.832	 -0.058	 -0.019	 -0.008	 32.200	 98.753	 -0.267
31597	  0.191	 -0.212	  0.454	  0.217	  0.246	 -9.716	 -0.039	 -0.012	 -0.002	 32.200	 98.753	 -0.267
31647	  0.194	 -0.217	  0.454	  0.277	  0.250	 -9.660	  0.014	 -0.006	 -0.007	 32.200	 98.753	 -0.267
31697	  0.191	 -0.215	  0.456	  0.041	  0.008	 -9.861	  0.069	 -0.022	  0.007	 32.200	 98.742	  0.732
31747	  0.193	 -0.209	  0.456	  0.121	 -0.011	 -9.780	  0.001	  0.012	  0.002	 32.200	 98.753	 -0.267
31797	  0.192	 -0.211	  0.455	  0.201	 -0.043	 -9.828	 -0.017	  0.024	 -0.001	 32.200	 98.753	 -0.267
31847	  0.190	 -0.218	  0.456	  0.315	 -0.046	 -9.763	 -0.033	  0.018	 -0.031	 32.200	 98.757	 -0.631
31897	  0.190	 -0.215	  0.446	  0.361	  0.093	 -9.767	 -0.032	  0.010	 -0.057	 32.200	 98.753	 -0.267
31947	  0.191	 -0.217	  0.454	  0.148	  0.127	 -9.775	 -0.040	 -0.029	 -0.081	 32.200	 98.742	  0.732
31997	  0.191	 -0.214	  0.448	  0.103	  0.122	 -9.774	 -0.055	 -0.017	 -0.029	 32.200	 98.746	  0.368
32047	  0.192	 -0.214	  0.456	  0.156	  0.173	 -9.685	 -0.021	 -0.025	  0.001	 32.200	 98.753	 -0.267
32097	  0.196	 -0.210	  0.454	  0.179	  0.087	 -9.767	 -0.013	 -0.015	  0.001	 32.200	 98.753	 -0.267
32147	  0.196	 -0.214	  0.455	  0.219	  0.138	 -9.774	 -0.017	 -0.004	  0.003	 32.200	 98.742	  0.732
32197	  0.192	 -0.213	  0.454	  0.059	  0.184	 -9.809	  0.000	  0.004	 -0.015	 32.200	 98.753	 -0.267
32247	  0.196	 -0.215	  0.458	  0.248	  0.148	 -9.674	 -0.012	  0.004	 -0.036	 32.200	 98.757	 -0.631
32297	  0.194	 -0.216	  0.453	  0.034	  0.481	 -9.605	  0.025	  0.002	  0.013	 32.200	 98.757	 -0.631
32347	  0.193	 -0.211	  0.455	  0.110	  0.031	 -9.826	  0.120	  0.022	  0.006	 32.200	 98.742	  0.732
32397	  0.193	 -0.207	  0.454	  0.245	 -0.097	 -9.797	  0.040	  0.027	  0.011	 32.200	 98.768	 -1.630
32447	  0.195	 -0.215	  0.452	  0.174	 -0.235	 -9.893	 -0.035	  0.002	 -0.003	 32.200	 98.757	 -0.631
32497	  0.193	 -0.214	  0.456	  0.195	  0.191	 -9.698	 -0.078	 -0.009	 -0.001	 32.200	 98.757	 -0.631
32547	  0.194	 -0.210	  0.452	  0.261	  0.102	 -9.771	 -0.056	  0.003	 -0.001	 32.200	 98.757	 -0.631
32597	  0.193	 -0.213	  0.453	  0.128	  0.460	 -9.640	  0.015	  0.002	  0.003	 32.200	 98.757	 -0.631
32647	  0.191	 -0.208	  0.454	  2.206	 -2.511	 -9.534	  0.988	  0.066	 -0.079	 32.200	 98.746	  0.368
32697	  0.192	 -0.185	  0.461	  1.403	 -0.533	 -9.183	  0.558	  0.065	 -0.480	 32.200	 98.757	 -0.631
32747	  0.194	 -0.170	  0.459	  0.630	 -2.194	 -10.381	  0.085	 -0.092	 -0.071	 32.200	 98.753	 -0.267
32797	  0.197	 -0.182	  0.455	 -0.037	 -1.110	 -10.194	 -0.325	 -0.145	 -0.034	 32.200	 98.746	  0.368
32847	  0.200	 -0.193	  0.458	 -0.178	 -0.391	 -9.873	 -0.465	 -0.054	  0.287	 32.200	 98.742	  0.732
32897	  0.198	 -0.209	  0.456	  0.195	  0.777	 -8.758	 -0.440	  0.020	  0.247	 32.200	 98.757	 -0.631
32947	  0.198	 -0.201	  0.456	  0.180	  0.919	 -9.508	  0.032	  0.039	 -0.006	 32.200	 98.753	 -0.267
32997	  0.198	 -0.206	  0.455	  0.256	  0.043	 -9.704	  0.186	 -0.055	  0.010	 32.200	 98.742	  0.732
33047	  0.198	 -0.202	  0.455	  0.068	 -0.461	 -9.942	  0.149	 -0.058	  0.007	 32.200	 98.753	 -0.267
33097	  0.198	 -0.204	  0.452	 -0.068	 -0.564	 -9.991	 -0.026	 -0.001	  0.021	 32.200	 98.742	  0.732
33147	  0.197	 -0.208	  0.455	  0.224	 -0.947	 -10.013	 -0.276	  0.050	  0.019	 32.200	 98.753	 -0.267
33198	  0.195	 -0.216	  0.455	  0.225	  0.816	 -9.483	 -0.280	  0.036	  0.012	 32.200	 98.742	  0.732
33247	  0.195	 -0.220	  0.456	  0.114	  0.751	 -9.527	  0.119	  0.028	 -0.005	 32.200	 98.757	 -0.631
33298	  0.194	 -0.210	  0.456	  0.116	 -0.234	 -9.862	  0.215	  0.093	  0.001	 32.200	 98.757	 -0.631
33347	  0.194	 -0.203	  0.455	  0.453	 -0.744	 -9.951	 -0.007	  0.072	  0.002	 32.200	 98.753	 -0.267
33398	  0.193	 -0.211	  0.454	  0.469	 -0.206	 -9.754	 -0.204	 -0.006	  0.004	 32.200	 98.757	 -0.631
33448	  0.193	 -0.207	  0.455	  0.259	  0.410	 -9.624	 -0.158	 -0.055	  0.004	 32.200	 98.757	 -0.631
33497	  0.195	 -0.215	  0.455	  0.070	  0.640	 -9.619	  0.037	 -0.021	  0.010	 32.200	 98.753	 -0.267
33548	  0.192	 -0.214	  0.454	 -0.003	  0.223	 -9.792	  0.190	  0.058	  0.011	 32.200	 98.757	 -0.631
33598	  0.193	 -0.206	  0.458	  0.311	 -0.411	 -9.916	  0.100	  0.062	  0.008	 32.200	 98.757	 -0.631
33648	  0.194	 -0.209	  0.452	  0.382	 -0.368	 -9.848	 -0.101	 -0.017	 -0.000	 32.200	 98.742	  0.732
33698	  0.193	 -0.210	  0.455	  0.180	  0.126	 -9.768	 -0.154	 -0.063	 -0.001	 32.200	 98.757	 -0.631
33748	  0.193	 -0.211	  0.454	  0.079	  0.410	 -9.670	 -0.054	 -0.024	 -0.006	 32.200	 98.742	  0.732
33798	  0.194	 -0.217	  0.452	  0.116	  0.266	 -9.707	  0.074	  0.037	  0.001	 32.200	 98.753	 -0.267
33848	  0.193	 -0.212	  0.454	  0.309	 -0.093	 -9.767	  0.091	  0.064	  0.006	 32.200	 98.742	  0.732
33898	  0.192	 -0.212	  0.458	  0.423	 -0.282	 -9.803	 -0.007	  0.015	  0.007	 32.200	 98.764	 -1.267
33948	  0.193	 -0.211	  0.457	  0.304	 -0.050	 -9.783	 -0.101	 -0.050	  0.005	 32.200	 98.753	 -0.267
33998	  0.192	 -0.212	  0.455	  0.066	  0.323	 -9.734	 -0.072	 -0.047	  0.005	 32.200	 98.757	 -0.631
34048	  0.197	 -0.213	  0.453	 -0.007	  0.385	 -9.723	  0.041	  0.018	  0.004	 32.200	 98.753	 -0.267
34098	  0.194	 -0.210	  0.449	  0.155	  0.057	 -9.751	  0.098	  0.063	  0.002	 32.200	 98.757	 -0.631
34148	  0.193	 -0.204	  0.457	  0.379	 -0.261	 -9.830	  0.026	  0.032	 -0.000	 32.200	 98.742	  0.732
34198	  0.193	 -0.211	  0.452	  0.404	 -0.175	 -9.799	 -0.083	 -0.034	 -0.001	 32.200	 98.764	 -1.267
34248	  0.193	 -0.215	  0.457	  0.223	  0.162	 -9.760	 -0.091	 -0.058	  0.003	 32.200	 98.757	 -0.631
34298	  0.194	 -0.213	  0.452	  0.037	  0.371	 -9.674	  0.009	 -0.006	  0.009	 32.200	 98.753	 -0.267
34348	  0.193	 -0.214	  0.455	  0.109	  0.168	 -9.781	  0.090	  0.057	  0.009	 32.200	 98.753	 -0.267
34398	  0.191	 -0.208	  0.457	  0.294	 -0.132	 -9.833	  0.052	  0.055	  0.006	 32.200	 98.753	 -0.267
34448	  0.191	 -0.212	  0.458	  0.374	 -0.184	 -9.808	 -0.056	 -0.014	  0.004	 32.200	 98.746	  0.368
34498	  0.192	 -0.212	  0.456	  0.248	  0.119	 -9.734	 -0.097	 -0.062	 -0.001	 32.200	 98.753	 -0.267
34548	  0.194	 -0.208	  0.457	  0.091	  0.258	 -9.692	 -0.028	 -0.026	  0.003	 32.200	 98.742	  0.732
34598	  0.196	 -0.211	  0.458	  0.068	  0.049	 -9.746	 -0.005	  0.028	  0.002	 32.200	 98.746	  0.368
34648	  0.192	 -0.211	  0.450	  0.428	  0.003	 -9.735	  0.046	  0.063	  0.003	 32.200	 98.746	  0.368
34698	  0.192	 -0.216	  0.458	  0.132	  0.164	 -9.749	  0.042	  0.019	  0.020	 32.200	 98.757	 -0.631
34748	  0.189	 -0.211	  0.455	  0.270	  0.140	 -9.770	  0.059	  0.028	  0.013	 32.200	 98.753	 -0.267
34798	  0.193	 -0.208	  0.458	  0.243	 -0.319	 -9.947	 -0.021	 -0.043	 -0.001	 32.200	 98.757	 -0.631
34848	  0.191	 -0.212	  0.449	 -0.008	  0.113	 -9.830	 -0.131	  0.006	 -0.011	 32.200	 98.746	  0.368
34898	  0.191	 -0.214	  0.453	 -0.010	  0.587	 -9.621	  0.051	 -0.058	 -0.004	 32.200	 98.764	 -1.267
34948	  0.191	 -0.212	  0.455	  0.157	 -0.267	 -9.894	  0.076	  0.122	  0.003	 32.200	 98.757	 -0.631
34998	  0.192	 -0.209	  0.457	  0.490	 -0.006	 -9.708	 -0.013	  0.035	 -0.005	 32.200	 98.746	  0.368
35048	  0.195	 -0.204	  0.455	  1.036	  0.012	 -9.457	  0.079	 -0.187	 -0.205	 32.200	 98.757	 -0.631
35098	  0.201	 -0.207	  0.454	 -0.727	 -0.198	 -10.178	 -0.011	 -0.119	 -0.213	 32.200	 98.757	 -0.631
35148	  0.204	 -0.207	  0.451	 -0.201	  0.021	 -9.912	 -0.126	 -0.032	  0.001	 32.200	 98.746	  0.368
35198	  0.203	 -0.209	  0.454	 -0.145	  0.341	 -9.734	 -0.072	  0.044	 -0.003	 32.200	 98.742	  0.732
35248	  0.200	 -0.219	  0.459	  0.071	  0.202	 -9.754	  0.031	  0.127	  0.002	 32.200	 98.753	 -0.267
35298	  0.194	 -0.215	  0.453	  0.385	  0.062	 -9.709	  0.068	  0.103	  0.003	 32.200	 98.757	 -0.631
35348	  0.196	 -0.216	  0.462	  0.430	 -0.232	 -9.781	  0.029	  0.054	  0.005	 32.200	 98.753	 -0.267
35398	  0.197	 -0.216	  0.454	  0.358	 -0.129	 -9.719	 -0.070	 -0.008	  0.009	 32.200	 98.746	  0.368
35448	  0.198	 -0.223	  0.458	  0.168	  0.054	 -9.815	 -0.106	  0.000	  0.003	 32.200	 98.753	 -0.267
35498	  0.198	 -0.219	  0.456	  0.210	  0.353	 -9.662	 -0.074	  0.044	  0.007	 32.200	 98.742	  0.732
35548	  0.191	 -0.225	  0.453	  0.323	  0.480	 -9.626	  0.058	  0.016	  0.004	 32.200	 98.753	 -0.267
35597	  0.192	 -0.218	  0.456	  0.510	  0.003	 -9.786	  0.107	 -0.038	  0.005	 32.200	 98.746	  0.368
35647	  0.193	 -0.223	  0.454	  0.290	 -0.235	 -9.822	  0.024	 -0.120	  0.003	 32.200	 98.757	 -0.631
35698	  0.198	 -0.216	  0.451	 -0.128	 -0.136	 -9.955	 -0.093	 -0.049	 -0.001	 32.200	 98.764	 -1.267
35747	  0.196	 -0.214	  0.453	  0.040	  0.263	 -9.691	 -0.099	  0.078	  0.001	 32.200	 98.742	  0.732
35797	  0.193	 -0.223	  0.448	  0.358	  0.439	 -9.570	  0.025	  0.095	  0.006	 32.200	 98.753	 -0.267
35847	  0.191	 -0.217	  0.451	  0.519	  0.130	 -9.645	  0.110	 -0.002	  0.004	 32.200	 98.753	 -0.267
35897	  0.195	 -0.221	  0.454	  0.296	 -0.245	 -9.839	  0.053	 -0.091	  0.006	 32.200	 98.746	  0.368
35947	  0.198	 -0.214	  0.454	 -0.010	 -0.188	 -9.914	 -0.088	 -0.057	  0.003	 32.200	 98.753	 -0.267
35997	  0.197	 -0.222	  0.452	 -0.045	  0.204	 -9.858	 -0.115	  0.047	 -0.001	 32.200	 98.757	 -0.631
36047	  0.193	 -0.226	  0.454	  0.249	  0.440	 -9.668	 -0.002	  0.094	  0.002	 32.200	 98.757	 -0.631
36097	  0.192	 -0.222	  0.458	  0.492	  0.221	 -9.698	  0.109	  0.027	  0.004	 32.200	 98.746	  0.368
36148	  0.191	 -0.218	  0.452	  0.364	 -0.215	 -9.780	  0.080	 -0.066	  0.007	 32.200	 98.742	  0.732
36198	  0.197	 -0.206	  0.458	  0.091	 -0.279	 -9.955	 -0.065	 -0.071	  0.004	 32.200	 98.757	 -0.631
36248	  0.199	 -0.221	  0.451	 -0.019	  0.145	 -9.789	 -0.132	  0.020	  0.003	 32.200	 98.757	 -0.631
36298	  0.197	 -0.221	  0.449	  0.141	  0.449	 -9.718	 -0.033	  0.091	  0.005	 32.200	 98.746	  0.368
36348	  0.194	 -0.222	  0.456	  0.650	 -0.729	 -9.981	  0.052	  0.048	 -0.016	 32.200	 98.753	 -0.267
36398	  0.192	 -0.223	  0.452	  0.529	  0.374	 -9.666	 -0.361	  0.127	 -0.011	 32.200	 98.757	 -0.631
36448	  0.186	 -0.233	  0.454	  0.581	  1.060	 -9.539	 -0.019	  0.069	 -0.027	 32.200	 98.746	  0.368
36498	  0.189	 -0.223	  0.449	  0.904	  0.517	 -9.543	  0.206	 -0.036	 -0.199	 32.200	 98.757	 -0.631
36548	  0.194	 -0.215	  0.457	  0.741	  0.213	 -9.801	  0.371	 -0.223	 -0.328	 32.200	 98.735	  1.367
36598	  0.201	 -0.210	  0.455	 -0.507	 -1.033	 -10.631	  0.069	 -0.127	 -0.325	 32.200	 98.757	 -0.631
36648	  0.200	 -0.211	  0.459	 -0.381	 -0.192	 -10.117	 -0.231	  0.192	  0.048	 32.200	 98.753	 -0.267
36698	  0.195	 -0.214	  0.456	  0.553	  0.802	 -9.400	 -0.127	  0.240	  0.024	 32.200	 98.757	 -0.631
36748	  0.191	 -0.209	  0.463	  0.787	  0.221	 -9.700	  0.020	  0.070	  0.078	 32.200	 98.753	 -0.267
36798	  0.193	 -0.210	  0.456	  0.662	 -0.099	 -9.832	 -0.003	 -0.005	 -0.051	 32.200	 98.753	 -0.267
36848	  0.190	 -0.213	  0.458	  0.404	  0.204	 -9.729	  0.008	 -0.012	 -0.136	 32.200	 98.757	 -0.631
36898	  0.194	 -0.214	  0.462	  0.189	  0.253	 -9.771	 -0.015	  0.002	 -0.009	 32.200	 98.757	 -0.631
36948	  0.192	 -0.210	  0.461	  0.113	  0.314	 -9.844	  0.012	  0.093	  0.020	 32.200	 98.757	 -0.631
36998	  0.187	 -0.220	  0.463	  0.463	  0.108	 -9.705	  0.005	  0.222	  0.006	 32.200	 98.757	 -0.631
37048	  0.180	 -0.209	  0.454	  1.033	  0.023	 -9.651	 -0.037	  0.251	 -0.025	 32.200	 98.753	 -0.267
37098	  0.176	 -0.210	  0.463	  1.089	  0.266	 -9.872	 -0.032	  0.123	  0.061	 32.200	 98.753	 -0.267
37148	  0.174	 -0.212	  0.467	  1.238	  0.358	 -9.657	 -0.011	 -0.048	  0.002	 32.200	 98.753	 -0.267
37198	  0.173	 -0.215	  0.471	  0.693	 -0.006	 -10.352	 -0.028	  0.034	  0.040	 32.200	 98.753	 -0.267
37248	  0.174	 -0.215	  0.472	  0.790	  0.247	 -10.246	 -0.019	 -0.216	  0.138	 32.200	 98.753	 -0.267
37298	  0.174	 -0.219	  0.472	  0.618	 -0.043	 -10.174	 -0.093	 -0.231	  0.149	 32.200	 98.753	 -0.267
37348	  0.175	 -0.222	  0.472	  0.065	  0.101	 -10.061	 -0.160	 -0.175	  0.228	 32.200	 98.753	 -0.267
37398	  0.167	 -0.228	  0.471	  0.512	  0.340	 -9.878	 -0.098	  0.084	  0.213	 32.200	 98.757	 -0.631
37447	  0.153	 -0.229	  0.477	  0.979	  0.048	 -9.702	 -0.000	  0.255	  0.124	 32.200	 98.757	 -0.631
37497	  0.143	 -0.230	  0.481	  1.166	  0.164	 -9.942	 -0.029	 -0.014	  0.252	 32.200	 98.746	  0.368
37547	  0.139	 -0.232	  0.484	  0.894	 -0.002	 -9.574	  0.045	 -0.231	  0.262	 32.200	 98.746	  0.368
37597	  0.137	 -0.220	  0.484	  0.385	  0.145	 -9.616	 -0.061	 -0.336	  0.323	 32.200	 98.757	 -0.631
37647	  0.137	 -0.228	  0.490	  0.232	  0.012	 -9.656	 -0.034	 -0.146	  0.408	 32.200	 98.757	 -0.631
37697	  0.129	 -0.239	  0.495	  0.394	  0.227	 -9.745	  0.053	 -0.095	  0.406	 32.200	 98.757	 -0.631
37748	  0.124	 -0.233	  0.497	  0.810	 -0.235	 -9.658	  0.090	 -0.145	  0.462	 32.200	 98.746	  0.368
37797	  0.120	 -0.236	  0.506	  0.224	 -0.112	 -9.924	 -0.053	 -0.270	  0.567	 32.200	 98.757	 -0.631
37847	  0.114	 -0.243	  0.522	  0.295	  0.017	 -9.742	 -0.099	 -0.202	  0.600	 32.200	 98.746	  0.368
37897	  0.110	 -0.244	  0.530	  0.074	 -0.068	 -9.838	 -0.086	 -0.103	  0.505	 32.200	 98.746	  0.368
37947	  0.101	 -0.246	  0.544	  0.325	  0.023	 -9.655	 -0.051	 -0.064	  0.526	 32.200	 98.742	  0.732
37997	  0.087	 -0.250	  0.558	  0.147	 -0.099	 -9.918	 -0.090	 -0.017	  0.475	 32.200	 98.730	  1.821
38047	  0.071	 -0.253	  0.576	  0.493	  0.108	 -9.629	 -0.214	 -0.027	  0.414	 32.200	 98.742	  0.732
38097	  0.060	 -0.261	  0.595	  0.102	  0.304	 -9.475	 -0.037	 -0.127	  0.363	 32.200	 98.757	 -0.631
38147	  0.046	 -0.250	  0.612	 -0.188	  0.215	 -9.677	  0.021	 -0.148	  0.476	 32.200	 98.757	 -0.631
38197	  0.030	 -0.244	  0.636	 -0.398	  0.092	 -9.812	  0.058	 -0.017	  0.579	 32.200	 98.757	 -0.631
38247	  0.008	 -0.229	  0.653	 -0.163	  0.075	 -9.662	  0.043	  0.020	  0.677	 32.200	 98.757	 -0.631
38297	 -0.016	 -0.223	  0.671	  0.057	 -0.001	 -9.661	  0.090	  0.038	  0.730	 32.200	 98.757	 -0.631
38347	 -0.044	 -0.209	  0.692	 -0.151	  0.141	 -9.903	  0.139	  0.129	  0.687	 32.200	 98.742	  0.732
38397	 -0.071	 -0.182	  0.713	  0.328	 -0.074	 -9.859	  0.159	  0.227	  0.580	 32.200	 98.757	 -0.631
38447	 -0.106	 -0.152	  0.715	  0.513	 -0.206	 -9.649	  0.188	  0.078	  0.508	 32.200	 98.746	  0.368
38497	 -0.131	 -0.120	  0.722	  0.059	 -0.228	 -9.638	  0.096	 -0.162	  0.611	 32.200	 98.746	  0.368
38547	 -0.149	 -0.087	  0.721	 -0.264	 -0.325	 -9.631	 -0.001	 -0.031	  0.665	 32.200	 98.746	  0.368
38597	 -0.174	 -0.049	  0.716	 -0.119	 -0.308	 -9.581	  0.039	  0.002	  0.743	 32.200	 98.735	  1.367
38647	 -0.191	 -0.020	  0.716	  0.054	 -0.552	 -9.420	  0.026	 -0.006	  0.810	 32.200	 98.757	 -0.631
38697	 -0.204	  0.036	  0.701	  0.206	 -0.642	 -9.529	  0.091	  0.024	  0.867	 32.200	 98.757	 -0.631
38747	 -0.214	  0.063	  0.687	 -0.021	 -0.698	 -9.490	  0.082	  0.163	  0.958	 32.200	 98.757	 -0.631
38797	 -0.220	  0.108	  0.659	  0.718	 -0.708	 -9.224	  0.062	  0.023	  0.993	 32.200	 98.757	 -0.631
38847	 -0.210	  0.148	  0.635	  0.381	 -0.452	 -9.288	  0.139	 -0.270	  1.052	 32.200	 98.746	  0.368
38897	 -0.191	  0.184	  0.600	 -0.125	 -1.033	 -10.142	 -0.062	 -0.121	  1.010	 32.200	 98.757	 -0.631
38947	 -0.176	  0.209	  0.575	 -0.138	 -0.243	 -10.041	 -0.106	 -0.015	  0.983	 32.200	 98.742	  0.732
38997	 -0.148	  0.228	  0.537	 -0.185	 -0.050	 -10.467	  0.040	  0.054	  0.900	 32.200	 98.757	 -0.631
39048	 -0.127	  0.252	  0.501	 -0.291	  0.064	 -10.518	  0.069	  0.147	  0.972	 32.200	 98.757	 -0.631
39098	 -0.101	  0.248	  0.480	  0.043	 -0.085	 -10.250	  0.111	  0.136	  1.056	 32.200	 98.757	 -0.631
39148	 -0.072	  0.254	  0.444	 -0.384	 -0.252	 -10.217	  0.099	  0.042	  1.136	 32.200	 98.753	 -0.267
39198	 -0.046	  0.249	  0.425	 -0.466	 -0.342	 -9.793	 -0.038	  0.156	  1.255	 32.200	 98.757	 -0.631
39248	 -0.020	  0.238	  0.403	 -0.259	 -0.098	 -9.258	 -0.037	  0.213	  1.253	 32.200	 98.757	 -0.631
39298	  0.002	  0.228	  0.390	 -0.250	 -0.239	 -9.194	 -0.000	  0.115	  1.296	 32.200	 98.746	  0.368
39348	  0.027	  0.215	  0.374	  0.069	 -0.331	 -8.777	 -0.074	 -0.026	  1.130	 32.200	 98.746	  0.368
39398	  0.047	  0.205	  0.364	 -0.433	 -0.102	 -9.098	 -0.126	 -0.102	  0.982	 32.200	 98.757	 -0.631
39448	  0.068	  0.190	  0.354	 -0.466	 -0.164	 -9.352	 -0.057	 -0.082	  0.814	 32.200	 98.764	 -1.267
39498	  0.080	  0.181	  0.347	 -0.951	  0.111	 -9.830	 -0.096	 -0.150	  0.702	 32.200	 98.757	 -0.631
39548	  0.092	  0.161	  0.340	 -0.607	  0.137	 -10.241	 -0.054	 -0.017	  0.546	 32.200	 98.746	  0.368
39598	  0.098	  0.153	  0.331	 -0.964	  0.161	 -10.337	  0.004	 -0.021	  0.478	 32.200	 98.757	 -0.631
39648	  0.101	  0.139	  0.327	 -0.110	 -0.055	 -10.515	 -0.036	  0.278	  0.495	 32.200	 98.757	 -0.631
39698	  0.101	  0.124	  0.322	  0.279	  0.230	 -9.926	 -0.031	  0.144	  0.452	 32.200	 98.757	 -0.631
39748	  0.102	  0.130	  0.321	  0.340	 -0.189	 -10.496	 -0.008	  0.137	  0.386	 32.200	 98.757	 -0.631
39798	  0.101	  0.120	  0.316	  0.313	  0.220	 -9.803	 -0.098	  0.082	  0.447	 32.200	 98.746	  0.368
39848	  0.102	  0.104	  0.315	 -0.347	  0.111	 -9.415	  0.004	  0.236	  0.683	 32.200	 98.753	 -0.267
39898	  0.098	  0.100	  0.313	 -0.358	  0.086	 -8.744	  0.029	  0.208	  0.359	 32.200	 98.746	  0.368
39948	  0.096	  0.086	  0.306	  0.357	 -0.414	 -8.664	  0.004	  0.226	  0.288	 32.200	 98.757	 -0.631
39998	  0.093	  0.074	  0.310	 -0.020	 -0.194	 -8.460	 -0.090	 -0.004	  0.056	 32.200	 98.753	 -0.267
40048	  0.093	  0.074	  0.299	 -0.371	 -0.235	 -8.984	  0.054	 -0.277	  0.139	 32.200	 98.757	 -0.631
40098	  0.093	  0.073	  0.302	 -0.190	 -0.045	 -10.593	  0.058	 -0.077	  0.032	 32.200	 98.757	 -0.631
40148	  0.096	  0.072	  0.294	  0.118	  0.134	 -10.677	  0.116	 -0.259	  0.014	 32.200	 98.746	  0.368
40198	  0.096	  0.069	  0.292	  0.147	 -0.080	 -11.458	  0.097	 -0.193	 -0.188	 32.200	 98.757	 -0.631
40248	  0.087	  0.069	  0.291	  0.241	  0.628	 -11.716	  0.040	  0.461	 -0.406	 32.200	 98.757	 -0.631
40298	  0.076	  0.069	  0.292	  1.291	  0.834	 -9.701	  0.203	  0.010	 -0.391	 32.200	 98.746	  0.368
40348	  0.076	  0.080	  0.286	  0.442	  0.224	 -10.846	  0.170	 -0.042	 -0.407	 32.200	 98.757	 -0.631
40398	  0.067	  0.076	  0.291	  0.079	  0.652	 -10.066	  0.094	  0.258	 -0.336	 32.200	 98.757	 -0.631
40448	  0.059	  0.074	  0.285	  0.806	  0.352	 -8.849	  0.004	  0.295	 -0.329	 32.200	 98.757	 -0.631
40498	  0.050	  0.074	  0.282	  0.277	  0.789	 -8.021	  0.042	  0.161	 -0.451	 32.200	 98.746	  0.368
40548	  0.047	  0.073	  0.288	  0.138	  0.298	 -8.022	  0.078	  0.017	 -0.178	 32.200	 98.753	 -0.267
40598	  0.042	  0.077	  0.281	 -0.231	  0.502	 -8.354	  0.015	  0.034	 -0.110	 32.200	 98.746	  0.368
40648	  0.039	  0.068	  0.285	 -0.088	  0.452	 -8.986	  0.021	  0.094	 -0.053	 32.200	 98.746	  0.368
40698	  0.038	  0.068	  0.281	  0.202	  0.033	 -9.340	  0.026	  0.017	 -0.120	 32.200	 98.757	 -0.631
40748	  0.039	  0.062	  0.279	  0.340	  0.345	 -10.609	  0.064	 -0.045	  0.071	 32.200	 98.757	 -0.631
40798	  0.041	  0.062	  0.278	  0.854	 -1.307	 -12.944	 -0.091	  0.039	  0.288	 32.200	 98.768	 -1.630
40848	  0.038	  0.042	  0.277	  1.512	  0.205	 -10.940	 -0.374	  0.269	  0.413	 32.200	 98.753	 -0.267
40898	  0.036	  0.031	  0.278	  1.738	 -0.751	 -11.044	 -0.139	 -0.198	  0.399	 32.200	 98.746	  0.368
40948	  0.035	  0.022	  0.281	  1.359	 -0.633	 -11.253	 -0.230	  0.222	  0.175	 32.200	 98.746	  0.368
40998	  0.022	  0.017	  0.285	  2.303	 -0.431	 -8.748	 -0.191	  0.476	  0.199	 32.200	 98.746	  0.368
41048	  0.011	  0.011	  0.287	  2.069	 -0.263	 -6.725	 -0.049	 -0.053	 -0.110	 32.200	 98.757	 -0.631
41098	  0.009	  0.002	  0.290	  0.588	 -0.140	 -7.165	 -0.048	 -0.288	 -0.057	 32.200	 98.735	  1.367
41148	  0.007	 -0.000	  0.288	  0.007	 -0.718	 -8.697	 -0.058	 -0.172	 -0.288	 32.200	 98.746	  0.368
41198	  0.002	  0.001	  0.300	  0.179	 -0.571	 -9.042	 -0.151	 -0.202	 -0.387	 32.200	 98.757	 -0.631
41248	 -0.010	 -0.002	  0.306	  0.140	 -0.342	 -10.740	  0.078	 -0.083	 -0.377	 32.200	 98.757	 -0.631
41298	 -0.013	 -0.011	  0.315	  0.227	 -0.065	 -11.477	  0.063	 -0.102	 -0.173	 32.200	 98.757	 -0.631
41348	 -0.014	 -0.002	  0.311	  1.640	 -0.479	 -11.301	  0.269	 -0.637	 -0.279	 32.200	 98.746	  0.368
41398	 -0.012	  0.001	  0.326	  0.530	 -0.430	 -12.075	  0.127	  0.222	 -0.213	 32.200	 98.746	  0.368
41448	 -0.011	  0.004	  0.329	  1.583	  0.836	 -9.426	  0.279	 -0.663	 -0.171	 32.200	 98.746	  0.368
41498	  0.004	  0.012	  0.330	  1.251	 -0.222	 -11.271	  0.010	 -0.898	  0.142	 32.200	 98.746	  0.368
41548	  0.020	  0.002	  0.331	  0.858	 -0.172	 -9.678	 -0.591	 -0.865	  0.367	 32.200	 98.757	 -0.631
41598	  0.032	 -0.012	  0.332	 -0.352	  0.856	 -7.772	 -0.647	 -0.546	  0.141	 32.200	 98.746	  0.368
41648	  0.028	 -0.004	  0.338	 -2.162	  0.723	 -7.480	 -0.108	  0.717	 -0.232	 32.200	 98.753	 -0.267
41698	  0.006	 -0.010	  0.337	  0.607	  0.083	 -6.916	 -0.044	  0.525	 -0.085	 32.200	 98.746	  0.368
41748	  0.002	 -0.003	  0.342	 -1.305	  1.676	 -8.197	  0.063	 -0.106	 -0.144	 32.200	 98.746	  0.368
41798	 -0.003	 -0.001	  0.338	 -1.116	 -0.530	 -9.834	  0.262	 -0.096	  0.194	 32.200	 98.757	 -0.631
41848	 -0.009	  0.005	  0.338	 -1.815	  0.839	 -10.466	  0.363	  0.006	  0.141	 32.200	 98.757	 -0.631
41898	 -0.011	  0.029	  0.343	  0.033	 -0.147	 -11.689	  0.064	 -0.021	  1.086	 32.200	 98.746	  0.368
41948	 -0.005	  0.026	  0.346	  0.220	 -0.213	 -12.963	 -0.122	 -0.403	  0.781	 32.200	 98.757	 -0.631
41998	  0.003	  0.031	  0.350	 -1.483	  0.661	 -11.141	  0.203	  0.114	  0.533	 32.200	 98.757	 -0.631
42048	  0.005	  0.046	  0.353	  1.311	 -0.805	 -11.114	  0.405	  0.115	  0.438	 32.200	 98.757	 -0.631
42098	  0.016	  0.060	  0.356	  0.932	 -0.495	 -10.961	  0.295	 -0.027	  0.712	 32.200	 98.757	 -0.631
42148	  0.025	  0.065	  0.360	  0.433	 -0.835	 -8.144	  0.060	  0.378	  0.628	 32.200	 98.757	 -0.631
42198	  0.030	  0.077	  0.355	 -0.614	  0.249	 -7.026	  0.072	  0.427	  0.666	 32.200	 98.746	  0.368
42248	  0.028	  0.070	  0.359	  0.377	 -0.949	 -6.417	 -0.178	  0.499	 -0.097	 32.200	 98.746	  0.368
42298	  0.023	  0.067	  0.360	 -0.898	 -0.061	 -7.702	 -0.212	  0.147	  0.048	 32.200	 98.746	  0.368
42348	  0.030	  0.064	  0.355	 -0.917	 -0.650	 -9.600	 -0.439	 -0.050	 -0.004	 32.200	 98.746	  0.368
42398	  0.033	  0.050	  0.356	  0.004	 -0.534	 -10.770	 -0.216	  0.220	 -0.067	 32.200	 98.757	 -0.631
42448	  0.036	  0.047	  0.351	 -0.934	  2.141	 -11.175	 -0.217	 -0.364	 -0.264	 32.200	 98.735	  1.367
42498	  0.038	  0.043	  0.352	 -0.026	  1.130	 -12.308	  0.010	  0.293	 -0.021	 32.200	 98.746	  0.368
42548	  0.030	  0.047	  0.343	  2.343	  0.390	 -10.791	  0.323	  0.287	 -0.152	 32.200	 98.746	  0.368
42598	  0.030	  0.044	  0.349	  1.018	  0.790	 -11.116	  0.138	  0.043	 -0.431	 32.200	 98.746	  0.368
42648	  0.022	  0.049	  0.342	  0.922	  1.032	 -10.688	  0.286	  0.335	 -0.270	 32.200	 98.746	  0.368
42698	  0.015	  0.051	  0.337	  1.490	  0.316	 -8.889	  0.109	  0.141	 -0.121	 32.200	 98.757	 -0.631
42748	  0.013	  0.054	  0.339	  0.813	  0.215	 -7.941	  0.032	 -0.067	 -0.104	 32.200	 98.742	  0.732
42798	  0.013	  0.055	  0.336	  0.644	 -0.104	 -7.767	  0.035	 -0.049	 -0.252	 32.200	 98.746	  0.368
42848	  0.011	  0.051	  0.325	  0.205	  0.440	 -8.111	 -0.049	 -0.114	 -0.197	 32.200	 98.757	 -0.631
42897	  0.012	  0.050	  0.332	  1.035	  0.231	 -8.162	  0.042	 -0.164	 -0.188	 32.200	 98.757	 -0.631
42948	  0.016	  0.053	  0.331	  0.331	  0.117	 -9.504	  0.116	 -0.348	 -0.038	 32.200	 98.757	 -0.631
42997	  0.018	  0.048	  0.325	  0.687	 -0.296	 -10.867	 -0.015	 -0.100	  0.015	 32.200	 98.768	 -1.630
43047	  0.013	  0.054	  0.333	  0.812	  0.701	 -11.066	  0.009	  0.380	 -0.049	 32.200	 98.757	 -0.631
43097	  0.002	  0.062	  0.326	  2.151	 -0.417	 -10.275	  0.166	  0.242	 -0.041	 32.200	 98.757	 -0.631
43147	 -0.002	  0.056	  0.327	  2.228	 -0.792	 -11.229	  0.081	 -0.007	 -0.044	 32.200	 98.768	 -1.630
43197	 -0.007	  0.061	  0.325	  1.957	 -0.331	 -11.069	  0.062	  0.106	 -0.290	 32.200	 98.746	  0.368
43247	 -0.014	  0.058	  0.329	  1.716	 -0.568	 -9.778	 -0.007	  0.109	 -0.209	 32.200	 98.757	 -0.631
43297	 -0.019	  0.060	  0.336	  0.945	 -0.541	 -8.901	 -0.193	 -0.008	 -0.185	 32.200	 98.746	  0.368
43347	 -0.025	  0.045	  0.339	  1.125	  0.214	 -7.408	 -0.147	  0.048	 -0.395	 32.200	 98.757	 -0.631
43397	 -0.031	  0.047	  0.338	  1.047	  0.138	 -7.406	  0.256	 -0.070	 -0.612	 32.200	 98.757	 -0.631
43447	 -0.037	  0.053	  0.336	  0.822	 -0.446	 -7.683	  0.354	 -0.176	 -0.758	 32.200	 98.746	  0.368
43497	 -0.047	  0.062	  0.338	  1.292	 -0.634	 -8.750	  0.477	  0.131	 -0.787	 32.200	 98.746	  0.368
43547	 -0.065	  0.062	  0.337	  2.318	 -0.527	 -9.001	  0.414	  0.084	 -1.380	 32.200	 98.757	 -0.631
43597	 -0.082	  0.070	  0.345	  2.029	  0.034	 -9.208	  0.394	 -0.323	 -1.778	 32.200	 98.757	 -0.631
43647	 -0.096	  0.055	  0.339	  1.140	  0.406	 -11.879	  0.338	 -0.045	 -1.648	 32.200	 98.757	 -0.631
43697	 -0.120	  0.047	  0.340	  2.930	  0.326	 -10.041	  0.168	 -0.333	 -1.676	 32.200	 98.746	  0.368
43747	 -0.129	  0.043	  0.347	  0.127	  0.913	 -10.908	  0.301	 -0.008	 -1.537	 32.200	 98.746	  0.368
43797	 -0.149	  0.036	  0.346	  0.745	 -0.995	 -22.159	 -0.317	  0.404	 -1.103	 32.200	 98.746	  0.368
43847	 -0.164	  0.017	  0.353	  9.146	 -1.680	 -24.379	 -0.616	  0.045	 -0.967	 32.200	 98.757	 -0.631
43897	 -0.132	 -0.002	  0.382	  2.532	  1.503	 -11.525	 -1.118	 -1.439	 -1.157	 32.200	 98.750	  0.005
43947	 -0.092	 -0.020	  0.399	 -1.200	 -1.640	  8.398	 -0.562	 -1.582	 -0.907	 32.200	 98.750	  0.005
43997	 -0.073	 -0.034	  0.409	 -6.344	  0.131	 24.355	 -0.098	  0.949	 -0.743	 32.200	 98.735	  1.367
44047	 -0.134	 -0.031	  0.398	 -0.706	  1.283	 -3.606	  0.325	  2.067	 -0.268	 32.200	 98.746	  0.368
44097	 -0.201	 -0.067	  0.380	 25.114	  2.981	 -53.855	 -0.952	  2.516	 -1.503	 32.200	 98.757	 -0.631
44147	 -0.168	 -0.064	  0.394	  3.551	 -0.405	 -16.732	 -0.031	 -4.174	  0.242	 32.200	 98.757	 -0.631
44197	 -0.105	 -0.038	  0.410	 -9.526	 -1.233	 23.277	  0.540	 -0.403	  0.342	 32.200	 98.746	  0.368
44247	 -0.139	 -0.041	  0.408	 -4.840	  0.280	  7.308	 -0.149	  2.212	 -0.225	 32.200	 98.746	  0.368
44297	 -0.205	 -0.070	  0.387	 18.613	  4.844	 -55.493	 -0.378	  2.349	 -0.564	 32.200	 98.746	  0.368
44347	 -0.167	 -0.057	  0.402	  2.534	  1.284	 -14.831	 -0.052	 -4.109	  0.772	 32.200	 98.757	 -0.631
44397	 -0.098	 -0.037	  0.419	 -8.939	 -1.091	 27.051	  0.118	 -0.377	  0.592	 32.200	 98.746	  0.368
44447	 -0.146	 -0.049	  0.415	 -1.573	 -0.246	  1.310	 -0.019	  2.532	 -0.041	 32.200	 98.735	  1.367
44497	 -0.213	 -0.064	  0.391	 20.505	  2.043	 -55.965	  0.428	  1.570	 -0.463	 32.200	 98.757	 -0.631
44547	 -0.140	 -0.051	  0.417	 -3.133	  1.957	 -1.847	 -0.321	 -3.136	  1.058	 32.200	 98.746	  0.368
44597	 -0.124	 -0.040	  0.420	 -6.707	 -2.232	 28.008	  0.264	  1.747	 -0.116	 32.200	 98.746	  0.368
44647	 -0.189	 -0.048	  0.406	  8.752	 -0.120	 -29.566	  0.208	  1.823	 -0.785	 32.200	 98.757	 -0.631
44697	 -0.219	 -0.063	  0.394	 10.647	  0.375	 -31.156	 -0.193	 -1.220	  0.379	 32.200	 98.757	 -0.631
44747	 -0.150	 -0.046	  0.424	 -5.342	 -2.132	 -10.962	 -0.280	 -1.424	  1.004	 32.200	 98.746	  0.368
44797	 -0.099	 -0.041	  0.440	 -3.522	 -2.486	 -3.015	 -0.459	 -1.059	  0.239	 32.200	 98.757	 -0.631
44848	 -0.051	 -0.045	  0.459	 -4.029	 -0.685	 -2.939	 -0.389	 -1.304	 -0.498	 32.200	 98.746	  0.368
44897	 -0.004	 -0.040	  0.475	 -2.797	 -0.109	 -5.590	  0.042	 -0.572	  0.185	 32.200	 98.746	  0.368
44948	  0.041	 -0.039	  0.490	 -0.071	  0.414	 -4.389	 -0.481	 -1.181	 -0.840	 32.200	 98.750	  0.005
44997	  0.100	 -0.030	  0.507	 -2.668	  2.903	 -7.497	  0.492	 -0.208	  0.322	 32.200	 98.746	  0.368
45048	  0.125	 -0.005	  0.534	  3.354	  0.815	 -8.744	  0.323	  0.816	 -0.333	 32.200	 98.746	  0.368
45098	  0.126	  0.017	  0.567	  1.833	  3.404	 -8.134	  0.224	  0.647	 -0.053	 32.200	 98.746	  0.368
45148	  0.141	  0.020	  0.598	  1.902	  0.262	 -9.900	 -0.633	 -0.581	 -1.458	 32.200	 98.746	  0.368
45198	  0.171	  0.014	  0.614	 -0.119	  5.282	 -10.005	  0.072	 -0.664	 -0.904	 32.200	 98.757	 -0.631
45248	  0.174	  0.027	  0.636	  0.647	  1.249	 -9.929	 -0.093	  0.397	 -0.795	 32.200	 98.757	 -0.631
45298	  0.177	  0.034	  0.649	  0.902	  2.588	 -9.102	  0.019	 -0.655	 -0.854	 32.200	 98.757	 -0.631
45348	  0.199	  0.034	  0.654	 -1.450	  1.498	 -10.589	 -0.185	 -0.584	 -0.856	 32.200	 98.746	  0.368
45398	  0.207	  0.038	  0.659	 -1.058	  2.078	 -7.598	  0.515	 -0.037	 -0.645	 32.200	 98.757	 -0.631
45448	  0.203	  0.065	  0.660	 -0.913	 -0.325	 -9.600	  1.038	  0.226	 -0.357	 32.200	 98.746	  0.368
45498	  0.183	  0.078	  0.668	 -3.824	  0.844	 -11.944	 -0.141	  0.950	 -0.786	 32.200	 98.757	 -0.631
45548	  0.143	  0.068	  0.693	 -0.677	  0.111	 -11.273	 -0.381	  1.197	 -0.164	 32.200	 98.761	 -0.995
45598	  0.103	  0.052	  0.703	  1.217	  0.860	 -9.970	 -0.214	  0.752	 -0.521	 32.200	 98.750	  0.005
45648	  0.085	  0.047	  0.715	 -0.243	 -0.878	 -10.199	 -0.288	  0.410	 -0.676	 32.200	 98.757	 -0.631
45698	  0.068	  0.023	  0.726	 -0.848	  0.573	 -10.213	 -0.497	  0.360	 -0.557	 32.200	 98.757	 -0.631
45748	  0.065	  0.004	  0.734	  0.042	  1.567	 -8.587	 -0.141	  0.121	 -0.184	 32.200	 98.746	  0.368
45798	  0.065	  0.014	  0.738	  0.071	  0.432	 -9.580	  0.471	  0.071	 -0.396	 32.200	 98.746	  0.368
45848	  0.065	  0.023	  0.745	 -1.358	 -0.320	 -11.745	  0.205	  0.336	 -0.031	 32.200	 98.746	  0.368
45898	  0.049	  0.021	  0.746	  0.953	  0.176	 -9.321	 -0.086	  0.331	 -0.062	 32.200	 98.746	  0.368
45948	  0.051	  0.021	  0.751	  0.225	  0.909	 -8.991	  0.187	 -0.001	 -0.052	 32.200	 98.746	  0.368
45998	  0.059	  0.027	  0.756	  0.148	  0.241	 -10.204	  0.214	 -0.084	 -0.138	 32.200	 98.753	 -0.267
46048	  0.065	  0.025	  0.757	 -0.041	 -0.531	 -10.320	 -0.112	  0.184	  0.057	 32.200	 98.757	 -0.631
46098	  0.064	  0.027	  0.756	  0.935	  1.067	 -9.249	  0.016	  0.028	 -0.097	 32.200	 98.757	 -0.631
46148	  0.064	  0.025	  0.758	  0.158	 -0.213	 -10.103	  0.047	 -0.027	 -0.040	 32.200	 98.746	  0.368
46198	  0.066	  0.025	  0.760	 -0.103	 -0.011	 -9.911	 -0.058	  0.022	 -0.017	 32.200	 98.757	 -0.631
46248	  0.062	  0.024	  0.758	  0.267	  0.186	 -9.831	 -0.114	 -0.039	  0.151	 32.200	 98.742	  0.732
46298	  0.066	  0.021	  0.758	  0.294	  0.854	 -9.397	  0.030	  0.042	 -0.026	 32.200	 98.757	 -0.631
46348	  0.061	  0.031	  0.750	  0.131	  0.169	 -9.964	  0.330	 -0.016	 -0.088	 32.200	 98.746	  0.368
46398	  0.063	  0.038	  0.758	 -0.191	 -0.543	 -10.173	  0.157	  0.007	 -0.133	 32.200	 98.746	  0.368
46448	  0.060	  0.034	  0.757	  0.037	 -0.419	 -9.983	 -0.214	  0.016	  0.034	 32.200	 98.746	  0.368
46498	  0.064	  0.028	  0.762	  0.351	  0.383	 -9.721	 -0.257	 -0.037	  0.227	 32.200	 98.735	  1.367
46548	  0.065	  0.021	  0.761	  0.396	  0.549	 -9.569	 -0.077	 -0.019	  0.083	 32.200	 98.746	  0.368
46598	  0.062	  0.025	  0.757	  0.415	  0.380	 -9.618	  0.117	  0.004	 -0.040	 32.200	 98.746	  0.368
46648	  0.064	  0.029	  0.756	  0.255	  0.117	 -9.773	  0.158	  0.008	 -0.097	 32.200	 98.746	  0.368
46698	  0.064	  0.035	  0.753	  0.221	 -0.223	 -9.931	  0.044	  0.004	 -0.027	 32.200	 98.735	  1.367
46748	  0.062	  0.033	  0.755	  0.298	 -0.033	 -9.825	 -0.089	  0.010	  0.011	 32.200	 98.746	  0.368
46798	  0.061	  0.030	  0.754	  0.365	  0.299	 -9.657	 -0.056	 -0.000	  0.035	 32.200	 98.746	  0.368
46848	  0.063	  0.033	  0.758	  0.334	  0.284	 -9.689	  0.032	  0.002	  0.005	 32.200	 98.757	 -0.631
46898	  0.062	  0.037	  0.757	  0.348	 -0.077	 -9.813	  0.026	  0.004	  0.003	 32.200	 98.757	 -0.631
46948	  0.063	  0.028	  0.757	  0.327	  0.018	 -9.817	 -0.037	  0.005	  0.004	 32.200	 98.735	  1.367
46998	  0.061	  0.030	  0.756	  0.356	  0.197	 -9.728	 -0.009	  0.004	  0.002	 32.200	 98.761	 -0.995
47048	  0.062	  0.028	  0.762	  0.336	  0.067	 -9.757	  0.018	 -0.000	  0.002	 32.200	 98.746	  0.368
47098	  0.062	  0.036	  0.756	  0.319	  0.027	 -9.826	 -0.012	  0.003	  0.004	 32.200	 98.746	  0.368
47148	  0.062	  0.031	  0.757	  0.335	  0.170	 -9.693	 -0.015	  0.003	  0.004	 32.200	 98.746	  0.368
47198	  0.063	  0.031	  0.755	  0.316	  0.101	 -9.766	  0.006	  0.003	  0.002	 32.200	 98.746	  0.368
47248	  0.063	  0.030	  0.748	  0.317	  0.062	 -9.764	 -0.005	  0.004	  0.002	 32.200	 98.768	 -1.630
47298	  0.064	  0.027	  0.760	  0.279	  0.144	 -9.719	 -0.010	  0.004	  0.004	 32.200	 98.746	  0.368
47348	  0.064	  0.032	  0.748	  0.269	  0.121	 -9.739	  0.000	  0.004	  0.002	 32.200	 98.746	  0.368
47398	  0.064	  0.027	  0.757	  0.330	  0.081	 -9.761	 -0.004	  0.003	  0.006	 32.200	 98.746	  0.368
47448	  0.059	  0.032	  0.755	  0.345	  0.080	 -9.749	 -0.007	  0.004	  0.004	 32.200	 98.757	 -0.631
47498	  0.064	  0.030	  0.756	  0.337	  0.090	 -9.747	 -0.002	  0.002	  0.005	 32.200	 98.757	 -0.631
47548	  0.063	  0.029	  0.759	  0.347	  0.085	 -9.787	 -0.004	  0.003	  0.002	 32.200	 98.746	  0.368
47598	  0.063	  0.030	  0.755	  0.325	  0.117	 -9.785	 -0.005	  0.003	  0.004	 32.200	 98.757	 -0.631
47648	  0.063	  0.027	  0.754	  0.287	  0.118	 -9.779	 -0.005	  0.003	  0.004	 32.200	 98.757	 -0.631
47698	  0.061	  0.033	  0.760	  0.298	  0.077	 -9.727	 -0.003	  0.002	  0.003	 32.200	 98.757	 -0.631
47748	  0.063	  0.037	  0.758	  0.312	  0.136	 -9.748	 -0.005	  0.004	  0.004	 32.200	 98.768	 -1.630
47798	  0.064	  0.033	  0.757	  0.330	  0.116	 -9.771	 -0.004	  0.003	  0.004	 32.200	 98.746	  0.368
47848	  0.065	  0.031	  0.756	  0.367	  0.046	 -9.869	 -0.004	  0.000	 -0.003	 32.200	 98.746	  0.368
47898	  0.065	  0.032	  0.753	  0.298	  0.142	 -9.731	 -0.003	  0.003	  0.004	 32.200	 98.757	 -0.631
47948	  0.061	  0.028	  0.756	  0.277	  0.118	 -9.769	 -0.003	  0.002	  0.002	 32.200	 98.746	  0.368
47998	  0.061	  0.033	  0.757	  0.270	  0.094	 -9.830	 -0.004	  0.004	  0.005	 32.200	 98.746	  0.368
48048	  0.063	  0.028	  0.758	  0.316	  0.079	 -9.808	 -0.005	  0.003	  0.005	 32.200	 98.757	 -0.631
48098	  0.062	  0.032	  0.755	  0.364	  0.070	 -9.726	 -0.003	  0.003	  0.005	 32.200	 98.757	 -0.631
48148	  0.065	  0.032	  0.758	  0.358	  0.090	 -9.764	 -0.003	  0.002	  0.003	 32.200	 98.746	  0.368
48198	  0.062	  0.026	  0.755	  0.319	  0.109	 -9.737	 -0.005	  0.003	  0.002	 32.200	 98.757	 -0.631
48248	  0.063	  0.028	  0.755	  0.306	  0.102	 -9.798	 -0.004	  0.003	  0.006	 32.200	 98.746	  0.368
48298	  0.062	  0.027	  0.756	  0.240	  0.167	 -9.648	  0.007	 -0.001	 -0.004	 32.200	 98.735	  1.367
48348	  0.065	  0.031	  0.754	  0.399	  0.119	 -9.565	  0.042	  0.003	 -0.009	 32.200	 98.746	  0.368
48398	  0.063	  0.030	  0.751	  0.288	  0.140	 -9.735	  0.075	  0.009	 -0.037	 32.200	 98.768	 -1.630
48448	  0.063	  0.036	  0.755	  0.210	  0.015	 -9.808	  0.104	  0.015	 -0.046	 32.200	 98.757	 -0.631
48498	  0.063	  0.041	  0.750	  0.306	 -0.106	 -9.801	  0.110	  0.005	 -0.062	 32.200	 98.746	  0.368
48548	  0.064	  0.040	  0.749	  0.156	  0.223	 -9.739	 -0.030	  0.011	  0.009	 32.200	 98.757	 -0.631
48598	  0.062	  0.034	  0.755	  0.220	  0.057	 -9.802	  0.020	  0.003	  0.005	 32.200	 98.746	  0.368
48648	  0.061	  0.046	  0.751	  0.346	 -0.226	 -9.814	 -0.021	  0.009	  0.006	 32.200	 98.746	  0.368
48698	  0.064	  0.046	  0.752	  0.249	 -0.374	 -9.881	 -0.054	  0.045	 -0.013	 32.200	 98.746	  0.368
48748	  0.061	  0.040	  0.749	  0.416	 -0.093	 -9.746	 -0.124	  0.010	  0.008	 32.200	 98.746	  0.368
48798	  0.063	  0.049	  0.755	  0.395	  0.166	 -9.605	 -0.050	  0.003	  0.045	 32.200	 98.746	  0.368
48848	  0.063	  0.036	  0.755	  0.214	  0.495	 -9.508	  0.090	 -0.033	  0.013	 32.200	 98.757	 -0.631
48898	  0.064	  0.043	  0.751	  0.200	 -0.353	 -10.053	  0.118	  0.019	 -0.019	 32.200	 98.746	  0.368
48948	  0.063	  0.040	  0.751	  0.149	 -0.220	 -10.026	 -0.098	  0.014	  0.008	 32.200	 98.746	  0.368
48998	  0.064	  0.037	  0.755	  0.139	 -0.032	 -9.824	 -0.188	  0.088	  0.012	 32.200	 98.746	  0.368
49048	  0.061	  0.035	  0.754	  0.391	  0.567	 -10.174	 -0.119	  0.052	  0.034	 32.200	 98.746	  0.368
49098	  0.059	  0.033	  0.752	  0.426	 -0.001	 -10.662	  0.026	 -0.002	  0.012	 32.200	 98.746	  0.368
49148	  0.059	  0.041	  0.752	  0.250	 -0.297	 -10.347	 -0.030	 -0.002	 -0.001	 32.200	 98.746	  0.368
49198	  0.062	  0.029	  0.750	  0.062	 -0.090	 -10.147	 -0.015	 -0.024	  0.385	 32.200	 98.753	 -0.267
49248	  0.062	  0.029	  0.750	  0.776	 -0.011	 -10.011	 -0.240	  0.097	  0.134	 32.200	 98.768	 -1.630
49298	  0.058	  0.024	  0.750	  0.607	  0.862	 -9.138	 -0.176	  0.004	  0.049	 32.200	 98.757	 -0.631
49348	  0.061	  0.016	  0.756	  0.653	  0.833	 -9.563	  0.092	 -0.046	  0.063	 32.200	 98.757	 -0.631
49398	  0.066	  0.027	  0.745	  0.310	  0.353	 -9.525	  0.256	 -0.072	  0.007	 32.200	 98.757	 -0.631
49448	  0.068	  0.045	  0.749	  0.474	 -0.785	 -10.049	  0.075	  0.039	 -0.070	 32.200	 98.746	  0.368
49498	  0.065	  0.031	  0.747	  0.242	 -0.051	 -9.195	 -0.102	 -0.001	 -0.030	 32.200	 98.753	 -0.267
49548	  0.065	  0.034	  0.741	  0.239	  0.427	 -9.540	  0.031	 -0.006	 -0.003	 32.200	 98.746	  0.368
49598	  0.068	  0.029	  0.747	  0.313	  0.486	 -9.362	 -0.022	  0.071	 -0.227	 32.200	 98.746	  0.368
49648	  0.066	  0.033	  0.744	  0.319	  0.214	 -9.621	  0.169	 -0.074	 -0.008	 32.200	 98.746	  0.368
49698	  0.063	  0.041	  0.747	  0.078	  0.091	 -9.716	  0.132	 -0.011	 -0.121	 32.200	 98.746	  0.368
49748	  0.068	  0.043	  0.748	  0.194	 -0.412	 -9.951	 -0.008	  0.005	  0.000	 32.200	 98.746	  0.368
49797	  0.068	  0.037	  0.748	  0.343	  0.058	 -9.690	 -0.084	  0.010	  0.001	 32.200	 98.757	 -0.631
49847	  0.063	  0.039	  0.750	  0.322	  0.103	 -9.613	 -0.012	  0.005	  0.005	 32.200	 98.757	 -0.631
49897	  0.067	  0.049	  0.750	  0.514	 -0.038	 -9.812	 -0.023	  0.003	 -0.013	 32.200	 98.757	 -0.631
49948	  0.062	  0.039	  0.744	  0.318	  0.030	 -9.775	 -0.024	  0.003	 -0.005	 32.200	 98.768	 -1.630
49998	  0.064	  0.043	  0.750	  0.467	  0.092	 -9.719	 -0.030	  0.024	 -0.009	 32.200	 98.746	  0.368
50047	  0.065	  0.051	  0.752	  0.524	  0.155	 -9.544	  0.023	  0.018	  0.003	 32.200	 98.746	  0.368
50097	  0.064	  0.039	  0.748	  0.452	 -0.280	 -9.891	 -0.011	  0.003	 -0.013	 32.200	 98.746	  0.368
50147	  0.066	  0.036	  0.749	  0.220	  0.112	 -9.759	 -0.026	  0.011	  0.002	 32.200	 98.746	  0.368
50197	  0.065	  0.034	  0.750	  0.211	  0.035	 -9.934	 -0.004	  0.013	  0.002	 32.200	 98.746	  0.368
50248	  0.065	  0.033	  0.750	  0.270	  0.045	 -9.675	 -0.017	  0.006	  0.006	 32.200	 98.757	 -0.631
