Time	 MagX	 MagY	 MagZ	 AccelX	 AccelY	 AccelZ	 Yaw	 Pitch	 Roll	 Temperature	 Pressure	 Altitude
3252	 -0.967	  0.655	  1.548	  0.075	 -0.075	 -9.851	 -0.002	  0.003	  0.002	 32.600	 99.164	 -99999.000
3302	 -0.965	  0.641	  1.549	  0.094	 -0.043	 -9.828	 -0.003	  0.002	  0.002	 32.700	 99.168	 -99999.000
3351	 -0.970	  0.642	  1.548	  0.072	 -0.066	 -9.864	 -0.003	  0.002	  0.000	 32.600	 99.152	 -99999.000
3401	 -0.964	  0.641	  1.548	  0.095	 -0.059	 -9.804	 -0.004	  0.004	  0.002	 32.600	 99.152	 -99999.000
3451	 -0.967	  0.640	  1.548	  0.088	 -0.037	 -9.894	 -0.004	  0.002	  0.001	 32.600	 99.152	 -99999.000
3501	 -0.968	  0.640	  1.547	  0.117	 -0.047	 -9.840	 -0.003	  0.002	  0.001	 32.600	 99.152	 -99999.000
3551	 -0.967	  0.640	  1.547	  0.091	 -0.037	 -9.843	 -0.004	  0.002	 -0.001	 32.600	 99.152	 -99999.000
3601	 -0.965	  0.640	  1.547	  0.082	 -0.012	 -9.841	 -0.003	  0.003	 -0.000	 32.600	 99.164	 -99999.000
3651	 -0.967	  0.637	  1.547	  0.098	 -0.037	 -9.866	 -0.004	  0.002	 -0.000	 32.600	 99.152	 -99999.000
3701	 -0.966	  0.654	  1.548	  0.097	 -0.046	 -9.829	 -0.004	  0.002	  0.002	 32.600	 99.164	 -99999.000
3751	 -0.968	  0.642	  1.547	  0.080	 -0.063	 -9.850	 -0.004	  0.002	  0.001	 32.600	 99.152	 -99999.000
3801	 -0.969	  0.641	  1.547	  0.102	 -0.062	 -9.872	 -0.005	  0.003	  0.003	 32.700	 99.152	 -99999.000
3851	 -0.967	  0.643	  1.549	  0.072	 -0.028	 -9.847	 -0.004	 -0.000	 -0.000	 32.600	 99.152	 -99999.000
3901	 -0.967	  0.640	  1.549	  0.058	 -0.061	 -9.826	 -0.003	  0.003	  0.001	 32.600	 99.164	 -99999.000
3951	 -0.968	  0.638	  1.545	  0.117	 -0.065	 -9.831	 -0.004	  0.002	  0.001	 32.600	 99.152	 -99999.000
4001	 -0.968	  0.638	  1.548	  0.073	 -0.045	 -9.864	 -0.004	  0.003	  0.000	 32.600	 99.164	 -99999.000
4051	 -0.969	  0.640	  1.546	  0.071	 -0.015	 -9.852	 -0.004	  0.001	  0.000	 32.600	 99.152	 -99999.000
4101	 -0.971	  0.640	  1.548	  0.089	 -0.062	 -9.827	 -0.003	  0.001	  0.003	 32.600	 99.152	 -99999.000
4151	 -0.966	  0.644	  1.545	  0.081	 -0.053	 -9.834	 -0.004	  0.003	  0.002	 32.600	 99.152	 -99999.000
4201	 -0.966	  0.640	  1.545	  0.092	 -0.063	 -9.833	 -0.003	  0.002	 -0.000	 32.600	 99.164	 -99999.000
4251	 -0.969	  0.651	  1.542	  0.100	 -0.036	 -9.834	 -0.004	  0.001	  0.003	 32.600	 99.152	 -99999.000
4302	 -0.969	  0.643	  1.546	  0.101	 -0.072	 -9.883	 -0.004	  0.003	  0.001	 32.600	 99.141	 -99999.000
4351	 -0.971	  0.639	  1.549	  0.088	 -0.063	 -9.842	 -0.005	  0.002	  0.001	 32.600	 99.152	 -99999.000
4401	 -0.968	  0.643	  1.546	  0.089	 -0.053	 -9.854	 -0.004	  0.000	  0.001	 32.600	 99.148	 -99999.000
4451	 -0.970	  0.640	  1.544	  0.107	 -0.067	 -9.829	 -0.004	  0.001	  0.000	 32.600	 99.152	 -99999.000
4501	 -0.969	  0.640	  1.547	  0.076	 -0.030	 -9.850	 -0.004	  0.004	  0.001	 32.600	 99.152	 -99999.000
4551	 -0.970	  0.636	  1.548	  0.098	 -0.042	 -9.825	 -0.003	  0.002	  0.000	 32.700	 99.164	 -99999.000
4601	 -0.969	  0.641	  1.546	  0.077	 -0.078	 -9.853	 -0.004	  0.002	  0.000	 32.600	 99.152	 -99999.000
4651	 -0.969	  0.637	  1.543	  0.109	 -0.076	 -9.851	 -0.003	  0.000	  0.002	 32.600	 99.152	 -99999.000
4701	 -0.969	  0.637	  1.549	  0.076	 -0.034	 -9.813	 -0.005	  0.001	  0.002	 32.600	 99.141	 -99999.000
4752	 -0.968	  0.637	  1.547	  0.090	 -0.029	 -9.832	 -0.003	  0.004	  0.001	 32.600	 99.152	 -99999.000
4801	 -0.967	  0.640	  1.549	  0.094	 -0.070	 -9.850	 -0.004	  0.002	  0.002	 32.600	 99.164	 -99999.000
4851	 -0.969	  0.640	  1.545	  0.093	 -0.030	 -9.795	 -0.003	  0.002	  0.001	 32.600	 99.152	 -99999.000
4901	 -0.969	  0.637	  1.548	  0.077	 -0.055	 -9.856	 -0.004	  0.001	  0.002	 32.600	 99.152	 -99999.000
4951	 -0.972	  0.639	  1.547	  0.085	 -0.055	 -9.864	 -0.003	  0.001	  0.001	 32.600	 99.159	 -99999.000
5001	 -0.967	  0.638	  1.545	  0.080	 -0.028	 -9.829	 -0.004	  0.002	  0.002	 32.600	 99.148	 -99999.000
5051	 -0.966	  0.645	  1.542	  0.108	 -0.062	 -9.827	 -0.003	  0.002	  0.002	 32.600	 99.152	 -99999.000
5102	 -0.967	  0.638	  1.546	  0.056	 -0.065	 -9.818	 -0.005	  0.002	  0.001	 32.600	 99.152	 -99999.000
5153	 -0.968	  0.637	  1.546	  0.100	 -0.023	 -9.868	 -0.004	  0.002	  0.001	 32.600	 99.152	 -99999.000
5203	 -0.970	  0.640	  1.544	  0.094	 -0.073	 -9.856	 -0.004	  0.002	  0.001	 32.600	 99.152	 -99999.000
5253	 -0.971	  0.635	  1.546	  0.094	 -0.052	 -9.841	 -0.004	 -0.000	  0.001	 32.600	 99.148	 -99999.000
5303	 -0.969	  0.639	  1.547	  0.067	 -0.034	 -9.813	 -0.004	  0.003	  0.001	 32.600	 99.152	 -99999.000
5352	 -0.968	  0.636	  1.548	  0.070	 -0.047	 -9.834	 -0.003	  0.002	 -0.000	 32.600	 99.164	 -99999.000
5403	 -0.969	  0.640	  1.541	  0.088	 -0.069	 -9.816	 -0.004	  0.002	 -0.000	 32.600	 99.152	 -99999.000
5452	 -0.966	  0.641	  1.547	  0.102	 -0.027	 -9.859	 -0.005	  0.002	  0.001	 32.600	 99.152	 -99999.000
5502	 -0.968	  0.637	  1.547	  0.088	 -0.058	 -9.834	 -0.003	  0.002	  0.000	 32.600	 99.152	 -99999.000
5552	 -0.968	  0.642	  1.545	  0.079	 -0.056	 -9.861	 -0.003	  0.001	  0.000	 32.600	 99.164	 -99999.000
5602	 -0.967	  0.637	  1.549	  0.115	 -0.034	 -9.850	 -0.003	  0.002	  0.002	 32.700	 99.156	 -99999.000
5652	 -0.967	  0.637	  1.543	  0.085	 -0.051	 -9.817	 -0.004	  0.002	  0.002	 32.600	 99.164	 -99999.000
5702	 -0.968	  0.635	  1.546	  0.075	 -0.036	 -9.825	 -0.003	  0.002	  0.001	 32.600	 99.152	 -99999.000
5752	 -0.967	  0.634	  1.546	  0.077	 -0.080	 -9.832	 -0.003	  0.002	  0.000	 32.600	 99.164	 -99999.000
5802	 -0.967	  0.636	  1.546	  0.114	 -0.045	 -9.855	 -0.004	  0.004	  0.002	 32.700	 99.164	 -99999.000
5852	 -0.966	  0.637	  1.549	  0.086	 -0.046	 -9.859	 -0.004	  0.003	 -0.000	 32.600	 99.164	 -99999.000
5902	 -0.970	  0.644	  1.546	  0.073	 -0.063	 -9.844	 -0.004	  0.001	  0.001	 32.700	 99.152	 -99999.000
5952	 -0.968	  0.649	  1.539	  0.098	 -0.044	 -9.839	 -0.004	  0.002	 -0.000	 32.700	 99.156	 -99999.000
6002	 -0.967	  0.637	  1.547	  0.097	 -0.036	 -9.834	 -0.003	  0.001	  0.002	 32.700	 99.152	 -99999.000
6052	 -0.968	  0.637	  1.545	  0.074	 -0.068	 -9.854	 -0.003	  0.003	  0.002	 32.600	 99.152	 -99999.000
6102	 -0.966	  0.644	  1.546	  0.072	 -0.057	 -9.829	 -0.002	  0.002	  0.001	 32.700	 99.156	 -99999.000
6152	 -0.968	  0.637	  1.546	  0.087	 -0.059	 -9.835	 -0.003	  0.002	  0.001	 32.600	 99.164	 -99999.000
6202	 -0.966	  0.634	  1.548	  0.077	 -0.056	 -9.855	 -0.003	  0.003	  0.001	 32.700	 99.156	 -99999.000
6253	 -0.967	  0.637	  1.545	  0.089	 -0.040	 -9.813	 -0.004	  0.003	  0.000	 32.600	 99.152	 -99999.000
6302	 -0.967	  0.633	  1.549	  0.076	 -0.055	 -9.836	 -0.003	  0.002	  0.000	 32.700	 99.152	 -99999.000
6352	 -0.970	  0.637	  1.545	  0.122	 -0.031	 -9.811	 -0.004	  0.002	  0.000	 32.600	 99.152	 -99999.000
6402	 -0.968	  0.634	  1.540	  0.065	 -0.033	 -9.860	 -0.004	  0.003	  0.001	 32.700	 99.164	 -99999.000
6452	 -0.967	  0.638	  1.538	  0.070	 -0.042	 -9.822	 -0.003	  0.001	 -0.000	 32.600	 99.152	 -99999.000
6502	 -0.964	  0.636	  1.546	  0.105	 -0.039	 -9.816	 -0.002	  0.001	  0.001	 32.600	 99.152	 -99999.000
6552	 -0.970	  0.646	  1.539	  0.085	 -0.034	 -9.834	 -0.003	  0.002	  0.001	 32.600	 99.141	 -99999.000
6602	 -0.966	  0.641	  1.541	  0.075	 -0.069	 -9.837	 -0.003	  0.002	  0.002	 32.700	 99.168	 -99999.000
6652	 -0.964	  0.637	  1.546	  0.094	 -0.033	 -9.844	 -0.004	  0.002	  0.001	 32.600	 99.152	 -99999.000
6702	 -0.965	  0.638	  1.547	  0.091	 -0.043	 -9.826	 -0.004	  0.002	 -0.001	 32.600	 99.152	 -99999.000
6752	 -0.967	  0.634	  1.547	  0.099	 -0.039	 -9.831	 -0.003	  0.003	  0.001	 32.600	 99.164	 -99999.000
6802	 -0.966	  0.638	  1.546	  0.083	 -0.042	 -9.832	 -0.003	  0.003	 -0.000	 32.600	 99.152	 -99999.000
6852	 -0.968	  0.637	  1.547	  0.088	 -0.006	 -9.807	 -0.004	  0.002	  0.001	 32.600	 99.152	 -99999.000
6902	 -0.967	  0.637	  1.539	  0.066	 -0.061	 -9.821	 -0.004	  0.002	 -0.000	 32.700	 99.175	 -99999.000
6952	 -0.967	  0.636	  1.542	  0.109	 -0.048	 -9.855	 -0.004	  0.003	  0.001	 32.600	 99.152	 -99999.000
7002	 -0.966	  0.636	  1.540	  0.094	 -0.035	 -9.831	 -0.002	  0.002	  0.000	 32.700	 99.152	 -99999.000
7052	 -0.967	  0.638	  1.541	  0.086	 -0.034	 -9.845	 -0.004	  0.004	  0.001	 32.700	 99.156	 -99999.000
7102	 -0.966	  0.633	  1.547	  0.061	 -0.045	 -9.825	 -0.004	  0.002	 -0.001	 32.600	 99.141	 -99999.000
7152	 -0.967	  0.634	  1.548	  0.070	 -0.042	 -9.832	 -0.003	  0.002	  0.003	 32.600	 99.164	 -99999.000
7202	 -0.968	  0.637	  1.545	  0.073	 -0.041	 -9.840	 -0.004	  0.002	  0.001	 32.700	 99.156	 -99999.000
7252	 -0.966	  0.634	  1.552	  0.089	 -0.029	 -9.831	 -0.004	  0.002	 -0.000	 32.600	 99.164	 -99999.000
7302	 -0.968	  0.637	  1.538	  0.074	 -0.054	 -9.850	 -0.003	  0.002	  0.002	 32.600	 99.141	 -99999.000
7352	 -0.967	  0.632	  1.548	  0.073	 -0.072	 -9.867	 -0.005	  0.002	  0.002	 32.600	 99.152	 -99999.000
7402	 -0.967	  0.637	  1.545	  0.102	 -0.051	 -9.834	 -0.004	  0.002	 -0.000	 32.700	 99.152	 -99999.000
7452	 -0.967	  0.635	  1.549	  0.081	 -0.044	 -9.876	 -0.003	  0.003	  0.002	 32.600	 99.152	 -99999.000
7502	 -0.968	  0.637	  1.546	  0.073	 -0.060	 -9.821	 -0.003	  0.003	  0.000	 32.700	 99.168	 -99999.000
7552	 -0.967	  0.638	  1.542	  0.072	 -0.041	 -9.831	 -0.003	  0.001	  0.000	 32.700	 99.168	 -99999.000
7602	 -0.966	  0.635	  1.546	  0.057	 -0.024	 -9.856	 -0.003	  0.002	  0.001	 32.700	 99.156	 -99999.000
7652	 -0.967	  0.635	  1.545	  0.107	 -0.051	 -9.873	 -0.004	  0.003	  0.002	 32.600	 99.152	 -99999.000
7702	 -0.965	  0.637	  1.541	  0.061	 -0.043	 -9.823	 -0.004	  0.003	  0.001	 32.700	 99.156	 -99999.000
7752	 -0.968	  0.646	  1.539	  0.110	 -0.056	 -9.872	 -0.003	  0.001	 -0.001	 32.600	 99.152	 -99999.000
7802	 -0.966	  0.633	  1.540	  0.129	 -0.058	 -9.821	 -0.003	  0.001	  0.001	 32.600	 99.164	 -99999.000
7852	 -0.967	  0.640	  1.541	  0.090	 -0.051	 -9.838	 -0.003	  0.003	  0.001	 32.700	 99.156	 -99999.000
7902	 -0.967	  0.651	  1.543	  0.060	 -0.026	 -9.835	 -0.003	  0.001	  0.001	 32.700	 99.156	 -99999.000
7952	 -0.968	  0.637	  1.548	  0.057	 -0.064	 -9.816	 -0.004	  0.002	 -0.000	 32.700	 99.156	 -99999.000
8002	 -0.966	  0.641	  1.546	  0.076	 -0.062	 -9.815	 -0.003	  0.002	  0.001	 32.700	 99.168	 -99999.000
8052	 -0.968	  0.637	  1.545	  0.119	 -0.048	 -9.841	 -0.003	  0.001	  0.003	 32.700	 99.145	 -99999.000
8102	 -0.965	  0.641	  1.544	  0.081	 -0.025	 -9.885	 -0.003	  0.002	  0.001	 32.700	 99.156	 -99999.000
8152	 -0.968	  0.638	  1.547	  0.072	 -0.063	 -9.846	 -0.004	  0.002	  0.000	 32.700	 99.156	 -99999.000
8202	 -0.966	  0.638	  1.545	  0.094	 -0.037	 -9.849	 -0.004	  0.002	  0.001	 32.700	 99.156	 -99999.000
8252	 -0.967	  0.633	  1.546	  0.073	 -0.054	 -9.856	 -0.003	  0.002	  0.000	 32.600	 99.164	 -99999.000
8302	 -0.966	  0.635	  1.539	  0.098	 -0.068	 -9.846	 -0.004	  0.002	 -0.000	 32.600	 99.152	 -99999.000
8352	 -0.966	  0.636	  1.544	  0.096	 -0.045	 -9.837	 -0.003	  0.003	  0.000	 32.700	 99.156	 -99999.000
8402	 -0.969	  0.637	  1.548	  0.073	 -0.028	 -9.829	 -0.002	  0.002	  0.000	 32.600	 99.164	 -99999.000
8452	 -0.968	  0.637	  1.546	  0.093	 -0.032	 -9.849	 -0.005	  0.002	  0.001	 32.700	 99.156	 -99999.000
8502	 -0.966	  0.641	  1.544	  0.082	 -0.089	 -9.857	 -0.003	  0.002	  0.000	 32.700	 99.152	 -99999.000
8552	 -0.967	  0.634	  1.539	  0.079	 -0.052	 -9.830	 -0.004	  0.002	  0.003	 32.700	 99.156	 -99999.000
8602	 -0.966	  0.633	  1.551	  0.116	 -0.052	 -9.843	 -0.005	  0.004	  0.001	 32.700	 99.152	 -99999.000
8652	 -0.964	  0.636	  1.549	  0.096	 -0.070	 -9.833	 -0.004	  0.003	  0.001	 32.700	 99.156	 -99999.000
8702	 -0.968	  0.634	  1.544	  0.086	 -0.020	 -9.836	 -0.004	  0.002	  0.003	 32.700	 99.152	 -99999.000
8752	 -0.968	  0.636	  1.546	  0.064	 -0.094	 -9.821	 -0.004	  0.001	 -0.000	 32.700	 99.156	 -99999.000
8802	 -0.968	  0.637	  1.545	  0.118	 -0.025	 -9.834	 -0.002	  0.001	  0.003	 32.600	 99.164	 -99999.000
8852	 -0.965	  0.636	  1.539	  0.102	 -0.078	 -9.812	 -0.004	  0.001	 -0.000	 32.700	 99.156	 -99999.000
8902	 -0.969	  0.636	  1.546	  0.040	 -0.023	 -9.853	 -0.004	  0.003	  0.000	 32.700	 99.152	 -99999.000
8952	 -0.964	  0.634	  1.547	  0.099	 -0.100	 -9.823	 -0.003	  0.002	  0.001	 32.700	 99.156	 -99999.000
9002	 -0.969	  0.646	  1.539	  0.066	 -0.050	 -9.844	 -0.003	  0.002	  0.001	 32.700	 99.168	 -99999.000
9052	 -0.965	  0.636	  1.546	  0.058	 -0.072	 -9.881	 -0.004	  0.002	  0.002	 32.700	 99.145	 -99999.000
9102	 -0.967	  0.649	  1.549	  0.100	 -0.002	 -9.828	 -0.004	  0.002	  0.002	 32.700	 99.156	 -99999.000
9152	 -0.968	  0.644	  1.545	  0.093	 -0.083	 -9.815	 -0.004	  0.001	  0.002	 32.600	 99.152	 -99999.000
9201	 -0.966	  0.645	  1.548	  0.075	 -0.040	 -9.845	 -0.003	  0.003	  0.000	 32.700	 99.156	 -99999.000
11828	 -0.966	  0.640	  1.547	  0.084	 -0.107	 -9.891	 -0.005	  0.003	  0.000	 32.700	 99.156	 -0.021
11877	 -0.967	  0.638	  1.548	  0.060	 -0.038	 -9.856	 -0.003	  0.004	  0.001	 32.700	 99.156	 -0.021
11927	 -0.968	  0.637	  1.546	  0.074	 -0.058	 -9.843	 -0.003	  0.001	  0.002	 32.700	 99.156	 -0.021
11977	 -0.967	  0.635	  1.545	  0.061	 -0.036	 -9.824	 -0.004	  0.001	  0.001	 32.700	 99.168	 -1.101
12027	 -0.968	  0.642	  1.540	  0.104	 -0.056	 -9.863	 -0.003	  0.003	  0.001	 32.700	 99.156	 -0.021
12077	 -0.969	  0.641	  1.545	  0.101	 -0.041	 -9.847	 -0.004	  0.002	  0.000	 32.700	 99.145	  0.968
12127	 -0.968	  0.638	  1.546	  0.102	 -0.048	 -9.832	 -0.004	  0.001	  0.001	 32.700	 99.156	 -0.021
12177	 -0.966	  0.643	  1.544	  0.091	 -0.035	 -9.846	 -0.004	  0.003	  0.000	 32.700	 99.168	 -1.101
12227	 -0.970	  0.644	  1.545	  0.082	 -0.065	 -9.824	 -0.004	  0.002	 -0.000	 32.700	 99.156	 -0.021
12277	 -0.967	  0.644	  1.545	  0.094	 -0.045	 -9.826	 -0.004	  0.003	  0.001	 32.700	 99.152	  0.338
12327	 -0.966	  0.637	  1.546	  0.086	 -0.055	 -9.860	 -0.003	  0.003	  0.000	 32.700	 99.156	 -0.021
12377	 -0.967	  0.641	  1.541	  0.091	 -0.026	 -9.796	 -0.004	  0.001	  0.001	 32.700	 99.156	 -0.021
12427	 -0.969	  0.640	  1.547	  0.103	 -0.062	 -9.852	 -0.003	  0.002	  0.001	 32.700	 99.161	 -0.471
12477	 -0.970	  0.637	  1.543	  0.083	 -0.023	 -9.856	 -0.004	  0.003	  0.001	 32.700	 99.156	 -0.021
12527	 -0.970	  0.637	  1.547	  0.091	 -0.066	 -9.863	 -0.002	  0.002	 -0.000	 32.700	 99.145	  0.968
12577	 -0.967	  0.636	  1.547	  0.083	 -0.051	 -9.849	 -0.005	  0.002	  0.000	 32.700	 99.156	 -0.021
12627	 -0.967	  0.637	  1.547	  0.069	 -0.051	 -9.825	 -0.003	  0.002	  0.001	 32.700	 99.156	 -0.021
12677	 -0.968	  0.641	  1.548	  0.105	 -0.036	 -9.811	 -0.003	  0.003	  0.001	 32.700	 99.145	  0.968
12727	 -0.966	  0.633	  1.543	  0.085	 -0.066	 -9.823	 -0.004	  0.002	  0.001	 32.700	 99.145	  0.968
12777	 -0.969	  0.636	  1.540	  0.087	 -0.057	 -9.809	 -0.005	  0.002	  0.001	 32.700	 99.156	 -0.021
12827	 -0.968	  0.641	  1.545	  0.104	 -0.049	 -9.825	 -0.003	  0.001	  0.002	 32.700	 99.161	 -0.471
12877	 -0.970	  0.640	  1.536	  0.093	 -0.056	 -9.835	 -0.004	  0.002	  0.002	 32.700	 99.168	 -1.101
12927	 -0.969	  0.637	  1.544	  0.078	 -0.059	 -9.837	 -0.004	  0.002	  0.000	 32.700	 99.156	 -0.021
12977	 -0.969	  0.638	  1.546	  0.092	 -0.037	 -9.838	 -0.004	  0.003	  0.000	 32.700	 99.156	 -0.021
13027	 -0.967	  0.644	  1.546	  0.094	 -0.058	 -9.810	 -0.003	  0.002	  0.002	 32.700	 99.156	 -0.021
13077	 -0.968	  0.637	  1.545	  0.074	 -0.060	 -9.863	 -0.004	  0.003	  0.002	 32.700	 99.168	 -1.101
13127	 -0.970	  0.636	  1.548	  0.082	 -0.063	 -9.850	 -0.004	  0.001	  0.001	 32.700	 99.149	  0.608
13177	 -0.966	  0.641	  1.545	  0.081	 -0.058	 -9.873	 -0.003	  0.002	  0.000	 32.700	 99.161	 -0.471
13227	 -0.968	  0.650	  1.547	  0.095	 -0.043	 -9.823	 -0.003	  0.001	  0.001	 32.700	 99.161	 -0.471
13277	 -0.969	  0.641	  1.538	  0.094	 -0.040	 -9.867	 -0.004	  0.002	  0.000	 32.700	 99.161	 -0.471
13327	 -0.968	  0.637	  1.545	  0.087	 -0.053	 -9.785	 -0.004	  0.003	  0.001	 32.700	 99.156	 -0.021
13377	 -0.969	  0.641	  1.547	  0.081	 -0.049	 -9.837	 -0.003	  0.001	  0.000	 32.700	 99.161	 -0.471
13427	 -0.969	  0.638	  1.546	  0.088	 -0.022	 -9.808	 -0.003	  0.003	  0.001	 32.700	 99.161	 -0.471
13477	 -0.969	  0.641	  1.546	  0.094	 -0.046	 -9.831	 -0.002	  0.002	  0.003	 32.700	 99.156	 -0.021
13527	 -0.968	  0.652	  1.546	  0.076	 -0.061	 -9.849	 -0.004	  0.002	  0.001	 32.700	 99.156	 -0.021
13577	 -0.969	  0.639	  1.547	  0.102	 -0.049	 -9.849	 -0.002	  0.000	  0.001	 32.700	 99.156	 -0.021
13627	 -0.969	  0.639	  1.544	  0.071	 -0.060	 -9.842	 -0.004	  0.001	 -0.000	 32.700	 99.149	  0.608
13677	 -0.967	  0.637	  1.546	  0.085	 -0.054	 -9.835	 -0.003	  0.002	  0.000	 32.700	 99.156	 -0.021
13727	 -0.969	  0.637	  1.542	  0.086	 -0.030	 -9.852	 -0.005	  0.002	  0.001	 32.700	 99.161	 -0.471
13777	 -0.970	  0.637	  1.546	  0.083	 -0.053	 -9.829	 -0.003	  0.002	  0.001	 32.700	 99.161	 -0.471
13827	 -0.969	  0.650	  1.543	  0.084	 -0.051	 -9.829	 -0.004	  0.002	  0.002	 32.700	 99.145	  0.968
13877	 -0.970	  0.640	  1.546	  0.064	 -0.076	 -9.841	 -0.004	  0.001	  0.001	 32.700	 99.156	 -0.021
13927	 -0.970	  0.639	  1.545	  0.085	 -0.050	 -9.855	 -0.003	  0.002	  0.001	 32.700	 99.149	  0.608
13977	 -0.969	  0.638	  1.546	  0.074	 -0.029	 -9.819	 -0.004	  0.001	  0.001	 32.700	 99.161	 -0.471
14027	 -0.971	  0.637	  1.545	  0.089	 -0.042	 -9.831	 -0.004	  0.003	  0.000	 32.700	 99.168	 -1.101
14077	 -0.969	  0.637	  1.545	  0.090	 -0.029	 -9.826	 -0.003	  0.001	  0.001	 32.700	 99.161	 -0.471
14127	 -0.967	  0.637	  1.548	  0.071	 -0.081	 -9.856	 -0.004	  0.002	  0.001	 32.700	 99.161	 -0.471
14177	 -0.967	  0.641	  1.548	  0.083	 -0.046	 -9.822	 -0.004	  0.002	  0.001	 32.700	 99.161	 -0.471
14227	 -0.968	  0.641	  1.547	  0.068	 -0.058	 -9.823	 -0.003	  0.001	  0.001	 32.700	 99.156	 -0.021
14277	 -0.967	  0.644	  1.546	  0.078	 -0.053	 -9.792	 -0.004	  0.002	  0.001	 32.700	 99.161	 -0.471
14327	 -0.968	  0.637	  1.547	  0.087	 -0.037	 -9.847	 -0.006	 -0.002	 -0.000	 32.700	 99.168	 -1.101
14377	 -0.969	  0.635	  1.546	  0.081	 -0.034	 -9.804	 -0.005	  0.001	  0.001	 32.700	 99.156	 -0.021
14427	 -0.968	  0.638	  1.541	  0.086	 -0.041	 -9.840	 -0.004	  0.000	  0.001	 32.700	 99.156	 -0.021
14477	 -0.969	  0.636	  1.544	  0.092	 -0.052	 -9.847	 -0.004	  0.002	  0.002	 32.700	 99.156	 -0.021
14527	 -0.968	  0.637	  1.546	  0.068	 -0.053	 -9.851	 -0.003	  0.003	  0.002	 32.700	 99.161	 -0.471
14577	 -0.969	  0.636	  1.545	  0.089	 -0.058	 -9.829	 -0.003	  0.003	  0.001	 32.700	 99.156	 -0.021
14627	 -0.968	  0.637	  1.546	  0.094	 -0.060	 -9.842	 -0.004	  0.001	 -0.001	 32.700	 99.156	 -0.021
14677	 -0.967	  0.639	  1.548	  0.062	 -0.036	 -9.841	 -0.004	  0.002	  0.000	 32.700	 99.161	 -0.471
14727	 -0.967	  0.644	  1.547	  0.096	 -0.054	 -9.829	 -0.003	  0.002	  0.002	 32.700	 99.145	  0.968
14777	 -0.968	  0.635	  1.544	  0.090	 -0.037	 -9.814	 -0.004	  0.001	  0.002	 32.700	 99.161	 -0.471
14827	 -0.968	  0.637	  1.546	  0.094	 -0.031	 -9.820	 -0.004	  0.002	 -0.000	 32.700	 99.156	 -0.021
14878	 -0.969	  0.640	  1.546	  0.114	 -0.036	 -9.865	 -0.003	  0.002	  0.001	 32.700	 99.172	 -1.461
14927	 -0.967	  0.637	  1.547	  0.061	 -0.048	 -9.817	 -0.003	  0.002	  0.002	 32.700	 99.156	 -0.021
14977	 -0.968	  0.646	  1.542	  0.093	 -0.054	 -9.848	 -0.004	  0.002	  0.000	 32.700	 99.161	 -0.471
15027	 -0.967	  0.635	  1.543	  0.118	 -0.034	 -9.818	 -0.005	  0.002	  0.001	 32.700	 99.161	 -0.471
15077	 -0.970	  0.637	  1.548	  0.093	 -0.074	 -9.854	 -0.005	  0.003	  0.001	 32.700	 99.156	 -0.021
15127	 -0.968	  0.637	  1.545	  0.070	 -0.035	 -9.861	 -0.004	  0.002	  0.001	 32.700	 99.149	  0.608
15177	 -0.968	  0.640	  1.548	  0.081	 -0.046	 -9.844	 -0.003	  0.001	  0.001	 32.700	 99.149	  0.608
15228	 -0.969	  0.639	  1.546	  0.102	 -0.076	 -9.804	 -0.005	  0.001	  0.002	 32.700	 99.161	 -0.471
15277	 -0.971	  0.638	  1.547	  0.092	 -0.043	 -9.805	 -0.003	  0.002	  0.001	 32.700	 99.161	 -0.471
15327	 -0.969	  0.636	  1.540	  0.074	 -0.060	 -9.842	 -0.003	  0.002	  0.002	 32.700	 99.161	 -0.471
15378	 -0.970	  0.640	  1.547	  0.103	 -0.031	 -9.824	 -0.004	  0.001	  0.000	 32.700	 99.149	  0.608
15428	 -0.968	  0.640	  1.545	  0.101	 -0.034	 -9.838	 -0.004	  0.003	 -0.001	 32.700	 99.161	 -0.471
15478	 -0.970	  0.639	  1.546	  0.058	 -0.082	 -9.832	 -0.005	  0.001	  0.001	 32.700	 99.161	 -0.471
15528	 -0.970	  0.637	  1.539	  0.077	 -0.066	 -9.853	 -0.003	  0.003	  0.002	 32.700	 99.161	 -0.471
15578	 -0.967	  0.637	  1.539	  0.094	 -0.046	 -9.799	 -0.003	  0.002	  0.001	 32.700	 99.149	  0.608
15628	 -0.969	  0.638	  1.549	  0.048	 -0.037	 -9.846	 -0.005	  0.003	  0.000	 32.700	 99.168	 -1.101
15678	 -0.968	  0.636	  1.546	  0.064	 -0.042	 -9.828	 -0.003	  0.002	  0.001	 32.700	 99.149	  0.608
15728	 -0.970	  0.636	  1.537	  0.074	 -0.032	 -9.848	 -0.004	  0.001	  0.001	 32.700	 99.161	 -0.471
15778	 -0.967	  0.645	  1.540	  0.087	 -0.066	 -9.845	 -0.003	  0.001	  0.001	 32.700	 99.161	 -0.471
15828	 -0.969	  0.638	  1.548	  0.086	 -0.076	 -9.839	 -0.004	  0.002	 -0.001	 32.700	 99.161	 -0.471
15878	 -0.971	  0.636	  1.548	  0.114	 -0.044	 -9.836	 -0.004	  0.002	  0.001	 32.700	 99.161	 -0.471
15928	 -0.971	  0.640	  1.542	  0.084	 -0.035	 -9.863	 -0.003	  0.002	  0.000	 32.700	 99.161	 -0.471
15978	 -0.969	  0.638	  1.545	  0.088	 -0.039	 -9.842	 -0.004	  0.001	  0.000	 32.700	 99.149	  0.608
16028	 -0.968	  0.635	  1.544	  0.086	 -0.073	 -9.872	 -0.004	  0.003	  0.000	 32.700	 99.145	  0.968
16078	 -0.969	  0.647	  1.539	  0.092	 -0.032	 -9.854	 -0.004	  0.003	  0.001	 32.700	 99.161	 -0.471
16128	 -0.968	  0.637	  1.549	  0.082	 -0.033	 -9.838	 -0.003	  0.003	  0.000	 32.700	 99.149	  0.608
16178	 -0.967	  0.639	  1.548	  0.091	 -0.033	 -9.851	 -0.004	  0.003	  0.001	 32.700	 99.161	 -0.471
16228	 -0.971	  0.635	  1.541	  0.096	 -0.052	 -9.844	 -0.004	  0.002	  0.002	 32.700	 99.161	 -0.471
16278	 -0.966	  0.634	  1.546	  0.081	 -0.046	 -9.857	 -0.004	  0.002	  0.002	 32.700	 99.156	 -0.021
16328	 -0.968	  0.642	  1.547	  0.069	 -0.031	 -9.851	 -0.005	  0.004	  0.001	 32.700	 99.161	 -0.471
16378	 -0.970	  0.640	  1.538	  0.058	 -0.031	 -9.819	 -0.004	  0.003	  0.001	 32.700	 99.149	  0.608
16428	 -0.968	  0.642	  1.540	  0.088	 -0.071	 -9.843	 -0.002	  0.001	  0.001	 32.700	 99.161	 -0.471
16478	 -0.967	  0.637	  1.544	  0.091	 -0.077	 -9.851	 -0.003	  0.001	  0.001	 32.700	 99.161	 -0.471
16528	 -0.971	  0.636	  1.543	  0.062	 -0.041	 -9.878	 -0.004	  0.002	  0.002	 32.700	 99.149	  0.608
16578	 -0.969	  0.638	  1.547	  0.089	 -0.062	 -9.862	 -0.004	  0.003	  0.001	 32.700	 99.161	 -0.471
16628	 -0.967	  0.637	  1.543	  0.084	 -0.053	 -9.852	 -0.003	  0.003	  0.002	 32.700	 99.149	  0.608
16678	 -0.969	  0.639	  1.545	  0.088	 -0.050	 -9.853	 -0.003	  0.002	  0.001	 32.700	 99.156	 -0.021
16728	 -0.967	  0.638	  1.545	  0.073	 -0.053	 -9.881	 -0.004	  0.002	  0.002	 32.700	 99.153	  0.248
16778	 -0.969	  0.636	  1.546	  0.070	 -0.065	 -9.830	 -0.004	  0.003	  0.001	 32.700	 99.156	 -0.021
16828	 -0.968	  0.639	  1.543	  0.125	 -0.033	 -9.815	 -0.004	  0.001	  0.000	 32.700	 99.156	 -0.021
16878	 -0.969	  0.638	  1.547	  0.089	 -0.048	 -9.866	 -0.004	  0.002	 -0.000	 32.700	 99.149	  0.608
16928	 -0.969	  0.641	  1.548	  0.074	 -0.035	 -9.822	 -0.004	  0.002	  0.002	 32.700	 99.149	  0.608
16978	 -0.971	  0.638	  1.545	  0.064	 -0.063	 -9.852	 -0.004	  0.003	  0.001	 32.700	 99.149	  0.608
17028	 -0.970	  0.640	  1.545	  0.090	 -0.043	 -9.837	 -0.003	  0.000	 -0.000	 32.700	 99.149	  0.608
17078	 -0.968	  0.637	  1.547	  0.058	 -0.039	 -9.856	 -0.003	  0.001	  0.001	 32.700	 99.161	 -0.471
17128	 -0.971	  0.635	  1.542	  0.081	 -0.061	 -9.830	 -0.003	  0.002	  0.001	 32.700	 99.161	 -0.471
17178	 -0.966	  0.650	  1.546	  0.072	 -0.045	 -9.867	 -0.004	  0.002	  0.001	 32.700	 99.149	  0.608
17227	 -0.968	  0.638	  1.546	  0.080	 -0.044	 -9.828	 -0.004	  0.002	  0.001	 32.700	 99.161	 -0.471
17277	 -0.965	  0.640	  1.547	  0.077	 -0.037	 -9.826	 -0.004	  0.003	  0.000	 32.700	 99.172	 -1.461
17327	 -0.971	  0.635	  1.548	  0.089	 -0.031	 -9.792	 -0.004	  0.001	  0.001	 32.700	 99.161	 -0.471
17377	 -0.967	  0.637	  1.545	  0.083	 -0.046	 -9.841	 -0.003	  0.002	 -0.000	 32.700	 99.161	 -0.471
17427	 -0.967	  0.637	  1.546	  0.072	 -0.049	 -9.820	 -0.003	  0.002	  0.001	 32.700	 99.149	  0.608
17477	 -0.970	  0.639	  1.546	  0.089	 -0.048	 -9.862	 -0.004	  0.003	  0.002	 32.700	 99.161	 -0.471
17527	 -0.967	  0.637	  1.544	  0.090	 -0.038	 -9.907	 -0.004	  0.003	  0.001	 32.700	 99.161	 -0.471
17577	 -0.968	  0.647	  1.543	  0.084	 -0.058	 -9.698	 -0.003	  0.003	  0.001	 32.700	 99.161	 -0.471
17627	 -0.966	  0.637	  1.545	  0.095	 -0.043	 -9.859	 -0.004	  0.003	  0.001	 32.700	 99.161	 -0.471
17677	 -0.967	  0.636	  1.546	  0.067	 -0.047	 -9.834	 -0.003	  0.002	  0.001	 32.700	 99.149	  0.608
17727	 -0.970	  0.642	  1.546	  0.071	 -0.032	 -9.809	 -0.004	  0.002	  0.001	 32.700	 99.161	 -0.471
17778	 -0.967	  0.640	  1.546	  0.099	 -0.038	 -9.857	 -0.004	  0.002	  0.001	 32.700	 99.161	 -0.471
17827	 -0.968	  0.641	  1.546	  0.068	 -0.047	 -9.837	 -0.003	  0.002	  0.001	 32.700	 99.165	 -0.832
17877	 -0.966	  0.637	  1.544	  0.088	 -0.036	 -9.878	 -0.003	  0.002	  0.000	 32.700	 99.161	 -0.471
17927	 -0.972	  0.638	  1.548	  0.077	 -0.031	 -9.832	 -0.003	  0.003	  0.000	 32.700	 99.161	 -0.471
17977	 -0.968	  0.637	  1.547	  0.075	 -0.067	 -9.810	 -0.003	  0.002	  0.001	 32.700	 99.161	 -0.471
18027	 -0.969	  0.637	  1.538	  0.091	 -0.061	 -9.855	 -0.004	  0.000	  0.001	 32.700	 99.161	 -0.471
18077	 -0.967	  0.637	  1.547	  0.077	 -0.078	 -9.830	 -0.004	  0.001	  0.001	 32.700	 99.161	 -0.471
18127	 -0.968	  0.637	  1.547	  0.075	 -0.056	 -9.912	 -0.004	  0.002	  0.001	 32.700	 99.161	 -0.471
18177	 -0.969	  0.637	  1.545	  0.130	 -0.173	 -10.056	 -0.009	 -0.005	 -0.001	 32.700	 99.149	  0.608
18227	 -0.970	  0.637	  1.547	  0.103	 -0.154	 -10.139	 -0.007	 -0.003	  0.001	 32.700	 99.149	  0.608
18278	 -0.970	  0.636	  1.546	  0.012	 -0.074	 -9.971	 -0.006	  0.003	 -0.000	 32.700	 99.165	 -0.832
18327	 -0.969	  0.639	  1.547	  0.068	 -0.024	 -9.795	 -0.004	  0.003	  0.002	 32.700	 99.149	  0.608
18377	 -0.970	  0.635	  1.541	  0.096	 -0.046	 -9.793	 -0.004	  0.003	  0.001	 32.700	 99.149	  0.608
18427	 -0.967	  0.639	  1.547	  0.100	 -0.050	 -9.868	 -0.003	  0.001	  0.001	 32.700	 99.161	 -0.471
18477	 -0.969	  0.637	  1.547	  0.085	 -0.036	 -9.844	 -0.003	  0.002	  0.001	 32.700	 99.165	 -0.832
18527	 -0.970	  0.639	  1.545	  0.082	 -0.061	 -9.824	 -0.003	  0.001	  0.002	 32.700	 99.149	  0.608
18577	 -0.970	  0.643	  1.547	  0.045	 -0.039	 -9.820	 -0.003	  0.002	  0.001	 32.700	 99.161	 -0.471
18627	 -0.970	  0.645	  1.539	  0.071	 -0.046	 -9.863	 -0.004	  0.003	  0.001	 32.700	 99.149	  0.608
18677	 -0.969	  0.635	  1.546	  0.076	 -0.039	 -9.848	 -0.004	  0.001	 -0.000	 32.700	 99.161	 -0.471
18727	 -0.970	  0.636	  1.546	  0.074	 -0.059	 -9.826	 -0.005	  0.002	  0.001	 32.700	 99.156	 -0.021
18777	 -0.969	  0.640	  1.546	  0.095	 -0.066	 -9.872	 -0.004	  0.003	  0.001	 32.700	 99.149	  0.608
18827	 -0.970	  0.635	  1.546	  0.080	 -0.063	 -9.860	 -0.004	  0.003	  0.000	 32.700	 99.161	 -0.471
18877	 -0.970	  0.639	  1.549	  0.077	 -0.034	 -9.820	 -0.004	  0.004	  0.001	 32.700	 99.161	 -0.471
18927	 -0.969	  0.636	  1.541	  0.084	 -0.041	 -9.839	 -0.004	  0.002	 -0.000	 32.700	 99.149	  0.608
18977	 -0.968	  0.639	  1.545	  0.098	 -0.046	 -9.871	 -0.003	  0.003	  0.003	 32.700	 99.149	  0.608
19027	 -0.971	  0.637	  1.542	  0.085	 -0.057	 -9.845	 -0.004	  0.001	  0.002	 32.700	 99.165	 -0.832
19077	 -0.967	  0.637	  1.543	  0.126	 -0.071	 -9.839	 -0.002	 -0.001	  0.001	 32.700	 99.149	  0.608
19127	 -0.970	  0.637	  1.544	  0.138	  0.746	 -9.897	 -0.002	  0.008	  0.050	 32.700	 99.165	 -0.832
19177	 -0.968	  0.642	  1.553	  0.099	  0.033	 -9.845	 -0.003	  0.007	  0.002	 32.700	 99.172	 -1.461
19227	 -0.965	  0.644	  1.548	  0.098	 -0.023	 -9.807	 -0.007	 -0.002	 -0.001	 32.700	 99.161	 -0.471
19277	 -0.969	  0.642	  1.543	  1.693	 -4.043	 -9.916	 -0.009	 -0.086	 -0.531	 32.700	 99.149	  0.608
19327	 -0.996	  0.595	  1.481	 -1.274	  2.310	 -11.818	 -0.219	 -0.506	 -0.657	 32.700	 99.165	 -0.832
19377	 -0.856	  0.525	  1.507	  3.207	  0.074	 -16.686	  0.285	 -0.567	  0.653	 32.700	 99.161	 -0.471
19427	 -0.681	  0.341	  1.359	 -0.443	 -1.719	 -13.569	 -0.102	  1.923	 -0.203	 32.700	 99.161	 -0.471
19477	 -0.674	  0.248	  1.160	 -4.626	  1.585	 21.600	  1.248	  1.658	 -0.080	 32.700	 99.153	  0.248
19527	 -0.718	  0.347	  1.356	 11.407	 -5.362	 -42.419	 -3.349	 -3.466	 -0.215	 32.700	 99.161	 -0.471
19577	 -0.662	  0.236	  1.241	 -4.999	  2.183	  6.416	  2.136	  1.927	 -0.556	 32.700	 99.149	  0.608
19627	 -0.655	  0.294	  1.256	  7.334	 -1.565	 -21.803	 -0.733	 -1.826	 -0.132	 32.700	 99.161	 -0.471
19677	 -0.622	  0.279	  1.227	 -6.872	  1.349	  5.820	  0.261	  0.380	 -0.555	 32.700	 99.153	  0.248
19727	 -0.692	  0.237	  1.254	 10.226	 -2.603	 -25.782	 -0.895	  1.882	 -0.585	 32.700	 99.172	 -1.461
19777	 -0.672	  0.165	  1.146	 -4.123	  0.459	  6.897	  0.447	 -0.391	 -0.050	 32.700	 99.153	  0.248
19827	 -0.746	  0.304	  1.223	  2.163	 -0.579	 -16.329	  0.386	 -0.078	  0.015	 32.700	 99.149	  0.608
19877	 -0.959	  0.381	  1.232	  0.158	  0.027	 -8.539	  0.300	  1.136	  0.005	 32.700	 99.153	  0.248
19927	 -1.057	  0.419	  1.321	  3.234	 -0.734	 -12.357	 -1.138	 -0.936	 -0.576	 32.700	 99.161	 -0.471
19977	 -1.077	  0.467	  1.448	  0.808	  0.224	 -11.985	  1.477	 -1.459	  1.004	 32.700	 99.161	 -0.471
20027	 -1.028	  0.461	  1.490	  0.530	 -0.391	 -9.199	 -0.301	  0.193	 -0.256	 32.700	 99.149	  0.608
20077	 -1.077	  0.422	  1.497	 -0.084	 -1.050	 -10.537	  0.226	 -0.242	 -0.222	 32.700	 99.149	  0.608
20127	 -1.069	  0.433	  1.492	  0.579	 -0.062	 -10.132	  0.102	 -0.145	  0.121	 32.700	 99.149	  0.608
20177	 -1.068	  0.459	  1.489	 -0.309	  0.373	 -9.143	  0.075	 -0.368	  0.079	 32.700	 99.161	 -0.471
20227	 -1.073	  0.481	  1.500	  0.031	 -0.035	 -9.936	  0.120	 -0.054	  0.131	 32.700	 99.161	 -0.471
20277	 -1.075	  0.490	  1.505	  0.068	 -0.057	 -9.850	  0.000	 -0.005	 -0.003	 32.700	 99.161	 -0.471
20327	 -1.078	  0.489	  1.497	  0.118	 -0.072	 -9.832	  0.001	 -0.002	 -0.076	 32.700	 99.153	  0.248
20377	 -1.073	  0.500	  1.494	 -0.042	 -0.005	 -9.913	 -0.005	  0.007	  0.032	 32.700	 99.149	  0.608
20427	 -1.075	  0.492	  1.498	  0.092	 -0.110	 -9.876	 -0.003	 -0.008	  0.049	 32.700	 99.161	 -0.471
20478	 -1.074	  0.488	  1.496	  0.063	 -0.045	 -9.818	  0.003	  0.013	 -0.003	 32.700	 99.165	 -0.832
20527	 -1.076	  0.490	  1.494	  0.109	 -0.094	 -9.947	  0.002	 -0.007	 -0.020	 32.700	 99.153	  0.248
20577	 -1.081	  0.490	  1.483	  0.153	 -0.105	 -9.789	 -0.009	 -0.007	 -0.213	 32.700	 99.165	 -0.832
20627	 -1.085	  0.469	  1.490	 -0.198	 -0.016	 -9.943	 -0.007	 -0.017	  0.004	 32.700	 99.153	  0.248
20677	 -1.091	  0.466	  1.482	  0.148	 -0.270	 -9.861	  0.013	  0.005	 -0.372	 32.700	 99.161	 -0.471
20727	 -1.095	  0.466	  1.482	 -0.091	 -0.130	 -9.847	  0.004	  0.018	  0.053	 32.700	 99.142	  1.238
20776	 -1.109	  0.451	  1.481	  0.391	  0.086	 -9.855	 -0.002	  0.003	 -0.539	 32.700	 99.134	  1.958
20827	 -1.128	  0.415	  1.479	  0.490	  0.435	 -9.777	 -0.002	 -0.010	 -0.389	 32.700	 99.161	 -0.471
20877	 -1.122	  0.410	  1.485	 -0.119	 -0.235	 -9.937	 -0.009	  0.007	  0.172	 32.700	 99.161	 -0.471
20927	 -1.119	  0.423	  1.493	  0.294	  0.158	 -9.847	 -0.004	 -0.007	  0.309	 32.700	 99.153	  0.248
20978	 -1.114	  0.436	  1.499	  0.128	 -0.214	 -9.821	 -0.004	  0.006	  0.099	 32.700	 99.165	 -0.832
21028	 -1.114	  0.438	  1.497	 -0.455	 -0.089	 -9.871	 -0.006	  0.005	 -0.085	 32.700	 99.149	  0.608
21078	 -1.115	  0.434	  1.505	  0.338	 -0.082	 -9.838	  0.005	 -0.006	  0.107	 32.700	 99.149	  0.608
21128	 -1.117	  0.438	  1.503	  0.040	 -0.081	 -9.810	  0.004	 -0.001	  0.004	 32.700	 99.153	  0.248
21178	 -1.112	  0.454	  1.511	 -0.008	 -0.166	 -9.861	 -0.020	  0.011	  0.185	 32.700	 99.153	  0.248
21228	 -1.105	  0.462	  1.515	  0.611	 -0.350	 -9.827	 -0.003	  0.007	  0.242	 32.700	 99.153	  0.248
21278	 -1.102	  0.475	  1.507	 -0.191	  0.152	 -9.831	 -0.002	  0.006	  0.187	 32.700	 99.149	  0.608
21328	 -1.094	  0.490	  1.516	  0.184	 -0.156	 -9.838	 -0.001	  0.003	  0.275	 32.700	 99.149	  0.608
21378	 -1.092	  0.494	  1.515	  0.085	 -0.078	 -9.830	 -0.000	 -0.003	  0.037	 32.700	 99.149	  0.608
21427	 -1.090	  0.492	  1.510	  0.050	 -0.091	 -9.829	 -0.004	  0.008	 -0.043	 32.700	 99.153	  0.248
21477	 -1.092	  0.492	  1.514	  0.076	 -0.076	 -9.837	 -0.008	  0.002	  0.002	 32.700	 99.161	 -0.471
21527	 -1.095	  0.489	  1.510	  0.146	 -0.171	 -9.819	 -0.000	 -0.003	 -0.107	 32.700	 99.165	 -0.832
21577	 -1.094	  0.489	  1.509	  0.001	 -0.023	 -9.869	 -0.015	  0.008	  0.076	 32.700	 99.153	  0.248
21627	 -1.090	  0.498	  1.514	 -0.034	 -0.147	 -9.831	 -0.010	  0.006	  0.193	 32.700	 99.161	 -0.471
21677	 -1.089	  0.497	  1.522	 -0.199	 -0.225	 -9.826	 -0.017	  0.064	 -0.041	 32.700	 99.153	  0.248
21727	 -1.089	  0.498	  1.522	  0.253	 -0.092	 -9.843	 -0.002	  0.004	  0.000	 32.700	 99.149	  0.608
21778	 -1.092	  0.495	  1.515	 -0.216	  0.023	 -9.835	 -0.008	  0.004	 -0.028	 32.700	 99.165	 -0.832
21828	 -1.091	  0.496	  1.530	  0.101	 -0.220	 -9.892	 -0.002	  0.036	 -0.121	 32.700	 99.149	  0.608
21877	 -1.095	  0.489	  1.526	  0.251	 -0.117	 -9.792	 -0.004	 -0.006	 -0.080	 32.700	 99.138	  1.598
21927	 -1.097	  0.485	  1.532	  0.035	  0.147	 -9.785	  0.004	 -0.004	 -0.024	 32.700	 99.149	  0.608
21977	 -1.093	  0.493	  1.526	 -0.332	  0.070	 -10.007	 -0.002	  0.058	  0.267	 32.700	 99.165	 -0.832
22027	 -1.099	  0.495	  1.534	  0.507	 -1.076	 -9.868	 -0.164	 -0.015	 -0.428	 32.700	 99.153	  0.248
22077	 -1.099	  0.480	  1.540	  0.068	  0.115	 -9.904	 -0.029	 -0.019	 -0.029	 32.700	 99.165	 -0.832
22127	 -1.097	  0.483	  1.541	  0.165	 -0.102	 -9.772	 -0.014	 -0.016	  0.063	 32.700	 99.153	  0.248
22177	 -1.096	  0.500	  1.536	 -0.049	 -0.021	 -9.834	 -0.010	  0.025	  0.018	 32.700	 99.149	  0.608
22227	 -1.094	  0.487	  1.543	 -0.057	  0.131	 -9.827	  0.003	 -0.004	  0.011	 32.700	 99.165	 -0.832
22277	 -1.094	  0.483	  1.545	 -0.088	 -0.075	 -9.825	 -0.003	  0.004	 -0.066	 32.700	 99.153	  0.248
22327	 -1.098	  0.490	  1.543	  0.175	 -0.194	 -9.877	 -0.021	  0.008	 -0.138	 32.700	 99.165	 -0.832
22377	 -1.100	  0.469	  1.541	  0.193	 -0.044	 -9.833	  0.001	 -0.017	 -0.149	 32.700	 99.153	  0.248
22427	 -1.104	  0.463	  1.542	 -0.309	 -0.431	 -9.850	 -0.069	 -0.017	  0.066	 32.700	 99.161	 -0.471
22477	 -1.104	  0.469	  1.546	  0.103	 -0.156	 -9.858	  0.016	 -0.035	 -0.072	 32.700	 99.153	  0.248
22527	 -1.097	  0.473	  1.542	 -0.237	 -0.396	 -9.754	 -0.030	 -0.006	  0.054	 32.700	 99.149	  0.608
22577	 -1.097	  0.462	  1.545	 -0.078	 -0.024	 -9.838	  0.002	 -0.041	  0.031	 32.700	 99.153	  0.248
22627	 -1.097	  0.465	  1.547	  0.448	  0.008	 -9.719	  0.001	  0.050	 -0.062	 32.700	 99.165	 -0.832
22677	 -1.110	  0.456	  1.548	  0.205	  0.214	 -9.662	  0.038	 -0.008	 -0.248	 32.700	 99.153	  0.248
22727	 -1.110	  0.451	  1.544	  0.036	 -0.006	 -9.865	  0.003	  0.009	  0.004	 32.700	 99.153	  0.248
22777	 -1.110	  0.455	  1.542	  0.096	 -0.235	 -9.692	 -0.039	 -0.030	  0.037	 32.700	 99.153	  0.248
22827	 -1.110	  0.452	  1.544	  0.305	  0.486	 -10.020	 -0.015	 -0.014	 -0.014	 32.700	 99.165	 -0.832
22877	 -1.113	  0.451	  1.543	  0.279	  0.009	 -9.467	  0.029	  0.108	 -0.019	 32.700	 99.149	  0.608
22927	 -1.115	  0.453	  1.543	  0.231	  0.286	 -9.578	  0.003	  0.032	 -0.014	 32.700	 99.149	  0.608
22977	 -1.116	  0.451	  1.541	 -0.004	 -0.238	 -10.496	 -0.021	 -0.115	 -0.273	 32.700	 99.153	  0.248
23027	 -1.121	  0.438	  1.531	 -0.128	  0.221	 -9.874	  0.005	 -0.014	 -0.047	 32.700	 99.165	 -0.832
23077	 -1.122	  0.435	  1.543	  0.038	 -0.138	 -9.942	 -0.004	  0.047	  0.021	 32.700	 99.165	 -0.832
23127	 -1.122	  0.426	  1.555	  0.563	 -0.258	 -9.769	  0.016	  0.030	 -0.316	 32.700	 99.153	  0.248
23177	 -1.117	  0.435	  1.561	  0.082	  0.132	 -9.771	 -0.010	 -0.081	  0.474	 32.700	 99.165	 -0.832
23227	 -1.107	  0.453	  1.558	 -0.162	 -0.184	 -9.827	 -0.005	  0.027	  0.211	 32.700	 99.153	  0.248
23277	 -1.109	  0.454	  1.556	  0.052	 -0.067	 -9.840	 -0.003	  0.000	 -0.002	 32.700	 99.153	  0.248
23327	 -1.110	  0.455	  1.557	  0.109	 -0.049	 -9.814	 -0.003	  0.006	  0.002	 32.700	 99.165	 -0.832
23377	 -1.112	  0.453	  1.558	 -0.050	 -0.021	 -9.862	 -0.002	 -0.003	 -0.030	 32.700	 99.153	  0.248
23427	 -1.108	  0.453	  1.555	 -0.001	  0.093	 -9.842	 -0.006	  0.013	  0.050	 32.700	 99.153	  0.248
23477	 -1.114	  0.450	  1.552	  0.294	  0.180	 -9.648	  0.061	  0.020	 -0.260	 32.700	 99.153	  0.248
23527	 -1.130	  0.453	  1.550	  0.165	  0.284	 -9.849	 -0.017	 -0.004	 -0.096	 32.700	 99.165	 -0.832
23577	 -1.147	  0.442	  1.544	  0.176	 -0.080	 -9.731	 -0.024	 -0.051	  0.131	 32.700	 99.153	  0.248
23627	 -1.161	  0.447	  1.543	  0.162	 -0.013	 -9.747	 -0.000	  0.021	  0.001	 32.700	 99.165	 -0.832
23677	 -1.174	  0.450	  1.535	 -0.161	  0.589	 -10.008	 -0.006	  0.003	  0.075	 32.700	 99.153	  0.248
23727	 -1.185	  0.454	  1.542	  0.095	 -0.494	 -9.732	 -0.013	  0.016	 -0.075	 32.700	 99.165	 -0.832
23777	 -1.188	  0.442	  1.537	 -0.299	  0.160	 -9.973	 -0.000	 -0.014	  0.042	 32.700	 99.165	 -0.832
23827	 -1.185	  0.447	  1.538	  0.185	  0.003	 -9.739	 -0.007	  0.008	  0.001	 32.700	 99.142	  1.238
23877	 -1.185	  0.446	  1.551	 -0.385	  0.566	 -9.838	 -0.050	 -0.016	  0.056	 32.700	 99.153	  0.248
23927	 -1.168	  0.434	  1.570	  0.034	 -1.373	 -8.829	 -0.190	  0.320	 -0.064	 32.700	 99.165	 -0.832
23977	 -1.177	  0.373	  1.595	 -0.228	 -0.429	 -9.676	 -0.004	 -0.220	 -1.201	 32.700	 99.153	  0.248
24027	 -1.173	  0.331	  1.621	  3.425	  0.816	 -10.040	 -0.002	  0.099	 -0.102	 32.700	 99.153	  0.248
24077	 -1.158	  0.348	  1.640	 -0.921	  1.463	 -9.700	 -0.028	 -0.002	  0.830	 32.700	 99.153	  0.248
24127	 -1.143	  0.397	  1.655	  1.193	 -2.977	 -9.642	  0.039	 -0.303	  0.475	 32.700	 99.165	 -0.832
24177	 -1.170	  0.418	  1.627	  0.234	  0.118	 -9.896	  0.265	  0.131	 -0.320	 32.700	 99.153	  0.248
24227	 -1.189	  0.416	  1.589	 -0.301	 -0.001	 -10.065	  0.026	 -0.022	 -0.190	 32.700	 99.165	 -0.832
24277	 -1.193	  0.409	  1.578	 -0.141	  0.080	 -9.502	 -0.018	  0.003	  0.013	 32.700	 99.153	  0.248
24327	 -1.195	  0.416	  1.574	  0.070	 -0.014	 -9.741	  0.005	  0.008	 -0.062	 32.700	 99.153	  0.248
24377	 -1.199	  0.409	  1.566	  0.345	 -0.121	 -9.783	  0.004	  0.006	 -0.026	 32.700	 99.153	  0.248
24427	 -1.194	  0.415	  1.573	  0.138	 -0.097	 -9.814	 -0.008	 -0.005	  0.003	 32.700	 99.165	 -0.832
24477	 -1.195	  0.429	  1.574	  0.115	 -0.074	 -9.829	 -0.005	 -0.003	  0.003	 32.700	 99.153	  0.248
24527	 -1.192	  0.418	  1.584	 -0.022	 -0.003	 -9.819	 -0.006	 -0.003	  0.130	 32.700	 99.153	  0.248
24577	 -1.186	  0.441	  1.595	  0.255	 -0.061	 -9.828	 -0.004	  0.006	  0.109	 32.700	 99.153	  0.248
24627	 -1.183	  0.430	  1.593	  0.109	 -0.064	 -9.826	 -0.003	 -0.024	 -0.003	 32.700	 99.165	 -0.832
24677	 -1.192	  0.414	  1.577	 -0.746	  0.796	 -9.932	 -0.007	 -0.005	 -0.359	 32.700	 99.153	  0.248
24727	 -1.195	  0.418	  1.577	 -0.697	  0.099	 -9.904	  0.001	  0.063	  0.503	 32.700	 99.165	 -0.832
24777	 -1.176	  0.444	  1.598	  0.600	 -0.132	 -9.879	  0.004	  0.067	  0.129	 32.700	 99.165	 -0.832
24827	 -1.176	  0.443	  1.602	  0.115	 -0.024	 -9.865	 -0.001	 -0.004	 -0.000	 32.700	 99.165	 -0.832
24877	 -1.174	  0.447	  1.604	  0.019	 -0.023	 -9.889	 -0.003	  0.000	  0.001	 32.700	 99.153	  0.248
24927	 -1.175	  0.445	  1.594	 -0.319	  0.159	 -9.849	 -0.000	  0.018	  0.028	 32.700	 99.153	  0.248
24977	 -1.173	  0.449	  1.609	  0.064	  0.052	 -9.863	  0.006	  0.014	  0.099	 32.700	 99.165	 -0.832
25027	 -1.169	  0.455	  1.616	  0.214	 -0.136	 -9.838	 -0.002	  0.006	  0.022	 32.700	 99.165	 -0.832
25077	 -1.167	  0.460	  1.617	  0.078	 -0.009	 -9.862	 -0.001	  0.001	  0.004	 32.700	 99.149	  0.608
25127	 -1.164	  0.453	  1.615	  0.044	  0.085	 -9.839	 -0.002	 -0.003	  0.033	 32.700	 99.158	 -0.201
25177	 -1.160	  0.470	  1.620	  0.249	 -0.049	 -9.831	 -0.012	 -0.013	  0.148	 32.700	 99.153	  0.248
25227	 -1.155	  0.469	  1.626	  0.125	 -0.057	 -9.885	  0.008	 -0.009	  0.237	 32.700	 99.153	  0.248
25277	 -1.150	  0.485	  1.626	 -0.081	  0.256	 -9.766	 -0.011	 -0.059	  0.313	 32.700	 99.165	 -0.832
25327	 -1.135	  0.501	  1.638	 -0.832	  0.150	 -10.344	 -0.008	  0.070	  0.678	 32.700	 99.165	 -0.832
25377	 -1.119	  0.522	  1.652	  0.525	 -0.134	 -9.660	 -0.011	 -0.046	  0.306	 32.700	 99.153	  0.248
25427	 -1.112	  0.539	  1.651	  0.531	 -0.337	 -9.869	  0.168	 -0.051	 -0.031	 32.700	 99.142	  1.238
25477	 -1.116	  0.554	  1.651	 -0.430	 -0.879	 -8.591	 -0.135	  0.131	  0.109	 32.700	 99.158	 -0.201
25527	 -1.107	  0.537	  1.658	  0.609	 -1.097	 -10.180	  0.008	  0.345	 -0.008	 32.700	 99.153	  0.248
25577	 -1.122	  0.523	  1.645	  0.748	  0.252	 -9.877	 -0.007	  0.134	 -0.351	 32.700	 99.153	  0.248
25627	 -1.135	  0.497	  1.643	  0.593	  0.039	 -9.117	  0.018	  0.059	 -0.218	 32.700	 99.169	 -1.191
25677	 -1.127	  0.498	  1.654	  0.333	 -0.860	 -10.224	 -0.159	  0.093	  0.460	 32.700	 99.165	 -0.832
25727	 -1.124	  0.514	  1.645	  0.674	 -0.493	 -9.872	  0.186	  0.106	 -0.022	 32.700	 99.153	  0.248
25777	 -1.132	  0.523	  1.638	  0.016	  0.173	 -10.026	  0.215	  0.334	 -0.013	 32.700	 99.165	 -0.832
25827	 -1.138	  0.541	  1.637	  0.287	 -0.569	 -9.556	 -0.019	  0.115	  0.164	 32.700	 99.153	  0.248
25877	 -1.112	  0.519	  1.688	  0.033	  0.618	 -9.154	 -0.226	  0.009	  0.329	 32.700	 99.153	  0.248
25927	 -1.053	  0.511	  1.783	  1.280	  4.528	 -5.358	 -0.431	 -0.827	  0.344	 32.700	 99.153	  0.248
25977	 -0.904	  0.545	  1.903	  3.688	 -0.100	 -10.687	 -0.369	  0.275	  2.694	 32.700	 99.165	 -0.832
26027	 -0.797	  0.593	  1.898	 -3.637	 -4.067	 -12.258	 -0.007	 -0.109	  1.163	 32.700	 99.169	 -1.191
26078	 -0.849	  0.657	  1.866	  0.417	 -0.459	 -9.729	  0.416	  0.412	 -0.323	 32.700	 99.153	  0.248
26127	 -0.910	  0.696	  1.822	  0.000	 -0.752	 -9.802	  0.071	 -0.005	 -0.085	 32.700	 99.158	 -0.201
26179	 -0.902	  0.704	  1.785	  0.256	  0.632	 -9.711	  0.009	 -0.017	  0.141	 32.700	 99.158	 -0.201
26227	 -0.893	  0.707	  1.774	  0.416	 -0.561	 -9.877	 -0.003	  0.018	  0.092	 32.700	 99.146	  0.878
26277	 -0.893	  0.711	  1.765	 -0.130	  0.231	 -9.870	 -0.010	  0.007	  0.172	 32.700	 99.158	 -0.201
26327	 -0.885	  0.717	  1.768	 -0.032	  0.191	 -9.880	 -0.005	 -0.004	  0.065	 32.700	 99.153	  0.248
26377	 -0.883	  0.712	  1.767	 -0.039	  0.074	 -9.826	 -0.006	  0.009	  0.093	 32.700	 99.165	 -0.832
26428	 -0.881	  0.714	  1.766	  0.148	 -0.072	 -9.970	 -0.018	 -0.006	 -0.005	 32.700	 99.153	  0.248
26478	 -0.884	  0.727	  1.764	  0.120	 -0.003	 -9.817	 -0.003	 -0.001	 -0.023	 32.700	 99.153	  0.248
26528	 -0.884	  0.723	  1.754	  0.459	 -0.318	 -9.945	  0.018	  0.061	  0.083	 32.700	 99.165	 -0.832
26578	 -0.885	  0.721	  1.745	  0.013	 -0.114	 -9.782	  0.089	  0.051	 -0.098	 32.700	 99.158	 -0.201
26628	 -0.910	  0.743	  1.753	 -0.241	 -1.068	 -10.071	  0.457	 -0.436	 -0.904	 32.700	 99.158	 -0.201
26678	 -0.928	  0.720	  1.748	  3.497	 -1.332	 -14.306	 -0.974	  0.136	  0.957	 32.700	 99.153	  0.248
26728	 -0.787	  0.780	  1.725	 -0.262	 -1.849	 -10.201	  0.039	 -0.977	  2.836	 32.700	 99.158	 -0.201
26778	 -0.673	  0.873	  1.653	 -3.564	 -1.067	 -10.143	  0.188	  0.157	  0.723	 32.700	 99.158	 -0.201
26828	 -0.796	  0.854	  1.597	  2.887	 -1.542	 -12.648	  0.035	 -0.348	 -0.759	 32.700	 99.158	 -0.201
26878	 -0.789	  0.839	  1.602	  0.538	 -0.259	 -10.713	 -0.247	  0.047	 -0.036	 32.700	 99.153	  0.248
26928	 -0.773	  0.759	  1.601	  1.323	  1.306	 -9.490	 -0.599	  0.056	 -0.032	 32.700	 99.158	 -0.201
26978	 -0.812	  0.728	  1.581	 -0.226	  1.100	 -10.436	  0.209	  0.945	 -0.285	 32.700	 99.169	 -1.191
27028	 -0.844	  0.700	  1.599	 -0.903	  0.389	 -7.785	  0.098	 -0.217	 -0.225	 32.700	 99.153	  0.248
27078	 -0.819	  0.711	  1.647	 -0.095	 -0.859	 -11.271	 -0.269	 -0.459	  0.326	 32.700	 99.165	 -0.832
27128	 -0.742	  0.665	  1.690	 -0.542	  0.751	 -11.666	  1.029	 -0.688	 -0.988	 32.700	 99.153	  0.248
27178	 -0.624	  0.701	  1.654	  0.093	 -0.574	 -12.234	  1.874	 -1.286	 -1.321	 32.700	 99.153	  0.248
27228	 -0.456	  0.708	  1.562	 -1.272	 -0.146	 -11.711	  1.610	 -0.784	 -0.465	 32.700	 99.153	  0.248
27278	 -0.253	  0.590	  1.474	 -0.653	  0.971	 -10.675	  0.138	 -0.401	  0.123	 32.700	 99.169	 -1.191
27328	 -0.161	  0.471	  1.408	 -0.418	  0.938	 -9.793	  0.241	  0.654	  0.301	 32.700	 99.153	  0.248
27378	 -0.089	  0.357	  1.357	  0.787	  0.817	 -9.376	  0.395	  0.517	  0.904	 32.700	 99.158	 -0.201
27427	 -0.045	  0.241	  1.320	 -0.697	  0.162	 -10.131	 -0.395	  0.629	  1.588	 32.700	 99.165	 -0.832
27477	 -0.026	  0.079	  1.300	 -0.257	  0.609	 -9.470	 -0.767	  0.601	  1.252	 32.700	 99.158	 -0.201
27527	 -0.064	 -0.141	  1.254	 -0.617	  0.863	 -9.581	 -1.701	  1.453	  1.387	 32.700	 99.153	  0.248
27577	 -0.122	 -0.349	  1.177	 -0.787	  0.399	 -8.786	 -1.051	  0.666	  1.510	 32.700	 99.158	 -0.201
27627	 -0.155	 -0.515	  1.063	 -0.149	  1.108	 -7.430	 -0.026	  0.132	  1.046	 32.700	 99.158	 -0.201
27677	 -0.170	 -0.558	  0.987	  0.680	  0.530	 -11.007	  0.914	  0.409	  0.317	 32.700	 99.158	 -0.201
27727	 -0.206	 -0.570	  0.870	 -0.087	  0.973	 -9.463	  0.547	  0.413	  0.632	 32.700	 99.153	  0.248
27777	 -0.220	 -0.583	  0.755	  0.841	  1.112	 -12.267	 -0.166	 -0.058	  0.847	 32.700	 99.158	 -0.201
27827	 -0.238	 -0.578	  0.612	  1.489	  1.709	 -9.760	 -0.314	  0.116	  0.903	 32.700	 99.142	  1.238
27877	 -0.240	 -0.532	  0.529	  0.874	  0.490	 -9.319	  0.641	 -0.723	  1.450	 32.700	 99.153	  0.248
27927	 -0.226	 -0.456	  0.478	  1.558	 -1.331	 -9.411	  0.909	 -1.301	  1.169	 32.700	 99.158	 -0.201
27977	 -0.207	 -0.385	  0.437	 -0.647	 -0.856	 -12.370	  0.242	 -0.090	  1.510	 32.700	 99.153	  0.248
28027	 -0.233	 -0.359	  0.382	  0.844	 -0.527	 -10.202	 -0.949	  1.757	  1.643	 32.700	 99.158	 -0.201
28077	 -0.255	 -0.330	  0.343	 -0.064	 -0.114	 -10.092	 -0.252	  0.323	  1.743	 32.700	 99.153	  0.248
28127	 -0.250	 -0.320	  0.331	  0.844	  0.606	 -8.400	 -0.424	  0.428	  1.770	 32.700	 99.158	 -0.201
28177	 -0.250	 -0.288	  0.319	  0.001	 -0.382	 -8.456	  0.459	  0.122	  2.013	 32.700	 99.146	  0.878
28227	 -0.242	 -0.264	  0.324	  0.577	 -1.705	 -7.694	  0.155	 -0.669	  1.672	 32.700	 99.158	 -0.201
28277	 -0.218	 -0.241	  0.332	 -0.320	 -1.964	 -8.452	  0.743	 -0.656	  0.863	 32.700	 99.158	 -0.201
28327	 -0.213	 -0.222	  0.326	  0.251	 -1.638	 -9.688	 -0.180	  0.346	  1.151	 32.700	 99.142	  1.238
28377	 -0.218	 -0.226	  0.328	 -0.248	 -1.482	 -9.115	 -0.138	  0.309	  1.452	 32.700	 99.158	 -0.201
28427	 -0.217	 -0.225	  0.327	 -0.118	 -1.701	 -10.114	 -0.783	 -0.330	  1.234	 32.700	 99.158	 -0.201
28477	 -0.213	 -0.233	  0.325	 -0.647	 -0.878	 -10.800	 -0.481	  0.142	  0.802	 32.700	 99.165	 -0.832
28527	 -0.227	 -0.241	  0.310	 -0.131	 -0.462	 -11.253	 -0.467	  1.317	  0.764	 32.700	 99.158	 -0.201
28577	 -0.250	 -0.244	  0.310	 -0.140	 -0.055	 -10.970	 -0.807	  0.149	  0.825	 32.700	 99.158	 -0.201
28627	 -0.253	 -0.245	  0.304	  0.081	 -0.309	 -11.443	 -0.341	 -0.016	  1.307	 32.700	 99.153	  0.248
28677	 -0.257	 -0.237	  0.306	 -0.358	  0.109	 -9.824	  0.117	 -0.113	  0.916	 32.700	 99.153	  0.248
28727	 -0.259	 -0.223	  0.303	 -0.184	  0.044	 -9.656	 -0.221	 -0.169	  1.316	 32.700	 99.158	 -0.201
28777	 -0.268	 -0.217	  0.307	  0.338	  0.334	 -6.937	  0.375	  0.397	  1.187	 32.700	 99.158	 -0.201
28827	 -0.264	 -0.197	  0.305	  0.615	 -0.617	 -8.168	  0.013	 -0.767	  1.126	 32.700	 99.146	  0.878
28877	 -0.257	 -0.187	  0.313	  0.111	 -0.160	 -7.737	  0.671	  0.081	  0.954	 32.700	 99.158	 -0.201
28927	 -0.264	 -0.161	  0.304	  1.320	 -1.451	 -10.360	  0.282	  1.038	  0.381	 32.700	 99.146	  0.878
28977	 -0.279	 -0.155	  0.292	  1.229	 -1.335	 -8.835	  0.197	  0.851	 -0.087	 32.700	 99.158	 -0.201
29027	 -0.276	 -0.155	  0.287	  1.347	 -1.405	 -10.315	 -0.152	  0.016	  0.111	 32.700	 99.146	  0.878
29077	 -0.263	 -0.144	  0.281	  0.195	 -0.545	 -10.796	  0.197	 -0.628	  0.383	 32.700	 99.153	  0.248
29127	 -0.246	 -0.145	  0.289	  0.357	 -1.108	 -12.764	 -0.528	  0.177	  0.397	 32.700	 99.158	 -0.201
29177	 -0.245	 -0.147	  0.289	  0.081	 -0.687	 -11.079	  0.017	  0.276	 -0.362	 32.700	 99.158	 -0.201
29227	 -0.230	 -0.158	  0.300	 -0.337	 -0.501	 -11.210	 -0.431	 -0.719	  0.459	 32.700	 99.146	  0.878
29277	 -0.220	 -0.151	  0.301	 -0.089	 -0.123	 -8.323	  0.441	 -0.304	  0.399	 32.700	 99.158	 -0.201
29327	 -0.204	 -0.149	  0.319	 -0.137	 -1.117	 -7.768	  0.195	 -0.591	  0.388	 32.700	 99.158	 -0.201
29377	 -0.198	 -0.150	  0.323	 -0.304	 -0.649	 -7.406	 -0.123	  0.039	  0.363	 32.700	 99.158	 -0.201
29427	 -0.199	 -0.154	  0.330	  0.283	 -1.098	 -9.005	 -0.476	  0.538	  0.495	 32.700	 99.158	 -0.201
29477	 -0.204	 -0.161	  0.332	  0.399	 -1.155	 -8.906	  0.229	  0.159	  0.125	 32.700	 99.158	 -0.201
29527	 -0.205	 -0.162	  0.340	  0.786	 -1.360	 -10.604	  0.150	  0.063	  0.211	 32.700	 99.146	  0.878
29577	 -0.202	 -0.152	  0.342	 -0.060	 -0.766	 -10.680	  0.400	 -0.438	  0.442	 32.700	 99.169	 -1.191
29627	 -0.194	 -0.157	  0.349	 -0.170	 -0.326	 -12.782	 -0.304	 -0.202	  0.463	 32.700	 99.158	 -0.201
29677	 -0.197	 -0.162	  0.352	 -0.619	  0.221	 -11.316	 -0.099	  0.551	  0.239	 32.700	 99.158	 -0.201
29727	 -0.213	 -0.155	  0.347	 -0.896	  0.189	 -8.940	  0.289	  0.379	  0.288	 32.700	 99.158	 -0.201
29777	 -0.208	 -0.161	  0.354	 -0.638	 -0.177	 -9.602	 -0.537	 -0.768	  0.875	 32.700	 99.158	 -0.201
29827	 -0.205	 -0.166	  0.351	  0.146	  0.332	 -7.241	 -0.344	  0.232	  0.918	 32.700	 99.146	  0.878
29877	 -0.201	 -0.169	  0.355	  1.034	 -0.984	 -8.286	 -0.382	 -0.955	  0.338	 32.700	 99.158	 -0.201
29927	 -0.195	 -0.179	  0.357	  1.236	 -1.306	 -8.111	  0.058	  0.093	 -0.239	 32.700	 99.158	 -0.201
29977	 -0.197	 -0.177	  0.355	  1.303	 -1.956	 -9.235	  0.487	 -0.144	 -0.344	 32.700	 99.169	 -1.191
30027	 -0.195	 -0.174	  0.361	  0.285	 -1.857	 -10.508	  0.486	 -0.466	 -0.376	 32.700	 99.165	 -0.832
30077	 -0.189	 -0.170	  0.362	  0.224	 -1.986	 -11.896	  0.297	 -0.187	 -0.481	 32.700	 99.153	  0.248
30127	 -0.199	 -0.173	  0.364	  0.138	 -1.281	 -11.582	  0.524	  0.421	 -0.845	 32.700	 99.169	 -1.191
30177	 -0.209	 -0.170	  0.359	 -1.051	 -0.678	 -13.570	 -0.024	  0.104	 -0.539	 32.700	 99.158	 -0.201
30227	 -0.222	 -0.174	  0.362	 -0.735	 -0.750	 -11.229	  0.415	  0.584	 -0.623	 32.700	 99.153	  0.248
30277	 -0.236	 -0.174	  0.352	 -2.158	  0.068	 -12.868	 -0.335	  0.113	 -0.303	 32.700	 99.146	  0.878
30327	 -0.231	 -0.185	  0.356	 -0.065	  0.065	 -10.464	 -0.685	 -0.217	  0.416	 32.700	 99.158	 -0.201
30377	 -0.230	 -0.193	  0.356	 -0.010	 -0.719	 -7.143	 -0.124	 -0.823	  0.306	 32.700	 99.158	 -0.201
30427	 -0.214	 -0.188	  0.354	  0.032	 -1.027	 -8.187	  0.202	 -0.074	  0.288	 32.700	 99.169	 -1.191
30477	 -0.218	 -0.185	  0.355	  0.314	 -0.850	 -6.204	  0.088	  0.360	 -0.230	 32.700	 99.158	 -0.201
30527	 -0.223	 -0.168	  0.343	 -0.575	 -1.476	 -9.068	  0.197	  0.282	 -0.460	 32.700	 99.158	 -0.201
30577	 -0.232	 -0.188	  0.343	  0.350	 -0.636	 -8.948	 -0.351	  0.393	 -0.316	 32.700	 99.158	 -0.201
30627	 -0.227	 -0.186	  0.343	 -0.064	 -0.382	 -9.577	  0.649	 -0.102	  0.121	 32.700	 99.158	 -0.201
30677	 -0.228	 -0.172	  0.348	  0.542	 -1.588	 -10.911	 -0.054	  0.086	  0.180	 32.700	 99.158	 -0.201
30727	 -0.222	 -0.178	  0.346	 -0.183	 -0.485	 -12.391	 -0.491	 -0.299	  0.643	 32.700	 99.158	 -0.201
30777	 -0.223	 -0.187	  0.345	  0.275	 -0.675	 -12.072	 -0.532	  0.422	  0.325	 32.700	 99.146	  0.878
30827	 -0.224	 -0.187	  0.338	 -0.244	  0.131	 -9.272	  0.424	  0.032	 -0.036	 32.700	 99.146	  0.878
30877	 -0.212	 -0.177	  0.340	  1.018	 -0.230	 -10.443	  0.034	 -0.855	  0.319	 32.700	 99.146	  0.878
30927	 -0.206	 -0.170	  0.349	  0.708	 -1.120	 -9.269	 -0.285	  0.665	 -0.053	 32.700	 99.158	 -0.201
30977	 -0.211	 -0.180	  0.341	  0.516	 -1.867	 -9.118	 -0.165	  0.202	 -0.207	 32.700	 99.169	 -1.191
31027	 -0.217	 -0.194	  0.344	  0.475	 -1.316	 -9.046	  0.250	  0.442	 -0.678	 32.700	 99.146	  0.878
31077	 -0.215	 -0.198	  0.344	  0.024	 -1.628	 -9.693	  0.177	  0.561	 -0.887	 32.700	 99.158	 -0.201
31127	 -0.218	 -0.203	  0.356	  0.730	 -1.190	 -10.120	  0.385	  0.521	 -1.068	 32.700	 99.158	 -0.201
31177	 -0.226	 -0.210	  0.359	 -0.406	 -1.013	 -10.753	  0.258	  0.933	 -0.811	 32.700	 99.142	  1.238
31227	 -0.225	 -0.224	  0.372	  0.006	 -0.685	 -10.565	  0.173	  0.370	 -1.020	 32.700	 99.158	 -0.201
31277	 -0.224	 -0.231	  0.400	 -0.867	 -1.073	 -11.693	  0.551	  0.982	 -1.165	 32.700	 99.158	 -0.201
31327	 -0.235	 -0.212	  0.423	 -0.181	 -0.512	 -10.700	  0.213	  0.207	 -1.260	 32.700	 99.158	 -0.201
31377	 -0.246	 -0.227	  0.467	 -0.204	 -0.931	 -9.682	 -0.306	  0.938	 -0.974	 32.700	 99.158	 -0.201
31427	 -0.278	 -0.212	  0.504	  0.341	 -0.469	 -7.811	  0.273	  0.130	 -1.544	 32.700	 99.158	 -0.201
31477	 -0.294	 -0.194	  0.548	 -0.643	 -0.271	 -7.921	  0.045	 -0.294	 -1.820	 32.700	 99.158	 -0.201
31527	 -0.308	 -0.212	  0.582	 -1.247	 -0.113	 -8.353	 -0.725	 -0.582	 -1.440	 32.700	 99.158	 -0.201
31577	 -0.329	 -0.208	  0.608	 -0.601	  0.971	 -8.670	 -0.319	  0.013	 -1.480	 32.700	 99.158	 -0.201
31627	 -0.370	 -0.209	  0.630	 -0.175	  1.308	 -8.129	  0.072	  0.268	 -1.641	 32.700	 99.146	  0.878
31677	 -0.400	 -0.227	  0.635	 -0.538	  1.296	 -8.702	 -0.736	  0.057	 -1.539	 32.700	 99.158	 -0.201
31727	 -0.426	 -0.246	  0.640	 -0.106	  1.453	 -8.409	  0.341	 -0.345	 -2.131	 32.700	 99.146	  0.878
31777	 -0.434	 -0.296	  0.632	  0.571	  1.442	 -10.505	 -1.200	 -0.340	 -2.369	 32.700	 99.158	 -0.201
31827	 -0.454	 -0.362	  0.603	 -1.047	  3.231	 -9.098	 -1.294	 -0.106	 -1.723	 32.700	 99.169	 -1.191
31877	 -0.475	 -0.468	  0.562	 -1.404	  3.084	 -8.948	 -1.015	 -0.652	 -1.414	 32.700	 99.169	 -1.191
31927	 -0.493	 -0.539	  0.552	 -1.083	  3.376	 -10.309	 -0.726	 -0.744	 -1.066	 32.700	 99.158	 -0.201
31977	 -0.535	 -0.643	  0.499	 -1.451	  5.312	 -10.846	 -0.762	  2.101	 -1.881	 32.700	 99.158	 -0.201
32028	 -0.570	 -0.681	  0.504	  0.979	  4.966	 -7.122	  1.692	 -0.293	 -0.966	 32.700	 99.158	 -0.201
32077	 -0.570	 -0.709	  0.572	  0.243	  3.960	 -10.480	 -0.379	 -0.594	 -0.473	 32.700	 99.158	 -0.201
32128	 -0.605	 -0.740	  0.590	  0.702	  5.476	 -7.992	  0.540	  0.160	 -0.590	 32.700	 99.158	 -0.201
32177	 -0.646	 -0.774	  0.621	  0.356	  3.953	 -9.553	  0.165	 -0.304	 -0.370	 32.700	 99.146	  0.878
32228	 -0.701	 -0.796	  0.664	  0.780	  3.832	 -9.959	  0.202	 -0.203	  0.114	 32.700	 99.158	 -0.201
32278	 -0.754	 -0.819	  0.672	  1.025	  3.949	 -9.475	  0.345	  0.152	 -0.181	 32.700	 99.158	 -0.201
32328	 -0.808	 -0.823	  0.674	  0.525	  3.063	 -9.561	  0.447	 -0.134	  0.257	 32.700	 99.153	  0.248
32378	 -0.865	 -0.810	  0.680	 -0.413	  2.453	 -9.891	  0.642	  0.319	  0.449	 32.700	 99.146	  0.878
32428	 -0.941	 -0.805	  0.665	  0.114	  3.268	 -8.595	  0.593	  0.619	 -0.386	 32.700	 99.158	 -0.201
32478	 -1.001	 -0.818	  0.669	 -0.445	  1.985	 -9.542	  0.011	 -0.318	  0.203	 32.700	 99.158	 -0.201
32528	 -1.044	 -0.793	  0.747	  0.289	  2.271	 -9.608	  0.621	 -0.494	  0.390	 32.700	 99.158	 -0.201
32578	 -1.083	 -0.776	  0.784	  0.485	  1.651	 -11.004	  0.920	  0.035	 -0.425	 32.700	 99.158	 -0.201
32628	 -1.107	 -0.770	  0.799	 -0.161	  1.433	 -8.562	  1.217	  0.001	 -0.357	 32.700	 99.146	  0.878
32678	 -1.140	 -0.761	  0.804	 -0.411	  1.330	 -9.181	  0.883	 -0.078	 -0.291	 32.700	 99.158	 -0.201
32728	 -1.169	 -0.749	  0.835	  1.245	  0.188	 -8.999	  0.839	 -0.240	 -0.044	 32.700	 99.146	  0.878
32778	 -1.157	 -0.748	  0.835	 -1.025	 -0.120	 -8.705	 -0.373	 -0.174	 -0.159	 32.700	 99.158	 -0.201
32828	 -1.173	 -0.742	  0.852	  4.169	  0.387	 -16.067	  0.293	 -0.161	 -0.076	 32.700	 99.158	 -0.201
32878	 -1.170	 -0.734	  0.850	 -0.384	  0.314	 -9.612	  0.114	  0.043	  0.003	 32.700	 99.158	 -0.201
32928	 -1.184	 -0.733	  0.854	 -0.354	 -0.562	 -10.822	  0.077	 -0.002	  0.014	 32.700	 99.158	 -0.201
32978	 -1.176	 -0.730	  0.853	 -0.105	  0.431	 -9.437	  0.087	  0.016	 -0.001	 32.700	 99.162	 -0.561
33028	 -1.178	 -0.733	  0.855	 -0.115	  0.092	 -9.793	 -0.173	 -0.051	  0.002	 32.700	 99.169	 -1.191
33078	 -1.177	 -0.733	  0.855	 -0.067	  0.232	 -9.638	  0.186	  0.060	  0.001	 32.700	 99.146	  0.878
33128	 -1.177	 -0.729	  0.848	 -0.200	  0.269	 -9.655	 -0.045	 -0.006	  0.002	 32.700	 99.146	  0.878
33178	 -1.179	 -0.731	  0.854	  0.212	 -0.478	 -10.361	 -0.148	  0.001	 -0.010	 32.700	 99.162	 -0.561
33228	 -1.182	 -0.724	  0.856	 -0.181	  0.187	 -9.722	  0.127	  0.045	  0.002	 32.700	 99.162	 -0.561
33278	 -1.182	 -0.732	  0.857	 -0.009	  0.250	 -9.600	  0.038	  0.008	  0.001	 32.700	 99.158	 -0.201
33327	 -1.179	 -0.731	  0.854	 -0.034	  0.228	 -9.637	 -0.004	 -0.003	 -0.002	 32.700	 99.158	 -0.201
33377	 -1.178	 -0.726	  0.853	  0.091	  0.174	 -9.656	 -0.017	 -0.001	  0.000	 32.700	 99.169	 -1.191
33427	 -1.181	 -0.723	  0.855	  0.063	  0.177	 -9.667	 -0.004	  0.004	 -0.000	 32.700	 99.158	 -0.201
33477	 -1.181	 -0.728	  0.855	 -0.089	  0.157	 -9.670	  0.030	  0.012	  0.001	 32.700	 99.158	 -0.201
33527	 -1.182	 -0.730	  0.857	  0.068	 -0.151	 -10.065	  0.024	  0.003	  0.002	 32.700	 99.158	 -0.201
33577	 -1.181	 -0.730	  0.847	 -0.034	  0.186	 -9.687	 -0.013	 -0.001	  0.000	 32.700	 99.158	 -0.201
33627	 -1.181	 -0.727	  0.853	 -0.016	 -0.041	 -9.913	 -0.017	  0.001	  0.000	 32.700	 99.169	 -1.191
33677	 -1.181	 -0.732	  0.854	 -0.026	 -0.004	 -9.925	 -0.003	  0.002	  0.001	 32.700	 99.158	 -0.201
33727	 -1.180	 -0.732	  0.855	 -0.016	  0.018	 -9.843	  0.004	  0.003	  0.001	 32.700	 99.158	 -0.201
33777	 -1.179	 -0.723	  0.857	 -0.040	  0.081	 -9.827	 -0.001	  0.002	  0.003	 32.700	 99.158	 -0.201
33827	 -1.180	 -0.730	  0.853	 -0.023	  0.059	 -9.828	 -0.004	  0.002	  0.001	 32.700	 99.173	 -1.550
33877	 -1.181	 -0.733	  0.855	  0.014	  0.055	 -9.844	 -0.003	 -0.001	 -0.000	 32.700	 99.162	 -0.561
33928	 -1.182	 -0.729	  0.848	  0.011	  0.043	 -9.805	 -0.001	 -0.001	  0.000	 32.700	 99.146	  0.878
33977	 -1.182	 -0.728	  0.856	  0.025	  0.058	 -9.851	 -0.000	  0.002	  0.000	 32.700	 99.169	 -1.191
34027	 -1.180	 -0.730	  0.851	 -0.030	  0.055	 -9.856	 -0.004	  0.003	  0.001	 32.700	 99.158	 -0.201
34077	 -1.181	 -0.732	  0.851	 -0.032	  0.039	 -9.829	 -0.003	  0.001	  0.001	 32.700	 99.158	 -0.201
34127	 -1.181	 -0.729	  0.854	 -0.039	  0.075	 -9.793	  0.015	 -0.011	  0.000	 32.700	 99.146	  0.878
34177	 -1.182	 -0.730	  0.851	 -0.209	 -0.307	 -10.271	  0.062	  0.023	 -0.005	 32.700	 99.169	 -1.191
34227	 -1.178	 -0.730	  0.854	 -0.238	 -0.025	 -9.782	  0.026	  0.020	  0.001	 32.700	 99.158	 -0.201
34277	 -1.181	 -0.732	  0.850	 -0.393	 -0.114	 -10.072	 -0.026	  0.023	  0.013	 32.700	 99.158	 -0.201
34327	 -1.180	 -0.729	  0.849	 -0.072	  0.081	 -9.832	  0.020	  0.005	  0.003	 32.700	 99.158	 -0.201
34377	 -1.181	 -0.714	  0.850	 -0.258	  0.405	 -9.579	 -0.004	  0.001	  0.171	 32.700	 99.158	 -0.201
34427	 -1.187	 -0.722	  0.850	  0.055	  0.171	 -9.687	 -0.008	 -0.002	  0.379	 32.700	 99.158	 -0.201
34477	 -1.197	 -0.705	  0.839	 -0.068	  0.119	 -9.506	  0.009	  0.003	  0.358	 32.700	 99.153	  0.248
34527	 -1.200	 -0.698	  0.835	 -0.291	 -0.149	 -9.744	 -0.064	 -0.005	  0.353	 32.700	 99.158	 -0.201
34577	 -1.204	 -0.683	  0.828	 -0.052	 -0.486	 -10.517	 -0.097	  0.011	  0.000	 32.700	 99.162	 -0.561
34627	 -1.206	 -0.686	  0.833	 -0.018	 -0.546	 -10.550	  0.026	  0.004	  0.001	 32.700	 99.169	 -1.191
34677	 -1.203	 -0.689	  0.828	  0.085	  0.078	 -9.837	  0.085	  0.012	 -0.019	 32.700	 99.169	 -1.191
34727	 -1.202	 -0.682	  0.834	  0.091	 -0.687	 -10.492	  0.032	  0.004	 -0.049	 32.700	 99.158	 -0.201
34777	 -1.201	 -0.689	  0.830	  0.162	  0.007	 -9.921	  0.068	  0.002	  0.005	 32.700	 99.158	 -0.201
34827	 -1.203	 -0.694	  0.837	  0.061	 -0.349	 -10.428	 -0.020	 -0.008	 -0.002	 32.700	 99.158	 -0.201
34877	 -1.200	 -0.693	  0.834	 -0.039	  0.221	 -9.598	 -0.031	  0.006	  0.003	 32.700	 99.158	 -0.201
