Time	 MagX	 MagY	 MagZ	 AccelX	 AccelY	 AccelZ	 Yaw	 Pitch	 Roll	 Temperature	 Pressure	 Altitude
2251	  0.187	 -0.027	  0.196	 -0.043	 -0.068	 -9.477	  0.002	 -0.001	  0.010	 29.500	 99.500	 -99999.000
2301	  0.190	 -0.028	  0.192	 -0.123	 -0.028	 -9.477	  0.002	 -0.001	  0.011	 29.500	 99.500	 -99999.000
2351	  0.189	 -0.028	  0.195	 -0.018	 -0.054	 -9.455	  0.002	 -0.001	  0.010	 29.500	 99.488	 -99999.000
2401	  0.190	 -0.024	  0.199	 -0.081	 -0.044	 -9.470	  0.002	 -0.001	  0.011	 29.500	 99.488	 -99999.000
2451	  0.190	 -0.022	  0.192	 -0.051	 -0.042	 -9.501	  0.003	 -0.001	  0.012	 29.500	 99.488	 -99999.000
2501	  0.191	 -0.024	  0.199	 -0.076	 -0.051	 -9.480	  0.002	 -0.000	  0.010	 29.500	 99.500	 -99999.000
2551	  0.191	 -0.028	  0.193	 -0.037	 -0.041	 -9.466	  0.003	 -0.001	  0.011	 29.500	 99.500	 -99999.000
2601	  0.190	 -0.026	  0.196	 -0.053	 -0.047	 -9.515	  0.003	 -0.001	  0.011	 29.500	 99.500	 -99999.000
2651	  0.188	 -0.026	  0.197	 -0.023	 -0.026	 -9.491	  0.002	 -0.002	  0.010	 29.500	 99.488	 -99999.000
2701	  0.191	 -0.024	  0.197	 -0.058	 -0.027	 -9.493	  0.002	 -0.001	  0.013	 29.500	 99.500	 -99999.000
2751	  0.188	 -0.022	  0.200	 -0.016	 -0.044	 -9.471	  0.003	 -0.000	  0.010	 29.500	 99.500	 -99999.000
2801	  0.187	 -0.024	  0.194	 -0.049	 -0.024	 -9.492	  0.002	  0.000	  0.010	 29.500	 99.488	 -99999.000
2851	  0.189	 -0.022	  0.189	 -0.047	 -0.047	 -9.473	  0.002	 -0.001	  0.013	 29.500	 99.488	 -99999.000
2901	  0.191	 -0.026	  0.195	 -0.035	 -0.039	 -9.495	  0.002	  0.000	  0.009	 29.500	 99.488	 -99999.000
2951	  0.190	 -0.022	  0.199	 -0.044	 -0.005	 -9.500	  0.002	 -0.000	  0.010	 29.500	 99.488	 -99999.000
3001	  0.190	 -0.028	  0.192	 -0.024	 -0.038	 -9.486	  0.003	 -0.001	  0.010	 29.500	 99.488	 -99999.000
3051	  0.190	 -0.026	  0.193	 -0.078	 -0.005	 -9.438	  0.003	 -0.000	  0.010	 29.500	 99.488	 -99999.000
3101	  0.190	 -0.022	  0.196	 -0.036	 -0.073	 -9.491	  0.002	  0.001	  0.011	 29.500	 99.500	 -99999.000
3151	  0.189	 -0.022	  0.201	 -0.079	 -0.006	 -9.504	  0.003	 -0.000	  0.012	 29.500	 99.500	 -99999.000
3200	  0.190	 -0.027	  0.193	 -0.044	 -0.055	 -9.464	  0.002	 -0.001	  0.010	 29.500	 99.488	 -99999.000
3250	  0.190	 -0.026	  0.197	 -0.073	 -0.081	 -9.484	  0.002	 -0.000	  0.010	 29.500	 99.500	 -99999.000
3300	  0.191	 -0.011	  0.193	 -0.058	 -0.048	 -9.464	  0.004	 -0.001	  0.011	 29.500	 99.476	 -99999.000
3350	  0.190	 -0.030	  0.192	 -0.062	 -0.032	 -9.491	  0.003	 -0.002	  0.012	 29.500	 99.488	 -99999.000
3400	  0.188	 -0.028	  0.192	 -0.075	 -0.048	 -9.470	  0.003	 -0.001	  0.010	 29.500	 99.500	 -99999.000
3450	  0.188	 -0.028	  0.197	 -0.074	 -0.032	 -9.502	  0.002	 -0.001	  0.012	 29.500	 99.504	 -99999.000
3500	  0.191	 -0.024	  0.199	 -0.065	 -0.047	 -9.489	  0.003	 -0.002	  0.013	 29.500	 99.500	 -99999.000
3550	  0.190	 -0.027	  0.196	 -0.051	 -0.028	 -9.495	  0.003	 -0.002	  0.011	 29.500	 99.488	 -99999.000
3600	  0.189	 -0.022	  0.200	 -0.032	 -0.036	 -9.482	  0.003	 -0.001	  0.011	 29.500	 99.500	 -99999.000
3650	  0.193	 -0.027	  0.199	 -0.087	 -0.013	 -9.490	  0.004	 -0.001	  0.012	 29.500	 99.488	 -99999.000
3700	  0.193	 -0.023	  0.197	 -0.014	 -0.049	 -9.493	  0.004	 -0.000	  0.011	 29.500	 99.500	 -99999.000
3750	  0.190	 -0.030	  0.199	 -0.069	 -0.004	 -9.492	  0.002	 -0.001	  0.011	 29.500	 99.500	 -99999.000
3800	  0.194	 -0.026	  0.200	 -0.015	 -0.070	 -9.492	  0.003	 -0.002	  0.011	 29.500	 99.488	 -99999.000
3850	  0.190	 -0.028	  0.197	 -0.080	 -0.014	 -9.492	  0.003	 -0.001	  0.011	 29.500	 99.500	 -99999.000
3900	  0.193	 -0.030	  0.192	  0.005	 -0.081	 -9.492	  0.002	 -0.002	  0.011	 29.500	 99.488	 -99999.000
3950	  0.191	 -0.028	  0.198	 -0.082	 -0.042	 -9.480	  0.002	 -0.000	  0.009	 29.500	 99.488	 -99999.000
4000	  0.190	 -0.014	  0.200	 -0.025	 -0.069	 -9.499	  0.002	 -0.001	  0.010	 29.500	 99.500	 -99999.000
4050	  0.188	 -0.019	  0.197	 -0.099	 -0.032	 -9.483	  0.002	  0.000	  0.010	 29.500	 99.500	 -99999.000
4100	  0.190	 -0.027	  0.195	 -0.011	 -0.051	 -9.487	  0.003	 -0.001	  0.011	 29.500	 99.500	 -99999.000
4150	  0.191	 -0.014	  0.197	 -0.133	 -0.017	 -9.467	  0.001	 -0.001	  0.012	 29.500	 99.504	 -99999.000
4200	  0.192	 -0.031	  0.193	 -0.001	 -0.081	 -9.485	  0.002	 -0.001	  0.011	 29.500	 99.500	 -99999.000
4250	  0.193	 -0.024	  0.200	 -0.099	 -0.046	 -9.464	  0.002	  0.001	  0.010	 29.500	 99.488	 -99999.000
4300	  0.191	 -0.026	  0.199	 -0.028	 -0.051	 -9.468	  0.003	 -0.002	  0.011	 29.500	 99.492	 -99999.000
4350	  0.190	 -0.028	  0.188	 -0.088	 -0.033	 -9.480	  0.002	 -0.001	  0.011	 29.500	 99.500	 -99999.000
4400	  0.189	 -0.030	  0.197	 -0.020	 -0.046	 -9.480	  0.003	 -0.002	  0.010	 29.500	 99.500	 -99999.000
4450	  0.191	 -0.023	  0.199	 -0.090	 -0.048	 -9.498	  0.002	  0.000	  0.011	 29.500	 99.492	 -99999.000
4500	  0.189	 -0.024	  0.197	 -0.023	 -0.037	 -9.522	  0.002	 -0.002	  0.012	 29.500	 99.488	 -99999.000
4550	  0.191	 -0.026	  0.196	 -0.110	 -0.047	 -9.498	  0.001	 -0.002	  0.011	 29.500	 99.488	 -99999.000
4600	  0.189	 -0.023	  0.196	 -0.030	 -0.032	 -9.496	  0.002	 -0.001	  0.009	 29.500	 99.488	 -99999.000
4650	  0.191	 -0.017	  0.199	 -0.069	 -0.063	 -9.475	  0.003	 -0.000	  0.009	 29.500	 99.488	 -99999.000
4700	  0.191	 -0.024	  0.189	 -0.007	 -0.026	 -9.481	  0.002	 -0.002	  0.011	 29.500	 99.488	 -99999.000
4750	  0.194	 -0.026	  0.200	 -0.068	 -0.036	 -9.484	  0.002	 -0.000	  0.012	 29.500	 99.488	 -99999.000
4800	  0.192	 -0.030	  0.200	 -0.032	 -0.036	 -9.488	  0.002	 -0.001	  0.010	 29.500	 99.492	 -99999.000
4850	  0.193	 -0.023	  0.196	 -0.036	 -0.046	 -9.486	  0.002	 -0.000	  0.010	 29.500	 99.488	 -99999.000
4900	  0.188	 -0.024	  0.203	 -0.032	 -0.019	 -9.477	  0.002	 -0.001	  0.010	 29.500	 99.488	 -99999.000
4951	  0.191	 -0.021	  0.196	 -0.041	 -0.050	 -9.476	  0.002	 -0.002	  0.011	 29.500	 99.488	 -99999.000
5000	  0.190	 -0.028	  0.192	 -0.079	  0.002	 -9.496	  0.003	 -0.003	  0.011	 29.500	 99.500	 -99999.000
5050	  0.191	 -0.024	  0.193	 -0.054	 -0.031	 -9.496	  0.002	 -0.002	  0.012	 29.500	 99.500	 -99999.000
5100	  0.191	 -0.023	  0.199	 -0.028	 -0.042	 -9.506	  0.002	 -0.001	  0.012	 29.500	 99.504	 -99999.000
5150	  0.193	 -0.017	  0.193	 -0.047	 -0.057	 -9.489	  0.002	 -0.000	  0.009	 29.500	 99.488	 -99999.000
5200	  0.191	 -0.026	  0.191	 -0.068	 -0.046	 -9.468	  0.003	 -0.001	  0.010	 29.500	 99.488	 -99999.000
7226	  0.192	 -0.033	  0.188	 -0.025	 -0.061	 -9.516	  0.003	 -0.001	  0.011	 29.500	 99.492	  0.145
7276	  0.194	 -0.030	  0.195	 -0.033	 -0.097	 -9.464	  0.002	  0.001	  0.011	 29.500	 99.492	  0.145
7326	  0.189	 -0.026	  0.196	 -0.052	 -0.015	 -9.461	  0.001	 -0.003	  0.013	 29.500	 99.492	  0.145
7376	  0.193	 -0.030	  0.198	 -0.053	 -0.057	 -9.521	  0.003	 -0.000	  0.011	 29.500	 99.488	  0.513
7426	  0.193	 -0.028	  0.200	 -0.094	 -0.003	 -9.467	  0.002	 -0.001	  0.011	 29.500	 99.488	  0.513
7476	  0.194	 -0.031	  0.190	 -0.023	 -0.071	 -9.487	  0.003	 -0.001	  0.011	 29.500	 99.504	 -0.960
7526	  0.190	 -0.023	  0.200	 -0.088	 -0.040	 -9.489	  0.002	 -0.000	  0.010	 29.500	 99.488	  0.513
7576	  0.194	 -0.027	  0.193	  0.020	 -0.058	 -9.474	  0.003	 -0.001	  0.012	 29.500	 99.492	  0.145
7626	  0.190	 -0.028	  0.189	 -0.080	 -0.027	 -9.478	  0.003	 -0.001	  0.012	 29.500	 99.492	  0.145
7676	  0.194	 -0.028	  0.193	  0.011	 -0.052	 -9.496	  0.003	 -0.001	  0.012	 29.500	 99.500	 -0.592
7726	  0.192	 -0.028	  0.198	 -0.090	 -0.026	 -9.487	  0.002	 -0.001	  0.011	 29.500	 99.488	  0.513
7776	  0.195	 -0.026	  0.198	  0.015	 -0.065	 -9.507	  0.003	 -0.001	  0.010	 29.500	 99.504	 -0.960
7826	  0.194	 -0.035	  0.196	 -0.100	 -0.020	 -9.475	  0.003	  0.000	  0.010	 29.500	 99.488	  0.513
7876	  0.193	 -0.026	  0.199	  0.007	 -0.049	 -9.500	  0.002	 -0.002	  0.012	 29.500	 99.488	  0.513
7926	  0.194	 -0.033	  0.198	 -0.096	 -0.014	 -9.490	  0.002	 -0.001	  0.010	 29.500	 99.488	  0.513
7976	  0.193	 -0.014	  0.196	 -0.007	 -0.067	 -9.471	  0.003	 -0.002	  0.012	 29.500	 99.500	 -0.592
8026	  0.196	 -0.030	  0.198	 -0.087	 -0.039	 -9.499	  0.002	 -0.000	  0.011	 29.500	 99.500	 -0.592
8076	  0.198	 -0.026	  0.196	  0.005	 -0.040	 -9.472	  0.002	  0.001	  0.012	 29.500	 99.504	 -0.960
8126	  0.198	 -0.035	  0.191	 -0.067	 -0.064	 -9.523	  0.002	 -0.002	  0.011	 29.500	 99.488	  0.513
8176	  0.201	 -0.035	  0.191	 -0.013	 -0.048	 -9.473	  0.002	 -0.001	  0.011	 29.500	 99.488	  0.513
8226	  0.198	 -0.030	  0.192	 -0.106	 -0.041	 -9.505	  0.004	  0.000	  0.010	 29.500	 99.492	  0.145
8276	  0.199	 -0.037	  0.195	 -0.038	 -0.032	 -9.508	  0.003	 -0.001	  0.011	 29.500	 99.488	  0.513
8326	  0.202	 -0.032	  0.197	 -0.116	 -0.045	 -9.469	  0.002	 -0.002	  0.011	 29.500	 99.492	  0.145
8376	  0.201	 -0.037	  0.193	 -0.048	 -0.033	 -9.469	  0.002	 -0.000	  0.010	 29.500	 99.500	 -0.592
8426	  0.202	 -0.028	  0.186	 -0.072	 -0.065	 -9.495	  0.002	 -0.000	  0.011	 29.500	 99.492	  0.145
8476	  0.201	 -0.037	  0.187	 -0.014	 -0.021	 -9.482	  0.002	 -0.000	  0.011	 29.500	 99.504	 -0.960
8526	  0.201	 -0.037	  0.187	 -0.045	 -0.046	 -9.505	  0.003	 -0.001	  0.011	 29.500	 99.500	 -0.592
8576	  0.201	 -0.045	  0.191	 -0.057	 -0.009	 -9.486	  0.002	 -0.000	  0.011	 29.500	 99.504	 -0.960
8626	  0.201	 -0.038	  0.185	 -0.016	 -0.048	 -9.482	  0.002	 -0.001	  0.010	 29.500	 99.488	  0.513
8676	  0.200	 -0.022	  0.191	 -0.067	 -0.026	 -9.455	  0.003	 -0.003	  0.010	 29.500	 99.500	 -0.592
8726	  0.200	 -0.040	  0.186	 -0.049	 -0.054	 -9.473	  0.002	  0.001	  0.011	 29.500	 99.500	 -0.592
8776	  0.201	 -0.037	  0.179	 -0.036	  0.009	 -9.440	  0.003	 -0.003	  0.011	 29.500	 99.488	  0.513
8826	  0.200	 -0.038	  0.186	 -0.057	 -0.052	 -9.575	  0.002	 -0.001	  0.011	 29.500	 99.492	  0.145
8876	  0.196	 -0.036	  0.184	 -0.106	 -0.010	 -9.591	  0.002	 -0.001	  0.012	 29.500	 99.492	  0.145
8926	  0.201	 -0.027	  0.186	  0.005	 -0.076	 -9.452	  0.003	 -0.000	  0.011	 29.500	 99.492	  0.145
8976	  0.199	 -0.028	  0.184	 -0.058	 -0.035	 -9.487	  0.003	  0.000	  0.011	 29.500	 99.504	 -0.960
9026	  0.201	 -0.030	  0.183	  0.007	 -0.064	 -9.479	  0.002	  0.000	  0.011	 29.500	 99.492	  0.145
9076	  0.198	 -0.041	  0.184	 -0.071	 -0.025	 -9.492	  0.003	 -0.001	  0.012	 29.500	 99.500	 -0.592
9126	  0.199	 -0.035	  0.179	 -0.036	 -0.072	 -9.498	  0.001	  0.000	  0.011	 29.500	 99.500	 -0.592
9176	  0.198	 -0.040	  0.183	 -0.111	 -0.019	 -9.498	  0.002	 -0.001	  0.010	 29.500	 99.488	  0.513
9226	  0.199	 -0.042	  0.186	 -0.015	 -0.046	 -9.485	  0.003	 -0.000	  0.011	 29.500	 99.492	  0.145
9276	  0.195	 -0.040	  0.176	 -0.100	 -0.022	 -9.501	  0.002	 -0.000	  0.010	 29.500	 99.488	  0.513
9326	  0.198	 -0.038	  0.183	 -0.026	 -0.047	 -9.490	  0.002	 -0.001	  0.011	 29.500	 99.488	  0.513
9376	  0.197	 -0.043	  0.181	 -0.134	 -0.060	 -9.461	  0.001	 -0.001	  0.011	 29.500	 99.492	  0.145
9426	  0.194	 -0.042	  0.180	  0.001	 -0.056	 -9.476	  0.003	 -0.001	  0.012	 29.500	 99.488	  0.513
9476	  0.197	 -0.042	  0.184	 -0.132	 -0.035	 -9.472	  0.003	 -0.000	  0.011	 29.500	 99.492	  0.145
9526	  0.196	 -0.040	  0.176	 -0.011	 -0.035	 -9.469	  0.002	 -0.001	  0.011	 29.500	 99.488	  0.513
9576	  0.195	 -0.035	  0.186	 -0.104	 -0.025	 -9.477	  0.002	 -0.001	  0.011	 29.500	 99.488	  0.513
9626	  0.199	 -0.032	  0.183	 -0.018	 -0.050	 -9.508	  0.003	 -0.001	  0.011	 29.500	 99.492	  0.145
9676	  0.199	 -0.038	  0.182	 -0.106	 -0.040	 -9.494	  0.003	 -0.002	  0.010	 29.500	 99.500	 -0.592
9726	  0.196	 -0.040	  0.178	  0.010	 -0.054	 -9.474	  0.003	 -0.001	  0.009	 29.500	 99.492	  0.145
9776	  0.200	 -0.045	  0.185	 -0.072	 -0.017	 -9.484	  0.002	 -0.001	  0.009	 29.500	 99.476	  1.617
9827	  0.199	 -0.042	  0.182	 -0.000	 -0.034	 -9.466	  0.003	 -0.002	  0.012	 29.500	 99.488	  0.513
9876	  0.197	 -0.043	  0.182	 -0.049	 -0.049	 -9.497	  0.003	 -0.002	  0.010	 29.500	 99.492	  0.145
9926	  0.194	 -0.040	  0.184	 -0.034	 -0.046	 -9.545	  0.003	 -0.001	  0.012	 29.500	 99.488	  0.513
9976	  0.195	 -0.038	  0.183	 -0.060	 -0.030	 -9.531	  0.003	 -0.000	  0.012	 29.500	 99.488	  0.513
10026	  0.195	 -0.041	  0.184	 -0.003	 -0.049	 -9.489	  0.001	 -0.000	  0.010	 29.500	 99.488	  0.513
10076	  0.199	 -0.037	  0.184	 -0.068	 -0.040	 -9.502	  0.002	 -0.001	  0.011	 29.500	 99.500	 -0.592
10127	  0.199	 -0.038	  0.186	 -0.055	 -0.039	 -9.477	  0.002	 -0.001	  0.011	 29.500	 99.500	 -0.592
10176	  0.196	 -0.038	  0.180	 -0.084	 -0.060	 -9.475	  0.003	 -0.002	  0.011	 29.500	 99.492	  0.145
10226	  0.201	 -0.036	  0.183	 -0.045	  0.026	 -9.443	  0.004	 -0.001	  0.010	 29.500	 99.480	  1.248
10277	  0.195	 -0.041	  0.183	 -0.067	 -0.029	 -9.476	  0.003	 -0.001	  0.012	 29.500	 99.504	 -0.960
10326	  0.200	 -0.036	  0.184	 -0.043	 -0.042	 -9.478	  0.002	  0.000	  0.012	 29.500	 99.488	  0.513
10376	  0.201	 -0.038	  0.185	 -0.044	 -0.025	 -9.477	  0.003	  0.000	  0.013	 29.500	 99.492	  0.145
10427	  0.200	 -0.045	  0.175	 -0.099	 -0.049	 -9.457	  0.001	  0.001	  0.011	 29.500	 99.504	 -0.960
10476	  0.200	 -0.043	  0.183	 -0.008	 -0.012	 -9.340	  0.002	 -0.002	  0.010	 29.500	 99.488	  0.513
10525	  0.200	 -0.043	  0.186	 -0.060	 -0.040	 -9.408	  0.006	 -0.010	  0.010	 29.500	 99.504	 -0.960
10576	  0.199	 -0.040	  0.184	 -0.165	 -0.035	 -9.431	  0.003	  0.002	  0.011	 29.500	 99.492	  0.145
10626	  0.196	 -0.036	  0.186	 -0.055	  0.019	 -9.443	  0.003	 -0.004	  0.011	 29.500	 99.488	  0.513
10676	  0.198	 -0.042	  0.186	 -0.042	  0.001	 -9.534	  0.004	 -0.001	  0.009	 29.500	 99.488	  0.513
10727	  0.198	 -0.041	  0.181	 -0.058	  0.006	 -9.415	  0.003	  0.000	  0.010	 29.500	 99.504	 -0.960
10777	  0.204	 -0.023	  0.191	  0.061	 -0.030	 -9.396	  0.003	 -0.002	  0.011	 29.500	 99.492	  0.145
10826	  0.201	 -0.032	  0.189	 -0.128	 -0.048	 -9.553	  0.003	 -0.002	  0.010	 29.500	 99.488	  0.513
10876	  0.201	 -0.036	  0.183	 -0.005	 -0.084	 -9.546	  0.003	 -0.001	  0.011	 29.500	 99.492	  0.145
10926	  0.199	 -0.037	  0.183	 -0.098	 -0.032	 -9.483	  0.002	 -0.001	  0.011	 29.500	 99.488	  0.513
10976	  0.199	 -0.035	  0.191	  0.003	 -0.056	 -9.494	  0.003	 -0.002	  0.010	 29.500	 99.504	 -0.960
11026	  0.201	 -0.038	  0.190	 -0.106	 -0.009	 -9.518	  0.003	 -0.002	  0.011	 29.500	 99.492	  0.145
11076	  0.200	 -0.040	  0.187	 -0.004	 -0.045	 -9.524	  0.002	 -0.001	  0.011	 29.500	 99.500	 -0.592
11126	  0.200	 -0.036	  0.189	 -0.098	 -0.016	 -9.492	  0.003	 -0.001	  0.011	 29.500	 99.500	 -0.592
11176	  0.195	 -0.035	  0.187	 -0.005	 -0.064	 -9.472	  0.002	  0.000	  0.011	 29.500	 99.500	 -0.592
11226	  0.200	 -0.027	  0.187	 -0.094	 -0.027	 -9.478	  0.003	 -0.001	  0.011	 29.500	 99.488	  0.513
11276	  0.200	 -0.041	  0.181	  0.002	 -0.043	 -9.440	  0.002	 -0.000	  0.012	 29.500	 99.488	  0.513
11326	  0.199	 -0.038	  0.187	 -0.077	 -0.065	 -9.488	  0.004	 -0.000	  0.011	 29.500	 99.500	 -0.592
11376	  0.200	 -0.042	  0.185	 -0.008	 -0.039	 -9.532	  0.003	 -0.002	  0.011	 29.500	 99.492	  0.145
11426	  0.201	 -0.040	  0.191	 -0.137	 -0.043	 -9.515	  0.003	  0.000	  0.011	 29.500	 99.492	  0.145
11476	  0.200	 -0.032	  0.187	 -0.016	 -0.031	 -9.489	  0.003	 -0.000	  0.012	 29.500	 99.492	  0.145
11526	  0.200	 -0.028	  0.187	 -0.080	 -0.062	 -9.485	  0.003	 -0.002	  0.010	 29.500	 99.492	  0.145
11576	  0.199	 -0.036	  0.191	 -0.024	 -0.047	 -9.483	  0.002	 -0.001	  0.010	 29.500	 99.488	  0.513
11626	  0.201	 -0.035	  0.182	 -0.108	 -0.043	 -9.498	  0.003	 -0.001	  0.011	 29.500	 99.504	 -0.960
11676	  0.201	 -0.040	  0.186	 -0.047	 -0.041	 -9.501	  0.002	 -0.000	  0.011	 29.500	 99.488	  0.513
11726	  0.200	 -0.026	  0.190	 -0.064	 -0.037	 -9.443	  0.002	 -0.001	  0.010	 29.500	 99.492	  0.145
11776	  0.198	 -0.040	  0.183	 -0.061	 -0.045	 -9.489	  0.002	 -0.001	  0.010	 29.500	 99.504	 -0.960
11826	  0.198	 -0.038	  0.191	 -0.078	 -0.039	 -9.507	  0.001	 -0.001	  0.011	 29.500	 99.500	 -0.592
11876	  0.202	 -0.032	  0.175	 -0.031	 -0.031	 -9.495	  0.002	 -0.002	  0.011	 29.500	 99.492	  0.145
11926	  0.199	 -0.038	  0.186	 -0.056	 -0.049	 -9.484	  0.002	 -0.002	  0.011	 29.500	 99.492	  0.145
11976	  0.204	 -0.038	  0.187	 -0.063	 -0.024	 -9.533	  0.002	 -0.001	  0.011	 29.500	 99.488	  0.513
12026	  0.198	 -0.036	  0.183	 -0.041	 -0.057	 -9.486	  0.003	 -0.002	  0.010	 29.500	 99.480	  1.248
12076	  0.201	 -0.040	  0.181	 -0.057	 -0.012	 -9.496	  0.002	  0.000	  0.011	 29.500	 99.500	 -0.592
12126	  0.201	 -0.032	  0.187	 -0.024	 -0.042	 -9.512	  0.002	 -0.002	  0.011	 29.500	 99.492	  0.145
12176	  0.199	 -0.037	  0.187	 -0.035	  0.003	 -9.505	  0.002	 -0.002	  0.012	 29.500	 99.480	  1.248
12226	  0.201	 -0.031	  0.190	  0.006	 -0.041	 -9.512	  0.002	 -0.001	  0.010	 29.500	 99.504	 -0.960
12276	  0.201	 -0.037	  0.187	 -0.075	 -0.030	 -9.501	  0.003	 -0.000	  0.012	 29.500	 99.504	 -0.960
12326	  0.202	 -0.035	  0.189	 -0.022	 -0.062	 -9.457	  0.002	 -0.001	  0.011	 29.500	 99.492	  0.145
12376	  0.200	 -0.041	  0.191	 -0.077	 -0.023	 -9.491	  0.003	 -0.001	  0.011	 29.500	 99.504	 -0.960
12426	  0.200	 -0.038	  0.187	 -0.017	 -0.038	 -9.472	  0.002	 -0.000	  0.010	 29.500	 99.488	  0.513
12476	  0.199	 -0.037	  0.187	 -0.114	 -0.026	 -9.472	  0.002	 -0.001	  0.011	 29.500	 99.488	  0.513
12526	  0.200	 -0.035	  0.186	 -0.025	 -0.063	 -9.465	  0.002	 -0.000	  0.011	 29.500	 99.504	 -0.960
12576	  0.199	 -0.035	  0.187	 -0.095	 -0.011	 -9.497	  0.002	  0.000	  0.010	 29.500	 99.500	 -0.592
12626	  0.201	 -0.040	  0.185	 -0.030	 -0.052	 -9.479	  0.003	 -0.001	  0.011	 29.500	 99.488	  0.513
12676	  0.200	 -0.036	  0.183	 -0.121	 -0.022	 -9.498	  0.003	 -0.002	  0.011	 29.500	 99.488	  0.513
12726	  0.198	 -0.037	  0.190	 -0.012	 -0.064	 -9.505	  0.002	 -0.001	  0.010	 29.500	 99.500	 -0.592
12776	  0.199	 -0.033	  0.188	 -0.076	 -0.005	 -9.424	  0.003	 -0.001	  0.011	 29.500	 99.488	  0.513
12826	  0.200	 -0.037	  0.190	 -0.006	 -0.050	 -9.472	  0.003	 -0.000	  0.010	 29.500	 99.492	  0.145
12876	  0.199	 -0.035	  0.190	 -0.104	 -0.016	 -9.501	  0.001	 -0.002	  0.011	 29.500	 99.492	  0.145
12926	  0.200	 -0.037	  0.191	  0.009	 -0.066	 -9.511	  0.003	 -0.000	  0.011	 29.500	 99.488	  0.513
12976	  0.200	 -0.037	  0.187	 -0.099	 -0.049	 -9.460	  0.003	 -0.002	  0.011	 29.500	 99.492	  0.145
13026	  0.199	 -0.038	  0.193	  0.008	 -0.061	 -9.466	  0.002	 -0.001	  0.010	 29.500	 99.504	 -0.960
13076	  0.199	 -0.024	  0.187	 -0.065	 -0.023	 -9.484	  0.003	 -0.001	  0.010	 29.500	 99.480	  1.248
13126	  0.202	 -0.037	  0.190	  0.010	 -0.035	 -9.550	  0.003	 -0.001	  0.009	 29.500	 99.492	  0.145
13176	  0.201	 -0.033	  0.187	 -0.075	 -0.024	 -9.498	  0.003	 -0.001	  0.011	 29.500	 99.500	 -0.592
13226	  0.199	 -0.037	  0.186	 -0.018	 -0.028	 -9.503	  0.003	 -0.001	  0.011	 29.500	 99.476	  1.617
13276	  0.201	 -0.037	  0.185	 -0.056	 -0.026	 -9.456	  0.003	 -0.001	  0.010	 29.500	 99.504	 -0.960
13326	  0.200	 -0.023	  0.186	 -0.022	 -0.043	 -9.561	  0.002	 -0.001	  0.010	 29.500	 99.492	  0.145
13376	  0.201	 -0.038	  0.185	 -0.081	 -0.027	 -9.461	  0.003	 -0.000	  0.010	 29.500	 99.500	 -0.592
13426	  0.198	 -0.033	  0.183	 -0.017	 -0.040	 -9.485	  0.002	  0.000	  0.012	 29.500	 99.500	 -0.592
13476	  0.199	 -0.036	  0.184	 -0.048	 -0.040	 -9.476	  0.002	  0.000	  0.011	 29.500	 99.504	 -0.960
13526	  0.202	 -0.036	  0.189	 -0.030	 -0.041	 -9.487	  0.002	 -0.002	  0.011	 29.500	 99.480	  1.248
13576	  0.202	 -0.032	  0.191	 -0.053	 -0.020	 -9.496	  0.002	 -0.000	  0.010	 29.500	 99.492	  0.145
13626	  0.201	 -0.036	  0.194	 -0.049	 -0.055	 -9.530	  0.002	  0.001	  0.011	 29.500	 99.504	 -0.960
13676	  0.200	 -0.037	  0.187	 -0.050	 -0.031	 -9.478	  0.002	  0.001	  0.011	 29.500	 99.492	  0.145
13726	  0.200	 -0.042	  0.189	 -0.060	 -0.039	 -9.468	  0.003	 -0.003	  0.011	 29.500	 99.504	 -0.960
13776	  0.200	 -0.033	  0.190	 -0.055	 -0.048	 -9.461	  0.003	 -0.001	  0.012	 29.500	 99.488	  0.513
13826	  0.199	 -0.038	  0.184	 -0.087	 -0.032	 -9.483	  0.003	 -0.000	  0.011	 29.500	 99.500	 -0.592
13876	  0.202	 -0.031	  0.186	 -0.063	 -0.059	 -9.517	  0.003	 -0.001	  0.011	 29.500	 99.492	  0.145
13926	  0.202	 -0.032	  0.190	 -0.043	 -0.022	 -9.470	  0.003	 -0.001	  0.011	 29.500	 99.476	  1.617
13976	  0.202	 -0.037	  0.190	 -0.021	 -0.071	 -9.472	  0.001	 -0.001	  0.011	 29.500	 99.492	  0.145
14026	  0.200	 -0.038	  0.184	 -0.079	 -0.021	 -9.478	  0.003	 -0.000	  0.011	 29.500	 99.492	  0.145
14076	  0.200	 -0.037	  0.190	 -0.035	 -0.074	 -9.525	  0.002	 -0.002	  0.011	 29.500	 99.492	  0.145
14126	  0.200	 -0.040	  0.186	 -0.079	 -0.006	 -9.519	  0.002	 -0.001	  0.010	 29.500	 99.504	 -0.960
14176	  0.199	 -0.037	  0.194	  0.029	 -0.037	 -9.480	  0.003	 -0.002	  0.010	 29.500	 99.488	  0.513
14226	  0.199	 -0.032	  0.190	 -0.091	 -0.035	 -9.512	  0.003	 -0.002	  0.013	 29.500	 99.500	 -0.592
14276	  0.204	 -0.035	  0.189	 -0.001	 -0.049	 -9.505	  0.000	 -0.000	  0.010	 29.500	 99.488	  0.513
14326	  0.201	 -0.037	  0.189	 -0.064	 -0.029	 -9.516	  0.003	 -0.002	  0.011	 29.500	 99.488	  0.513
14376	  0.200	 -0.041	  0.178	  0.010	 -0.053	 -9.500	  0.001	 -0.001	  0.010	 29.500	 99.488	  0.513
14426	  0.199	 -0.036	  0.191	 -0.090	 -0.038	 -9.478	  0.003	  0.001	  0.010	 29.500	 99.492	  0.145
14476	  0.202	 -0.028	  0.186	 -0.009	 -0.069	 -9.489	  0.002	  0.001	  0.011	 29.500	 99.480	  1.248
14526	  0.200	 -0.040	  0.190	 -0.115	 -0.007	 -9.500	  0.003	 -0.002	  0.010	 29.500	 99.488	  0.513
14576	  0.201	 -0.035	  0.190	 -0.010	 -0.043	 -9.467	  0.002	 -0.002	  0.010	 29.500	 99.492	  0.145
14626	  0.199	 -0.038	  0.181	 -0.116	 -0.018	 -9.458	  0.004	 -0.000	  0.011	 29.500	 99.504	 -0.960
14676	  0.198	 -0.037	  0.187	 -0.024	 -0.072	 -9.459	  0.002	  0.001	  0.011	 29.500	 99.504	 -0.960
14726	  0.200	 -0.027	  0.190	 -0.099	 -0.033	 -9.479	  0.003	 -0.001	  0.011	 29.500	 99.480	  1.248
14776	  0.200	 -0.035	  0.186	 -0.026	 -0.040	 -9.501	  0.002	  0.001	  0.012	 29.500	 99.500	 -0.592
14826	  0.200	 -0.043	  0.189	 -0.130	 -0.068	 -9.492	  0.002	  0.000	  0.011	 29.500	 99.492	  0.145
14876	  0.204	 -0.036	  0.182	 -0.007	 -0.052	 -9.506	  0.002	  0.000	  0.011	 29.500	 99.504	 -0.960
14926	  0.200	 -0.023	  0.188	 -0.112	 -0.019	 -9.489	  0.001	 -0.000	  0.010	 29.500	 99.492	  0.145
14976	  0.201	 -0.035	  0.186	 -0.023	 -0.057	 -9.491	  0.002	 -0.000	  0.011	 29.500	 99.476	  1.617
15026	  0.202	 -0.028	  0.186	 -0.099	 -0.014	 -9.455	  0.003	  0.000	  0.011	 29.500	 99.492	  0.145
15076	  0.199	 -0.037	  0.187	 -0.045	 -0.059	 -9.496	  0.003	 -0.001	  0.012	 29.500	 99.492	  0.145
15126	  0.198	 -0.030	  0.183	 -0.047	 -0.078	 -9.477	  0.002	 -0.001	  0.011	 29.500	 99.504	 -0.960
15176	  0.199	 -0.023	  0.190	 -0.008	 -0.078	 -9.538	  0.001	  0.001	  0.010	 29.500	 99.488	  0.513
15226	  0.202	 -0.035	  0.191	 -0.129	 -0.037	 -9.556	  0.004	 -0.002	  0.011	 29.500	 99.492	  0.145
15276	  0.202	 -0.032	  0.187	 -0.019	 -0.057	 -9.509	  0.002	 -0.000	  0.011	 29.500	 99.488	  0.513
15326	  0.200	 -0.024	  0.186	 -0.038	 -0.047	 -9.502	  0.001	 -0.001	  0.010	 29.500	 99.488	  0.513
15376	  0.198	 -0.037	  0.189	 -0.024	 -0.043	 -9.510	  0.002	 -0.001	  0.010	 29.500	 99.492	  0.145
15425	  0.200	 -0.040	  0.182	 -0.010	 -0.017	 -9.267	  0.004	 -0.004	  0.010	 29.500	 99.504	 -0.960
15475	  0.202	 -0.035	  0.187	 -0.228	 -0.158	 -9.920	  0.006	 -0.008	  0.010	 29.500	 99.492	  0.145
15525	  0.202	 -0.026	  0.190	 -0.092	 -0.075	 -9.437	  0.001	  0.005	  0.008	 29.500	 99.492	  0.145
15575	  0.201	 -0.036	  0.174	 -0.044	 -0.047	 -9.499	  0.003	 -0.004	  0.013	 29.500	 99.480	  1.248
15625	  0.200	 -0.036	  0.190	 -0.120	  0.015	 -9.575	  0.002	  0.001	  0.009	 29.500	 99.492	  0.145
15676	  0.200	 -0.032	  0.183	  0.068	  0.044	 -9.383	  0.004	 -0.002	  0.009	 29.500	 99.488	  0.513
15725	  0.201	 -0.040	  0.189	 -0.095	 -0.074	 -9.637	  0.004	 -0.003	  0.010	 29.500	 99.504	 -0.960
15776	  0.201	 -0.027	  0.188	 -0.111	 -0.090	 -9.588	  0.001	  0.002	  0.011	 29.500	 99.480	  1.248
15826	  0.199	 -0.027	  0.184	  0.028	 -0.068	 -9.413	  0.001	  0.001	  0.011	 29.500	 99.504	 -0.960
15876	  0.201	 -0.038	  0.190	 -0.106	 -0.014	 -9.444	  0.001	  0.001	  0.010	 29.500	 99.492	  0.145
15926	  0.198	 -0.027	  0.182	  0.016	 -0.030	 -9.419	  0.003	 -0.001	  0.011	 29.500	 99.504	 -0.960
15976	  0.204	 -0.038	  0.189	 -0.110	  0.011	 -9.538	  0.003	 -0.002	  0.013	 29.500	 99.476	  1.617
16026	  0.201	 -0.037	  0.193	 -0.015	 -0.053	 -9.492	  0.002	 -0.000	  0.012	 29.500	 99.480	  1.248
16076	  0.204	 -0.038	  0.187	 -0.115	 -0.046	 -9.479	  0.002	  0.000	  0.013	 29.500	 99.480	  1.248
16126	  0.200	 -0.038	  0.193	  0.014	 -0.005	 -9.413	  0.008	 -0.004	  0.011	 29.500	 99.504	 -0.960
16176	  0.205	 -0.038	  0.181	 -0.127	 -0.001	 -9.493	  0.004	 -0.001	  0.009	 29.500	 99.500	 -0.592
16226	  0.202	 -0.040	  0.189	 -0.006	 -0.054	 -9.481	  0.002	 -0.003	  0.011	 29.500	 99.492	  0.145
16276	  0.199	 -0.040	  0.190	 -0.123	 -0.029	 -9.527	  0.003	 -0.001	  0.013	 29.500	 99.492	  0.145
16326	  0.200	 -0.026	  0.184	 -0.066	 -0.014	 -9.516	  0.004	  0.001	  0.011	 29.500	 99.492	  0.145
16376	  0.201	 -0.045	  0.186	 -0.012	 -0.024	 -9.488	  0.006	 -0.004	  0.017	 29.500	 99.492	  0.145
16426	  0.203	 -0.043	  0.177	 -1.290	  2.477	 -9.541	  0.816	 -0.231	  1.042	 29.500	 99.492	  0.145
16476	  0.198	 -0.049	  0.198	  0.611	 -1.422	 -15.309	  2.068	  0.759	  1.154	 29.500	 99.504	 -0.960
16526	  0.149	 -0.021	  0.231	  1.395	 -6.361	 -21.293	  0.500	  2.142	 -0.145	 29.500	 99.504	 -0.960
16576	  0.083	 -0.018	  0.259	  2.715	 -1.606	 -10.360	 -1.335	  0.773	 -0.668	 29.500	 99.492	  0.145
16626	  0.057	 -0.029	  0.236	  0.924	  1.177	 -2.636	 -1.822	 -1.771	 -0.062	 29.500	 99.480	  1.248
16676	  0.071	 -0.060	  0.191	 -1.294	  0.285	 -0.785	 -0.870	 -2.274	  0.398	 29.500	 99.488	  0.513
16726	  0.097	 -0.054	  0.153	 -0.401	 -0.274	  0.190	  0.308	 -1.735	  0.289	 29.500	 99.492	  0.145
16776	  0.122	 -0.055	  0.134	 -1.165	 -0.079	 -2.393	  1.314	 -0.549	  0.198	 29.500	 99.476	  1.617
16826	  0.136	 -0.040	  0.141	 -0.946	 -1.289	 -8.008	  1.594	  1.113	  0.076	 29.500	 99.492	  0.145
16876	  0.132	 -0.030	  0.199	 -0.677	 -2.208	 -13.220	  0.754	  2.252	 -0.269	 29.500	 99.488	  0.513
16926	  0.113	 -0.020	  0.251	 -0.050	 -2.155	 -13.640	 -0.012	  1.453	  0.047	 29.500	 99.492	  0.145
16976	  0.109	 -0.043	  0.266	  1.411	 -1.836	 -12.783	 -0.733	 -0.360	  0.217	 29.500	 99.488	  0.513
17026	  0.124	 -0.057	  0.245	  0.275	 -1.584	 -11.132	 -1.085	 -0.831	  0.188	 29.500	 99.492	  0.145
17076	  0.140	 -0.085	  0.220	  0.336	 -0.357	 -8.761	 -1.013	 -0.303	  0.129	 29.500	 99.492	  0.145
17126	  0.142	 -0.107	  0.220	 -0.017	  0.298	 -8.783	 -0.345	  0.213	 -0.008	 29.500	 99.504	 -0.960
17176	  0.137	 -0.114	  0.228	  0.187	  0.267	 -9.040	  0.071	  0.205	  0.123	 29.500	 99.492	  0.145
17226	  0.140	 -0.102	  0.233	  0.438	  0.029	 -9.901	  0.094	 -0.068	  0.081	 29.500	 99.492	  0.145
17276	  0.145	 -0.112	  0.238	  0.453	 -0.199	 -9.954	 -0.010	 -0.174	 -0.022	 29.500	 99.492	  0.145
17326	  0.149	 -0.108	  0.233	 -0.015	  0.050	 -9.879	 -0.095	 -0.178	 -0.031	 29.500	 99.504	 -0.960
17376	  0.155	 -0.113	  0.228	  0.015	 -0.077	 -9.549	 -0.047	 -0.062	  0.048	 29.500	 99.492	  0.145
17426	  0.157	 -0.117	  0.221	  0.691	 -5.079	 -21.060	  0.209	 -0.212	 -0.040	 29.500	 99.492	  0.145
17476	  0.163	 -0.112	  0.218	 -0.307	 -0.362	 -9.804	  0.024	 -0.122	 -0.048	 29.500	 99.488	  0.513
17526	  0.163	 -0.108	  0.218	 -0.100	 -0.164	 -9.417	 -0.007	  0.094	 -0.169	 29.500	 99.480	  1.248
17576	  0.164	 -0.095	  0.223	 -0.183	  0.160	 -9.612	  0.005	  0.001	 -0.244	 29.500	 99.504	 -0.960
17626	  0.162	 -0.104	  0.222	 -1.102	 -0.417	 -9.519	  0.005	  0.013	 -0.023	 29.500	 99.492	  0.145
17676	  0.162	 -0.104	  0.217	 -0.035	 -0.136	 -9.531	 -0.000	 -0.016	  0.015	 29.500	 99.504	 -0.960
17726	  0.162	 -0.102	  0.219	 -0.212	 -0.035	 -9.554	  0.002	  0.004	  0.010	 29.500	 99.496	 -0.224
17776	  0.166	 -0.103	  0.224	 -0.227	 -0.011	 -9.472	  0.001	 -0.015	  0.010	 29.500	 99.492	  0.145
17826	  0.162	 -0.100	  0.221	  0.386	 -0.004	 -9.384	  0.002	 -0.001	  0.010	 29.500	 99.492	  0.145
17876	  0.164	 -0.101	  0.222	 -0.112	 -0.087	 -9.525	  0.002	 -0.007	  0.011	 29.500	 99.504	 -0.960
17926	  0.159	 -0.104	  0.221	  0.057	 -0.067	 -9.458	  0.003	 -0.001	  0.012	 29.500	 99.504	 -0.960
17976	  0.160	 -0.102	  0.222	 -0.096	 -0.080	 -9.533	  0.002	  0.001	  0.009	 29.500	 99.509	 -1.420
18026	  0.162	 -0.089	  0.223	 -0.040	 -0.043	 -9.448	  0.003	 -0.001	  0.011	 29.500	 99.492	  0.145
18076	  0.164	 -0.086	  0.222	 -0.013	 -0.054	 -9.463	  0.002	 -0.001	  0.011	 29.500	 99.492	  0.145
18126	  0.166	 -0.091	  0.222	 -0.220	 -0.092	 -9.528	  0.004	 -0.002	  0.010	 29.500	 99.492	  0.145
18176	  0.164	 -0.089	  0.222	 -0.034	 -0.039	 -9.549	  0.005	  0.001	  0.010	 29.500	 99.504	 -0.960
18226	  0.162	 -0.105	  0.215	 -0.006	 -0.026	 -9.487	  0.005	 -0.001	  0.012	 29.500	 99.492	  0.145
18276	  0.161	 -0.108	  0.224	 -0.045	 -0.021	 -9.501	  0.006	 -0.003	  0.011	 29.500	 99.504	 -0.960
18326	  0.162	 -0.099	  0.223	 -0.022	  0.001	 -9.498	  0.008	 -0.002	  0.023	 29.500	 99.492	  0.145
18376	  0.162	 -0.100	  0.223	 -0.080	 -0.077	 -9.553	  0.003	 -0.006	  0.030	 29.500	 99.492	  0.145
18426	  0.161	 -0.100	  0.223	 -0.151	  0.132	 -9.528	  0.010	  0.007	  0.050	 29.500	 99.492	  0.145
18476	  0.163	 -0.104	  0.221	 -0.070	  0.379	 -9.567	  0.001	  0.014	  0.118	 29.500	 99.492	  0.145
18526	  0.160	 -0.102	  0.223	 -0.199	  0.584	 -9.609	  0.004	  0.021	  0.191	 29.500	 99.492	  0.145
18576	  0.161	 -0.112	  0.216	 -0.025	 -0.716	 -9.552	  0.002	  0.010	  0.341	 29.500	 99.488	  0.513
18626	  0.159	 -0.120	  0.224	 -0.067	  0.082	 -9.516	  0.004	  0.025	  0.326	 29.500	 99.504	 -0.960
18676	  0.155	 -0.126	  0.218	  1.235	 -0.332	 -9.107	 -0.009	  0.068	  0.322	 29.500	 99.504	 -0.960
18726	  0.155	 -0.133	  0.219	 -0.853	 -0.182	 -9.813	 -0.007	  0.059	  0.290	 29.500	 99.492	  0.145
18776	  0.153	 -0.147	  0.221	  0.223	  0.105	 -9.353	 -0.013	  0.067	  0.275	 29.500	 99.492	  0.145
18826	  0.150	 -0.152	  0.216	 -0.118	 -0.045	 -9.719	 -0.044	  0.176	  0.333	 29.500	 99.492	  0.145
18876	  0.146	 -0.160	  0.216	  0.399	 -0.027	 -9.293	  0.004	 -0.028	  0.436	 29.500	 99.492	  0.145
18926	  0.152	 -0.157	  0.212	  1.876	 -3.449	 -8.553	 -0.030	 -0.070	  0.009	 29.500	 99.492	  0.145
18976	  0.170	 -0.195	  0.208	  0.056	 -1.328	 -9.748	  0.003	  0.008	 -0.690	 29.500	 99.492	  0.145
19026	  0.152	 -0.169	  0.203	 -0.552	  1.520	 -9.727	  0.005	  0.012	 -0.584	 29.500	 99.504	 -0.960
19076	  0.150	 -0.160	  0.205	 -0.489	  2.004	 -9.300	  0.025	 -0.071	 -0.235	 29.500	 99.488	  0.513
19126	  0.154	 -0.148	  0.193	  0.677	  0.152	 -9.148	  0.066	 -0.272	 -0.179	 29.500	 99.480	  1.248
19176	  0.155	 -0.145	  0.189	 -1.319	 -0.374	 -10.165	 -0.013	  0.022	 -0.072	 29.500	 99.488	  0.513
19226	  0.156	 -0.143	  0.192	  0.018	 -0.063	 -9.431	  0.002	 -0.001	  0.014	 29.500	 99.492	  0.145
19276	  0.159	 -0.145	  0.193	 -0.118	 -0.027	 -9.519	  0.002	  0.001	  0.010	 29.500	 99.492	  0.145
19326	  0.155	 -0.146	  0.191	 -0.006	 -0.064	 -9.473	  0.002	 -0.001	  0.010	 29.500	 99.492	  0.145
19376	  0.154	 -0.143	  0.190	 -0.105	 -0.051	 -9.473	  0.003	  0.001	  0.011	 29.500	 99.488	  0.513
19426	  0.154	 -0.128	  0.193	 -0.085	  0.070	 -9.560	  0.005	 -0.003	  0.013	 29.500	 99.504	 -0.960
19476	  0.155	 -0.141	  0.192	 -0.110	 -0.036	 -9.460	  0.001	 -0.001	  0.012	 29.500	 99.496	 -0.224
19526	  0.154	 -0.127	  0.191	  0.012	 -0.074	 -9.499	  0.003	 -0.002	  0.012	 29.500	 99.517	 -2.156
19576	  0.152	 -0.130	  0.189	 -0.064	 -0.069	 -9.524	  0.002	 -0.002	  0.012	 29.500	 99.504	 -0.960
19626	  0.152	 -0.141	  0.194	  0.010	 -0.049	 -9.510	  0.003	 -0.002	  0.010	 29.500	 99.492	  0.145
19676	  0.154	 -0.138	  0.184	 -0.062	 -0.053	 -9.514	  0.002	 -0.001	  0.011	 29.500	 99.492	  0.145
19726	  0.154	 -0.141	  0.193	  0.106	 -0.029	 -9.479	  0.003	 -0.001	  0.010	 29.500	 99.492	  0.145
19776	  0.154	 -0.140	  0.194	 -0.093	 -0.065	 -9.475	  0.002	  0.001	  0.011	 29.500	 99.492	  0.145
19826	  0.153	 -0.140	  0.194	 -0.156	 -0.061	 -9.540	 -0.002	  0.016	  0.010	 29.500	 99.492	  0.145
19876	  0.154	 -0.135	  0.188	 -0.421	 -0.050	 -9.558	 -0.000	  0.013	  0.040	 29.500	 99.504	 -0.960
19926	  0.150	 -0.138	  0.191	 -0.318	  0.072	 -9.376	 -0.007	  0.043	  0.165	 29.500	 99.492	  0.145
19976	  0.150	 -0.154	  0.191	  0.316	 -0.161	 -9.603	  0.000	  0.014	  0.167	 29.500	 99.492	  0.145
20026	  0.150	 -0.152	  0.193	 -0.110	 -0.060	 -9.544	  0.002	 -0.004	  0.009	 29.500	 99.492	  0.145
20076	  0.150	 -0.145	  0.192	 -0.263	 -0.121	 -9.632	 -0.024	  0.102	  0.012	 29.500	 99.492	  0.145
20126	  0.149	 -0.154	  0.196	  0.142	  0.011	 -9.436	 -0.020	  0.086	  0.010	 29.500	 99.492	  0.145
20176	  0.148	 -0.145	  0.198	  0.412	  0.047	 -9.348	 -0.017	  0.077	  0.009	 29.500	 99.504	 -0.960
20226	  0.147	 -0.152	  0.193	  0.692	 -0.142	 -9.229	  0.003	 -0.014	 -0.012	 29.500	 99.492	  0.145
20276	  0.153	 -0.151	  0.191	 -4.888	  3.430	 -6.741	  0.221	 -0.381	 -0.274	 29.500	 99.492	  0.145
20326	  0.153	 -0.142	  0.189	  0.121	  0.193	 -9.509	  0.007	  0.023	  0.044	 29.500	 99.500	 -0.592
20376	  0.152	 -0.142	  0.193	 -0.624	 -0.608	 -9.405	  0.002	  0.033	  0.073	 29.500	 99.492	  0.145
20426	  0.152	 -0.133	  0.193	  0.014	 -0.020	 -9.489	  0.003	 -0.003	  0.017	 29.500	 99.492	  0.145
20476	  0.150	 -0.146	  0.186	  0.049	 -0.072	 -9.444	  0.001	 -0.002	  0.011	 29.500	 99.492	  0.145
20526	  0.149	 -0.142	  0.197	 -0.109	 -0.034	 -9.503	  0.004	 -0.002	  0.013	 29.500	 99.504	 -0.960
20576	  0.149	 -0.142	  0.192	  0.014	 -0.083	 -9.529	  0.002	 -0.003	  0.011	 29.500	 99.492	  0.145
20626	  0.150	 -0.147	  0.193	 -0.049	 -0.006	 -9.430	  0.003	 -0.003	  0.012	 29.500	 99.492	  0.145
20676	  0.147	 -0.142	  0.186	  0.079	 -0.059	 -9.467	  0.004	 -0.008	  0.024	 29.500	 99.492	  0.145
20726	  0.149	 -0.148	  0.189	  0.787	 -0.065	 -9.319	 -0.000	  0.006	  0.009	 29.500	 99.492	  0.145
20776	  0.149	 -0.141	  0.194	  0.167	 -0.063	 -9.428	  0.003	 -0.021	  0.012	 29.500	 99.488	  0.513
20826	  0.148	 -0.147	  0.193	 -0.088	 -0.026	 -9.518	  0.003	  0.016	  0.025	 29.500	 99.504	 -0.960
20877	  0.149	 -0.131	  0.190	  0.036	 -0.115	 -9.556	  0.002	 -0.000	  0.021	 29.500	 99.509	 -1.420
20926	  0.152	 -0.147	  0.190	 -0.291	 -0.043	 -9.516	  0.003	  0.022	  0.009	 29.500	 99.492	  0.145
20977	  0.148	 -0.145	  0.189	 -0.112	 -0.024	 -9.426	  0.001	 -0.006	  0.008	 29.500	 99.496	 -0.224
21026	  0.148	 -0.148	  0.190	 -0.080	 -0.145	 -9.555	  0.001	  0.001	  0.004	 29.500	 99.492	  0.145
21076	  0.146	 -0.147	  0.188	 -0.050	 -0.107	 -9.491	  0.001	  0.002	  0.013	 29.500	 99.492	  0.145
21126	  0.148	 -0.145	  0.184	 -0.126	 -0.029	 -9.519	  0.005	 -0.002	  0.103	 29.500	 99.492	  0.145
21176	  0.146	 -0.151	  0.188	  0.176	 -0.007	 -9.498	  0.001	 -0.071	  0.009	 29.500	 99.492	  0.145
21226	  0.149	 -0.151	  0.182	  0.384	 -0.088	 -9.543	  0.008	 -0.087	  0.013	 29.500	 99.504	 -0.960
21276	  0.147	 -0.142	  0.182	 -1.210	 -0.190	 -9.592	 -0.006	  0.101	  0.377	 29.500	 99.492	  0.145
21326	  0.139	 -0.157	  0.189	 -0.377	 -1.808	 -11.383	  0.279	  0.418	  0.824	 29.500	 99.488	  0.513
21377	  0.123	 -0.174	  0.197	  0.913	 -2.745	 -11.887	  0.006	  0.202	  0.769	 29.500	 99.492	  0.145
21427	  0.104	 -0.212	  0.195	  0.175	 -2.839	 -12.342	 -0.604	  0.163	  0.687	 29.500	 99.504	 -0.960
21477	  0.074	 -0.240	  0.188	  1.048	 -3.007	 -12.129	 -0.949	 -0.179	  0.821	 29.500	 99.492	  0.145
21527	  0.045	 -0.277	  0.166	 -0.200	 -2.210	 -11.166	 -1.161	 -0.247	  1.336	 29.500	 99.496	 -0.224
21577	  0.003	 -0.311	  0.156	  0.632	 -1.258	 -10.590	 -0.330	 -0.497	  1.378	 29.500	 99.492	  0.145
21627	 -0.034	 -0.317	  0.164	 -0.347	 -0.820	 -9.661	  0.201	 -0.494	  1.643	 29.500	 99.492	  0.145
21677	 -0.062	 -0.319	  0.179	  0.275	 -1.195	 -9.665	  0.367	 -0.598	  1.389	 29.500	 99.480	  1.248
21727	 -0.091	 -0.307	  0.189	 -0.649	 -0.689	 -10.316	  0.230	 -0.330	  1.546	 29.500	 99.480	  1.248
21777	 -0.122	 -0.318	  0.199	 -0.213	 -0.845	 -9.706	 -0.023	  0.258	  1.495	 29.500	 99.480	  1.248
21827	 -0.158	 -0.314	  0.218	 -0.057	 -0.494	 -10.162	  0.090	  0.281	  1.635	 29.500	 99.480	  1.248
21877	 -0.197	 -0.315	  0.226	 -0.442	 -0.268	 -8.759	 -0.282	  0.428	  1.686	 29.500	 99.484	  0.880
21927	 -0.231	 -0.314	  0.230	  0.727	  0.038	 -7.588	 -0.310	  0.162	  1.757	 29.500	 99.480	  1.248
21977	 -0.259	 -0.307	  0.237	  0.953	  1.400	 -7.095	 -0.110	 -0.120	  1.667	 29.500	 99.492	  0.145
22027	 -0.278	 -0.312	  0.247	  1.061	  1.395	 -6.964	  0.554	 -0.491	  1.613	 29.500	 99.492	  0.145
22077	 -0.290	 -0.286	  0.265	  0.334	  2.086	 -7.158	  0.896	 -0.338	  1.481	 29.500	 99.492	  0.145
22127	 -0.303	 -0.256	  0.280	  0.876	  1.126	 -8.505	  0.957	 -0.201	  1.403	 29.500	 99.492	  0.145
22177	 -0.317	 -0.235	  0.289	  0.227	  1.051	 -8.930	  0.645	 -0.031	  1.320	 29.500	 99.492	  0.145
22227	 -0.331	 -0.221	  0.303	  0.058	  0.938	 -9.373	  0.284	  0.204	  1.385	 29.500	 99.480	  1.248
22277	 -0.349	 -0.198	  0.304	 -0.309	 -0.425	 -9.383	  0.055	  0.129	  1.301	 29.500	 99.480	  1.248
22327	 -0.362	 -0.206	  0.305	 -0.767	  0.062	 -8.766	 -0.300	  0.289	  1.056	 29.500	 99.492	  0.145
22377	 -0.379	 -0.213	  0.302	 -0.893	  0.108	 -8.391	 -0.245	  0.161	  1.040	 29.500	 99.492	  0.145
22427	 -0.391	 -0.208	  0.289	 -0.717	  0.353	 -8.164	 -0.210	  0.243	  0.862	 29.500	 99.492	  0.145
22477	 -0.404	 -0.205	  0.292	 -0.583	  0.330	 -7.927	  0.130	  0.150	  0.924	 29.500	 99.480	  1.248
22527	 -0.411	 -0.189	  0.299	 -0.443	  0.238	 -8.294	  0.295	  0.090	  0.826	 29.500	 99.492	  0.145
22577	 -0.422	 -0.172	  0.298	 -0.284	  0.376	 -9.289	  0.442	  0.059	  0.668	 29.500	 99.492	  0.145
22627	 -0.420	 -0.150	  0.292	  0.532	 -0.583	 -10.510	  0.650	 -0.241	  0.865	 29.500	 99.492	  0.145
22676	 -0.418	 -0.112	  0.301	  0.285	 -0.960	 -11.183	  0.402	 -0.227	  0.970	 29.500	 99.480	  1.248
22727	 -0.422	 -0.102	  0.301	  0.988	 -1.268	 -10.992	  0.291	 -0.092	  1.021	 29.500	 99.492	  0.145
22776	 -0.419	 -0.092	  0.295	  1.198	 -1.728	 -11.570	  0.282	 -0.062	  0.544	 29.500	 99.492	  0.145
22826	 -0.422	 -0.083	  0.289	  0.632	 -1.485	 -10.303	 -0.272	 -0.181	  0.833	 29.500	 99.480	  1.248
22876	 -0.418	 -0.091	  0.278	  0.591	 -0.524	 -9.454	 -0.337	 -0.256	  0.575	 29.500	 99.492	  0.145
22926	 -0.417	 -0.085	  0.273	 -0.547	 -0.397	 -8.314	 -0.396	  0.036	  0.462	 29.500	 99.480	  1.248
22976	 -0.417	 -0.092	  0.271	  0.562	 -0.512	 -8.078	 -0.382	  0.108	  0.449	 29.500	 99.468	  2.353
23026	 -0.425	 -0.096	  0.261	 -0.327	  0.415	 -7.332	 -0.518	  0.300	  0.207	 29.500	 99.488	  0.513
23076	 -0.433	 -0.092	  0.253	 -0.293	  0.369	 -7.865	 -0.616	  0.345	  0.166	 29.500	 99.480	  1.248
23126	 -0.443	 -0.110	  0.242	 -0.184	  1.195	 -8.796	 -0.367	  0.546	 -0.127	 29.500	 99.492	  0.145
23176	 -0.449	 -0.120	  0.234	 -0.433	  2.686	 -8.742	  0.082	  0.378	 -0.437	 29.500	 99.492	  0.145
23226	 -0.449	 -0.120	  0.223	  1.033	  1.024	 -10.034	  0.291	  0.026	 -0.625	 29.500	 99.480	  1.248
23276	 -0.442	 -0.122	  0.221	  1.571	  0.353	 -11.502	  0.206	 -0.638	 -0.688	 29.500	 99.480	  1.248
23326	 -0.422	 -0.120	  0.216	  1.537	  0.122	 -12.525	 -0.086	 -0.906	 -0.921	 29.500	 99.492	  0.145
23376	 -0.401	 -0.125	  0.226	  1.183	 -0.364	 -12.448	 -0.324	 -0.907	 -0.980	 29.500	 99.492	  0.145
23426	 -0.377	 -0.137	  0.223	  0.787	  0.130	 -11.498	 -0.214	 -0.725	 -1.038	 29.500	 99.504	 -0.960
23476	 -0.364	 -0.144	  0.223	 -0.172	  0.830	 -9.104	 -0.105	 -0.173	 -1.057	 29.500	 99.504	 -0.960
23526	 -0.361	 -0.145	  0.213	 -0.423	  1.111	 -7.899	  0.109	  0.418	 -1.170	 29.500	 99.496	 -0.224
23576	 -0.369	 -0.139	  0.209	 -0.419	  1.339	 -6.534	  0.282	  0.564	 -0.909	 29.500	 99.492	  0.145
23626	 -0.376	 -0.133	  0.207	 -1.075	  1.467	 -6.534	  0.688	  0.347	 -0.516	 29.500	 99.492	  0.145
23676	 -0.375	 -0.118	  0.208	 -0.555	  0.478	 -8.460	  0.607	  0.025	 -0.227	 29.500	 99.496	 -0.224
23726	 -0.372	 -0.119	  0.196	 -0.523	  0.389	 -9.346	  0.323	 -0.315	 -0.135	 29.500	 99.492	  0.145
23776	 -0.369	 -0.116	  0.198	 -0.315	 -0.171	 -9.913	 -0.012	 -0.684	  0.129	 29.500	 99.492	  0.145
23826	 -0.359	 -0.121	  0.197	 -0.259	 -0.994	 -9.931	 -0.012	 -0.845	  0.174	 29.500	 99.492	  0.145
23876	 -0.356	 -0.121	  0.192	 -1.106	 -0.836	 -10.415	 -0.141	 -0.226	 -0.194	 29.500	 99.504	 -0.960
23926	 -0.369	 -0.123	  0.186	  1.232	 -1.470	 -12.134	 -0.008	  0.769	 -0.061	 29.500	 99.496	 -0.224
23976	 -0.396	 -0.124	  0.182	  0.983	 -1.320	 -11.073	 -0.196	  0.773	 -0.240	 29.500	 99.492	  0.145
24026	 -0.418	 -0.128	  0.169	  1.207	 -1.131	 -10.515	 -0.233	  0.315	 -0.116	 29.500	 99.509	 -1.420
24076	 -0.437	 -0.140	  0.160	  1.320	 -1.176	 -9.167	 -0.340	 -0.167	 -0.542	 29.500	 99.496	 -0.224
24126	 -0.448	 -0.147	  0.155	  0.199	 -0.235	 -7.475	 -0.111	 -0.429	 -0.828	 29.500	 99.480	  1.248
24176	 -0.451	 -0.159	  0.160	 -0.629	  0.095	 -7.848	 -0.139	 -0.233	 -0.831	 29.500	 99.492	  0.145
24226	 -0.465	 -0.166	  0.147	 -1.316	  0.324	 -7.495	 -0.300	  0.303	 -0.818	 29.500	 99.492	  0.145
24276	 -0.478	 -0.184	  0.133	 -0.626	  0.751	 -8.587	 -0.380	  0.660	 -0.963	 29.500	 99.492	  0.145
24326	 -0.486	 -0.211	  0.123	 -0.297	  1.011	 -9.463	 -0.396	  0.643	 -0.777	 29.500	 99.480	  1.248
24376	 -0.487	 -0.247	  0.113	  0.438	  1.068	 -9.297	 -0.437	  0.428	 -0.870	 29.500	 99.492	  0.145
24426	 -0.473	 -0.268	  0.103	  0.944	  0.745	 -9.950	 -0.322	  0.046	 -1.056	 29.500	 99.496	 -0.224
24476	 -0.447	 -0.309	  0.108	  1.209	  0.488	 -11.293	 -0.178	 -0.255	 -1.307	 29.500	 99.492	  0.145
24526	 -0.401	 -0.338	  0.107	  1.117	  1.121	 -12.290	  0.050	 -0.115	 -1.357	 29.500	 99.492	  0.145
24576	 -0.361	 -0.353	  0.120	  1.662	  0.754	 -12.717	  0.166	 -0.095	 -1.346	 29.500	 99.492	  0.145
24626	 -0.312	 -0.350	  0.131	  1.975	  0.876	 -10.967	  0.217	 -0.127	 -1.210	 29.500	 99.492	  0.145
24676	 -0.271	 -0.346	  0.146	  1.465	  0.079	 -9.445	  0.033	 -0.147	 -1.097	 29.500	 99.492	  0.145
24726	 -0.237	 -0.327	  0.157	  1.051	  0.205	 -7.844	 -0.204	 -0.278	 -1.068	 29.500	 99.492	  0.145
24776	 -0.204	 -0.323	  0.161	  0.074	  0.752	 -6.446	  0.060	 -0.451	 -0.654	 29.500	 99.492	  0.145
24826	 -0.185	 -0.312	  0.166	 -0.399	  0.907	 -6.267	  0.261	 -0.344	 -0.558	 29.500	 99.480	  1.248
24876	 -0.169	 -0.278	  0.176	 -0.876	  0.795	 -7.552	  0.338	 -0.004	 -0.582	 29.500	 99.492	  0.145
24926	 -0.166	 -0.239	  0.193	 -0.778	  0.867	 -8.789	  0.294	  0.248	 -0.622	 29.500	 99.492	  0.145
24976	 -0.158	 -0.224	  0.201	 -0.770	  0.744	 -9.632	  0.418	  0.188	 -0.469	 29.500	 99.480	  1.248
25026	 -0.158	 -0.203	  0.211	 -0.091	  0.087	 -10.953	  0.307	  0.003	 -0.354	 29.500	 99.504	 -0.960
25076	 -0.156	 -0.185	  0.219	  0.262	 -0.872	 -11.855	 -0.011	 -0.293	 -0.158	 29.500	 99.492	  0.145
25126	 -0.152	 -0.180	  0.219	 -0.699	 -1.132	 -11.037	 -0.166	 -0.260	  0.157	 29.500	 99.492	  0.145
25176	 -0.152	 -0.163	  0.229	 -1.093	 -0.405	 -10.186	  0.061	  0.223	  0.201	 29.500	 99.480	  1.248
25226	 -0.165	 -0.170	  0.240	  0.058	 -1.561	 -11.289	  0.201	  0.384	  0.197	 29.500	 99.488	  0.513
25276	 -0.169	 -0.162	  0.250	  0.563	 -0.758	 -9.360	  0.119	  0.093	  0.203	 29.500	 99.492	  0.145
25326	 -0.173	 -0.162	  0.252	  0.570	 -0.598	 -8.272	 -0.096	 -0.085	  0.131	 29.500	 99.480	  1.248
25376	 -0.172	 -0.165	  0.256	  0.121	 -0.162	 -7.167	 -0.508	  0.120	 -0.126	 29.500	 99.492	  0.145
25426	 -0.178	 -0.181	  0.255	 -0.297	  0.502	 -6.543	 -0.526	  0.377	 -0.445	 29.500	 99.484	  0.880
25476	 -0.179	 -0.189	  0.263	 -0.412	  1.122	 -7.184	 -0.121	  0.515	 -0.754	 29.500	 99.480	  1.248
25526	 -0.183	 -0.178	  0.264	 -0.127	  0.915	 -8.774	  0.414	  0.273	 -0.661	 29.500	 99.492	  0.145
25576	 -0.177	 -0.163	  0.273	  0.852	 -0.011	 -10.876	  0.367	 -0.019	 -0.776	 29.500	 99.480	  1.248
25626	 -0.168	 -0.153	  0.274	  1.167	 -0.213	 -11.757	 -0.092	 -0.234	 -1.003	 29.500	 99.480	  1.248
25676	 -0.147	 -0.156	  0.275	  1.006	  0.253	 -11.380	 -0.085	 -0.463	 -0.925	 29.500	 99.492	  0.145
25726	 -0.133	 -0.149	  0.270	  0.858	  0.728	 -11.247	  0.256	 -0.437	 -0.867	 29.500	 99.492	  0.145
25776	 -0.116	 -0.141	  0.276	  1.441	 -0.007	 -11.049	  0.279	 -0.337	 -0.988	 29.500	 99.492	  0.145
25826	 -0.097	 -0.121	  0.267	  2.059	 -0.241	 -10.848	  0.199	 -0.467	 -1.274	 29.500	 99.480	  1.248
25876	 -0.084	 -0.114	  0.266	  0.629	  0.034	 -8.799	 -0.007	 -0.177	 -1.383	 29.500	 99.492	  0.145
25926	 -0.073	 -0.101	  0.265	  0.300	  0.357	 -8.047	 -0.053	 -0.030	 -0.998	 29.500	 99.492	  0.145
25976	 -0.072	 -0.100	  0.258	 -0.122	  0.528	 -7.272	  0.010	  0.139	 -0.705	 29.500	 99.492	  0.145
26026	 -0.073	 -0.100	  0.257	 -0.365	  0.947	 -7.282	  0.167	  0.081	 -0.407	 29.500	 99.509	 -1.420
26076	 -0.081	 -0.097	  0.245	  0.063	  0.083	 -8.899	  0.192	 -0.089	 -0.295	 29.500	 99.484	  0.880
26126	 -0.075	 -0.097	  0.246	 -0.057	 -0.363	 -9.819	 -0.007	 -0.188	 -0.497	 29.500	 99.496	 -0.224
26176	 -0.083	 -0.092	  0.230	  0.410	 -0.619	 -10.409	 -0.035	 -0.153	 -0.482	 29.500	 99.504	 -0.960
26226	 -0.088	 -0.091	  0.228	  0.391	 -0.591	 -10.752	 -0.021	 -0.087	 -0.485	 29.500	 99.492	  0.145
26276	 -0.099	 -0.093	  0.215	  0.429	 -1.174	 -11.290	  0.043	  0.115	 -0.288	 29.500	 99.480	  1.248
26326	 -0.117	 -0.090	  0.212	  0.734	 -1.562	 -11.527	 -0.019	 -0.002	 -0.189	 29.500	 99.492	  0.145
26376	 -0.131	 -0.084	  0.213	  1.401	 -2.178	 -11.510	 -0.077	 -0.118	 -0.156	 29.500	 99.492	  0.145
26426	 -0.139	 -0.062	  0.209	  0.672	 -1.616	 -10.272	 -0.408	 -0.162	 -0.300	 29.500	 99.492	  0.145
26476	 -0.137	 -0.072	  0.205	  0.682	 -0.682	 -8.066	 -0.431	 -0.076	 -0.296	 29.500	 99.492	  0.145
26526	 -0.145	 -0.060	  0.214	 -0.548	 -0.212	 -6.872	 -0.389	 -0.048	 -0.151	 29.500	 99.480	  1.248
26576	 -0.152	 -0.067	  0.217	  0.269	 -0.409	 -7.197	 -0.310	  0.220	 -0.281	 29.500	 99.492	  0.145
26626	 -0.161	 -0.062	  0.230	  0.077	  0.314	 -6.971	 -0.153	  0.499	 -0.708	 29.500	 99.480	  1.248
26676	 -0.177	 -0.046	  0.241	 -0.352	  0.427	 -7.834	  0.183	  0.478	 -0.892	 29.500	 99.509	 -1.420
26727	 -0.192	 -0.019	  0.245	 -0.147	  0.283	 -9.025	  0.271	  0.509	 -0.958	 29.500	 99.492	  0.145
26776	 -0.204	 -0.017	  0.260	  0.533	  0.399	 -9.698	  0.058	  0.389	 -1.188	 29.500	 99.480	  1.248
26827	 -0.209	 -0.002	  0.267	  1.022	  0.091	 -9.910	 -0.007	 -0.134	 -1.105	 29.500	 99.492	  0.145
26876	 -0.203	  0.014	  0.271	  1.000	  0.173	 -10.496	  0.096	 -0.694	 -1.101	 29.500	 99.492	  0.145
26926	 -0.185	  0.027	  0.275	  0.554	 -0.062	 -12.381	  0.132	 -0.645	 -1.079	 29.500	 99.492	  0.145
26976	 -0.175	  0.040	  0.274	  1.133	 -0.939	 -12.652	 -0.341	 -0.259	 -1.320	 29.500	 99.492	  0.145
27027	 -0.175	  0.043	  0.285	  1.318	  0.330	 -11.404	 -0.366	  0.026	 -1.485	 29.500	 99.492	  0.145
27076	 -0.181	  0.053	  0.283	  1.368	  0.335	 -9.448	  0.054	 -0.099	 -1.276	 29.500	 99.492	  0.145
27127	 -0.180	  0.064	  0.280	  0.867	  0.562	 -8.267	  0.245	  0.149	 -1.106	 29.500	 99.492	  0.145
27177	 -0.189	  0.083	  0.284	 -0.388	  1.259	 -6.839	  0.608	  0.480	 -1.024	 29.500	 99.480	  1.248
27227	 -0.207	  0.111	  0.282	  0.095	  0.588	 -6.784	  0.711	  0.492	 -0.349	 29.500	 99.492	  0.145
27276	 -0.218	  0.144	  0.277	 -0.623	  0.093	 -8.694	  0.646	  0.474	 -0.458	 29.500	 99.504	 -0.960
27326	 -0.231	  0.157	  0.275	  0.667	 -0.613	 -9.818	  0.148	  0.123	 -0.527	 29.500	 99.504	 -0.960
27376	 -0.228	  0.162	  0.260	  0.571	 -0.451	 -10.138	 -0.384	 -0.632	 -0.191	 29.500	 99.492	  0.145
27426	 -0.213	  0.154	  0.268	  0.360	 -0.610	 -9.985	 -0.662	 -0.953	 -0.103	 29.500	 99.492	  0.145
27476	 -0.198	  0.163	  0.269	  0.032	 -0.530	 -10.535	 -0.643	 -0.672	 -0.231	 29.500	 99.496	 -0.224
27526	 -0.191	  0.160	  0.279	 -0.255	 -0.367	 -10.355	 -0.295	 -0.081	 -0.037	 29.500	 99.492	  0.145
27576	 -0.191	  0.172	  0.284	  0.230	 -0.896	 -10.710	  0.347	  0.295	 -0.024	 29.500	 99.480	  1.248
27626	 -0.197	  0.189	  0.289	  1.005	 -2.518	 -12.045	  0.021	  0.552	 -0.121	 29.500	 99.492	  0.145
27676	 -0.206	  0.186	  0.312	  0.958	 -1.679	 -10.419	 -0.556	  0.500	 -0.196	 29.500	 99.492	  0.145
27726	 -0.210	  0.172	  0.323	  1.182	 -1.101	 -9.025	 -0.650	  0.172	 -0.338	 29.500	 99.492	  0.145
27776	 -0.205	  0.159	  0.330	  0.217	 -0.120	 -7.549	 -0.539	 -0.016	 -0.261	 29.500	 99.480	  1.248
27826	 -0.201	  0.149	  0.341	  0.102	  0.252	 -7.310	 -0.221	  0.070	 -0.293	 29.500	 99.492	  0.145
27876	 -0.200	  0.144	  0.330	 -0.635	  0.397	 -8.022	 -0.121	  0.222	 -0.250	 29.500	 99.492	  0.145
27926	 -0.201	  0.143	  0.345	 -0.499	  0.699	 -8.485	  0.019	  0.306	 -0.055	 29.500	 99.488	  0.513
27976	 -0.203	  0.140	  0.349	 -0.297	  0.516	 -9.339	  0.009	  0.226	  0.195	 29.500	 99.496	 -0.224
28026	 -0.204	  0.129	  0.344	  0.713	  0.410	 -9.625	 -0.119	 -0.085	  0.345	 29.500	 99.492	  0.145
28076	 -0.189	  0.120	  0.342	  0.555	  0.248	 -9.606	 -0.111	 -0.530	  0.440	 29.500	 99.504	 -0.960
28126	 -0.164	  0.112	  0.331	  0.016	 -0.024	 -10.372	 -0.043	 -0.786	  0.892	 29.500	 99.480	  1.248
28176	 -0.141	  0.097	  0.324	  0.210	 -0.344	 -11.304	 -0.286	 -0.926	  0.918	 29.500	 99.496	 -0.224
28226	 -0.119	  0.077	  0.309	 -0.590	  0.393	 -11.136	 -0.250	 -0.532	  0.371	 29.500	 99.492	  0.145
28276	 -0.111	  0.077	  0.303	  0.171	 -0.326	 -11.764	 -0.128	 -0.333	  0.390	 29.500	 99.492	  0.145
28326	 -0.106	  0.063	  0.303	 -1.021	  0.053	 -9.921	  0.045	  0.118	  0.240	 29.500	 99.480	  1.248
28376	 -0.115	  0.068	  0.301	 -0.824	 -0.020	 -8.489	  0.236	  0.365	  0.274	 29.500	 99.492	  0.145
28426	 -0.127	  0.071	  0.299	 -1.445	  0.359	 -8.173	  0.484	  0.317	  0.484	 29.500	 99.480	  1.248
28476	 -0.136	  0.080	  0.300	 -0.991	 -0.397	 -9.000	  0.213	  0.573	  0.451	 29.500	 99.480	  1.248
28526	 -0.149	  0.072	  0.304	 -0.223	 -0.798	 -9.914	 -0.372	  0.415	  0.319	 29.500	 99.496	 -0.224
28576	 -0.154	  0.044	  0.299	  0.535	 -0.277	 -9.682	 -1.063	 -0.017	  0.203	 29.500	 99.480	  1.248
28626	 -0.151	  0.018	  0.306	  0.402	  0.958	 -9.095	 -1.186	 -0.577	  0.372	 29.500	 99.480	  1.248
28676	 -0.137	 -0.010	  0.305	 -0.286	  1.786	 -8.906	 -0.633	 -0.559	  0.434	 29.500	 99.480	  1.248
28726	 -0.129	 -0.025	  0.303	  0.653	  1.159	 -9.286	 -0.378	 -0.246	  0.195	 29.500	 99.492	  0.145
28776	 -0.125	 -0.040	  0.295	 -0.427	  1.343	 -10.304	 -0.416	 -0.115	 -0.141	 29.500	 99.492	  0.145
28826	 -0.124	 -0.047	  0.302	  0.123	  2.052	 -10.001	 -0.371	 -0.319	 -0.023	 29.500	 99.496	 -0.224
28876	 -0.117	 -0.049	  0.298	 -0.477	  2.128	 -9.830	 -0.162	 -0.288	  0.410	 29.500	 99.480	  1.248
28926	 -0.112	 -0.067	  0.306	  0.240	  1.826	 -8.936	  0.176	 -0.159	  0.510	 29.500	 99.492	  0.145
28976	 -0.108	 -0.076	  0.306	  0.687	  1.654	 -8.564	  0.383	 -0.170	  0.151	 29.500	 99.492	  0.145
29026	 -0.105	 -0.062	  0.312	 -0.480	  1.782	 -7.682	  0.506	 -0.141	 -0.069	 29.500	 99.488	  0.513
29076	 -0.105	 -0.053	  0.312	 -1.293	  1.407	 -7.156	  0.510	  0.000	 -0.168	 29.500	 99.492	  0.145
29126	 -0.109	 -0.038	  0.328	 -1.989	  2.039	 -6.799	  0.762	  0.108	  0.050	 29.500	 99.480	  1.248
29176	 -0.114	 -0.001	  0.335	 -1.421	  1.471	 -7.768	  1.065	  0.189	  0.300	 29.500	 99.492	  0.145
29226	 -0.120	  0.021	  0.349	 -0.913	  0.863	 -8.947	  1.167	  0.143	  0.202	 29.500	 99.492	  0.145
29276	 -0.128	  0.041	  0.367	 -0.319	  0.333	 -10.494	  0.922	  0.002	 -0.033	 29.500	 99.492	  0.145
29326	 -0.132	  0.058	  0.375	 -0.678	  0.277	 -10.706	  0.725	 -0.184	 -0.413	 29.500	 99.492	  0.145
29376	 -0.125	  0.078	  0.387	 -2.347	  0.017	 -11.772	  0.673	 -0.357	 -0.179	 29.500	 99.480	  1.248
29426	 -0.120	  0.084	  0.402	 -0.585	 -0.105	 -11.841	  0.483	 -0.307	  0.072	 29.500	 99.492	  0.145
29476	 -0.106	  0.094	  0.424	  1.161	 -0.642	 -11.282	  0.313	 -0.462	 -0.227	 29.500	 99.492	  0.145
29526	 -0.094	  0.075	  0.432	  0.650	 -0.595	 -9.928	 -0.347	 -0.306	 -0.772	 29.500	 99.480	  1.248
29576	 -0.078	  0.049	  0.454	  0.440	  0.817	 -8.599	 -0.180	 -0.243	 -0.989	 29.500	 99.480	  1.248
29626	 -0.061	  0.030	  0.475	 -0.565	  0.540	 -8.967	 -0.038	 -0.223	 -0.770	 29.500	 99.480	  1.248
29676	 -0.044	  0.000	  0.502	 -0.641	  0.202	 -7.627	  0.008	 -0.031	 -0.559	 29.500	 99.496	 -0.224
29726	 -0.021	 -0.032	  0.526	  0.125	 -1.016	 -7.984	 -0.225	 -0.213	 -0.508	 29.500	 99.480	  1.248
29776	  0.006	 -0.104	  0.550	 -0.296	 -0.831	 -8.371	 -0.938	 -0.192	 -0.553	 29.500	 99.492	  0.145
29826	  0.045	 -0.190	  0.569	  0.393	 -0.745	 -8.117	 -1.213	 -0.451	 -0.625	 29.500	 99.496	 -0.224
29876	  0.095	 -0.263	  0.577	 -0.194	  0.427	 -7.612	 -1.077	 -0.735	 -0.755	 29.500	 99.480	  1.248
29926	  0.134	 -0.303	  0.602	 -0.642	  0.485	 -8.718	 -0.128	 -0.569	 -0.035	 29.500	 99.492	  0.145
29976	  0.162	 -0.308	  0.616	 -1.045	 -0.926	 -9.632	  0.274	 -0.304	  0.129	 29.500	 99.492	  0.145
30026	  0.168	 -0.293	  0.636	 -0.587	 -0.696	 -9.574	  0.121	 -0.026	 -0.292	 29.500	 99.484	  0.880
30076	  0.179	 -0.273	  0.639	 -1.768	 -0.879	 -10.369	 -0.134	 -0.022	 -0.224	 29.500	 99.492	  0.145
30126	  0.177	 -0.262	  0.639	 -1.197	 -0.632	 -10.423	 -0.331	  0.447	 -0.143	 29.500	 99.480	  1.248
30176	  0.162	 -0.262	  0.637	 -0.984	  0.085	 -10.024	 -0.112	  0.712	 -0.325	 29.500	 99.492	  0.145
30226	  0.135	 -0.252	  0.648	 -1.745	 -0.012	 -11.041	 -0.137	  1.057	 -0.335	 29.500	 99.504	 -0.960
30276	  0.101	 -0.250	  0.667	 -1.495	  0.145	 -9.497	 -0.366	  1.085	 -0.252	 29.500	 99.492	  0.145
30326	  0.082	 -0.255	  0.669	  0.194	  1.550	 -8.804	 -0.085	  0.165	 -0.175	 29.500	 99.492	  0.145
30376	  0.105	 -0.230	  0.661	 -0.823	  0.691	 -9.465	  0.173	 -0.435	 -0.120	 29.500	 99.480	  1.248
30426	  0.130	 -0.223	  0.654	 -1.305	  0.288	 -9.873	 -0.022	 -0.245	 -0.207	 29.500	 99.492	  0.145
30476	  0.144	 -0.214	  0.645	 -0.770	  0.625	 -10.567	 -0.133	 -0.011	 -0.272	 29.500	 99.504	 -0.960
30526	  0.157	 -0.221	  0.645	 -1.494	  0.969	 -8.816	  0.149	 -0.024	  0.169	 29.500	 99.492	  0.145
30576	  0.148	 -0.211	  0.649	 -4.222	  0.694	 -9.933	  0.232	  0.831	  0.404	 29.500	 99.480	  1.248
30626	  0.081	 -0.235	  0.672	  0.367	  0.302	 -9.447	 -0.147	  1.974	  0.608	 29.500	 99.492	  0.145
30676	  0.012	 -0.253	  0.704	  2.529	  0.582	 -8.991	 -0.137	  1.351	  0.447	 29.500	 99.480	  1.248
30726	 -0.009	 -0.230	  0.712	  0.070	 -0.168	 -8.886	  0.844	  0.066	 -0.226	 29.500	 99.492	  0.145
30776	 -0.009	 -0.194	  0.729	  1.882	  0.548	 -10.646	  0.333	  0.342	  0.005	 29.500	 99.480	  1.248
30826	 -0.010	 -0.194	  0.726	  1.321	 -0.478	 -10.082	 -0.209	 -0.097	 -0.124	 29.500	 99.492	  0.145
30876	 -0.001	 -0.203	  0.718	  0.321	  0.098	 -8.372	 -0.092	 -0.409	  0.170	 29.500	 99.492	  0.145
30926	  0.040	 -0.202	  0.705	  1.575	 -0.114	 -8.403	  0.305	 -0.790	 -0.249	 29.500	 99.492	  0.145
30976	  0.083	 -0.187	  0.690	  0.608	 -0.442	 -9.141	  0.288	 -0.615	 -0.641	 29.500	 99.492	  0.145
31026	  0.120	 -0.152	  0.696	 -0.348	  0.101	 -9.438	  0.431	  0.036	 -0.730	 29.500	 99.504	 -0.960
31076	  0.128	 -0.122	  0.698	  0.160	 -0.061	 -9.733	  0.459	  0.196	 -0.464	 29.500	 99.492	  0.145
31126	  0.140	 -0.094	  0.708	 -0.649	  0.200	 -10.227	  0.413	  0.341	 -0.100	 29.500	 99.496	 -0.224
31176	  0.126	 -0.088	  0.709	  0.082	 -0.041	 -9.754	  0.400	  0.548	  0.025	 29.500	 99.492	  0.145
31226	  0.117	 -0.073	  0.717	  1.366	 -0.970	 -9.763	  0.397	  0.367	 -0.110	 29.500	 99.492	  0.145
31276	  0.118	 -0.060	  0.702	  1.275	 -1.596	 -9.622	  0.044	 -0.062	 -0.196	 29.500	 99.492	  0.145
31326	  0.128	 -0.061	  0.709	  1.186	 -1.299	 -9.550	 -0.102	 -0.141	 -0.101	 29.500	 99.492	  0.145
31376	  0.136	 -0.060	  0.706	  0.271	 -1.079	 -9.081	  0.061	  0.026	 -0.037	 29.500	 99.492	  0.145
31426	  0.133	 -0.052	  0.708	  4.423	 -7.326	 -19.081	  0.192	  0.175	  0.181	 29.500	 99.492	  0.145
31476	  0.149	 -0.078	  0.709	  1.079	 -1.192	 -9.408	 -0.277	 -0.293	  0.161	 29.500	 99.492	  0.145
31526	  0.162	 -0.084	  0.710	  0.307	 -0.766	 -9.477	 -0.282	 -0.244	  0.109	 29.500	 99.488	  0.513
31576	  0.172	 -0.116	  0.700	  0.531	 -0.434	 -9.436	 -0.306	 -0.224	  0.053	 29.500	 99.492	  0.145
31626	  0.181	 -0.123	  0.699	  0.642	 -0.671	 -9.337	 -0.297	 -0.328	  0.015	 29.500	 99.488	  0.513
31676	  0.200	 -0.160	  0.688	 -0.226	 -0.100	 -9.422	 -0.736	 -0.606	  0.105	 29.500	 99.492	  0.145
31726	  0.220	 -0.181	  0.680	 -0.332	 -2.177	 -8.259	 -0.106	  0.240	  0.125	 29.500	 99.492	  0.145
31776	  0.217	 -0.182	  0.681	 -0.027	 -0.164	 -9.381	  0.002	 -0.003	  0.007	 29.500	 99.496	 -0.224
31826	  0.217	 -0.190	  0.680	 -0.213	  0.014	 -9.537	  0.005	 -0.002	  0.012	 29.500	 99.492	  0.145
31876	  0.215	 -0.190	  0.683	 -0.117	 -0.045	 -9.472	  0.000	 -0.025	  0.011	 29.500	 99.488	  0.513
31926	  0.215	 -0.176	  0.678	 -0.176	 -0.035	 -9.514	  0.003	 -0.006	  0.010	 29.500	 99.492	  0.145
31976	  0.214	 -0.193	  0.675	 -0.167	 -0.061	 -9.527	  0.002	  0.006	  0.011	 29.500	 99.480	  1.248
32026	  0.215	 -0.191	  0.676	 -0.118	 -0.000	 -9.436	  0.003	 -0.002	  0.012	 29.500	 99.480	  1.248
32076	  0.217	 -0.174	  0.680	 -0.143	 -0.005	 -9.503	  0.002	 -0.005	  0.011	 29.500	 99.492	  0.145
32126	  0.217	 -0.189	  0.683	 -0.134	 -0.020	 -9.489	  0.003	  0.002	  0.011	 29.500	 99.492	  0.145
32176	  0.217	 -0.194	  0.678	 -0.123	 -0.027	 -9.502	  0.002	 -0.003	  0.011	 29.500	 99.476	  1.617
32226	  0.218	 -0.190	  0.680	 -0.141	 -0.009	 -9.506	  0.003	 -0.002	  0.011	 29.500	 99.492	  0.145
32276	  0.215	 -0.189	  0.680	 -0.107	 -0.033	 -9.498	  0.002	 -0.001	  0.012	 29.500	 99.492	  0.145
32326	  0.218	 -0.190	  0.676	 -0.165	 -0.011	 -9.448	  0.003	 -0.002	  0.011	 29.500	 99.492	  0.145
32376	  0.215	 -0.190	  0.680	 -0.095	 -0.036	 -9.460	  0.004	 -0.001	  0.012	 29.500	 99.488	  0.513
32426	  0.218	 -0.186	  0.674	 -0.185	 -0.017	 -9.484	  0.002	 -0.000	  0.011	 29.500	 99.492	  0.145
32476	  0.218	 -0.194	  0.678	 -0.083	 -0.020	 -9.461	  0.003	 -0.001	  0.011	 29.500	 99.492	  0.145
32526	  0.215	 -0.194	  0.671	 -0.182	  0.016	 -9.406	  0.003	 -0.002	  0.010	 29.500	 99.492	  0.145
32577	  0.220	 -0.194	  0.679	 -0.085	 -0.067	 -9.550	  0.002	 -0.001	  0.011	 29.500	 99.488	  0.513
32626	  0.221	 -0.186	  0.678	 -0.187	  0.018	 -9.503	  0.002	 -0.000	  0.011	 29.500	 99.492	  0.145
32677	  0.217	 -0.193	  0.678	 -0.100	 -0.031	 -9.468	  0.002	 -0.001	  0.011	 29.500	 99.492	  0.145
32726	  0.215	 -0.188	  0.679	 -0.148	  0.004	 -9.484	  0.002	 -0.001	  0.012	 29.500	 99.476	  1.617
32777	  0.217	 -0.189	  0.678	 -0.104	 -0.014	 -9.510	  0.003	  0.000	  0.011	 29.500	 99.480	  1.248
32826	  0.216	 -0.195	  0.674	 -0.194	 -0.018	 -9.479	  0.002	 -0.000	  0.011	 29.500	 99.480	  1.248
32877	  0.217	 -0.182	  0.681	 -0.093	 -0.018	 -9.493	  0.002	 -0.001	  0.011	 29.500	 99.492	  0.145
32927	  0.216	 -0.176	  0.679	 -0.142	 -0.001	 -9.500	  0.002	 -0.001	  0.011	 29.500	 99.492	  0.145
32977	  0.216	 -0.188	  0.678	 -0.134	 -0.011	 -9.504	  0.003	 -0.002	  0.011	 29.500	 99.492	  0.145
33027	  0.220	 -0.185	  0.682	 -0.146	 -0.030	 -9.519	  0.003	 -0.001	  0.010	 29.500	 99.492	  0.145
33077	  0.218	 -0.190	  0.682	 -0.147	 -0.013	 -9.501	  0.002	 -0.000	  0.011	 29.500	 99.492	  0.145
33127	  0.216	 -0.186	  0.675	 -0.163	 -0.017	 -9.507	  0.003	 -0.000	  0.011	 29.500	 99.500	 -0.592
33177	  0.216	 -0.189	  0.679	 -0.107	 -0.009	 -9.483	  0.003	  0.001	  0.010	 29.500	 99.504	 -0.960
33227	  0.216	 -0.176	  0.676	 -0.151	 -0.017	 -9.526	  0.003	 -0.005	  0.011	 29.500	 99.504	 -0.960
33277	  0.218	 -0.193	  0.680	 -0.150	 -0.027	 -9.491	  0.002	  0.001	  0.012	 29.500	 99.492	  0.145
33327	  0.217	 -0.186	  0.669	 -0.162	  0.049	 -9.455	  0.002	 -0.003	  0.010	 29.500	 99.492	  0.145
33377	  0.217	 -0.177	  0.680	 -0.128	 -0.105	 -9.533	  0.001	  0.001	  0.010	 29.500	 99.488	  0.513
33427	  0.217	 -0.183	  0.680	 -0.107	 -0.042	 -9.459	  0.004	 -0.002	  0.012	 29.500	 99.492	  0.145
