Time	 MagX	 MagY	 MagZ	 AccelX	 AccelY	 AccelZ	 Yaw	 Pitch	 Roll	 Temperature	 Pressure	 Altitude
18273	 -0.051	  0.358	  0.501	  7.042	 -1.084	 -6.687	 -0.002	  0.003	  0.000	 33.200	 99.125	 -99999.000
18323	 -0.051	  0.354	  0.495	  7.039	 -1.071	 -6.700	 -0.004	  0.003	  0.000	 33.200	 99.125	 -99999.000
18373	 -0.052	  0.360	  0.496	  7.007	 -1.070	 -6.700	 -0.004	  0.002	 -0.001	 33.200	 99.125	 -99999.000
18423	 -0.051	  0.355	  0.500	  7.028	 -1.077	 -6.693	 -0.003	  0.003	 -0.000	 33.100	 99.133	 -99999.000
18473	 -0.053	  0.362	  0.500	  7.021	 -1.087	 -6.730	 -0.002	  0.002	 -0.000	 33.200	 99.114	 -99999.000
18523	 -0.053	  0.355	  0.493	  7.039	 -1.092	 -6.674	 -0.003	  0.003	  0.001	 33.200	 99.125	 -99999.000
18573	 -0.051	  0.358	  0.498	  7.029	 -1.066	 -6.723	 -0.002	  0.003	 -0.000	 33.200	 99.125	 -99999.000
18623	 -0.051	  0.355	  0.500	  7.026	 -1.058	 -6.718	 -0.004	  0.003	  0.001	 33.100	 99.121	 -99999.000
18673	 -0.051	  0.356	  0.494	  7.028	 -1.061	 -6.668	 -0.004	  0.001	  0.001	 33.200	 99.137	 -99999.000
18723	 -0.050	  0.355	  0.495	  7.027	 -1.075	 -6.701	 -0.004	  0.002	  0.000	 33.200	 99.125	 -99999.000
18773	 -0.051	  0.355	  0.496	  7.036	 -1.081	 -6.689	 -0.003	  0.004	  0.000	 33.200	 99.137	 -99999.000
18823	 -0.050	  0.356	  0.502	  7.063	 -1.084	 -6.680	 -0.003	  0.005	  0.001	 33.200	 99.125	 -99999.000
18873	 -0.053	  0.355	  0.497	  7.031	 -1.080	 -6.699	 -0.003	  0.004	  0.001	 33.200	 99.114	 -99999.000
18923	 -0.052	  0.355	  0.496	  7.028	 -1.076	 -6.705	 -0.004	  0.003	  0.001	 33.200	 99.125	 -99999.000
18973	 -0.052	  0.357	  0.496	  7.042	 -1.090	 -6.691	 -0.003	  0.002	 -0.000	 33.200	 99.137	 -99999.000
19023	 -0.052	  0.361	  0.497	  7.023	 -1.094	 -6.698	 -0.003	  0.003	  0.001	 33.100	 99.121	 -99999.000
19073	 -0.052	  0.358	  0.500	  7.021	 -1.070	 -6.685	 -0.003	  0.002	 -0.000	 33.200	 99.125	 -99999.000
19123	 -0.051	  0.355	  0.497	  7.037	 -1.082	 -6.695	 -0.004	  0.003	  0.000	 33.100	 99.121	 -99999.000
19173	 -0.053	  0.355	  0.496	  7.044	 -1.062	 -6.712	 -0.005	  0.003	  0.000	 33.200	 99.125	 -99999.000
19223	 -0.053	  0.355	  0.497	  7.014	 -1.065	 -6.704	 -0.004	  0.003	  0.001	 33.100	 99.133	 -99999.000
19273	 -0.054	  0.356	  0.492	  7.019	 -1.085	 -6.688	 -0.003	  0.002	  0.000	 33.100	 99.121	 -99999.000
19323	 -0.051	  0.358	  0.498	  7.044	 -1.057	 -6.702	 -0.004	  0.003	 -0.000	 33.200	 99.125	 -99999.000
19373	 -0.053	  0.356	  0.497	  7.025	 -1.080	 -6.723	 -0.003	  0.002	 -0.000	 33.200	 99.114	 -99999.000
19423	 -0.050	  0.354	  0.498	  7.056	 -1.088	 -6.702	 -0.004	  0.002	 -0.000	 33.100	 99.121	 -99999.000
19473	 -0.052	  0.358	  0.495	  7.008	 -1.065	 -6.712	 -0.003	  0.003	 -0.000	 33.200	 99.125	 -99999.000
19523	 -0.050	  0.353	  0.494	  7.042	 -1.078	 -6.739	 -0.003	  0.003	  0.001	 33.200	 99.137	 -99999.000
19573	 -0.051	  0.356	  0.497	  7.030	 -1.081	 -6.712	 -0.003	  0.002	  0.000	 33.100	 99.121	 -99999.000
19623	 -0.053	  0.356	  0.498	  7.023	 -1.082	 -6.706	 -0.004	  0.002	  0.000	 33.200	 99.125	 -99999.000
19673	 -0.051	  0.357	  0.500	  7.024	 -1.083	 -6.674	 -0.002	  0.003	  0.002	 33.200	 99.125	 -99999.000
19723	 -0.050	  0.357	  0.496	  7.039	 -1.089	 -6.719	 -0.003	  0.002	  0.001	 33.200	 99.125	 -99999.000
19773	 -0.050	  0.353	  0.498	  7.027	 -1.050	 -6.670	 -0.004	  0.002	  0.000	 33.100	 99.121	 -99999.000
19823	 -0.050	  0.357	  0.495	  7.035	 -1.062	 -6.717	 -0.003	  0.002	  0.000	 33.200	 99.125	 -99999.000
19873	 -0.052	  0.356	  0.494	  7.022	 -1.056	 -6.701	 -0.005	  0.001	  0.001	 33.200	 99.137	 -99999.000
19923	 -0.052	  0.355	  0.497	  7.033	 -1.075	 -6.702	 -0.003	  0.003	 -0.000	 33.200	 99.125	 -99999.000
19973	 -0.051	  0.355	  0.496	  7.029	 -1.066	 -6.736	 -0.003	  0.002	  0.001	 33.200	 99.137	 -99999.000
20023	 -0.050	  0.356	  0.497	  7.036	 -1.062	 -6.698	 -0.004	  0.002	  0.000	 33.200	 99.125	 -99999.000
20073	 -0.052	  0.357	  0.496	  7.010	 -1.084	 -6.683	 -0.005	  0.004	  0.000	 33.200	 99.125	 -99999.000
20123	 -0.053	  0.355	  0.496	  7.010	 -1.082	 -6.701	 -0.003	  0.003	  0.000	 33.200	 99.114	 -99999.000
20173	 -0.052	  0.358	  0.496	  7.026	 -1.089	 -6.702	 -0.004	  0.004	  0.001	 33.100	 99.121	 -99999.000
20223	 -0.053	  0.357	  0.496	  7.023	 -1.079	 -6.701	 -0.004	  0.001	 -0.000	 33.200	 99.114	 -99999.000
20273	 -0.051	  0.354	  0.493	  7.023	 -1.071	 -6.673	 -0.004	  0.004	  0.001	 33.200	 99.148	 -99999.000
20323	 -0.051	  0.353	  0.493	  7.001	 -1.070	 -6.665	 -0.005	  0.004	  0.001	 33.200	 99.137	 -99999.000
20373	 -0.055	  0.354	  0.486	  7.019	 -1.081	 -6.656	 -0.003	  0.003	  0.001	 33.200	 99.125	 -99999.000
20423	 -0.053	  0.358	  0.493	  7.030	 -1.073	 -6.694	 -0.004	  0.003	  0.001	 33.100	 99.121	 -99999.000
20473	 -0.052	  0.355	  0.492	  7.036	 -1.096	 -6.734	 -0.003	  0.002	  0.000	 33.200	 99.137	 -99999.000
20523	 -0.053	  0.353	  0.487	  7.035	 -1.080	 -6.714	 -0.004	  0.002	  0.001	 33.200	 99.137	 -99999.000
20573	 -0.054	  0.355	  0.489	  7.016	 -1.072	 -6.727	 -0.003	  0.002	  0.000	 33.200	 99.125	 -99999.000
20623	 -0.052	  0.356	  0.494	  7.006	 -1.081	 -6.706	 -0.004	  0.002	  0.000	 33.200	 99.137	 -99999.000
20673	 -0.052	  0.355	  0.494	  7.025	 -1.070	 -6.684	 -0.003	  0.002	  0.000	 33.100	 99.121	 -99999.000
20723	 -0.051	  0.356	  0.489	  7.019	 -1.072	 -6.750	 -0.003	  0.002	  0.001	 33.200	 99.125	 -99999.000
20773	 -0.053	  0.359	  0.492	  7.037	 -1.071	 -6.666	 -0.002	  0.002	  0.001	 33.200	 99.125	 -99999.000
20823	 -0.054	  0.355	  0.493	  7.022	 -1.068	 -6.707	 -0.003	  0.003	 -0.000	 33.200	 99.125	 -99999.000
20873	 -0.054	  0.354	  0.490	  7.034	 -1.073	 -6.707	 -0.003	  0.003	  0.000	 33.200	 99.137	 -99999.000
20923	 -0.051	  0.356	  0.492	  7.036	 -1.056	 -6.681	 -0.003	  0.002	 -0.001	 33.200	 99.125	 -99999.000
20973	 -0.051	  0.365	  0.493	  7.016	 -1.102	 -6.725	 -0.004	  0.003	  0.001	 33.200	 99.125	 -99999.000
21023	 -0.054	  0.362	  0.495	  7.025	 -1.047	 -6.649	 -0.003	  0.003	 -0.000	 33.100	 99.121	 -99999.000
21073	 -0.055	  0.358	  0.493	  7.021	 -1.100	 -6.707	 -0.003	  0.003	 -0.000	 33.100	 99.121	 -99999.000
21123	 -0.051	  0.358	  0.496	  7.037	 -1.092	 -6.650	 -0.004	  0.004	  0.001	 33.200	 99.125	 -99999.000
21173	 -0.051	  0.355	  0.494	  7.006	 -1.094	 -6.707	 -0.004	  0.003	  0.000	 33.200	 99.125	 -99999.000
21223	 -0.054	  0.359	  0.495	  7.039	 -1.091	 -6.698	 -0.003	  0.003	  0.002	 33.200	 99.137	 -99999.000
21273	 -0.051	  0.359	  0.495	  7.026	 -1.078	 -6.684	 -0.004	  0.002	  0.000	 33.200	 99.125	 -99999.000
21323	 -0.053	  0.357	  0.495	  7.037	 -1.074	 -6.680	 -0.003	  0.002	  0.001	 33.200	 99.125	 -99999.000
21373	 -0.052	  0.356	  0.495	  7.031	 -1.081	 -6.726	 -0.003	  0.002	 -0.000	 33.200	 99.125	 -99999.000
21423	 -0.054	  0.358	  0.497	  7.007	 -1.068	 -6.713	 -0.003	  0.002	  0.001	 33.200	 99.137	 -99999.000
21473	 -0.053	  0.355	  0.497	  7.028	 -1.097	 -6.714	 -0.004	  0.003	 -0.000	 33.200	 99.125	 -99999.000
21523	 -0.052	  0.361	  0.494	  7.029	 -1.067	 -6.723	 -0.003	  0.003	  0.000	 33.200	 99.125	 -99999.000
21573	 -0.051	  0.356	  0.493	  7.003	 -1.065	 -6.713	 -0.003	  0.004	  0.000	 33.200	 99.125	 -99999.000
21623	 -0.051	  0.355	  0.497	  7.025	 -1.070	 -6.691	 -0.004	  0.001	  0.000	 33.100	 99.133	 -99999.000
21673	 -0.052	  0.360	  0.496	  7.015	 -1.067	 -6.674	 -0.003	  0.002	  0.000	 33.200	 99.137	 -99999.000
21723	 -0.053	  0.355	  0.492	  6.966	 -1.231	 -6.737	  0.004	  0.002	  0.001	 33.200	 99.125	 -99999.000
21773	 -0.054	  0.356	  0.494	  7.046	 -1.015	 -6.721	 -0.003	  0.001	  0.001	 33.200	 99.125	 -99999.000
21823	 -0.052	  0.361	  0.497	  7.082	 -1.076	 -6.762	 -0.005	  0.001	 -0.000	 33.200	 99.125	 -99999.000
21873	 -0.051	  0.357	  0.495	  6.986	 -1.100	 -6.667	 -0.003	  0.004	 -0.000	 33.200	 99.125	 -99999.000
21923	 -0.053	  0.355	  0.493	  7.061	 -1.040	 -6.646	 -0.002	  0.002	  0.000	 33.200	 99.114	 -99999.000
21973	 -0.053	  0.355	  0.497	  7.020	 -1.107	 -6.710	 -0.003	  0.002	  0.001	 33.200	 99.137	 -99999.000
22023	 -0.051	  0.358	  0.497	  7.048	 -1.059	 -6.707	 -0.003	  0.003	  0.001	 33.200	 99.114	 -99999.000
22073	 -0.053	  0.362	  0.496	  7.021	 -1.075	 -6.709	 -0.003	  0.003	 -0.001	 33.100	 99.121	 -99999.000
22123	 -0.055	  0.357	  0.496	  7.052	 -1.055	 -6.707	 -0.004	  0.002	 -0.001	 33.200	 99.125	 -99999.000
22172	 -0.052	  0.360	  0.497	  7.065	 -1.065	 -6.701	 -0.004	  0.004	  0.001	 33.200	 99.114	 -99999.000
22222	 -0.052	  0.358	  0.496	  7.002	 -1.062	 -6.732	 -0.003	  0.003	 -0.000	 33.200	 99.125	 -99999.000
22272	 -0.051	  0.358	  0.498	  7.003	 -1.092	 -6.686	 -0.003	  0.003	  0.001	 33.200	 99.114	 -99999.000
22322	 -0.051	  0.359	  0.495	  7.018	 -1.089	 -6.688	 -0.003	  0.002	 -0.001	 33.200	 99.114	 -99999.000
22372	 -0.052	  0.359	  0.496	  7.004	 -1.102	 -6.695	 -0.004	  0.002	  0.001	 33.200	 99.125	 -99999.000
22423	 -0.053	  0.355	  0.497	  7.033	 -1.070	 -6.701	 -0.003	  0.003	  0.001	 33.200	 99.125	 -99999.000
22472	 -0.052	  0.353	  0.498	  7.017	 -1.103	 -6.701	 -0.004	  0.002	  0.001	 33.200	 99.125	 -99999.000
22522	 -0.050	  0.356	  0.496	  7.019	 -1.066	 -6.673	 -0.003	  0.004	  0.001	 33.200	 99.125	 -99999.000
22573	 -0.052	  0.357	  0.495	  7.054	 -1.084	 -6.719	 -0.004	  0.002	 -0.000	 33.100	 99.121	 -99999.000
22622	 -0.051	  0.354	  0.497	  7.051	 -1.072	 -6.656	 -0.003	  0.003	  0.001	 33.200	 99.137	 -99999.000
22672	 -0.052	  0.362	  0.496	  7.029	 -1.072	 -6.685	 -0.005	  0.002	  0.001	 33.200	 99.137	 -99999.000
22722	 -0.051	  0.357	  0.492	  7.001	 -1.082	 -6.702	 -0.004	  0.003	  0.000	 33.200	 99.125	 -99999.000
22772	 -0.052	  0.355	  0.496	  7.034	 -1.093	 -6.673	 -0.003	  0.002	  0.001	 33.200	 99.114	 -99999.000
22822	 -0.052	  0.359	  0.496	  7.028	 -1.086	 -6.690	 -0.002	  0.003	 -0.000	 33.200	 99.125	 -99999.000
22872	 -0.050	  0.356	  0.495	  7.030	 -1.090	 -6.681	 -0.005	  0.003	  0.001	 33.200	 99.114	 -99999.000
22922	 -0.053	  0.358	  0.496	  7.015	 -1.079	 -6.699	 -0.004	  0.002	  0.000	 33.200	 99.125	 -99999.000
22972	 -0.052	  0.357	  0.498	  7.023	 -1.067	 -6.693	 -0.003	  0.003	 -0.000	 33.200	 99.125	 -99999.000
23023	 -0.052	  0.364	  0.498	  7.056	 -1.065	 -6.680	 -0.004	  0.003	  0.000	 33.200	 99.125	 -99999.000
23072	 -0.053	  0.358	  0.494	  7.075	 -1.098	 -6.802	 -0.006	  0.004	  0.001	 33.200	 99.125	 -99999.000
23123	 -0.052	  0.358	  0.498	  7.032	 -1.081	 -6.720	 -0.003	  0.003	  0.000	 33.200	 99.125	 -99999.000
23173	 -0.052	  0.357	  0.494	  7.030	 -1.091	 -6.739	 -0.004	  0.002	 -0.001	 33.100	 99.121	 -99999.000
23222	 -0.053	  0.356	  0.496	  7.016	 -1.065	 -6.656	 -0.003	  0.001	 -0.000	 33.200	 99.137	 -99999.000
23273	 -0.052	  0.360	  0.498	  7.040	 -1.083	 -6.719	 -0.003	  0.004	  0.000	 33.200	 99.125	 -99999.000
23323	 -0.052	  0.356	  0.500	  7.042	 -1.056	 -6.695	 -0.003	  0.002	 -0.001	 33.200	 99.125	 -99999.000
23373	 -0.054	  0.355	  0.494	  7.036	 -1.062	 -6.728	 -0.004	  0.003	  0.000	 33.200	 99.125	 -99999.000
23423	 -0.054	  0.360	  0.497	  7.016	 -1.071	 -6.704	 -0.003	  0.002	  0.001	 33.200	 99.114	 -99999.000
23473	 -0.051	  0.360	  0.495	  7.019	 -1.084	 -6.725	 -0.004	  0.002	  0.001	 33.200	 99.141	 -99999.000
23523	 -0.052	  0.354	  0.498	  7.005	 -1.076	 -6.674	 -0.003	  0.003	  0.000	 33.100	 99.110	 -99999.000
23573	 -0.052	  0.355	  0.497	  7.044	 -1.087	 -6.690	 -0.004	  0.003	  0.000	 33.200	 99.125	 -99999.000
23623	 -0.052	  0.354	  0.497	  7.023	 -1.092	 -6.721	 -0.003	  0.001	  0.001	 33.200	 99.125	 -99999.000
23673	 -0.051	  0.358	  0.497	  7.029	 -1.099	 -6.698	 -0.004	  0.002	 -0.001	 33.200	 99.137	 -99999.000
23723	 -0.052	  0.367	  0.494	  7.014	 -1.065	 -6.718	 -0.003	  0.002	  0.001	 33.200	 99.125	 -99999.000
23773	 -0.053	  0.358	  0.497	  7.020	 -1.073	 -6.674	 -0.004	  0.001	 -0.001	 33.200	 99.137	 -99999.000
23823	 -0.051	  0.357	  0.497	  7.039	 -1.093	 -6.711	 -0.004	  0.002	  0.000	 33.100	 99.121	 -99999.000
23873	 -0.054	  0.360	  0.497	  7.033	 -1.102	 -6.709	 -0.003	  0.003	  0.001	 33.200	 99.137	 -99999.000
23923	 -0.053	  0.357	  0.493	  7.043	 -1.066	 -6.684	 -0.003	  0.003	  0.001	 33.200	 99.125	 -99999.000
23973	 -0.053	  0.363	  0.495	  7.031	 -1.068	 -6.698	 -0.005	  0.002	  0.001	 33.200	 99.125	 -99999.000
24023	 -0.051	  0.357	  0.496	  7.033	 -1.085	 -6.701	 -0.004	  0.003	 -0.000	 33.200	 99.125	 -99999.000
24073	 -0.053	  0.356	  0.500	  7.035	 -1.078	 -6.700	 -0.003	  0.001	  0.001	 33.200	 99.125	 -99999.000
24123	 -0.051	  0.356	  0.497	  7.029	 -1.076	 -6.690	 -0.004	  0.003	  0.000	 33.200	 99.125	 -99999.000
24173	 -0.054	  0.361	  0.496	  7.043	 -1.083	 -6.698	 -0.003	  0.003	  0.000	 33.200	 99.125	 -99999.000
24223	 -0.052	  0.358	  0.497	  7.027	 -1.077	 -6.709	 -0.004	  0.002	  0.001	 33.200	 99.125	 -99999.000
26198	 -0.052	  0.359	  0.489	  6.999	 -1.069	 -6.628	 -0.000	  0.004	 -0.000	 33.200	 99.114	  1.020
26248	 -0.052	  0.362	  0.497	  7.016	 -1.069	 -6.706	 -0.004	  0.004	  0.001	 33.200	 99.114	  1.020
26298	 -0.054	  0.352	  0.493	  7.025	 -1.071	 -6.653	 -0.002	  0.002	 -0.000	 33.100	 99.110	  1.382
26348	 -0.054	  0.356	  0.494	  7.032	 -1.093	 -6.710	 -0.003	  0.002	 -0.001	 33.200	 99.114	  1.020
26398	 -0.053	  0.353	  0.497	  7.022	 -1.081	 -6.694	 -0.005	  0.003	  0.000	 33.200	 99.130	 -0.433
26447	 -0.052	  0.355	  0.493	  7.029	 -1.088	 -6.671	 -0.002	  0.003	 -0.000	 33.200	 99.114	  1.020
26498	 -0.052	  0.354	  0.495	  7.029	 -1.083	 -6.712	 -0.003	  0.002	 -0.000	 33.200	 99.125	  0.021
26547	 -0.053	  0.353	  0.489	  7.027	 -1.086	 -6.701	 -0.003	  0.003	  0.000	 33.200	 99.114	  1.020
26597	 -0.054	  0.355	  0.496	  7.048	 -1.082	 -6.709	 -0.004	  0.003	  0.001	 33.200	 99.125	  0.021
26647	 -0.053	  0.356	  0.492	  7.029	 -1.066	 -6.683	 -0.004	  0.002	  0.000	 33.200	 99.125	  0.021
26697	 -0.052	  0.355	  0.495	  7.032	 -1.084	 -6.712	 -0.003	  0.001	  0.001	 33.200	 99.125	  0.021
26747	 -0.051	  0.355	  0.496	  6.992	 -1.069	 -6.716	 -0.003	  0.003	  0.000	 33.200	 99.137	 -1.068
26797	 -0.054	  0.356	  0.494	  7.024	 -1.071	 -6.698	 -0.004	  0.002	 -0.000	 33.200	 99.114	  1.020
26847	 -0.054	  0.353	  0.496	  7.021	 -1.060	 -6.700	 -0.004	  0.003	  0.001	 33.200	 99.114	  1.020
26897	 -0.054	  0.355	  0.496	  7.027	 -1.062	 -6.706	 -0.005	  0.002	 -0.001	 33.200	 99.125	  0.021
26947	 -0.053	  0.358	  0.496	  7.015	 -1.076	 -6.687	 -0.003	  0.003	 -0.001	 33.200	 99.114	  1.020
26997	 -0.051	  0.357	  0.494	  7.016	 -1.046	 -6.714	 -0.004	  0.001	 -0.001	 33.100	 99.114	  1.020
27047	 -0.052	  0.354	  0.494	  7.038	 -1.073	 -6.695	 -0.003	  0.003	  0.000	 33.200	 99.125	  0.021
27097	 -0.054	  0.355	  0.495	  7.047	 -1.095	 -6.697	 -0.002	  0.003	  0.001	 33.200	 99.125	  0.021
27147	 -0.052	  0.354	  0.496	  7.020	 -1.078	 -6.704	 -0.004	  0.003	  0.000	 33.200	 99.114	  1.020
27197	 -0.053	  0.356	  0.495	  7.030	 -1.066	 -6.689	 -0.003	  0.004	  0.001	 33.200	 99.114	  1.020
27247	 -0.053	  0.359	  0.495	  7.029	 -1.112	 -6.698	 -0.004	  0.003	  0.001	 33.200	 99.125	  0.021
27297	 -0.053	  0.354	  0.495	  7.049	 -1.076	 -6.698	 -0.004	  0.002	  0.000	 33.200	 99.103	  2.018
27347	 -0.052	  0.354	  0.496	  7.001	 -1.074	 -6.724	 -0.003	  0.004	  0.001	 33.200	 99.114	  1.020
27397	 -0.052	  0.357	  0.498	  7.023	 -1.077	 -6.723	 -0.003	  0.004	  0.002	 33.200	 99.114	  1.020
27447	 -0.053	  0.355	  0.495	  7.012	 -1.082	 -6.705	 -0.004	  0.003	 -0.000	 33.200	 99.125	  0.021
27497	 -0.052	  0.356	  0.497	  7.018	 -1.068	 -6.683	 -0.003	  0.002	  0.000	 33.100	 99.125	  0.021
27547	 -0.054	  0.354	  0.495	  7.041	 -1.069	 -6.691	 -0.004	  0.003	 -0.000	 33.200	 99.125	  0.021
27597	 -0.055	  0.358	  0.494	  7.054	 -1.067	 -6.687	 -0.004	  0.003	 -0.001	 33.200	 99.125	  0.021
27647	 -0.053	  0.364	  0.497	  7.020	 -1.069	 -6.727	 -0.002	  0.003	  0.002	 33.200	 99.114	  1.020
27697	 -0.054	  0.356	  0.490	  7.032	 -1.066	 -6.708	 -0.005	  0.002	  0.001	 33.200	 99.125	  0.021
27747	 -0.056	  0.354	  0.495	  7.023	 -1.079	 -6.673	 -0.004	  0.003	  0.000	 33.200	 99.125	  0.021
27797	 -0.054	  0.356	  0.495	  7.013	 -1.084	 -6.730	 -0.004	  0.002	  0.000	 33.200	 99.125	  0.021
27848	 -0.053	  0.355	  0.496	  7.047	 -1.073	 -6.721	 -0.005	  0.003	  0.000	 33.200	 99.114	  1.020
27897	 -0.053	  0.356	  0.497	  7.015	 -1.084	 -6.708	 -0.004	  0.004	  0.001	 33.200	 99.125	  0.021
27948	 -0.054	  0.353	  0.491	  7.037	 -1.058	 -6.687	 -0.004	  0.002	  0.000	 33.200	 99.125	  0.021
27998	 -0.054	  0.356	  0.496	  7.023	 -1.092	 -6.725	 -0.003	  0.003	  0.000	 33.200	 99.114	  1.020
28048	 -0.052	  0.363	  0.494	  7.024	 -1.082	 -6.683	 -0.003	  0.002	 -0.000	 33.200	 99.114	  1.020
28098	 -0.053	  0.353	  0.496	  7.002	 -1.075	 -6.724	 -0.003	  0.003	  0.001	 33.200	 99.114	  1.020
28148	 -0.053	  0.354	  0.496	  7.019	 -1.086	 -6.701	 -0.003	  0.003	  0.000	 33.200	 99.125	  0.021
28198	 -0.053	  0.355	  0.488	  7.026	 -1.054	 -6.710	 -0.004	  0.002	  0.000	 33.200	 99.114	  1.020
28248	 -0.051	  0.355	  0.493	  7.043	 -1.059	 -6.674	 -0.003	  0.003	  0.001	 33.200	 99.125	  0.021
28298	 -0.054	  0.356	  0.489	  7.029	 -1.061	 -6.693	 -0.003	  0.003	  0.000	 33.200	 99.114	  1.020
28348	 -0.052	  0.355	  0.497	  7.025	 -1.071	 -6.705	 -0.004	  0.003	 -0.000	 33.200	 99.125	  0.021
28398	 -0.053	  0.356	  0.493	  7.036	 -1.077	 -6.690	 -0.004	  0.003	  0.000	 33.200	 99.114	  1.020
28448	 -0.052	  0.357	  0.496	  7.016	 -1.094	 -6.707	 -0.004	  0.003	  0.001	 33.200	 99.125	  0.021
28498	 -0.052	  0.355	  0.494	  7.035	 -1.101	 -6.698	 -0.003	  0.001	  0.001	 33.200	 99.125	  0.021
28548	 -0.054	  0.357	  0.497	  7.043	 -1.062	 -6.717	 -0.004	  0.002	 -0.000	 33.200	 99.110	  1.382
28598	 -0.050	  0.355	  0.493	  7.037	 -1.094	 -6.705	 -0.003	  0.001	  0.000	 33.200	 99.114	  1.020
28648	 -0.052	  0.357	  0.494	  7.019	 -1.096	 -6.674	 -0.003	  0.003	  0.001	 33.200	 99.125	  0.021
28698	 -0.052	  0.358	  0.495	  7.038	 -1.094	 -6.690	 -0.003	  0.003	  0.001	 33.200	 99.114	  1.020
28748	 -0.054	  0.356	  0.494	  7.031	 -1.088	 -6.716	 -0.003	  0.003	  0.001	 33.200	 99.121	  0.383
28798	 -0.053	  0.351	  0.497	  7.018	 -1.084	 -6.713	 -0.004	  0.002	  0.000	 33.200	 99.114	  1.020
28848	 -0.052	  0.352	  0.489	  7.000	 -1.071	 -6.685	 -0.004	  0.001	  0.001	 33.200	 99.125	  0.021
28898	 -0.054	  0.354	  0.489	  7.025	 -1.066	 -6.743	 -0.004	  0.002	  0.000	 33.200	 99.114	  1.020
28948	 -0.055	  0.362	  0.494	  7.006	 -1.099	 -6.678	 -0.004	  0.002	  0.001	 33.100	 99.125	  0.021
28998	 -0.051	  0.356	  0.496	  7.013	 -1.076	 -6.711	 -0.003	  0.002	  0.000	 33.200	 99.125	  0.021
29048	 -0.052	  0.358	  0.497	  7.034	 -1.062	 -6.710	 -0.004	  0.003	  0.000	 33.200	 99.125	  0.021
29098	 -0.052	  0.355	  0.495	  7.030	 -1.090	 -6.707	 -0.004	  0.003	 -0.000	 33.200	 99.114	  1.020
29148	 -0.051	  0.353	  0.495	  7.028	 -1.072	 -6.726	 -0.003	  0.003	  0.001	 33.200	 99.114	  1.020
29198	 -0.053	  0.357	  0.493	  7.044	 -1.099	 -6.705	 -0.005	  0.003	  0.001	 33.200	 99.114	  1.020
29248	 -0.055	  0.356	  0.490	  7.028	 -1.090	 -6.690	 -0.003	  0.003	  0.000	 33.200	 99.114	  1.020
29298	 -0.055	  0.362	  0.496	  7.041	 -1.052	 -6.714	 -0.003	  0.003	  0.000	 33.200	 99.130	 -0.433
29348	 -0.054	  0.355	  0.494	  7.060	 -1.086	 -6.701	 -0.004	  0.002	  0.000	 33.200	 99.125	  0.021
29398	 -0.054	  0.356	  0.495	  7.016	 -1.082	 -6.691	 -0.004	  0.004	  0.000	 33.200	 99.114	  1.020
29448	 -0.050	  0.356	  0.495	  7.007	 -1.087	 -6.694	 -0.003	  0.003	 -0.001	 33.200	 99.125	  0.021
29498	 -0.056	  0.359	  0.497	  7.033	 -1.014	 -6.637	 -0.002	  0.003	  0.002	 33.200	 99.114	  1.020
29548	 -0.054	  0.354	  0.488	  7.027	 -1.088	 -6.697	 -0.002	  0.002	  0.000	 33.200	 99.125	  0.021
29598	 -0.053	  0.352	  0.492	  7.023	 -1.092	 -6.709	 -0.004	  0.003	  0.001	 33.200	 99.125	  0.021
29648	 -0.052	  0.356	  0.494	  7.025	 -1.069	 -6.682	 -0.004	  0.003	 -0.000	 33.200	 99.125	  0.021
29698	 -0.054	  0.355	  0.495	  7.026	 -1.100	 -6.673	 -0.004	  0.004	 -0.001	 33.200	 99.137	 -1.068
29748	 -0.053	  0.357	  0.488	  7.037	 -1.037	 -6.693	 -0.004	  0.002	  0.000	 33.200	 99.137	 -1.068
29798	 -0.056	  0.355	  0.491	  7.008	 -1.115	 -6.708	 -0.002	  0.002	  0.001	 33.100	 99.121	  0.383
29848	 -0.053	  0.355	  0.496	  7.017	 -1.059	 -6.726	 -0.004	  0.003	  0.002	 33.200	 99.125	  0.021
29898	 -0.054	  0.359	  0.496	  7.028	 -1.057	 -6.720	 -0.003	  0.002	  0.001	 33.200	 99.125	  0.021
29948	 -0.051	  0.352	  0.496	  7.038	 -1.052	 -6.702	 -0.004	  0.003	 -0.001	 33.200	 99.114	  1.020
29998	 -0.055	  0.357	  0.490	  7.042	 -1.068	 -6.653	 -0.004	  0.002	 -0.000	 33.200	 99.130	 -0.433
30048	 -0.052	  0.352	  0.496	  7.040	 -1.082	 -6.681	 -0.004	  0.003	 -0.001	 33.200	 99.125	  0.021
30098	 -0.054	  0.352	  0.496	  7.034	 -1.101	 -6.699	 -0.003	  0.002	 -0.000	 33.200	 99.130	 -0.433
30148	 -0.052	  0.357	  0.497	  7.030	 -1.078	 -6.681	 -0.004	  0.002	  0.001	 33.200	 99.125	  0.021
30198	 -0.051	  0.362	  0.496	  7.023	 -1.086	 -6.717	 -0.003	  0.003	 -0.000	 33.200	 99.125	  0.021
30248	 -0.053	  0.359	  0.496	  7.024	 -1.068	 -6.679	 -0.003	  0.004	 -0.000	 33.200	 99.114	  1.020
30298	 -0.055	  0.352	  0.496	  7.045	 -1.074	 -6.685	 -0.004	  0.002	  0.001	 33.200	 99.137	 -1.068
30348	 -0.054	  0.357	  0.489	  7.057	 -1.081	 -6.715	 -0.003	  0.003	  0.001	 33.200	 99.125	  0.021
30398	 -0.052	  0.353	  0.491	  7.024	 -1.069	 -6.658	 -0.003	  0.003	 -0.001	 33.200	 99.125	  0.021
30448	 -0.055	  0.357	  0.496	  7.011	 -1.083	 -6.683	 -0.004	  0.003	  0.001	 33.200	 99.125	  0.021
30498	 -0.055	  0.357	  0.501	  7.011	 -1.091	 -6.672	 -0.002	  0.002	  0.000	 33.200	 99.137	 -1.068
30548	 -0.050	  0.352	  0.496	  7.032	 -1.080	 -6.722	 -0.005	  0.002	  0.000	 33.200	 99.125	  0.021
30598	 -0.052	  0.355	  0.497	  6.995	 -1.073	 -6.691	 -0.004	  0.001	  0.000	 33.200	 99.125	  0.021
30648	 -0.054	  0.355	  0.495	  7.033	 -1.055	 -6.686	 -0.003	  0.002	  0.001	 33.200	 99.137	 -1.068
30698	 -0.055	  0.355	  0.495	  7.023	 -1.059	 -6.720	 -0.003	  0.002	 -0.000	 33.200	 99.125	  0.021
30748	 -0.052	  0.353	  0.498	  7.028	 -1.090	 -6.703	 -0.005	  0.004	  0.001	 33.200	 99.114	  1.020
30798	 -0.053	  0.354	  0.493	  7.026	 -1.084	 -6.683	 -0.004	  0.003	 -0.000	 33.200	 99.125	  0.021
30848	 -0.052	  0.357	  0.496	  7.043	 -1.075	 -6.700	 -0.004	  0.001	  0.001	 33.200	 99.121	  0.383
30898	 -0.054	  0.355	  0.497	  7.040	 -1.066	 -6.730	 -0.005	  0.002	  0.000	 33.200	 99.114	  1.020
30948	 -0.053	  0.356	  0.492	  7.017	 -1.072	 -6.710	 -0.003	  0.003	  0.001	 33.200	 99.137	 -1.068
30998	 -0.051	  0.355	  0.496	  7.022	 -1.085	 -6.703	 -0.003	  0.002	  0.000	 33.200	 99.125	  0.021
31048	 -0.053	  0.358	  0.496	  7.015	 -1.073	 -6.698	 -0.004	  0.002	  0.000	 33.200	 99.125	  0.021
31098	 -0.055	  0.357	  0.500	  7.025	 -1.101	 -6.704	 -0.004	  0.003	 -0.000	 33.100	 99.121	  0.383
31148	 -0.053	  0.357	  0.492	  7.040	 -1.076	 -6.703	 -0.003	  0.002	  0.000	 33.200	 99.125	  0.021
31198	 -0.052	  0.356	  0.498	  7.014	 -1.093	 -6.704	 -0.003	  0.003	  0.000	 33.200	 99.125	  0.021
31248	 -0.053	  0.360	  0.500	  7.024	 -1.071	 -6.693	 -0.004	  0.003	 -0.000	 33.200	 99.114	  1.020
31298	 -0.052	  0.356	  0.500	  7.017	 -1.091	 -6.692	 -0.004	  0.002	  0.002	 33.200	 99.125	  0.021
31348	 -0.053	  0.353	  0.497	  7.022	 -1.090	 -6.697	 -0.004	  0.002	  0.001	 33.200	 99.114	  1.020
31398	 -0.050	  0.356	  0.499	  7.039	 -1.066	 -6.709	 -0.004	  0.004	  0.002	 33.200	 99.125	  0.021
31448	 -0.052	  0.355	  0.497	  7.011	 -1.085	 -6.690	 -0.003	  0.001	  0.001	 33.200	 99.130	 -0.433
31498	 -0.054	  0.357	  0.495	  7.012	 -1.077	 -6.685	 -0.005	  0.004	  0.000	 33.200	 99.125	  0.021
31548	 -0.052	  0.350	  0.499	  7.026	 -1.068	 -6.685	 -0.003	  0.003	  0.001	 33.200	 99.137	 -1.068
31598	 -0.053	  0.355	  0.495	  7.027	 -1.095	 -6.706	 -0.003	  0.002	 -0.000	 33.200	 99.125	  0.021
31648	 -0.052	  0.354	  0.495	  7.015	 -1.082	 -6.690	 -0.003	  0.002	  0.000	 33.200	 99.125	  0.021
31698	 -0.053	  0.361	  0.498	  7.025	 -1.066	 -6.723	 -0.003	  0.002	  0.001	 33.200	 99.125	  0.021
31748	 -0.052	  0.357	  0.500	  7.055	 -1.087	 -6.698	 -0.003	  0.002	 -0.000	 33.200	 99.125	  0.021
31798	 -0.051	  0.354	  0.496	  7.033	 -1.060	 -6.693	 -0.003	  0.003	  0.000	 33.100	 99.121	  0.383
31848	 -0.051	  0.357	  0.496	  7.034	 -1.084	 -6.725	 -0.003	  0.004	 -0.000	 33.200	 99.137	 -1.068
31898	 -0.052	  0.354	  0.493	  7.052	 -1.070	 -6.714	 -0.003	  0.003	  0.001	 33.200	 99.125	  0.021
31948	 -0.050	  0.354	  0.493	  7.030	 -1.080	 -6.705	 -0.004	  0.002	 -0.000	 33.200	 99.125	  0.021
31998	 -0.053	  0.355	  0.498	  7.015	 -1.066	 -6.686	 -0.003	  0.003	  0.001	 33.200	 99.114	  1.020
32048	 -0.051	  0.354	  0.494	  7.025	 -1.058	 -6.683	 -0.003	  0.001	  0.001	 33.200	 99.125	  0.021
32098	 -0.054	  0.355	  0.489	  7.022	 -1.080	 -6.672	 -0.005	  0.003	  0.000	 33.200	 99.125	  0.021
32148	 -0.052	  0.354	  0.494	  7.019	 -1.084	 -6.710	 -0.003	  0.003	 -0.000	 33.200	 99.125	  0.021
32198	 -0.052	  0.360	  0.497	  7.011	 -1.065	 -6.671	 -0.002	  0.002	 -0.001	 33.200	 99.125	  0.021
32248	 -0.054	  0.358	  0.493	  7.024	 -1.095	 -6.686	 -0.004	  0.002	  0.001	 33.200	 99.125	  0.021
32297	 -0.052	  0.355	  0.495	  7.013	 -1.099	 -6.676	 -0.004	  0.003	 -0.001	 33.200	 99.114	  1.020
32347	 -0.053	  0.356	  0.498	  7.025	 -1.074	 -6.723	 -0.005	  0.003	  0.001	 33.200	 99.125	  0.021
32397	 -0.053	  0.356	  0.500	  7.040	 -1.072	 -6.682	 -0.003	  0.002	  0.001	 33.200	 99.125	  0.021
32447	 -0.050	  0.356	  0.494	  7.032	 -1.093	 -6.696	 -0.003	  0.003	 -0.000	 33.200	 99.114	  1.020
32497	 -0.052	  0.356	  0.496	  7.018	 -1.077	 -6.684	 -0.003	  0.003	 -0.001	 33.200	 99.125	  0.021
32547	 -0.054	  0.356	  0.495	  7.034	 -1.089	 -6.700	 -0.004	  0.002	  0.001	 33.200	 99.125	  0.021
32597	 -0.052	  0.355	  0.497	  7.022	 -1.093	 -6.723	 -0.003	  0.004	  0.001	 33.200	 99.125	  0.021
32647	 -0.050	  0.359	  0.499	  7.003	 -1.070	 -6.683	 -0.004	  0.003	 -0.000	 33.200	 99.125	  0.021
32697	 -0.051	  0.356	  0.501	  7.029	 -1.090	 -6.675	 -0.003	  0.003	 -0.000	 33.100	 99.137	 -1.068
32747	 -0.051	  0.356	  0.492	  7.017	 -1.067	 -6.695	 -0.002	  0.003	  0.001	 33.200	 99.125	  0.021
32798	 -0.054	  0.353	  0.496	  7.024	 -1.080	 -6.713	 -0.004	  0.004	  0.000	 33.200	 99.125	  0.021
32848	 -0.054	  0.355	  0.492	  7.042	 -1.072	 -6.726	 -0.004	  0.003	  0.001	 33.200	 99.125	  0.021
32898	 -0.053	  0.354	  0.495	  7.036	 -1.066	 -6.683	 -0.005	  0.003	  0.000	 33.200	 99.125	  0.021
32947	 -0.050	  0.355	  0.496	  7.034	 -1.069	 -6.685	 -0.004	  0.001	  0.001	 33.200	 99.125	  0.021
32998	 -0.053	  0.354	  0.495	  7.033	 -1.069	 -6.661	 -0.003	  0.003	  0.001	 33.200	 99.125	  0.021
33047	 -0.050	  0.355	  0.491	  7.016	 -1.070	 -6.736	 -0.003	  0.002	  0.000	 33.200	 99.137	 -1.068
33098	 -0.053	  0.357	  0.493	  7.031	 -1.074	 -6.690	 -0.004	  0.002	 -0.000	 33.200	 99.125	  0.021
33147	 -0.050	  0.356	  0.496	  7.010	 -1.070	 -6.698	 -0.004	  0.003	  0.001	 33.200	 99.125	  0.021
33197	 -0.052	  0.362	  0.496	  7.043	 -1.073	 -6.677	 -0.004	  0.003	  0.001	 33.200	 99.125	  0.021
33247	 -0.053	  0.355	  0.497	  7.032	 -1.081	 -6.660	 -0.003	  0.002	 -0.000	 33.200	 99.125	  0.021
33297	 -0.051	  0.354	  0.494	  7.032	 -1.078	 -6.691	 -0.003	  0.004	 -0.000	 33.200	 99.125	  0.021
33347	 -0.052	  0.363	  0.496	  7.017	 -1.069	 -6.710	 -0.003	  0.002	 -0.000	 33.200	 99.125	  0.021
33397	 -0.051	  0.354	  0.491	  7.035	 -1.082	 -6.711	 -0.004	  0.002	  0.000	 33.200	 99.125	  0.021
33447	 -0.052	  0.363	  0.497	  7.022	 -1.063	 -6.717	 -0.005	  0.003	  0.001	 33.200	 99.125	  0.021
33498	 -0.052	  0.357	  0.496	  7.027	 -1.076	 -6.702	 -0.005	  0.004	  0.000	 33.200	 99.125	  0.021
33548	 -0.053	  0.359	  0.494	  7.032	 -1.085	 -6.730	 -0.003	  0.002	  0.000	 33.200	 99.137	 -1.068
33597	 -0.053	  0.353	  0.498	  7.022	 -1.086	 -6.708	 -0.004	  0.003	  0.001	 33.200	 99.125	  0.021
33649	 -0.053	  0.355	  0.497	  7.037	 -1.084	 -6.663	 -0.002	  0.003	 -0.000	 33.200	 99.137	 -1.068
33699	 -0.052	  0.354	  0.493	  7.034	 -1.067	 -6.676	 -0.004	  0.003	  0.000	 33.200	 99.114	  1.020
33748	 -0.054	  0.354	  0.488	  7.016	 -1.078	 -6.695	 -0.003	  0.001	 -0.000	 33.200	 99.125	  0.021
33798	 -0.051	  0.355	  0.494	  7.037	 -1.070	 -6.713	 -0.003	  0.002	  0.000	 33.200	 99.125	  0.021
33848	 -0.050	  0.363	  0.495	  7.026	 -1.067	 -6.679	 -0.003	  0.003	  0.001	 33.200	 99.125	  0.021
33898	 -0.052	  0.359	  0.494	  7.018	 -1.076	 -6.714	 -0.005	  0.003	  0.001	 33.200	 99.130	 -0.433
33948	 -0.051	  0.355	  0.496	  7.033	 -1.094	 -6.713	 -0.003	  0.002	  0.001	 33.200	 99.125	  0.021
33998	 -0.053	  0.359	  0.494	  7.031	 -1.093	 -6.652	 -0.004	  0.001	  0.001	 33.200	 99.125	  0.021
34048	 -0.054	  0.357	  0.496	  7.036	 -1.076	 -6.700	 -0.004	  0.002	 -0.000	 33.200	 99.125	  0.021
34098	 -0.052	  0.355	  0.493	  7.030	 -1.086	 -6.683	 -0.003	  0.002	  0.000	 33.200	 99.130	 -0.433
34148	 -0.052	  0.353	  0.492	  7.022	 -1.099	 -6.691	 -0.004	  0.002	 -0.000	 33.200	 99.125	  0.021
34199	 -0.052	  0.354	  0.495	  7.022	 -1.052	 -6.696	 -0.004	  0.004	  0.001	 33.200	 99.125	  0.021
34248	 -0.051	  0.354	  0.495	  7.015	 -1.087	 -6.709	 -0.004	  0.003	  0.000	 33.200	 99.137	 -1.068
34298	 -0.052	  0.353	  0.500	  7.011	 -1.079	 -6.746	 -0.003	  0.002	  0.001	 33.200	 99.125	  0.021
34348	 -0.050	  0.362	  0.497	  7.025	 -1.056	 -6.703	 -0.004	  0.003	  0.000	 33.200	 99.125	  0.021
34398	 -0.053	  0.355	  0.498	  7.017	 -1.079	 -6.684	 -0.003	  0.003	  0.001	 33.200	 99.130	 -0.433
34448	 -0.052	  0.355	  0.493	  7.001	 -1.052	 -6.716	 -0.003	  0.002	  0.001	 33.200	 99.125	  0.021
34498	 -0.053	  0.358	  0.493	  7.005	 -1.076	 -6.689	 -0.004	  0.004	  0.002	 33.200	 99.125	  0.021
34548	 -0.052	  0.350	  0.491	  7.018	 -1.073	 -6.720	 -0.002	  0.003	 -0.000	 33.200	 99.114	  1.020
34598	 -0.052	  0.356	  0.495	  7.024	 -1.068	 -6.663	 -0.004	  0.002	  0.001	 33.200	 99.125	  0.021
34648	 -0.052	  0.356	  0.495	  7.028	 -1.086	 -6.674	 -0.004	  0.003	  0.000	 33.200	 99.114	  1.020
34698	 -0.052	  0.358	  0.494	  7.018	 -1.084	 -6.690	 -0.003	  0.003	  0.001	 33.200	 99.125	  0.021
34748	 -0.049	  0.358	  0.496	  7.034	 -1.066	 -6.687	 -0.003	  0.003	 -0.000	 33.200	 99.125	  0.021
34798	 -0.054	  0.355	  0.493	  7.020	 -1.054	 -6.696	 -0.004	  0.002	  0.001	 33.200	 99.125	  0.021
34848	 -0.052	  0.354	  0.494	  7.032	 -1.082	 -6.686	 -0.005	  0.003	 -0.001	 33.200	 99.114	  1.020
34898	 -0.052	  0.360	  0.500	  7.038	 -1.082	 -6.736	 -0.004	  0.003	  0.000	 33.200	 99.114	  1.020
34948	 -0.053	  0.358	  0.500	  7.015	 -1.074	 -6.699	 -0.003	  0.002	  0.001	 33.200	 99.114	  1.020
34998	 -0.049	  0.360	  0.496	  7.024	 -1.047	 -6.680	 -0.003	  0.004	  0.000	 33.200	 99.114	  1.020
35048	 -0.053	  0.356	  0.494	  7.015	 -1.085	 -6.676	 -0.004	  0.002	 -0.000	 33.200	 99.125	  0.021
35098	 -0.053	  0.354	  0.496	  7.022	 -1.086	 -6.687	 -0.004	  0.002	  0.001	 33.200	 99.125	  0.021
35148	 -0.053	  0.356	  0.493	  7.059	 -1.090	 -6.712	 -0.003	  0.004	  0.000	 33.200	 99.114	  1.020
35198	 -0.053	  0.356	  0.500	  7.020	 -1.064	 -6.695	 -0.002	  0.002	  0.001	 33.200	 99.125	  0.021
35248	 -0.052	  0.359	  0.495	  7.021	 -1.068	 -6.697	 -0.005	  0.003	  0.002	 33.200	 99.103	  2.018
35298	 -0.052	  0.360	  0.494	  7.036	 -1.081	 -6.725	 -0.004	  0.002	  0.001	 33.200	 99.137	 -1.068
35348	 -0.053	  0.354	  0.495	  7.028	 -1.093	 -6.704	 -0.004	  0.002	  0.000	 33.200	 99.125	  0.021
35398	 -0.053	  0.355	  0.495	  7.035	 -1.073	 -6.698	 -0.003	  0.001	  0.001	 33.200	 99.125	  0.021
35448	 -0.053	  0.352	  0.496	  7.032	 -1.058	 -6.680	 -0.002	  0.003	  0.000	 33.200	 99.125	  0.021
35498	 -0.052	  0.356	  0.496	  7.023	 -1.072	 -6.674	 -0.004	  0.002	  0.000	 33.200	 99.125	  0.021
35548	 -0.051	  0.364	  0.498	  6.998	 -1.077	 -6.702	 -0.003	  0.004	  0.000	 33.200	 99.130	 -0.433
35598	 -0.052	  0.365	  0.495	  7.030	 -1.052	 -6.712	 -0.004	  0.003	 -0.000	 33.200	 99.114	  1.020
35648	 -0.054	  0.356	  0.495	  7.010	 -1.096	 -6.696	 -0.004	  0.003	  0.001	 33.200	 99.125	  0.021
35698	 -0.052	  0.357	  0.496	  7.025	 -1.087	 -6.722	 -0.002	  0.003	  0.000	 33.200	 99.125	  0.021
35748	 -0.051	  0.351	  0.495	  7.023	 -1.084	 -6.682	 -0.003	  0.003	 -0.000	 33.200	 99.137	 -1.068
35798	 -0.053	  0.355	  0.493	  7.027	 -1.071	 -6.702	 -0.004	  0.002	 -0.000	 33.200	 99.125	  0.021
35848	 -0.053	  0.355	  0.495	  7.035	 -1.082	 -6.675	 -0.004	  0.003	  0.002	 33.200	 99.114	  1.020
35898	 -0.052	  0.360	  0.496	  7.028	 -1.079	 -6.697	 -0.004	  0.002	 -0.000	 33.200	 99.125	  0.021
35948	 -0.052	  0.353	  0.494	  6.996	 -1.063	 -6.685	 -0.003	  0.002	  0.001	 33.200	 99.137	 -1.068
35998	 -0.051	  0.355	  0.496	  7.029	 -1.090	 -6.555	 -0.028	  0.012	 -0.000	 33.200	 99.125	  0.021
36048	 -0.055	  0.355	  0.489	  6.709	 -0.396	 -7.050	 -0.220	 -0.016	  0.061	 33.200	 99.125	  0.021
36098	 -0.050	  0.345	  0.499	  6.878	 -0.347	 -6.852	 -0.285	 -0.048	  0.182	 33.200	 99.125	  0.021
36148	 -0.045	  0.354	  0.499	  7.313	 -1.883	 -6.340	  0.002	  0.007	  0.027	 33.200	 99.125	  0.021
36198	 -0.045	  0.342	  0.506	  6.971	 -0.969	 -6.701	  0.002	  0.003	  0.005	 33.200	 99.130	 -0.433
36248	 -0.045	  0.344	  0.501	  7.092	 -0.972	 -6.856	  0.004	  0.012	  0.005	 33.200	 99.130	 -0.433
36298	 -0.043	  0.340	  0.500	  7.004	 -0.977	 -6.661	  0.001	  0.000	  0.002	 33.200	 99.125	  0.021
36348	 -0.046	  0.341	  0.500	  7.049	 -1.559	 -6.631	 -0.009	 -0.023	 -0.037	 33.200	 99.125	  0.021
36398	 -0.043	  0.349	  0.506	  7.272	 -0.720	 -6.971	  0.087	  0.053	  0.031	 33.100	 99.110	  1.382
36448	 -0.049	  0.347	  0.500	  6.976	 -1.326	 -6.377	 -0.025	  0.104	  0.020	 33.200	 99.125	  0.021
36498	 -0.055	  0.350	  0.498	  7.843	 -1.734	 -7.314	  0.138	  0.423	 -0.208	 33.200	 99.114	  1.020
36548	 -0.092	  0.358	  0.488	  6.092	 -0.037	 -6.155	  0.469	  1.287	 -0.283	 33.200	 99.125	  0.021
36598	 -0.116	  0.359	  0.484	  7.172	 -1.176	 -5.429	 -0.298	  0.085	  0.112	 33.200	 99.125	  0.021
36648	 -0.119	  0.352	  0.492	  8.341	 -1.304	 -6.685	 -0.023	  0.438	 -0.212	 33.200	 99.125	  0.021
36698	 -0.140	  0.354	  0.482	  7.737	 -0.932	 -5.238	  0.106	  0.393	 -0.063	 33.200	 99.141	 -1.432
36748	 -0.150	  0.351	  0.481	  8.522	 -1.258	 -5.622	  0.069	  0.359	 -0.142	 33.200	 99.114	  1.020
36798	 -0.165	  0.356	  0.478	  7.473	 -0.678	 -5.326	 -0.002	  0.303	 -0.019	 33.200	 99.125	  0.021
36848	 -0.174	  0.361	  0.473	  8.180	 -0.852	 -5.560	  0.078	  0.410	 -0.020	 33.200	 99.125	  0.021
36898	 -0.186	  0.364	  0.468	  8.338	 -0.858	 -4.956	  0.076	  0.220	 -0.048	 33.200	 99.125	  0.021
36948	 -0.197	  0.367	  0.465	  8.344	 -0.928	 -5.203	  0.160	  0.346	  0.005	 33.200	 99.125	  0.021
36998	 -0.207	  0.367	  0.460	  8.515	 -0.988	 -4.713	  0.082	  0.418	 -0.033	 33.200	 99.125	  0.021
37048	 -0.218	  0.377	  0.455	  8.694	 -0.836	 -4.239	 -0.000	  0.238	 -0.093	 33.200	 99.125	  0.021
37098	 -0.233	  0.370	  0.451	  8.539	 -1.062	 -4.786	  0.130	  0.340	 -0.096	 33.200	 99.125	  0.021
37148	 -0.250	  0.370	  0.442	  8.383	 -1.197	 -5.156	  0.140	  0.638	 -0.214	 33.200	 99.137	 -1.068
37198	 -0.266	  0.374	  0.436	  8.512	 -0.881	 -3.552	  0.079	  0.216	 -0.029	 33.200	 99.114	  1.020
37248	 -0.272	  0.379	  0.429	  8.779	 -1.059	 -4.567	  0.103	  0.165	 -0.075	 33.200	 99.130	 -0.433
37298	 -0.278	  0.373	  0.426	  9.273	 -1.071	 -3.944	 -0.023	  0.120	 -0.127	 33.200	 99.130	 -0.433
37348	 -0.287	  0.369	  0.421	  9.532	 -1.040	 -4.383	 -0.061	  0.210	 -0.117	 33.200	 99.125	  0.021
37398	 -0.297	  0.363	  0.415	  8.898	 -0.381	 -4.727	 -0.106	  0.032	 -0.319	 33.200	 99.125	  0.021
37448	 -0.308	  0.352	  0.410	 10.698	 -1.274	 -4.694	 -0.039	  0.277	 -0.274	 33.200	 99.125	  0.021
37498	 -0.323	  0.336	  0.393	  8.250	 -0.080	 -3.420	 -0.335	  0.284	 -0.080	 33.200	 99.125	  0.021
37548	 -0.332	  0.321	  0.383	  7.378	 -0.779	 -3.257	 -0.078	  0.103	 -0.301	 33.200	 99.125	  0.021
37598	 -0.341	  0.316	  0.381	  5.796	  0.004	 -1.045	  0.191	  0.460	 -0.093	 33.200	 99.114	  1.020
37648	 -0.350	  0.340	  0.373	  1.720	  1.175	  1.694	  1.072	  1.189	  1.382	 33.200	 99.130	 -0.433
37698	 -0.348	  0.355	  0.390	  9.204	  0.574	 -2.602	  0.597	 -0.382	  0.065	 33.200	 99.125	  0.021
37748	 -0.360	  0.369	  0.374	  9.106	 -0.654	 -1.729	 -0.064	  0.873	  0.332	 33.200	 99.125	  0.021
37798	 -0.361	  0.368	  0.369	  9.823	 -1.285	 -1.550	 -0.004	 -0.015	 -0.032	 33.200	 99.125	  0.021
37848	 -0.365	  0.368	  0.369	  9.419	 -0.955	 -3.262	  0.079	  0.140	 -0.003	 33.200	 99.114	  1.020
37898	 -0.368	  0.373	  0.364	  9.464	 -0.639	 -2.020	 -0.025	  0.127	  0.023	 33.200	 99.125	  0.021
37948	 -0.370	  0.371	  0.367	  9.302	 -0.802	 -2.752	 -0.037	  0.064	  0.003	 33.200	 99.118	  0.656
37998	 -0.377	  0.372	  0.357	  9.348	 -0.658	 -2.372	 -0.040	  0.083	 -0.020	 33.200	 99.125	  0.021
38047	 -0.378	  0.371	  0.359	  9.244	 -0.581	 -2.596	  0.158	  0.134	 -0.008	 33.200	 99.114	  1.020
38097	 -0.383	  0.373	  0.354	 11.507	 -1.172	 -2.934	 -0.104	  0.074	 -0.104	 33.200	 99.125	  0.021
38147	 -0.393	  0.364	  0.347	  9.026	 -0.764	 -3.208	 -0.081	  0.155	 -0.315	 33.200	 99.125	  0.021
38197	 -0.397	  0.357	  0.346	  8.692	 -1.234	 -1.134	 -0.070	 -0.063	 -0.065	 33.200	 99.114	  1.020
38247	 -0.400	  0.363	  0.344	  8.217	 -0.211	 -1.717	  0.071	  0.049	 -0.102	 33.200	 99.125	  0.021
38297	 -0.405	  0.356	  0.338	 10.383	 -0.201	 -3.146	  0.149	 -0.140	  0.083	 33.200	 99.114	  1.020
38347	 -0.407	  0.350	  0.335	 11.122	 -0.557	 -3.146	 -0.166	  0.263	 -0.346	 33.200	 99.125	  0.021
38397	 -0.421	  0.328	  0.321	  8.988	 -0.212	 -1.818	 -0.206	  0.045	 -0.513	 33.200	 99.137	 -1.068
38447	 -0.434	  0.313	  0.315	  4.773	 -0.206	 -1.579	 -0.187	  0.232	 -0.669	 33.200	 99.130	 -0.433
38497	 -0.438	  0.343	  0.314	 -4.980	  3.037	  5.181	  1.038	  1.478	  2.312	 33.200	 99.125	  0.021
38548	 -0.435	  0.389	  0.310	  9.630	  0.138	 -4.756	  0.501	 -0.281	 -0.011	 33.200	 99.130	 -0.433
38598	 -0.426	  0.414	  0.299	 21.728	 -4.213	 -2.486	 -0.155	  0.718	  0.823	 33.200	 99.114	  1.020
38648	 -0.458	  0.383	  0.262	  8.795	 -1.631	  0.688	 -0.174	  0.325	 -1.157	 33.200	 99.114	  1.020
38698	 -0.473	  0.349	  0.260	 -2.851	  1.619	 -0.429	  0.044	 -0.557	 -0.267	 33.200	 99.103	  2.018
38748	 -0.448	  0.407	  0.274	 -3.146	 -0.920	  3.239	  0.557	  0.370	  2.688	 33.200	 99.114	  1.020
38797	 -0.462	  0.402	  0.275	 10.478	  1.889	 -3.283	  0.423	 -0.264	  0.808	 33.200	 99.125	  0.021
38848	 -0.449	  0.422	  0.263	 17.648	 -4.562	  0.072	 -0.126	  0.493	  0.196	 33.200	 99.114	  1.020
38898	 -0.469	  0.396	  0.255	 11.142	 -2.145	 -0.842	 -0.200	 -0.254	 -0.914	 33.200	 99.125	  0.021
38947	 -0.484	  0.345	  0.246	 -0.024	  0.283	  1.118	 -0.158	 -0.117	 -0.785	 33.200	 99.137	 -1.068
38998	 -0.457	  0.397	  0.272	 -4.394	  2.689	  4.289	  0.916	  0.435	  3.397	 33.200	 99.137	 -1.068
39048	 -0.479	  0.392	  0.255	 11.008	 -0.672	 -0.796	  0.105	  0.078	  0.703	 33.200	 99.114	  1.020
39098	 -0.467	  0.413	  0.249	  9.853	 -0.653	  0.456	 -0.219	  0.177	  0.390	 33.200	 99.125	  0.021
39148	 -0.464	  0.409	  0.257	 10.149	 -1.830	 -0.855	 -0.119	 -0.057	 -0.017	 33.200	 99.130	 -0.433
39198	 -0.469	  0.405	  0.259	  9.724	 -0.721	 -0.294	 -0.038	 -0.115	 -0.216	 33.200	 99.125	  0.021
39248	 -0.472	  0.397	  0.261	  9.560	 -0.307	 -0.901	 -0.079	 -0.034	 -0.084	 33.200	 99.125	  0.021
39298	 -0.465	  0.401	  0.262	  9.636	 -0.314	 -0.545	 -0.092	  0.005	  0.031	 33.200	 99.114	  1.020
39348	 -0.466	  0.398	  0.265	  9.661	 -0.405	 -0.338	 -0.076	  0.079	  0.046	 33.200	 99.125	  0.021
39398	 -0.467	  0.401	  0.265	  9.778	 -0.710	 -0.819	 -0.099	  0.042	  0.007	 33.200	 99.125	  0.021
39448	 -0.467	  0.396	  0.262	  9.782	 -0.752	 -0.688	 -0.006	 -0.011	 -0.053	 33.200	 99.125	  0.021
39498	 -0.472	  0.393	  0.259	  9.701	 -0.447	 -0.469	 -0.024	 -0.007	 -0.051	 33.200	 99.125	  0.021
39548	 -0.469	  0.395	  0.269	  9.757	 -0.604	 -0.554	 -0.102	 -0.024	 -0.017	 33.200	 99.114	  1.020
39598	 -0.473	  0.392	  0.266	  9.748	 -0.612	 -0.817	  0.006	 -0.009	  0.009	 33.200	 99.125	  0.021
39648	 -0.471	  0.391	  0.268	  9.806	 -0.761	 -0.604	  0.006	 -0.009	 -0.006	 33.200	 99.125	  0.021
39698	 -0.471	  0.391	  0.263	  9.725	 -0.562	 -0.586	  0.008	 -0.008	 -0.008	 33.200	 99.114	  1.020
39748	 -0.469	  0.394	  0.270	  9.747	 -0.584	 -0.643	  0.025	 -0.005	 -0.005	 33.200	 99.125	  0.021
39798	 -0.474	  0.394	  0.270	  9.729	 -0.602	 -0.628	 -0.000	 -0.025	  0.010	 33.200	 99.125	  0.021
39848	 -0.471	  0.387	  0.272	  9.785	 -0.720	 -0.682	  0.031	 -0.070	 -0.014	 33.200	 99.125	  0.021
39898	 -0.472	  0.399	  0.267	  9.720	 -0.608	 -0.648	 -0.036	 -0.041	 -0.011	 33.200	 99.125	  0.021
39948	 -0.470	  0.390	  0.272	  9.735	 -0.675	 -0.847	 -0.014	 -0.048	  0.017	 33.200	 99.125	  0.021
39998	 -0.470	  0.394	  0.273	  9.698	 -0.523	 -0.561	  0.030	  0.029	  0.016	 33.200	 99.125	  0.021
40048	 -0.467	  0.393	  0.275	  9.717	 -0.572	 -0.689	 -0.007	 -0.016	 -0.000	 33.200	 99.125	  0.021
40098	 -0.470	  0.393	  0.273	  9.775	 -0.744	 -0.643	  0.038	  0.028	  0.015	 33.200	 99.114	  1.020
40148	 -0.469	  0.397	  0.271	  9.732	 -0.579	 -0.575	  0.033	  0.010	 -0.002	 33.200	 99.125	  0.021
40198	 -0.472	  0.394	  0.269	  9.758	 -0.800	 -0.777	  0.028	  0.001	  0.007	 33.200	 99.125	  0.021
40248	 -0.471	  0.399	  0.267	  9.708	 -0.597	 -0.612	  0.029	 -0.017	 -0.020	 33.200	 99.114	  1.020
40298	 -0.470	  0.391	  0.273	  9.700	 -0.484	 -0.412	 -0.034	 -0.250	 -0.055	 33.200	 99.130	 -0.433
40348	 -0.466	  0.394	  0.279	  9.642	 -0.481	 -1.166	  0.094	 -0.275	 -0.011	 33.200	 99.114	  1.020
40398	 -0.465	  0.395	  0.286	  9.810	 -0.672	 -1.092	 -0.029	 -0.231	  0.015	 33.200	 99.114	  1.020
40448	 -0.464	  0.404	  0.288	  9.668	 -0.735	 -1.625	  0.009	 -0.023	 -0.040	 33.200	 99.125	  0.021
40498	 -0.459	  0.394	  0.293	  9.520	 -0.529	 -0.882	 -0.086	 -0.296	 -0.016	 33.200	 99.125	  0.021
40548	 -0.453	  0.400	  0.298	  9.770	 -0.648	 -1.488	 -0.001	 -0.082	 -0.018	 33.200	 99.125	  0.021
40598	 -0.454	  0.392	  0.301	  9.602	 -0.649	 -1.196	  0.002	 -0.135	 -0.015	 33.200	 99.130	 -0.433
40648	 -0.452	  0.387	  0.306	  9.643	 -0.483	 -1.387	  0.007	 -0.094	 -0.022	 33.200	 99.125	  0.021
40698	 -0.449	  0.393	  0.303	  9.680	 -0.624	 -1.338	  0.012	 -0.026	 -0.013	 33.200	 99.125	  0.021
40748	 -0.451	  0.390	  0.304	  9.679	 -0.559	 -1.371	 -0.011	 -0.009	 -0.028	 33.200	 99.130	 -0.433
40798	 -0.451	  0.391	  0.304	  9.755	 -0.700	 -1.396	  0.094	 -0.117	 -0.072	 33.200	 99.141	 -1.432
40848	 -0.454	  0.391	  0.307	  9.595	 -0.302	 -1.435	  0.037	 -0.046	 -0.064	 33.200	 99.114	  1.020
40898	 -0.452	  0.388	  0.308	  9.850	 -0.533	 -1.356	  0.023	 -0.134	 -0.124	 33.200	 99.125	  0.021
40948	 -0.455	  0.390	  0.307	  9.574	 -0.609	 -1.291	  0.103	 -0.055	 -0.071	 33.200	 99.125	  0.021
40998	 -0.451	  0.384	  0.312	  9.522	 -0.472	 -1.624	 -0.002	 -0.012	 -0.069	 33.200	 99.114	  1.020
41048	 -0.454	  0.388	  0.307	  9.595	 -0.257	 -1.568	 -0.024	 -0.018	 -0.050	 33.200	 99.130	 -0.433
41098	 -0.456	  0.382	  0.306	  9.634	 -0.307	 -1.651	  0.020	  0.017	 -0.056	 33.200	 99.125	  0.021
41148	 -0.456	  0.382	  0.306	  9.621	 -0.238	 -1.568	 -0.013	 -0.004	 -0.008	 33.200	 99.125	  0.021
41198	 -0.456	  0.382	  0.305	  9.621	 -0.383	 -1.609	  0.013	  0.015	 -0.020	 33.200	 99.125	  0.021
41248	 -0.457	  0.381	  0.301	  9.702	 -0.428	 -1.522	 -0.007	  0.004	 -0.065	 33.200	 99.125	  0.021
41298	 -0.459	  0.378	  0.309	  9.551	 -0.083	 -1.554	 -0.001	 -0.037	 -0.075	 33.200	 99.125	  0.021
41348	 -0.456	  0.374	  0.310	  9.701	 -0.077	 -1.836	 -0.060	 -0.262	  0.012	 33.200	 99.125	  0.021
41398	 -0.455	  0.387	  0.316	  9.778	 -0.533	 -1.753	  0.049	 -0.047	 -0.048	 33.200	 99.125	  0.021
41448	 -0.455	  0.373	  0.317	  9.461	  0.486	 -2.200	  0.025	 -0.065	 -0.037	 33.200	 99.114	  1.020
41498	 -0.454	  0.378	  0.313	  9.652	 -0.116	 -1.918	  0.050	 -0.022	 -0.047	 33.200	 99.125	  0.021
41548	 -0.453	  0.372	  0.317	  9.637	 -0.193	 -1.894	  0.024	 -0.031	 -0.034	 33.200	 99.114	  1.020
41598	 -0.452	  0.383	  0.318	  9.566	 -0.103	 -1.778	  0.070	  0.033	 -0.047	 33.200	 99.114	  1.020
41648	 -0.455	  0.374	  0.315	  9.599	 -0.168	 -1.795	  0.026	  0.019	  0.002	 33.200	 99.125	  0.021
41698	 -0.455	  0.376	  0.312	  9.536	 -0.040	 -1.988	  0.188	  0.125	  0.015	 33.200	 99.125	  0.021
41748	 -0.459	  0.387	  0.297	 12.986	 -1.135	 -2.539	  0.322	  0.239	 -0.098	 33.200	 99.125	  0.021
41798	 -0.475	  0.373	  0.277	 11.022	  0.342	 -1.340	 -0.164	  0.652	 -0.240	 33.200	 99.125	  0.021
41848	 -0.484	  0.359	  0.252	 10.598	 -0.750	 -2.659	 -0.135	 -0.023	  0.013	 33.200	 99.114	  1.020
41898	 -0.484	  0.336	  0.245	  6.149	 -0.809	  1.056	 -0.221	 -0.037	 -0.559	 33.200	 99.125	  0.021
41948	 -0.477	  0.343	  0.253	 -6.336	  3.390	  0.914	  0.596	 -0.649	  1.059	 33.200	 99.125	  0.021
41998	 -0.446	  0.430	  0.273	 16.405	 -28.350	 -11.262	 -0.794	  1.295	 -3.551	 33.200	 99.137	 -1.068
42048	 -0.453	  0.431	  0.259	  9.545	 -1.430	 -1.112	  0.708	  0.150	  2.217	 33.200	 99.114	  1.020
42098	 -0.452	  0.439	  0.235	 13.548	 -2.444	  0.833	 -0.613	  1.635	 -1.700	 33.200	 99.125	  0.021
42148	 -0.491	  0.374	  0.209	 -2.788	  0.160	  1.155	 -0.049	 -1.456	 -1.063	 33.200	 99.125	  0.021
42198	 -0.458	  0.420	  0.251	 -16.971	  4.342	 -0.465	  0.728	  0.453	  3.597	 33.200	 99.114	  1.020
42248	 -0.479	  0.425	  0.217	  6.630	  3.628	 -1.183	  0.736	 -1.159	  1.906	 33.200	 99.114	  1.020
42298	 -0.458	  0.449	  0.212	 20.058	 -4.918	  1.194	 -0.104	  1.455	 -0.466	 33.200	 99.125	  0.021
42348	 -0.506	  0.377	  0.184	 -0.932	 -0.656	  0.985	  0.150	 -1.412	 -2.231	 33.200	 99.114	  1.020
42398	 -0.478	  0.402	  0.227	 -12.661	  3.564	 -0.717	  0.541	  0.263	  3.665	 33.200	 99.125	  0.021
42448	 -0.490	  0.424	  0.196	  9.750	  1.314	  2.952	 -0.045	  0.086	  2.802	 33.200	 99.114	  1.020
42498	 -0.460	  0.450	  0.198	 16.355	 -5.597	 -1.365	 -0.037	  0.827	 -1.299	 33.200	 99.137	 -1.068
42548	 -0.498	  0.386	  0.183	 -5.743	  2.090	  1.049	  0.228	 -0.616	 -1.190	 33.200	 99.125	  0.021
42598	 -0.492	  0.416	  0.196	 10.641	 -12.774	  7.132	  0.747	  2.314	 -2.595	 33.200	 99.125	  0.021
42648	 -0.463	  0.458	  0.196	 20.586	 -4.619	 -1.678	 -0.021	 -0.525	  1.224	 33.200	 99.125	  0.021
42698	 -0.482	  0.411	  0.176	  6.694	 -2.205	  4.426	 -0.277	 -0.205	 -2.075	 33.200	 99.125	  0.021
42748	 -0.486	  0.391	  0.193	 -14.728	  6.515	  0.260	  0.381	 -0.622	  1.735	 33.200	 99.118	  0.656
42798	 -0.486	  0.437	  0.188	  3.337	 -0.545	 12.788	 -0.374	 -0.547	  1.731	 33.200	 99.125	  0.021
42848	 -0.465	  0.456	  0.176	 19.682	 -5.760	 -0.914	 -0.686	  0.622	 -1.819	 33.200	 99.130	 -0.433
42898	 -0.511	  0.364	  0.154	 -12.732	  4.755	  1.258	  0.024	 -1.280	 -1.526	 33.200	 99.125	  0.021
42948	 -0.479	  0.433	  0.190	  5.069	 -39.401	 26.439	  1.013	  4.474	 -2.351	 33.200	 99.141	 -1.432
42998	 -0.458	  0.475	  0.181	 25.545	 -7.846	  3.443	 -0.204	 -0.865	  2.241	 33.200	 99.130	 -0.433
43048	 -0.482	  0.418	  0.163	  4.923	 -1.489	  4.555	  0.000	  0.416	 -2.977	 33.200	 99.118	  0.656
43098	 -0.495	  0.396	  0.176	 -18.395	  7.086	  0.157	  0.496	 -1.454	  2.238	 33.200	 99.125	  0.021
43148	 -0.488	  0.442	  0.168	  0.957	  3.640	  6.791	  0.165	  0.179	  2.614	 33.200	 99.130	 -0.433
43198	 -0.464	  0.468	  0.157	 18.664	 -5.149	  5.099	 -0.275	  0.659	 -1.909	 33.200	 99.130	 -0.433
43248	 -0.515	  0.398	  0.138	 -12.433	  4.776	 -0.331	  0.511	 -1.520	 -0.741	 33.200	 99.125	  0.021
43298	 -0.494	  0.438	  0.172	  7.749	 -3.876	  6.005	  0.655	  1.405	 -2.527	 33.200	 99.130	 -0.433
43348	 -0.490	  0.442	  0.167	  8.667	  2.729	  6.435	  0.032	 -0.633	  0.677	 33.200	 99.130	 -0.433
43398	 -0.475	  0.452	  0.191	 11.157	 -2.392	  0.798	 -0.513	 -0.917	 -0.215	 33.200	 99.125	  0.021
43448	 -0.473	  0.445	  0.222	  9.468	  0.075	  0.034	 -0.263	 -1.400	 -0.348	 33.200	 99.125	  0.021
43498	 -0.448	  0.427	  0.267	  9.315	 -0.531	 -4.053	 -0.405	 -0.495	  0.217	 33.200	 99.125	  0.021
43548	 -0.439	  0.434	  0.275	 10.370	 -1.231	 -0.204	 -0.432	 -0.196	  0.135	 33.200	 99.118	  0.656
43598	 -0.440	  0.421	  0.288	  9.545	 -1.468	 -0.310	 -0.351	 -0.011	 -0.038	 33.200	 99.125	  0.021
43648	 -0.440	  0.417	  0.293	  9.719	 -0.967	 -1.616	  0.109	  0.004	 -0.136	 33.200	 99.118	  0.656
43698	 -0.440	  0.418	  0.285	  9.826	 -1.129	 -0.986	  0.370	  0.015	 -0.060	 33.200	 99.137	 -1.068
43748	 -0.443	  0.423	  0.278	  9.321	  0.082	 -2.116	 -0.007	  0.034	 -0.113	 33.200	 99.125	  0.021
43798	 -0.444	  0.422	  0.276	  9.670	 -0.795	 -1.651	  0.159	  0.010	  0.037	 33.200	 99.114	  1.020
43848	 -0.444	  0.423	  0.272	  9.713	 -0.783	 -1.045	  0.004	 -0.012	 -0.003	 33.200	 99.125	  0.021
43899	 -0.445	  0.424	  0.275	  9.644	 -0.587	 -1.158	  0.015	  0.019	  0.000	 33.200	 99.125	  0.021
43948	 -0.447	  0.419	  0.274	  9.720	 -0.832	 -1.309	 -0.018	 -0.005	 -0.005	 33.200	 99.114	  1.020
