Time	 MagX	 MagY	 MagZ	 AccelX	 AccelY	 AccelZ	 Yaw	 Pitch	 Roll	 Temperature	 Pressure	 Altitude
16295	 -0.290	 -0.248	  0.071	 -0.712	 -0.538	 -9.767	  0.002	 -0.003	  0.000	 30.700	 99.243	 -99999.000
16343	 -0.291	 -0.246	  0.074	 -0.955	 -0.573	 -9.773	 -0.006	  0.007	 -0.000	 30.700	 99.243	 -99999.000
16393	 -0.292	 -0.246	  0.069	 -0.993	 -0.684	 -9.794	 -0.000	  0.002	 -0.001	 30.700	 99.243	 -99999.000
16445	 -0.293	 -0.249	  0.076	 -0.849	 -0.705	 -9.872	 -0.000	 -0.002	  0.001	 30.700	 99.243	 -99999.000
16495	 -0.290	 -0.249	  0.070	 -0.803	 -0.532	 -9.831	 -0.004	  0.001	  0.000	 30.700	 99.243	 -99999.000
16545	 -0.290	 -0.238	  0.073	 -1.057	 -0.682	 -9.864	 -0.005	  0.006	  0.001	 30.700	 99.243	 -99999.000
16595	 -0.290	 -0.248	  0.076	 -0.756	 -0.604	 -9.788	  0.004	 -0.007	  0.001	 30.700	 99.247	 -99999.000
16645	 -0.290	 -0.252	  0.074	 -0.906	 -0.605	 -9.753	 -0.007	  0.007	  0.001	 30.700	 99.232	 -99999.000
16695	 -0.291	 -0.244	  0.076	 -0.950	 -0.631	 -9.783	  0.000	  0.000	  0.000	 30.700	 99.243	 -99999.000
16745	 -0.290	 -0.251	  0.076	 -0.883	 -0.652	 -9.820	 -0.003	  0.002	  0.002	 30.700	 99.243	 -99999.000
16795	 -0.290	 -0.250	  0.074	 -0.901	 -0.596	 -9.761	 -0.003	 -0.003	  0.001	 30.700	 99.259	 -99999.000
16845	 -0.291	 -0.246	  0.075	 -0.911	 -0.636	 -9.789	 -0.004	  0.005	  0.001	 30.700	 99.232	 -99999.000
16895	 -0.291	 -0.244	  0.074	 -0.917	 -0.639	 -9.797	 -0.002	 -0.001	  0.000	 30.700	 99.243	 -99999.000
16945	 -0.294	 -0.249	  0.077	 -0.892	 -0.559	 -9.718	 -0.003	  0.003	 -0.000	 30.700	 99.243	 -99999.000
16995	 -0.294	 -0.246	  0.075	 -0.920	 -0.647	 -9.816	 -0.002	  0.002	  0.001	 30.700	 99.243	 -99999.000
17044	 -0.290	 -0.251	  0.071	 -0.909	 -0.634	 -9.771	 -0.001	  0.000	  0.001	 30.700	 99.243	 -99999.000
17094	 -0.291	 -0.250	  0.076	 -0.910	 -0.606	 -9.763	 -0.004	  0.003	  0.001	 30.700	 99.247	 -99999.000
17144	 -0.292	 -0.250	  0.077	 -0.875	 -0.618	 -9.800	 -0.003	  0.001	  0.001	 30.700	 99.232	 -99999.000
17194	 -0.292	 -0.249	  0.074	 -0.930	 -0.640	 -9.790	 -0.003	  0.002	  0.001	 30.700	 99.247	 -99999.000
17244	 -0.290	 -0.249	  0.073	 -0.906	 -0.590	 -9.783	 -0.002	  0.001	 -0.000	 30.700	 99.254	 -99999.000
17294	 -0.290	 -0.241	  0.075	 -0.904	 -0.647	 -9.802	 -0.002	  0.003	 -0.000	 30.700	 99.243	 -99999.000
17344	 -0.290	 -0.240	  0.074	 -0.912	 -0.642	 -9.821	 -0.004	  0.000	  0.001	 30.700	 99.243	 -99999.000
17394	 -0.292	 -0.250	  0.066	 -0.905	 -0.612	 -9.789	 -0.002	  0.001	 -0.000	 30.700	 99.243	 -99999.000
17444	 -0.292	 -0.251	  0.073	 -0.922	 -0.631	 -9.773	 -0.003	  0.000	  0.001	 30.700	 99.243	 -99999.000
17494	 -0.289	 -0.250	  0.076	 -0.894	 -0.622	 -9.791	 -0.002	  0.001	  0.001	 30.700	 99.243	 -99999.000
17544	 -0.291	 -0.239	  0.074	 -0.902	 -0.619	 -9.780	 -0.002	  0.002	  0.000	 30.700	 99.247	 -99999.000
17594	 -0.291	 -0.245	  0.075	 -0.911	 -0.647	 -9.786	 -0.003	  0.001	  0.002	 30.700	 99.247	 -99999.000
17644	 -0.293	 -0.250	  0.074	 -0.893	 -0.620	 -9.792	 -0.003	  0.001	  0.000	 30.700	 99.239	 -99999.000
17694	 -0.291	 -0.249	  0.068	 -0.908	 -0.618	 -9.794	 -0.003	 -0.000	  0.001	 30.700	 99.243	 -99999.000
17744	 -0.292	 -0.248	  0.073	 -0.901	 -0.624	 -9.790	 -0.003	  0.001	  0.000	 30.700	 99.259	 -99999.000
17794	 -0.292	 -0.246	  0.075	 -0.906	 -0.620	 -9.791	 -0.001	  0.002	  0.001	 30.700	 99.232	 -99999.000
17844	 -0.292	 -0.250	  0.072	 -0.919	 -0.619	 -9.780	 -0.003	  0.002	  0.001	 30.700	 99.243	 -99999.000
17894	 -0.292	 -0.244	  0.069	 -0.907	 -0.629	 -9.785	 -0.003	  0.003	 -0.000	 30.700	 99.243	 -99999.000
17944	 -0.293	 -0.246	  0.076	 -0.918	 -0.610	 -9.791	 -0.003	  0.002	 -0.000	 30.700	 99.243	 -99999.000
17994	 -0.290	 -0.247	  0.068	 -0.899	 -0.626	 -9.799	 -0.002	  0.002	  0.001	 30.700	 99.243	 -99999.000
18044	 -0.292	 -0.239	  0.077	 -0.904	 -0.621	 -9.735	 -0.002	  0.000	  0.002	 30.700	 99.247	 -99999.000
18094	 -0.291	 -0.250	  0.069	 -0.905	 -0.613	 -9.815	 -0.003	  0.002	  0.001	 30.700	 99.236	 -99999.000
18144	 -0.293	 -0.241	  0.076	 -0.897	 -0.637	 -9.805	 -0.002	 -0.000	  0.002	 30.700	 99.243	 -99999.000
18194	 -0.290	 -0.248	  0.066	 -0.919	 -0.615	 -9.796	 -0.003	  0.001	  0.000	 30.700	 99.243	 -99999.000
18244	 -0.291	 -0.245	  0.076	 -0.919	 -0.605	 -9.784	 -0.002	  0.002	  0.002	 30.700	 99.243	 -99999.000
18294	 -0.291	 -0.243	  0.074	 -0.899	 -0.631	 -9.818	 -0.002	  0.002	  0.002	 30.700	 99.247	 -99999.000
18344	 -0.292	 -0.249	  0.068	 -0.885	 -0.614	 -9.780	 -0.003	  0.001	  0.001	 30.700	 99.243	 -99999.000
18394	 -0.292	 -0.251	  0.067	 -0.892	 -0.621	 -9.780	 -0.002	  0.003	  0.001	 30.700	 99.243	 -99999.000
18444	 -0.293	 -0.247	  0.071	 -0.903	 -0.635	 -9.794	 -0.003	  0.001	 -0.000	 30.700	 99.247	 -99999.000
18494	 -0.293	 -0.242	  0.074	 -0.895	 -0.630	 -9.810	 -0.003	  0.002	  0.001	 30.700	 99.232	 -99999.000
18544	 -0.290	 -0.246	  0.071	 -0.923	 -0.630	 -9.761	 -0.002	  0.002	  0.002	 30.700	 99.243	 -99999.000
18594	 -0.292	 -0.248	  0.074	 -0.904	 -0.611	 -9.752	 -0.003	  0.002	  0.002	 30.700	 99.243	 -99999.000
18644	 -0.290	 -0.249	  0.067	 -0.899	 -0.630	 -9.751	 -0.002	  0.002	  0.001	 30.700	 99.247	 -99999.000
18694	 -0.290	 -0.251	  0.074	 -0.903	 -0.608	 -9.789	 -0.003	  0.001	  0.001	 30.700	 99.236	 -99999.000
18744	 -0.291	 -0.247	  0.073	 -0.887	 -0.604	 -9.798	 -0.003	  0.000	  0.001	 30.700	 99.243	 -99999.000
18794	 -0.291	 -0.248	  0.075	 -0.898	 -0.620	 -9.794	 -0.003	  0.002	  0.001	 30.700	 99.247	 -99999.000
18844	 -0.290	 -0.250	  0.074	 -0.895	 -0.627	 -9.814	 -0.004	  0.002	  0.001	 30.700	 99.243	 -99999.000
18894	 -0.291	 -0.248	  0.068	 -0.891	 -0.600	 -9.798	 -0.004	  0.001	  0.001	 30.700	 99.232	 -99999.000
18944	 -0.292	 -0.239	  0.082	 -0.927	 -0.618	 -9.778	 -0.002	  0.001	 -0.000	 30.700	 99.243	 -99999.000
18994	 -0.292	 -0.240	  0.073	 -0.929	 -0.622	 -9.780	 -0.003	  0.003	  0.001	 30.700	 99.247	 -99999.000
19044	 -0.294	 -0.253	  0.076	 -0.908	 -0.631	 -9.792	 -0.002	  0.002	  0.002	 30.700	 99.259	 -99999.000
19094	 -0.289	 -0.245	  0.075	 -0.892	 -0.608	 -9.771	 -0.004	  0.002	  0.002	 30.700	 99.236	 -99999.000
19144	 -0.291	 -0.248	  0.072	 -0.901	 -0.618	 -9.793	 -0.002	  0.002	  0.000	 30.700	 99.247	 -99999.000
19194	 -0.290	 -0.248	  0.076	 -0.903	 -0.647	 -9.785	 -0.003	  0.001	 -0.001	 30.700	 99.243	 -99999.000
19244	 -0.291	 -0.251	  0.076	 -0.900	 -0.624	 -9.789	 -0.002	  0.001	  0.002	 30.700	 99.243	 -99999.000
19295	 -0.292	 -0.247	  0.069	 -0.915	 -0.646	 -9.797	 -0.001	  0.000	 -0.001	 30.700	 99.247	 -99999.000
19344	 -0.292	 -0.248	  0.074	 -0.897	 -0.617	 -9.800	 -0.003	 -0.000	  0.001	 30.700	 99.236	 -99999.000
19394	 -0.290	 -0.249	  0.075	 -0.890	 -0.622	 -9.786	 -0.003	  0.001	  0.002	 30.700	 99.236	 -99999.000
19444	 -0.292	 -0.240	  0.073	 -0.886	 -0.615	 -9.767	 -0.003	  0.001	  0.000	 30.700	 99.243	 -99999.000
19494	 -0.292	 -0.251	  0.075	 -0.895	 -0.619	 -9.760	 -0.002	  0.003	  0.001	 30.700	 99.243	 -99999.000
19544	 -0.290	 -0.239	  0.071	 -0.884	 -0.599	 -9.776	 -0.002	  0.003	  0.001	 30.700	 99.243	 -99999.000
19594	 -0.290	 -0.247	  0.075	 -0.906	 -0.642	 -9.792	 -0.003	  0.002	  0.002	 30.700	 99.232	 -99999.000
19644	 -0.291	 -0.252	  0.075	 -0.905	 -0.627	 -9.767	 -0.002	  0.002	  0.000	 30.700	 99.247	 -99999.000
19694	 -0.290	 -0.250	  0.074	 -0.933	 -0.600	 -9.813	 -0.002	  0.002	  0.000	 30.700	 99.247	 -99999.000
19744	 -0.291	 -0.251	  0.074	 -0.909	 -0.592	 -9.759	 -0.003	  0.001	 -0.000	 30.700	 99.247	 -99999.000
19794	 -0.291	 -0.248	  0.071	 -0.867	 -0.622	 -9.792	 -0.002	  0.002	  0.001	 30.700	 99.247	 -99999.000
19844	 -0.292	 -0.248	  0.079	 -0.759	 -1.020	 -10.155	 -0.022	  0.016	  0.001	 30.700	 99.243	 -99999.000
19894	 -0.290	 -0.246	  0.071	 -0.993	 -0.870	 -9.956	  0.027	 -0.030	  0.001	 30.700	 99.243	 -99999.000
19944	 -0.291	 -0.251	  0.077	 -0.524	 -0.475	 -9.685	 -0.017	  0.022	  0.002	 30.700	 99.236	 -99999.000
19994	 -0.291	 -0.245	  0.074	 -1.123	 -0.850	 -9.734	  0.000	 -0.002	  0.001	 30.700	 99.236	 -99999.000
20043	 -0.290	 -0.246	  0.073	 -0.760	 -0.513	 -9.610	  0.005	 -0.010	  0.001	 30.700	 99.247	 -99999.000
20093	 -0.292	 -0.247	  0.068	 -0.872	 -0.603	 -9.782	 -0.016	  0.014	  0.001	 30.700	 99.236	 -99999.000
