Time	 MagX	 MagY	 MagZ	 AccelX	 AccelY	 AccelZ	 Yaw	 Pitch	 Roll	 Temperature	 Pressure	 Altitude
15251	 -0.304	 -0.570	  0.701	 -0.133	 -0.049	 -9.512	  0.004	 -0.002	  0.019	 28.500	 99.360	 -99999.000
15300	 -0.304	 -0.555	  0.691	 -0.221	 -0.031	 -9.464	  0.002	 -0.001	  0.020	 28.500	 99.372	 -99999.000
15350	 -0.305	 -0.568	  0.701	 -0.149	 -0.041	 -9.486	  0.002	 -0.002	  0.019	 28.500	 99.376	 -99999.000
15400	 -0.303	 -0.569	  0.697	 -0.238	 -0.015	 -9.466	  0.002	 -0.001	  0.019	 28.500	 99.372	 -99999.000
15450	 -0.303	 -0.569	  0.697	 -0.152	 -0.057	 -9.473	  0.002	 -0.003	  0.018	 28.500	 99.372	 -99999.000
15500	 -0.308	 -0.571	  0.697	 -0.231	 -0.023	 -9.485	  0.001	 -0.000	  0.020	 28.500	 99.384	 -99999.000
15550	 -0.300	 -0.562	  0.698	 -0.157	 -0.052	 -9.499	  0.003	 -0.001	  0.020	 28.500	 99.372	 -99999.000
15600	 -0.303	 -0.571	  0.705	 -0.228	 -0.033	 -9.496	  0.003	 -0.001	  0.017	 28.500	 99.368	 -99999.000
15650	 -0.304	 -0.559	  0.701	 -0.161	 -0.027	 -9.522	  0.003	 -0.002	  0.022	 28.500	 99.364	 -99999.000
15700	 -0.303	 -0.571	  0.697	 -0.193	 -0.056	 -9.493	  0.002	 -0.001	  0.019	 28.500	 99.372	 -99999.000
15750	 -0.305	 -0.568	  0.698	 -0.176	 -0.042	 -9.517	  0.002	 -0.001	  0.019	 28.500	 99.372	 -99999.000
15800	 -0.304	 -0.573	  0.701	 -0.164	 -0.073	 -9.506	  0.002	 -0.001	  0.019	 28.500	 99.372	 -99999.000
15850	 -0.303	 -0.571	  0.693	 -0.228	 -0.038	 -9.497	  0.002	 -0.002	  0.021	 28.500	 99.372	 -99999.000
15900	 -0.306	 -0.564	  0.701	 -0.149	 -0.058	 -9.470	  0.001	 -0.000	  0.017	 28.500	 99.372	 -99999.000
15950	 -0.303	 -0.568	  0.697	 -0.245	 -0.023	 -9.512	  0.003	 -0.001	  0.018	 28.500	 99.372	 -99999.000
16000	 -0.305	 -0.565	  0.701	 -0.129	 -0.059	 -9.497	  0.003	 -0.001	  0.019	 28.500	 99.372	 -99999.000
16050	 -0.304	 -0.568	  0.697	 -0.241	 -0.047	 -9.505	  0.004	 -0.001	  0.018	 28.500	 99.372	 -99999.000
16100	 -0.308	 -0.568	  0.697	 -0.168	 -0.029	 -9.476	  0.003	 -0.001	  0.020	 28.500	 99.360	 -99999.000
16149	 -0.304	 -0.566	  0.697	 -0.200	 -0.033	 -9.517	  0.001	 -0.002	  0.021	 28.500	 99.372	 -99999.000
16199	 -0.305	 -0.569	  0.699	 -0.209	 -0.033	 -9.521	  0.001	 -0.001	  0.021	 28.500	 99.384	 -99999.000
16250	 -0.306	 -0.565	  0.699	 -0.184	 -0.072	 -9.532	  0.001	  0.000	  0.022	 28.500	 99.372	 -99999.000
16299	 -0.304	 -0.546	  0.695	 -0.239	 -0.004	 -9.472	  0.003	 -0.001	  0.019	 28.500	 99.372	 -99999.000
16349	 -0.304	 -0.558	  0.701	 -0.136	 -0.056	 -9.491	  0.002	 -0.001	  0.017	 28.500	 99.372	 -99999.000
16399	 -0.305	 -0.569	  0.697	 -0.236	 -0.029	 -9.476	  0.003	 -0.001	  0.021	 28.500	 99.372	 -99999.000
16449	 -0.306	 -0.569	  0.701	 -0.158	 -0.044	 -9.503	  0.001	 -0.000	  0.019	 28.500	 99.384	 -99999.000
16499	 -0.303	 -0.565	  0.698	 -0.230	 -0.020	 -9.449	  0.003	 -0.001	  0.020	 28.500	 99.372	 -99999.000
16549	 -0.307	 -0.564	  0.702	 -0.183	 -0.035	 -9.494	  0.003	  0.000	  0.018	 28.500	 99.360	 -99999.000
16599	 -0.305	 -0.554	  0.696	 -0.208	 -0.059	 -9.518	  0.001	 -0.002	  0.018	 28.500	 99.372	 -99999.000
16649	 -0.304	 -0.566	  0.699	 -0.193	 -0.015	 -9.513	  0.001	 -0.001	  0.021	 28.500	 99.388	 -99999.000
16699	 -0.305	 -0.570	  0.695	 -0.213	 -0.023	 -9.524	  0.004	 -0.001	  0.020	 28.500	 99.372	 -99999.000
16750	 -0.303	 -0.570	  0.694	 -0.146	 -0.043	 -9.497	  0.002	  0.000	  0.018	 28.500	 99.372	 -99999.000
16800	 -0.301	 -0.570	  0.698	 -0.143	 -0.029	 -9.514	  0.005	 -0.001	  0.019	 28.500	 99.372	 -99999.000
16849	 -0.305	 -0.569	  0.701	 -0.236	 -0.035	 -9.531	  0.003	 -0.001	  0.020	 28.500	 99.384	 -99999.000
16899	 -0.306	 -0.568	  0.697	 -0.158	 -0.029	 -9.512	  0.002	 -0.001	  0.020	 28.500	 99.372	 -99999.000
16949	 -0.303	 -0.561	  0.701	 -0.231	 -0.051	 -9.523	  0.002	 -0.001	  0.018	 28.500	 99.384	 -99999.000
16999	 -0.306	 -0.573	  0.698	 -0.156	 -0.043	 -9.499	  0.003	 -0.002	  0.017	 28.500	 99.384	 -99999.000
17049	 -0.304	 -0.568	  0.702	 -0.249	 -0.028	 -9.518	  0.001	 -0.001	  0.022	 28.500	 99.372	 -99999.000
17099	 -0.301	 -0.559	  0.701	 -0.149	 -0.028	 -9.517	  0.004	 -0.001	  0.019	 28.500	 99.372	 -99999.000
17149	 -0.301	 -0.573	  0.701	 -0.206	 -0.039	 -9.518	  0.002	 -0.003	  0.020	 28.500	 99.372	 -99999.000
17199	 -0.306	 -0.566	  0.699	 -0.169	  0.005	 -9.515	  0.002	 -0.001	  0.021	 28.500	 99.372	 -99999.000
17249	 -0.304	 -0.553	  0.697	 -0.183	 -0.073	 -9.475	  0.003	 -0.001	  0.021	 28.500	 99.372	 -99999.000
17299	 -0.303	 -0.568	  0.700	 -0.231	 -0.006	 -9.500	  0.002	  0.000	  0.017	 28.500	 99.372	 -99999.000
17349	 -0.301	 -0.568	  0.701	 -0.157	 -0.056	 -9.494	  0.003	 -0.001	  0.020	 28.500	 99.376	 -99999.000
17399	 -0.305	 -0.566	  0.699	 -0.257	 -0.037	 -9.545	  0.003	  0.000	  0.017	 28.500	 99.372	 -99999.000
17449	 -0.304	 -0.561	  0.698	 -0.146	 -0.057	 -9.517	  0.002	 -0.001	  0.021	 28.500	 99.372	 -99999.000
17499	 -0.303	 -0.570	  0.698	 -0.237	 -0.033	 -9.535	  0.002	 -0.001	  0.020	 28.500	 99.372	 -99999.000
17549	 -0.306	 -0.558	  0.697	 -0.156	 -0.037	 -9.516	  0.003	 -0.002	  0.022	 28.500	 99.372	 -99999.000
17599	 -0.304	 -0.565	  0.699	 -0.220	 -0.038	 -9.506	  0.001	 -0.000	  0.018	 28.500	 99.388	 -99999.000
17649	 -0.303	 -0.568	  0.697	 -0.160	 -0.045	 -9.519	  0.002	 -0.002	  0.018	 28.500	 99.388	 -99999.000
17699	 -0.303	 -0.559	  0.699	 -0.203	 -0.043	 -9.495	  0.002	 -0.001	  0.019	 28.500	 99.372	 -99999.000
17749	 -0.306	 -0.568	  0.699	 -0.189	 -0.030	 -9.489	  0.001	 -0.000	  0.018	 28.500	 99.372	 -99999.000
17799	 -0.305	 -0.573	  0.698	 -0.149	 -0.067	 -9.477	  0.002	  0.000	  0.020	 28.500	 99.384	 -99999.000
17849	 -0.305	 -0.565	  0.697	 -0.240	 -0.021	 -9.500	  0.002	 -0.001	  0.019	 28.500	 99.372	 -99999.000
17899	 -0.300	 -0.566	  0.700	 -0.150	 -0.056	 -9.499	  0.003	  0.000	  0.021	 28.500	 99.372	 -99999.000
17949	 -0.304	 -0.570	  0.701	 -0.227	 -0.029	 -9.487	  0.002	  0.000	  0.019	 28.500	 99.372	 -99999.000
17999	 -0.303	 -0.564	  0.695	 -0.140	 -0.049	 -9.500	  0.002	 -0.002	  0.019	 28.500	 99.372	 -99999.000
18049	 -0.301	 -0.570	  0.704	 -0.210	 -0.029	 -9.490	  0.002	 -0.003	  0.019	 28.500	 99.372	 -99999.000
18099	 -0.304	 -0.566	  0.702	 -0.162	 -0.031	 -9.473	  0.001	 -0.001	  0.021	 28.500	 99.384	 -99999.000
18149	 -0.304	 -0.568	  0.698	 -0.184	 -0.059	 -9.503	 -0.000	 -0.002	  0.018	 28.500	 99.372	 -99999.000
18199	 -0.304	 -0.573	  0.698	 -0.216	 -0.017	 -9.499	  0.000	 -0.001	  0.019	 28.500	 99.372	 -99999.000
32451	 -0.307	 -0.570	  0.699	 -0.201	 -0.067	 -9.498	  0.003	 -0.000	  0.018	 28.500	 99.364	  0.895
32500	 -0.303	 -0.556	  0.703	 -0.133	 -0.077	 -9.455	  0.003	 -0.001	  0.019	 28.500	 99.380	 -0.571
32550	 -0.307	 -0.573	  0.700	 -0.223	 -0.024	 -9.474	  0.003	 -0.001	  0.021	 28.500	 99.380	 -0.571
32600	 -0.306	 -0.575	  0.704	 -0.215	 -0.018	 -9.503	  0.004	 -0.002	  0.022	 28.500	 99.380	 -0.571
32650	 -0.306	 -0.571	  0.701	 -0.219	 -0.025	 -9.478	  0.002	 -0.001	  0.019	 28.500	 99.376	 -0.205
32700	 -0.304	 -0.571	  0.702	 -0.155	 -0.039	 -9.517	  0.002	 -0.001	  0.016	 28.500	 99.380	 -0.571
32750	 -0.305	 -0.570	  0.701	 -0.216	 -0.038	 -9.488	  0.004	 -0.001	  0.019	 28.500	 99.393	 -1.764
32800	 -0.305	 -0.564	  0.699	 -0.176	 -0.030	 -9.512	  0.002	 -0.001	  0.019	 28.500	 99.376	 -0.205
32850	 -0.306	 -0.570	  0.685	 -0.167	 -0.034	 -9.473	  0.002	 -0.001	  0.020	 28.500	 99.380	 -0.571
32900	 -0.304	 -0.570	  0.693	 -0.212	 -0.018	 -9.492	  0.003	 -0.000	  0.018	 28.500	 99.380	 -0.571
32950	 -0.305	 -0.574	  0.693	 -0.150	 -0.057	 -9.499	  0.002	 -0.001	  0.020	 28.500	 99.388	 -1.305
33000	 -0.306	 -0.573	  0.700	 -0.232	 -0.016	 -9.489	  0.003	 -0.001	  0.019	 28.500	 99.368	  0.529
33050	 -0.307	 -0.566	  0.698	 -0.161	 -0.058	 -9.493	  0.003	 -0.002	  0.021	 28.500	 99.380	 -0.571
33100	 -0.304	 -0.575	  0.700	 -0.245	 -0.035	 -9.526	  0.003	 -0.001	  0.019	 28.500	 99.368	  0.529
33150	 -0.307	 -0.570	  0.703	 -0.157	 -0.035	 -9.494	  0.003	 -0.002	  0.018	 28.500	 99.368	  0.529
33200	 -0.307	 -0.569	  0.702	 -0.213	 -0.026	 -9.513	  0.003	 -0.001	  0.019	 28.500	 99.380	 -0.571
33250	 -0.304	 -0.571	  0.700	 -0.133	 -0.046	 -9.517	  0.002	  0.001	  0.020	 28.500	 99.380	 -0.571
33300	 -0.306	 -0.570	  0.701	 -0.175	 -0.019	 -9.506	  0.002	 -0.002	  0.020	 28.500	 99.368	  0.529
33350	 -0.307	 -0.571	  0.702	 -0.226	 -0.025	 -9.513	  0.002	 -0.001	  0.020	 28.500	 99.380	 -0.571
33400	 -0.304	 -0.569	  0.701	 -0.214	 -0.032	 -9.511	  0.003	 -0.001	  0.019	 28.500	 99.380	 -0.571
33450	 -0.306	 -0.569	  0.701	 -0.198	 -0.052	 -9.506	 -0.001	 -0.002	  0.020	 28.500	 99.376	 -0.205
33499	 -0.305	 -0.566	  0.699	 -0.163	  0.032	 -9.447	 -0.000	 -0.001	  0.019	 28.500	 99.364	  0.895
33549	 -0.310	 -0.566	  0.705	 -0.202	  0.011	 -9.503	  0.001	 -0.001	  0.019	 28.500	 99.380	 -0.571
33599	 -0.311	 -0.564	  0.699	 -0.140	 -0.050	 -9.427	  0.002	 -0.001	  0.020	 28.500	 99.368	  0.529
33649	 -0.310	 -0.571	  0.702	 -0.256	 -0.053	 -9.502	  0.002	 -0.001	  0.019	 28.500	 99.380	 -0.571
33699	 -0.311	 -0.564	  0.701	 -0.141	 -0.104	 -9.526	  0.003	 -0.000	  0.022	 28.500	 99.368	  0.529
33749	 -0.310	 -0.571	  0.701	 -0.256	 -0.031	 -9.556	  0.003	 -0.000	  0.021	 28.500	 99.376	 -0.205
33799	 -0.308	 -0.568	  0.699	 -0.168	 -0.043	 -9.500	  0.000	 -0.000	  0.019	 28.500	 99.380	 -0.571
33849	 -0.301	 -0.564	  0.702	 -0.177	  0.020	 -9.471	  0.000	 -0.002	  0.019	 28.500	 99.368	  0.529
33899	 -0.309	 -0.546	  0.695	 -0.181	 -0.055	 -9.536	 -0.004	 -0.001	  0.019	 28.500	 99.368	  0.529
33949	 -0.303	 -0.572	  0.690	 -0.170	 -0.045	 -9.514	  0.001	 -0.001	  0.019	 28.500	 99.376	 -0.205
33999	 -0.306	 -0.569	  0.695	 -0.235	 -0.089	 -9.471	  0.001	 -0.001	  0.019	 28.500	 99.380	 -0.571
34050	 -0.306	 -0.567	  0.685	 -0.133	 -0.061	 -9.515	  0.001	 -0.001	  0.020	 28.500	 99.368	  0.529
34099	 -0.304	 -0.564	  0.690	 -0.261	  0.012	 -9.477	  0.003	 -0.002	  0.019	 28.500	 99.380	 -0.571
34149	 -0.304	 -0.543	  0.694	 -0.154	 -0.008	 -9.506	 -0.001	 -0.001	  0.020	 28.500	 99.380	 -0.571
34199	 -0.307	 -0.571	  0.698	 -0.233	  0.162	 -9.424	  0.011	 -0.002	  0.017	 28.500	 99.380	 -0.571
34249	 -0.307	 -0.564	  0.698	 -0.178	 -0.022	 -9.509	  0.006	 -0.001	  0.020	 28.500	 99.380	 -0.571
34299	 -0.307	 -0.569	  0.693	 -0.220	 -0.016	 -9.471	 -0.001	 -0.001	  0.019	 28.500	 99.380	 -0.571
34349	 -0.307	 -0.570	  0.699	 -0.187	 -0.028	 -9.508	  0.004	 -0.002	  0.018	 28.500	 99.368	  0.529
34399	 -0.307	 -0.565	  0.697	 -0.145	 -0.081	 -9.468	  0.002	 -0.001	  0.021	 28.500	 99.380	 -0.571
34449	 -0.307	 -0.568	  0.698	 -0.229	 -0.058	 -9.501	  0.001	 -0.000	  0.018	 28.500	 99.380	 -0.571
34499	 -0.305	 -0.570	  0.701	 -0.145	 -0.055	 -9.511	  0.002	 -0.001	  0.020	 28.500	 99.380	 -0.571
34549	 -0.305	 -0.569	  0.698	 -0.227	  0.001	 -9.521	  0.003	 -0.002	  0.021	 28.500	 99.376	 -0.205
34599	 -0.305	 -0.568	  0.700	 -0.138	 -0.071	 -9.509	  0.002	 -0.001	  0.022	 28.500	 99.380	 -0.571
34649	 -0.305	 -0.568	  0.698	 -0.218	 -0.039	 -9.498	  0.002	  0.000	  0.018	 28.500	 99.380	 -0.571
34699	 -0.307	 -0.565	  0.698	 -0.160	 -0.050	 -9.486	  0.002	 -0.002	  0.021	 28.500	 99.376	 -0.205
34749	 -0.308	 -0.566	  0.701	 -0.193	 -0.060	 -9.515	  0.002	  0.000	  0.021	 28.500	 99.380	 -0.571
34799	 -0.304	 -0.561	  0.699	 -0.199	 -0.013	 -9.503	  0.003	 -0.001	  0.022	 28.500	 99.368	  0.529
34849	 -0.305	 -0.565	  0.701	 -0.169	 -0.079	 -9.492	  0.000	 -0.001	  0.018	 28.500	 99.376	 -0.205
34899	 -0.307	 -0.559	  0.694	 -0.243	 -0.014	 -9.484	  0.001	 -0.002	  0.018	 28.500	 99.380	 -0.571
34949	 -0.306	 -0.569	  0.695	 -0.157	 -0.074	 -9.467	  0.002	 -0.001	  0.018	 28.500	 99.376	 -0.205
34999	 -0.307	 -0.565	  0.699	 -0.249	 -0.013	 -9.478	  0.002	  0.000	  0.017	 28.500	 99.380	 -0.571
35049	 -0.306	 -0.570	  0.701	 -0.126	 -0.071	 -9.472	  0.002	 -0.002	  0.018	 28.500	 99.368	  0.529
35099	 -0.310	 -0.561	  0.699	 -0.219	 -0.045	 -9.486	  0.003	 -0.000	  0.018	 28.500	 99.376	 -0.205
35149	 -0.301	 -0.568	  0.701	 -0.164	 -0.070	 -9.525	  0.002	 -0.000	  0.020	 28.500	 99.368	  0.529
35199	 -0.305	 -0.566	  0.695	 -0.196	 -0.063	 -9.492	  0.003	 -0.001	  0.019	 28.500	 99.368	  0.529
35249	 -0.310	 -0.563	  0.699	 -0.211	 -0.032	 -9.503	  0.002	 -0.001	  0.021	 28.500	 99.380	 -0.571
35299	 -0.308	 -0.566	  0.699	 -0.189	 -0.055	 -9.492	  0.003	 -0.001	  0.021	 28.500	 99.380	 -0.571
35350	 -0.306	 -0.555	  0.698	 -0.220	 -0.036	 -9.489	  0.002	 -0.002	  0.021	 28.500	 99.380	 -0.571
35399	 -0.306	 -0.555	  0.698	 -0.163	 -0.054	 -9.524	  0.002	 -0.002	  0.022	 28.500	 99.368	  0.529
35449	 -0.307	 -0.563	  0.697	 -0.240	 -0.024	 -9.496	  0.001	 -0.001	  0.018	 28.500	 99.380	 -0.571
35499	 -0.307	 -0.554	  0.696	 -0.133	 -0.055	 -9.486	  0.002	 -0.001	  0.019	 28.500	 99.380	 -0.571
35549	 -0.311	 -0.566	  0.694	 -0.223	 -0.040	 -9.500	  0.001	 -0.002	  0.020	 28.500	 99.368	  0.529
35599	 -0.305	 -0.570	  0.697	 -0.148	 -0.058	 -9.477	  0.003	 -0.002	  0.021	 28.500	 99.380	 -0.571
35649	 -0.310	 -0.569	  0.694	 -0.226	 -0.043	 -9.460	  0.002	 -0.001	  0.021	 28.500	 99.380	 -0.571
35699	 -0.306	 -0.565	  0.695	 -0.175	 -0.036	 -9.482	  0.003	 -0.000	  0.021	 28.500	 99.380	 -0.571
35749	 -0.305	 -0.569	  0.698	 -0.169	 -0.043	 -9.465	  0.002	 -0.002	  0.020	 28.500	 99.380	 -0.571
35799	 -0.307	 -0.555	  0.695	 -0.209	 -0.023	 -9.483	  0.002	  0.001	  0.019	 28.500	 99.380	 -0.571
35850	 -0.305	 -0.566	  0.697	 -0.120	 -0.053	 -9.474	  0.003	 -0.001	  0.017	 28.500	 99.368	  0.529
35900	 -0.308	 -0.568	  0.699	 -0.353	 -0.001	 -9.701	  0.005	 -0.003	  0.019	 28.500	 99.368	  0.529
35950	 -0.306	 -0.566	  0.699	 -0.204	 -0.001	 -9.193	  0.006	 -0.000	  0.020	 28.500	 99.368	  0.529
36000	 -0.307	 -0.564	  0.698	 -0.186	 -0.115	 -9.566	 -0.001	 -0.002	  0.018	 28.500	 99.380	 -0.571
36050	 -0.306	 -0.566	  0.697	 -0.238	 -0.050	 -9.480	  0.004	 -0.001	  0.021	 28.500	 99.397	 -2.130
36100	 -0.308	 -0.569	  0.697	 -0.166	 -0.067	 -9.524	  0.001	 -0.001	  0.021	 28.500	 99.385	 -1.031
36150	 -0.306	 -0.560	  0.697	 -0.213	 -0.024	 -9.495	  0.003	 -0.000	  0.019	 28.500	 99.368	  0.529
36200	 -0.307	 -0.566	  0.694	 -0.149	 -0.034	 -9.528	  0.004	 -0.000	  0.020	 28.500	 99.380	 -0.571
36250	 -0.305	 -0.564	  0.694	 -0.229	 -0.028	 -9.496	  0.001	 -0.001	  0.019	 28.500	 99.364	  0.895
36300	 -0.309	 -0.565	  0.702	 -0.149	 -0.027	 -9.486	  0.002	 -0.001	  0.020	 28.500	 99.368	  0.529
36350	 -0.307	 -0.568	  0.702	 -0.209	 -0.047	 -9.493	  0.003	  0.000	  0.018	 28.500	 99.368	  0.529
36400	 -0.309	 -0.565	  0.701	 -0.147	 -0.022	 -9.486	  0.002	 -0.001	  0.019	 28.500	 99.380	 -0.571
36450	 -0.307	 -0.568	  0.702	 -0.166	 -0.068	 -9.485	  0.002	 -0.001	  0.019	 28.500	 99.368	  0.529
36500	 -0.305	 -0.568	  0.697	 -0.185	 -0.024	 -9.519	  0.003	 -0.002	  0.020	 28.500	 99.368	  0.529
36550	 -0.306	 -0.569	  0.694	 -0.180	 -0.058	 -9.474	  0.002	 -0.001	  0.020	 28.500	 99.380	 -0.571
36600	 -0.305	 -0.565	  0.701	 -0.205	 -0.023	 -9.457	  0.002	 -0.002	  0.019	 28.500	 99.380	 -0.571
36650	 -0.308	 -0.572	  0.697	 -0.138	 -0.066	 -9.486	  0.003	 -0.000	  0.020	 28.500	 99.380	 -0.571
36700	 -0.308	 -0.566	  0.698	 -0.234	 -0.023	 -9.470	  0.001	 -0.001	  0.021	 28.500	 99.380	 -0.571
36750	 -0.310	 -0.568	  0.693	 -0.109	 -0.065	 -9.510	  0.002	 -0.002	  0.020	 28.500	 99.385	 -1.031
36800	 -0.304	 -0.568	  0.697	 -0.232	 -0.041	 -9.481	  0.002	 -0.002	  0.020	 28.500	 99.368	  0.529
36850	 -0.307	 -0.565	  0.701	 -0.180	 -0.037	 -9.500	  0.003	 -0.000	  0.020	 28.500	 99.380	 -0.571
36900	 -0.306	 -0.573	  0.697	 -0.194	 -0.039	 -9.490	  0.003	 -0.001	  0.018	 28.500	 99.364	  0.895
36950	 -0.307	 -0.570	  0.702	 -0.201	 -0.024	 -9.525	  0.002	 -0.001	  0.019	 28.500	 99.380	 -0.571
37000	 -0.307	 -0.572	  0.698	 -0.153	 -0.068	 -9.507	  0.002	 -0.001	  0.019	 28.500	 99.380	 -0.571
37050	 -0.310	 -0.568	  0.701	 -0.209	 -0.023	 -9.477	  0.002	 -0.001	  0.019	 28.500	 99.380	 -0.571
37100	 -0.308	 -0.566	  0.701	 -0.133	 -0.071	 -9.499	  0.002	 -0.002	  0.018	 28.500	 99.380	 -0.571
37150	 -0.306	 -0.565	  0.698	 -0.256	 -0.026	 -9.499	  0.003	  0.000	  0.019	 28.500	 99.380	 -0.571
37200	 -0.309	 -0.561	  0.699	 -0.144	 -0.047	 -9.526	  0.002	 -0.000	  0.020	 28.500	 99.380	 -0.571
37250	 -0.306	 -0.569	  0.698	 -0.248	 -0.012	 -9.462	  0.003	 -0.003	  0.018	 28.500	 99.368	  0.529
37300	 -0.306	 -0.568	  0.694	 -0.161	 -0.051	 -9.500	  0.003	 -0.002	  0.020	 28.500	 99.385	 -1.031
37350	 -0.306	 -0.569	  0.693	 -0.222	 -0.026	 -9.460	  0.003	 -0.001	  0.020	 28.500	 99.368	  0.529
37400	 -0.306	 -0.569	  0.686	 -0.231	 -0.023	 -9.505	  0.002	  0.000	  0.020	 28.500	 99.376	 -0.205
37450	 -0.307	 -0.568	  0.702	 -0.154	 -0.075	 -9.487	  0.003	 -0.001	  0.020	 28.500	 99.368	  0.529
37500	 -0.307	 -0.568	  0.698	 -0.218	 -0.029	 -9.566	  0.003	 -0.001	  0.019	 28.500	 99.380	 -0.571
37550	 -0.307	 -0.568	  0.698	 -0.135	 -0.058	 -9.451	  0.002	 -0.002	  0.020	 28.500	 99.380	 -0.571
37600	 -0.307	 -0.566	  0.693	 -0.232	 -0.011	 -9.538	  0.003	 -0.002	  0.020	 28.500	 99.380	 -0.571
37650	 -0.304	 -0.566	  0.701	 -0.147	 -0.056	 -9.491	  0.002	 -0.001	  0.018	 28.500	 99.380	 -0.571
37700	 -0.309	 -0.565	  0.699	 -0.203	 -0.059	 -9.491	  0.002	 -0.000	  0.018	 28.500	 99.368	  0.529
37750	 -0.307	 -0.566	  0.705	 -0.163	 -0.060	 -9.472	  0.002	 -0.002	  0.022	 28.500	 99.380	 -0.571
37800	 -0.307	 -0.568	  0.698	 -0.180	 -0.070	 -9.524	  0.002	 -0.001	  0.020	 28.500	 99.380	 -0.571
37850	 -0.307	 -0.564	  0.698	 -0.189	 -0.009	 -9.494	  0.003	 -0.002	  0.016	 28.500	 99.364	  0.895
37900	 -0.308	 -0.568	  0.695	 -0.171	 -0.063	 -9.479	  0.003	 -0.001	  0.017	 28.500	 99.368	  0.529
37950	 -0.308	 -0.554	  0.696	 -0.215	 -0.046	 -9.518	  0.003	 -0.000	  0.018	 28.500	 99.380	 -0.571
38000	 -0.310	 -0.568	  0.701	 -0.144	 -0.065	 -9.478	  0.002	 -0.001	  0.018	 28.500	 99.380	 -0.571
38050	 -0.307	 -0.568	  0.695	 -0.245	 -0.032	 -9.494	  0.003	 -0.001	  0.023	 28.500	 99.368	  0.529
38100	 -0.307	 -0.566	  0.702	 -0.140	 -0.022	 -9.521	  0.002	 -0.002	  0.019	 28.500	 99.380	 -0.571
38150	 -0.308	 -0.568	  0.691	 -0.222	 -0.046	 -9.503	  0.004	 -0.001	  0.017	 28.500	 99.393	 -1.764
38200	 -0.308	 -0.572	  0.697	 -0.162	 -0.028	 -9.502	  0.003	 -0.001	  0.021	 28.500	 99.380	 -0.571
38250	 -0.306	 -0.567	  0.690	 -0.187	 -0.043	 -9.514	  0.003	  0.000	  0.019	 28.500	 99.380	 -0.571
38300	 -0.307	 -0.566	  0.702	 -0.193	 -0.044	 -9.494	  0.001	 -0.002	  0.016	 28.500	 99.380	 -0.571
38350	 -0.307	 -0.565	  0.695	 -0.168	 -0.053	 -9.502	  0.003	 -0.000	  0.021	 28.500	 99.380	 -0.571
38400	 -0.307	 -0.568	  0.699	 -0.225	 -0.042	 -9.451	  0.002	 -0.001	  0.019	 28.500	 99.368	  0.529
38450	 -0.305	 -0.569	  0.696	 -0.152	 -0.055	 -9.517	  0.003	 -0.001	  0.019	 28.500	 99.368	  0.529
38500	 -0.304	 -0.568	  0.698	 -0.233	 -0.014	 -9.470	  0.003	 -0.002	  0.017	 28.500	 99.380	 -0.571
38550	 -0.304	 -0.572	  0.692	 -0.142	 -0.059	 -9.552	  0.002	 -0.001	  0.017	 28.500	 99.380	 -0.571
38600	 -0.306	 -0.564	  0.695	 -0.237	 -0.016	 -9.455	  0.004	 -0.003	  0.020	 28.500	 99.368	  0.529
38650	 -0.307	 -0.566	  0.698	 -0.164	 -0.053	 -9.532	  0.003	 -0.000	  0.019	 28.500	 99.368	  0.529
38700	 -0.306	 -0.559	  0.695	 -0.194	 -0.031	 -9.487	  0.001	 -0.001	  0.018	 28.500	 99.380	 -0.571
38750	 -0.309	 -0.565	  0.698	 -0.222	 -0.033	 -9.498	  0.003	  0.000	  0.023	 28.500	 99.380	 -0.571
38800	 -0.309	 -0.564	  0.695	 -0.164	 -0.057	 -9.468	  0.003	 -0.001	  0.020	 28.500	 99.368	  0.529
38850	 -0.307	 -0.556	  0.694	 -0.212	 -0.029	 -9.501	  0.003	 -0.001	  0.020	 28.500	 99.380	 -0.571
38900	 -0.306	 -0.561	  0.697	 -0.149	 -0.078	 -9.495	  0.002	 -0.001	  0.018	 28.500	 99.380	 -0.571
38950	 -0.307	 -0.569	  0.698	 -0.222	  0.007	 -9.544	  0.003	 -0.001	  0.020	 28.500	 99.368	  0.529
39000	 -0.307	 -0.570	  0.695	 -0.161	 -0.068	 -9.505	  0.003	 -0.001	  0.020	 28.500	 99.380	 -0.571
39050	 -0.305	 -0.564	  0.698	 -0.218	 -0.022	 -9.508	  0.002	 -0.001	  0.019	 28.500	 99.385	 -1.031
39100	 -0.305	 -0.563	  0.697	 -0.143	 -0.047	 -9.488	  0.003	 -0.001	  0.020	 28.500	 99.368	  0.529
39150	 -0.307	 -0.566	  0.695	 -0.227	 -0.039	 -9.469	  0.002	 -0.001	  0.024	 28.500	 99.385	 -1.031
39200	 -0.307	 -0.564	  0.698	 -0.197	 -0.047	 -9.471	  0.002	 -0.001	  0.022	 28.500	 99.368	  0.529
39250	 -0.310	 -0.564	  0.695	 -0.164	 -0.086	 -9.444	  0.003	 -0.001	  0.022	 28.500	 99.380	 -0.571
39300	 -0.306	 -0.566	  0.698	 -0.184	 -0.128	 -9.572	 -0.001	 -0.001	  0.021	 28.500	 99.380	 -0.571
39350	 -0.307	 -0.561	  0.697	 -0.174	 -0.065	 -9.460	  0.004	 -0.002	  0.018	 28.500	 99.372	  0.162
39400	 -0.309	 -0.554	  0.698	 -0.252	 -0.027	 -9.480	  0.003	 -0.001	  0.018	 28.500	 99.380	 -0.571
39450	 -0.309	 -0.564	  0.699	 -0.110	 -0.070	 -9.497	  0.003	 -0.001	  0.019	 28.500	 99.368	  0.529
39500	 -0.306	 -0.568	  0.693	 -0.273	  0.009	 -9.492	  0.003	 -0.001	  0.019	 28.500	 99.368	  0.529
39550	 -0.307	 -0.566	  0.701	 -0.148	 -0.056	 -9.478	  0.004	 -0.001	  0.018	 28.500	 99.372	  0.162
39600	 -0.309	 -0.563	  0.703	 -0.283	 -0.009	 -9.455	  0.001	 -0.001	  0.014	 28.500	 99.380	 -0.571
39650	 -0.310	 -0.565	  0.690	 -0.161	 -0.071	 -9.510	  0.001	 -0.000	  0.016	 28.500	 99.368	  0.529
39700	 -0.306	 -0.565	  0.701	 -0.182	 -0.070	 -9.498	  0.003	 -0.002	  0.016	 28.500	 99.385	 -1.031
39750	 -0.304	 -0.569	  0.702	 -0.204	 -0.031	 -9.509	  0.001	 -0.000	  0.018	 28.500	 99.380	 -0.571
39800	 -0.310	 -0.564	  0.698	 -0.153	 -0.057	 -9.496	  0.003	 -0.002	  0.020	 28.500	 99.380	 -0.571
39850	 -0.306	 -0.570	  0.698	 -0.231	 -0.030	 -9.498	  0.002	 -0.001	  0.014	 28.500	 99.368	  0.529
39900	 -0.306	 -0.563	  0.694	 -0.142	 -0.027	 -9.485	  0.001	  0.002	  0.020	 28.500	 99.372	  0.162
39950	 -0.306	 -0.569	  0.701	 -0.236	 -0.044	 -9.497	  0.001	 -0.001	  0.021	 28.500	 99.385	 -1.031
40000	 -0.306	 -0.565	  0.697	 -0.146	 -0.056	 -9.517	  0.002	 -0.002	  0.022	 28.500	 99.380	 -0.571
40050	 -0.309	 -0.560	  0.699	 -0.206	 -0.055	 -9.517	  0.002	 -0.000	  0.016	 28.500	 99.385	 -1.031
40100	 -0.306	 -0.558	  0.690	 -0.161	 -0.030	 -9.478	  0.002	 -0.001	  0.022	 28.500	 99.385	 -1.031
40150	 -0.309	 -0.559	  0.692	 -0.194	 -0.065	 -9.523	  0.002	 -0.001	  0.020	 28.500	 99.368	  0.529
40200	 -0.307	 -0.563	  0.698	 -0.206	 -0.015	 -9.527	  0.003	 -0.002	  0.018	 28.500	 99.368	  0.529
40250	 -0.306	 -0.570	  0.701	 -0.130	 -0.075	 -9.481	  0.003	 -0.001	  0.017	 28.500	 99.380	 -0.571
40300	 -0.305	 -0.568	  0.696	 -0.248	 -0.026	 -9.508	  0.003	 -0.001	  0.022	 28.500	 99.385	 -1.031
40350	 -0.306	 -0.568	  0.699	 -0.116	 -0.062	 -9.495	  0.002	 -0.002	  0.020	 28.500	 99.368	  0.529
40400	 -0.309	 -0.559	  0.698	 -0.240	 -0.052	 -9.490	  0.002	 -0.001	  0.020	 28.500	 99.380	 -0.571
40450	 -0.309	 -0.567	  0.691	 -0.154	 -0.031	 -9.483	  0.003	 -0.001	  0.019	 28.500	 99.380	 -0.571
40500	 -0.306	 -0.563	  0.693	 -0.212	 -0.038	 -9.474	  0.001	 -0.001	  0.015	 28.500	 99.385	 -1.031
40551	 -0.309	 -0.564	  0.694	 -0.174	 -0.037	 -9.506	  0.003	 -0.001	  0.024	 28.500	 99.385	 -1.031
40600	 -0.304	 -0.568	  0.693	 -0.167	 -0.039	 -9.490	  0.003	 -0.001	  0.017	 28.500	 99.385	 -1.031
40650	 -0.303	 -0.564	  0.692	 -0.202	 -0.038	 -9.468	  0.004	 -0.000	  0.023	 28.500	 99.385	 -1.031
40700	 -0.304	 -0.563	  0.697	 -0.148	 -0.047	 -9.521	  0.002	 -0.000	  0.019	 28.500	 99.380	 -0.571
40750	 -0.301	 -0.564	  0.693	 -0.200	 -0.046	 -9.500	  0.003	 -0.001	  0.019	 28.500	 99.385	 -1.031
40799	 -0.306	 -0.568	  0.697	 -0.174	 -0.079	 -9.470	  0.003	 -0.001	  0.019	 28.500	 99.380	 -0.571
40849	 -0.307	 -0.567	  0.685	 -0.243	 -0.005	 -9.506	  0.002	 -0.001	  0.020	 28.500	 99.380	 -0.571
40899	 -0.305	 -0.565	  0.697	 -0.158	 -0.085	 -9.486	  0.002	 -0.002	  0.020	 28.500	 99.372	  0.162
40949	 -0.306	 -0.568	  0.694	 -0.222	 -0.031	 -9.499	  0.002	 -0.001	  0.026	 28.500	 99.380	 -0.571
40999	 -0.306	 -0.568	  0.691	 -0.169	 -0.035	 -9.545	  0.003	 -0.002	  0.019	 28.500	 99.380	 -0.571
41049	 -0.305	 -0.556	  0.690	 -0.212	 -0.025	 -9.487	  0.002	 -0.002	  0.024	 28.500	 99.385	 -1.031
41099	 -0.304	 -0.566	  0.694	 -0.122	 -0.022	 -9.519	  0.003	 -0.001	  0.021	 28.500	 99.368	  0.529
41149	 -0.304	 -0.554	  0.695	 -0.214	 -0.061	 -9.473	  0.003	 -0.001	  0.021	 28.500	 99.380	 -0.571
41200	 -0.305	 -0.564	  0.685	 -0.167	 -0.011	 -9.506	  0.002	 -0.001	  0.023	 28.500	 99.385	 -1.031
41250	 -0.306	 -0.555	  0.695	 -0.147	 -0.060	 -9.458	  0.003	 -0.000	  0.020	 28.500	 99.380	 -0.571
41300	 -0.303	 -0.561	  0.695	 -0.210	 -0.010	 -9.499	  0.002	 -0.001	  0.022	 28.500	 99.380	 -0.571
41351	 -0.306	 -0.568	  0.689	 -0.141	 -0.034	 -9.501	  0.004	 -0.000	  0.022	 28.500	 99.368	  0.529
41401	 -0.305	 -0.568	  0.696	 -0.237	 -0.022	 -9.497	  0.002	 -0.002	  0.020	 28.500	 99.368	  0.529
41451	 -0.304	 -0.570	  0.692	 -0.186	 -0.050	 -9.484	  0.002	 -0.001	  0.019	 28.500	 99.368	  0.529
41501	 -0.305	 -0.556	  0.698	 -0.201	 -0.030	 -9.466	  0.003	 -0.000	  0.022	 28.500	 99.368	  0.529
41551	 -0.304	 -0.564	  0.687	 -0.185	 -0.031	 -9.483	  0.003	 -0.002	  0.019	 28.500	 99.372	  0.162
41601	 -0.309	 -0.561	  0.697	 -0.190	 -0.068	 -9.531	  0.003	 -0.000	  0.020	 28.500	 99.368	  0.529
41651	 -0.305	 -0.569	  0.700	 -0.221	 -0.015	 -9.531	  0.002	 -0.001	  0.025	 28.500	 99.380	 -0.571
41701	 -0.307	 -0.566	  0.697	 -0.131	 -0.060	 -9.550	  0.002	 -0.001	  0.018	 28.500	 99.385	 -1.031
41751	 -0.305	 -0.560	  0.695	 -0.220	 -0.032	 -9.467	  0.003	 -0.002	  0.018	 28.500	 99.368	  0.529
41801	 -0.310	 -0.566	  0.695	 -0.148	 -0.063	 -9.520	  0.003	  0.001	  0.020	 28.500	 99.368	  0.529
41851	 -0.306	 -0.572	  0.697	 -0.238	 -0.026	 -9.521	  0.002	 -0.002	  0.015	 28.500	 99.385	 -1.031
41900	 -0.310	 -0.563	  0.699	 -0.157	 -0.059	 -9.551	  0.003	 -0.001	  0.015	 28.500	 99.385	 -1.031
41950	 -0.304	 -0.560	  0.694	 -0.221	 -0.029	 -9.490	  0.002	  0.001	  0.021	 28.500	 99.372	  0.162
42000	 -0.304	 -0.566	  0.700	 -0.171	 -0.051	 -9.473	  0.002	 -0.001	  0.022	 28.500	 99.368	  0.529
42050	 -0.305	 -0.569	  0.697	 -0.173	 -0.067	 -9.503	  0.003	 -0.001	  0.019	 28.500	 99.372	  0.162
42100	 -0.305	 -0.566	  0.693	 -0.237	 -0.141	 -9.559	 -0.023	 -0.001	  0.021	 28.500	 99.372	  0.162
42150	 -0.308	 -0.568	  0.698	 -0.192	 -0.410	 -9.699	 -0.038	 -0.000	  0.021	 28.500	 99.385	 -1.031
42200	 -0.310	 -0.567	  0.695	 -0.181	 -0.264	 -9.635	 -0.013	 -0.000	  0.023	 28.500	 99.368	  0.529
42250	 -0.307	 -0.570	  0.694	 -0.175	 -0.090	 -9.552	 -0.000	 -0.001	  0.021	 28.500	 99.385	 -1.031
42300	 -0.306	 -0.558	  0.697	 -0.239	  0.038	 -9.468	  0.002	 -0.001	  0.015	 28.500	 99.385	 -1.031
42350	 -0.308	 -0.573	  0.697	 -0.141	  0.080	 -9.471	  0.005	 -0.000	  0.022	 28.500	 99.360	  1.262
42400	 -0.306	 -0.569	  0.694	 -0.230	 -0.014	 -9.515	  0.001	 -0.000	  0.017	 28.500	 99.385	 -1.031
42450	 -0.305	 -0.566	  0.695	 -0.164	  0.350	 -9.339	  0.025	 -0.004	  0.016	 28.500	 99.380	 -0.571
42500	 -0.307	 -0.566	  0.695	 -0.182	 -0.362	 -9.606	 -0.028	 -0.005	  0.021	 28.500	 99.385	 -1.031
42550	 -0.307	 -0.569	  0.694	 -0.206	 -0.314	 -9.642	 -0.016	 -0.001	  0.020	 28.500	 99.393	 -1.764
42600	 -0.309	 -0.558	  0.691	 -0.171	 -0.337	 -9.751	  0.019	 -0.001	  0.022	 28.500	 99.385	 -1.031
42650	 -0.305	 -0.569	  0.696	 -0.259	 -0.135	 -9.549	  0.012	  0.001	  0.017	 28.500	 99.385	 -1.031
42700	 -0.307	 -0.573	  0.694	 -0.118	 -0.018	 -9.507	  0.004	  0.000	  0.018	 28.500	 99.368	  0.529
42750	 -0.307	 -0.570	  0.691	 -0.167	  0.390	 -9.451	 -0.040	  0.002	  0.018	 28.500	 99.368	  0.529
42800	 -0.310	 -0.567	  0.693	 -0.154	 -0.186	 -9.570	  0.001	 -0.000	  0.019	 28.500	 99.397	 -2.130
42850	 -0.306	 -0.568	  0.690	 -0.241	  0.001	 -9.484	  0.003	 -0.002	  0.018	 28.500	 99.368	  0.529
42900	 -0.304	 -0.560	  0.691	 -0.157	 -0.127	 -9.548	  0.009	 -0.001	  0.018	 28.500	 99.385	 -1.031
42950	 -0.301	 -0.558	  0.695	 -0.231	 -0.469	 -9.762	  0.001	 -0.000	  0.020	 28.500	 99.368	  0.529
43000	 -0.303	 -0.569	  0.690	 -0.194	 -0.038	 -9.497	  0.002	 -0.001	  0.015	 28.500	 99.368	  0.529
43050	 -0.307	 -0.572	  0.687	 -0.188	 -0.015	 -9.516	  0.003	 -0.002	  0.018	 28.500	 99.385	 -1.031
43100	 -0.307	 -0.572	  0.698	 -0.212	 -0.026	 -9.528	  0.004	 -0.002	  0.018	 28.500	 99.385	 -1.031
43150	 -0.305	 -0.569	  0.693	 -0.154	 -0.164	 -9.571	  0.013	 -0.001	  0.018	 28.500	 99.368	  0.529
43200	 -0.309	 -0.558	  0.690	 -0.242	 -0.061	 -9.520	  0.003	 -0.003	  0.015	 28.500	 99.380	 -0.571
43250	 -0.309	 -0.565	  0.689	 -0.136	  0.077	 -9.436	  0.021	 -0.006	  0.019	 28.500	 99.385	 -1.031
43300	 -0.308	 -0.572	  0.695	 -0.209	 -0.243	 -9.553	  0.015	 -0.001	  0.016	 28.500	 99.380	 -0.571
43350	 -0.308	 -0.569	  0.686	 -0.177	 -0.016	 -9.509	  0.001	  0.001	  0.021	 28.500	 99.385	 -1.031
43400	 -0.310	 -0.560	  0.688	 -0.191	 -0.056	 -9.503	 -0.006	 -0.001	  0.020	 28.500	 99.385	 -1.031
43450	 -0.306	 -0.572	  0.692	 -0.192	  0.023	 -9.485	  0.006	 -0.001	  0.014	 28.500	 99.372	  0.162
43500	 -0.304	 -0.558	  0.694	 -0.156	 -0.074	 -9.504	  0.004	 -0.000	  0.019	 28.500	 99.385	 -1.031
43550	 -0.307	 -0.559	  0.694	 -0.216	 -0.015	 -9.500	 -0.008	 -0.001	  0.025	 28.500	 99.380	 -0.571
43600	 -0.305	 -0.569	  0.693	 -0.141	 -0.047	 -9.491	  0.003	 -0.001	  0.019	 28.500	 99.380	 -0.571
43650	 -0.309	 -0.567	  0.691	 -0.240	 -0.002	 -9.491	  0.019	 -0.001	  0.022	 28.500	 99.368	  0.529
43700	 -0.307	 -0.569	  0.686	 -0.114	  0.058	 -9.410	  0.006	 -0.002	  0.023	 28.500	 99.385	 -1.031
43750	 -0.306	 -0.559	  0.689	 -0.216	 -0.034	 -9.481	  0.003	 -0.002	  0.018	 28.500	 99.372	  0.162
43800	 -0.307	 -0.569	  0.690	 -0.171	 -0.029	 -9.523	  0.002	 -0.001	  0.024	 28.500	 99.385	 -1.031
43850	 -0.306	 -0.564	  0.686	 -0.192	 -0.051	 -9.493	  0.008	 -0.003	  0.017	 28.500	 99.368	  0.529
43900	 -0.305	 -0.563	  0.690	 -0.181	  0.015	 -9.457	  0.051	  0.006	  0.016	 28.500	 99.385	 -1.031
43950	 -0.304	 -0.563	  0.691	 -0.202	 -0.074	 -9.507	 -0.006	 -0.001	  0.020	 28.500	 99.372	  0.162
44000	 -0.305	 -0.570	  0.692	 -0.231	 -0.250	 -9.585	 -0.029	 -0.005	  0.017	 28.500	 99.368	  0.529
44050	 -0.306	 -0.572	  0.692	 -0.159	  0.321	 -9.341	 -0.006	  0.000	  0.017	 28.500	 99.385	 -1.031
44100	 -0.308	 -0.569	  0.689	 -0.265	 -0.109	 -9.541	  0.003	 -0.002	  0.021	 28.500	 99.368	  0.529
44150	 -0.309	 -0.558	  0.694	 -0.154	 -0.039	 -9.485	  0.004	 -0.002	  0.022	 28.500	 99.372	  0.162
44200	 -0.306	 -0.570	  0.692	 -0.241	 -0.018	 -9.516	  0.012	 -0.009	  0.023	 28.500	 99.360	  1.262
44250	 -0.310	 -0.570	  0.695	 -0.077	 -0.529	 -9.646	  0.006	 -0.002	  0.021	 28.500	 99.372	  0.162
44300	 -0.305	 -0.560	  0.690	 -0.214	 -0.010	 -9.509	 -0.020	 -0.002	  0.019	 28.500	 99.368	  0.529
44350	 -0.308	 -0.569	  0.693	 -0.192	 -0.083	 -9.491	  0.004	 -0.002	  0.015	 28.500	 99.368	  0.529
44400	 -0.305	 -0.573	  0.692	 -0.153	 -0.072	 -9.519	 -0.005	  0.002	  0.020	 28.500	 99.385	 -1.031
44450	 -0.309	 -0.564	  0.690	 -0.224	  0.065	 -9.457	 -0.031	  0.000	  0.021	 28.500	 99.368	  0.529
44500	 -0.308	 -0.569	  0.690	 -0.167	 -0.110	 -9.530	  0.001	 -0.001	  0.019	 28.500	 99.385	 -1.031
44550	 -0.306	 -0.567	  0.690	 -0.238	 -0.006	 -9.520	  0.000	  0.003	  0.020	 28.500	 99.385	 -1.031
44600	 -0.304	 -0.574	  0.694	 -0.179	 -0.060	 -9.508	  0.003	 -0.002	  0.020	 28.500	 99.372	  0.162
44650	 -0.305	 -0.574	  0.681	 -0.377	 -0.235	 -9.725	  0.004	  0.002	  0.015	 28.500	 99.372	  0.162
44700	 -0.310	 -0.572	  0.689	 -0.145	 -0.014	 -9.492	  0.000	  0.003	  0.019	 28.500	 99.385	 -1.031
44750	 -0.307	 -0.572	  0.691	 -0.224	 -0.029	 -9.497	  0.003	 -0.004	  0.017	 28.500	 99.372	  0.162
44800	 -0.305	 -0.570	  0.694	 -0.125	 -0.022	 -9.469	  0.003	 -0.001	  0.020	 28.500	 99.385	 -1.031
44850	 -0.306	 -0.572	  0.689	 -0.253	 -0.017	 -9.498	  0.002	 -0.001	  0.020	 28.500	 99.372	  0.162
44900	 -0.306	 -0.568	  0.693	 -0.180	  0.002	 -9.473	  0.003	 -0.001	  0.019	 28.500	 99.393	 -1.764
44950	 -0.305	 -0.573	  0.693	 -0.213	 -0.036	 -9.509	 -0.000	  0.002	  0.020	 28.500	 99.372	  0.162
45000	 -0.306	 -0.574	  0.690	 -0.153	 -0.002	 -9.456	  0.005	 -0.001	  0.020	 28.500	 99.385	 -1.031
45050	 -0.305	 -0.569	  0.689	 -0.172	 -0.049	 -9.522	  0.001	 -0.001	  0.017	 28.500	 99.372	  0.162
45100	 -0.307	 -0.569	  0.691	 -0.280	  0.010	 -9.487	 -0.000	 -0.000	  0.019	 28.500	 99.385	 -1.031
45150	 -0.304	 -0.565	  0.690	 -0.139	 -0.081	 -9.511	  0.000	 -0.001	  0.020	 28.500	 99.368	  0.529
45200	 -0.304	 -0.566	  0.696	 -0.257	 -0.010	 -9.505	  0.003	  0.000	  0.019	 28.500	 99.372	  0.162
45250	 -0.310	 -0.577	  0.688	 -0.135	 -0.025	 -9.508	  0.002	 -0.001	  0.019	 28.500	 99.368	  0.529
45300	 -0.306	 -0.559	  0.686	 -0.231	 -0.023	 -9.470	 -0.000	  0.001	  0.019	 28.500	 99.385	 -1.031
45350	 -0.305	 -0.578	  0.690	 -0.165	 -0.002	 -9.526	  0.003	 -0.000	  0.021	 28.500	 99.372	  0.162
45400	 -0.307	 -0.572	  0.690	 -0.224	  0.048	 -9.524	 -0.010	  0.030	  0.013	 28.500	 99.397	 -2.130
45450	 -0.304	 -0.576	  0.694	 -0.156	 -0.067	 -9.561	  0.003	 -0.004	  0.019	 28.500	 99.372	  0.162
45500	 -0.304	 -0.569	  0.692	 -0.043	 -0.196	 -9.459	  0.002	 -0.005	 -0.085	 28.500	 99.372	  0.162
45550	 -0.303	 -0.569	  0.693	 -0.226	 -0.009	 -9.516	  0.001	 -0.000	  0.019	 28.500	 99.385	 -1.031
45600	 -0.303	 -0.577	  0.688	 -0.158	 -0.032	 -9.488	  0.001	  0.000	  0.019	 28.500	 99.372	  0.162
45650	 -0.304	 -0.578	  0.688	 -0.229	  0.003	 -9.507	  0.000	  0.001	  0.019	 28.500	 99.372	  0.162
45699	 -0.301	 -0.574	  0.684	 -0.141	 -0.081	 -9.545	  0.000	  0.001	  0.017	 28.500	 99.385	 -1.031
45749	 -0.300	 -0.555	  0.689	  0.103	 -0.429	 -9.521	 -0.005	  0.000	 -0.313	 28.500	 99.372	  0.162
45799	 -0.293	 -0.579	  0.695	 -0.431	  0.324	 -9.536	  0.000	 -0.002	 -0.204	 28.500	 99.385	 -1.031
45849	 -0.289	 -0.583	  0.694	 -0.205	 -0.019	 -9.469	  0.004	 -0.003	  0.022	 28.500	 99.372	  0.162
45899	 -0.288	 -0.576	  0.702	 -0.149	 -0.018	 -9.536	  0.005	 -0.003	  0.019	 28.500	 99.380	 -0.571
45949	 -0.289	 -0.578	  0.695	 -0.181	 -0.015	 -9.453	  0.004	 -0.002	  0.018	 28.500	 99.380	 -0.571
45999	 -0.289	 -0.561	  0.693	 -0.195	 -0.047	 -9.531	  0.006	 -0.003	  0.017	 28.500	 99.397	 -2.130
46049	 -0.287	 -0.579	  0.694	 -0.130	 -0.089	 -9.490	  0.002	 -0.000	  0.016	 28.500	 99.385	 -1.031
46099	 -0.286	 -0.580	  0.700	  0.051	 -0.370	 -9.471	 -0.003	 -0.005	 -0.434	 28.500	 99.385	 -1.031
46149	 -0.273	 -0.574	  0.698	 -0.426	  0.447	 -9.462	 -0.002	 -0.001	 -0.076	 28.500	 99.368	  0.529
46199	 -0.270	 -0.580	  0.702	 -0.481	  0.363	 -9.481	  0.000	 -0.002	 -0.062	 28.500	 99.360	  1.262
46249	 -0.270	 -0.586	  0.701	 -0.151	 -0.007	 -9.474	  0.004	 -0.003	  0.020	 28.500	 99.385	 -1.031
46299	 -0.273	 -0.586	  0.702	 -0.249	 -0.058	 -9.540	  0.002	 -0.000	  0.019	 28.500	 99.372	  0.162
46349	 -0.270	 -0.584	  0.702	  0.777	 -0.997	 -9.353	 -0.037	  0.020	 -0.008	 28.500	 99.372	  0.162
46400	 -0.263	 -0.586	  0.701	 -0.477	  0.379	 -9.539	 -0.002	 -0.000	 -0.269	 28.500	 99.372	  0.162
46449	 -0.257	 -0.588	  0.707	 -0.602	  0.488	 -9.526	  0.004	 -0.007	  0.006	 28.500	 99.372	  0.162
46500	 -0.256	 -0.570	  0.701	 -0.137	  0.001	 -9.497	  0.007	 -0.004	  0.020	 28.500	 99.385	 -1.031
46549	 -0.255	 -0.588	  0.707	 -0.228	 -0.064	 -9.474	  0.001	  0.001	  0.021	 28.500	 99.385	 -1.031
46599	 -0.256	 -0.588	  0.702	 -0.118	  0.000	 -9.475	  0.006	 -0.004	  0.019	 28.500	 99.372	  0.162
46649	 -0.255	 -0.586	  0.703	 -0.219	 -0.031	 -9.518	  0.002	 -0.003	  0.018	 28.500	 99.385	 -1.031
46699	 -0.257	 -0.581	  0.707	  2.092	 -2.861	 -6.581	  0.565	 -0.167	  0.014	 28.500	 99.385	 -1.031
46749	 -0.255	 -0.581	  0.711	 -0.347	 -2.107	 -10.031	 -0.146	 -0.046	  0.032	 28.500	 99.385	 -1.031
46800	 -0.256	 -0.581	  0.711	 -0.331	  0.514	 -9.255	  0.082	  0.019	  0.013	 28.500	 99.372	  0.162
46850	 -0.255	 -0.581	  0.712	 -0.095	 -0.598	 -9.585	 -0.048	 -0.007	  0.020	 28.500	 99.372	  0.162
46900	 -0.256	 -0.584	  0.711	 -0.381	  0.232	 -9.357	  0.027	  0.006	  0.018	 28.500	 99.372	  0.162
46950	 -0.255	 -0.580	  0.706	 -0.149	 -0.506	 -9.643	 -0.019	 -0.003	  0.019	 28.500	 99.368	  0.529
47000	 -0.255	 -0.583	  0.708	 -0.223	  0.597	 -9.224	 -0.003	 -0.004	  0.019	 28.500	 99.385	 -1.031
47050	 -0.252	 -0.584	  0.702	 -0.187	 -0.012	 -9.482	 -0.001	  0.001	  0.019	 28.500	 99.385	 -1.031
47100	 -0.256	 -0.584	  0.706	 -0.200	 -0.407	 -9.605	 -0.091	  0.001	  0.020	 28.500	 99.385	 -1.031
47150	 -0.253	 -0.579	  0.703	 -0.158	 -0.139	 -9.462	 -0.013	 -0.003	  0.020	 28.500	 99.385	 -1.031
47200	 -0.253	 -0.585	  0.706	 -0.180	 -0.069	 -9.459	  0.015	 -0.002	  0.019	 28.500	 99.385	 -1.031
47250	 -0.254	 -0.571	  0.700	 -0.271	 -0.078	 -9.540	  0.037	 -0.001	  0.018	 28.500	 99.372	  0.162
47300	 -0.256	 -0.566	  0.708	 -0.242	 -0.490	 -9.652	  0.012	 -0.002	  0.018	 28.500	 99.372	  0.162
47350	 -0.256	 -0.583	  0.706	 -0.273	 -0.013	 -9.475	  0.004	 -0.001	  0.019	 28.500	 99.372	  0.162
47400	 -0.258	 -0.576	  0.712	 -0.193	 -0.037	 -9.492	  0.003	 -0.001	  0.020	 28.500	 99.377	 -0.296
47450	 -0.253	 -0.577	  0.706	 -0.283	 -0.017	 -9.490	  0.003	 -0.001	  0.020	 28.500	 99.372	  0.162
47500	 -0.253	 -0.583	  0.708	 -0.205	 -0.056	 -9.504	  0.003	 -0.001	  0.020	 28.500	 99.385	 -1.031
47550	 -0.252	 -0.574	  0.711	 -0.263	 -0.045	 -9.506	  0.003	 -0.000	  0.019	 28.500	 99.385	 -1.031
47600	 -0.255	 -0.581	  0.707	 -0.230	 -0.049	 -9.447	  0.003	 -0.001	  0.021	 28.500	 99.372	  0.162
47650	 -0.253	 -0.580	  0.712	 -0.261	 -0.075	 -9.490	  0.003	 -0.001	  0.020	 28.500	 99.372	  0.162
47700	 -0.253	 -0.577	  0.708	 -0.267	 -0.030	 -9.477	  0.002	 -0.002	  0.021	 28.500	 99.372	  0.162
47750	 -0.253	 -0.576	  0.703	 -0.226	  0.010	 -9.473	 -0.004	 -0.001	  0.019	 28.500	 99.385	 -1.031
47800	 -0.255	 -0.575	  0.706	 -0.248	  0.026	 -9.421	  0.002	 -0.001	  0.020	 28.500	 99.385	 -1.031
47850	 -0.256	 -0.579	  0.711	 -0.191	 -0.076	 -9.473	  0.003	 -0.001	  0.017	 28.500	 99.385	 -1.031
47900	 -0.256	 -0.576	  0.711	 -0.297	 -0.026	 -9.525	  0.000	 -0.002	  0.019	 28.500	 99.372	  0.162
47950	 -0.255	 -0.583	  0.710	 -0.197	 -0.206	 -9.547	 -0.020	  0.001	  0.018	 28.500	 99.372	  0.162
48000	 -0.255	 -0.580	  0.707	 -0.347	 -0.494	 -9.785	  0.004	 -0.002	  0.020	 28.500	 99.385	 -1.031
48050	 -0.255	 -0.586	  0.703	 -0.134	  0.009	 -9.478	  0.022	 -0.002	  0.018	 28.500	 99.372	  0.162
48100	 -0.255	 -0.575	  0.700	 -0.338	 -0.030	 -9.471	  0.001	  0.001	  0.020	 28.500	 99.372	  0.162
48150	 -0.253	 -0.581	  0.707	 -0.289	  0.030	 -9.519	 -0.000	 -0.002	  0.020	 28.500	 99.372	  0.162
48200	 -0.255	 -0.584	  0.700	 -0.269	 -0.125	 -9.541	  0.002	 -0.001	  0.018	 28.500	 99.385	 -1.031
48250	 -0.255	 -0.579	  0.704	 -0.254	  0.027	 -9.460	  0.002	 -0.001	  0.020	 28.500	 99.372	  0.162
48300	 -0.259	 -0.581	  0.704	 -0.203	 -0.047	 -9.464	  0.001	 -0.001	  0.019	 28.500	 99.372	  0.162
48350	 -0.255	 -0.585	  0.700	 -0.174	 -0.077	 -9.456	  0.005	  0.000	  0.013	 28.500	 99.385	 -1.031
48400	 -0.253	 -0.572	  0.703	 -0.221	 -0.010	 -9.553	  0.004	 -0.001	  0.009	 28.500	 99.385	 -1.031
48450	 -0.253	 -0.581	  0.696	 -0.323	  0.002	 -9.461	  0.005	 -0.002	  0.020	 28.500	 99.372	  0.162
48500	 -0.255	 -0.585	  0.699	 -0.173	 -0.037	 -9.496	 -0.000	  0.001	  0.017	 28.500	 99.372	  0.162
48550	 -0.257	 -0.584	  0.702	 -0.268	 -0.062	 -9.518	  0.002	 -0.002	  0.020	 28.500	 99.385	 -1.031
48600	 -0.256	 -0.586	  0.699	 -0.242	 -0.021	 -9.480	  0.003	  0.000	  0.021	 28.500	 99.372	  0.162
48650	 -0.253	 -0.583	  0.698	 -0.210	 -0.088	 -9.506	  0.007	 -0.002	  0.019	 28.500	 99.372	  0.162
48700	 -0.251	 -0.583	  0.704	 -0.301	 -0.016	 -9.558	  0.002	 -0.000	  0.018	 28.500	 99.385	 -1.031
48750	 -0.252	 -0.583	  0.703	 -0.183	 -0.097	 -9.502	  0.003	 -0.001	  0.017	 28.500	 99.372	  0.162
48800	 -0.256	 -0.585	  0.698	 -0.288	 -0.000	 -9.483	  0.002	 -0.001	  0.021	 28.500	 99.372	  0.162
48850	 -0.252	 -0.581	  0.702	 -0.199	 -0.051	 -9.504	  0.001	 -0.001	  0.018	 28.500	 99.372	  0.162
48900	 -0.255	 -0.584	  0.699	 -0.308	 -0.020	 -9.521	  0.003	 -0.001	  0.019	 28.500	 99.377	 -0.296
48950	 -0.255	 -0.588	  0.702	 -0.214	 -0.067	 -9.487	  0.002	 -0.001	  0.018	 28.500	 99.372	  0.162
49000	 -0.253	 -0.585	  0.702	 -0.285	  0.014	 -9.477	  0.002	 -0.001	  0.020	 28.500	 99.377	 -0.296
49050	 -0.253	 -0.585	  0.706	 -0.379	 -0.090	 -9.584	  0.001	 -0.002	  0.018	 28.500	 99.372	  0.162
49100	 -0.256	 -0.576	  0.699	 -0.242	 -0.014	 -9.442	  0.005	  0.001	  0.019	 28.500	 99.372	  0.162
49150	 -0.252	 -0.581	  0.704	 -0.210	  0.008	 -9.516	  0.002	 -0.001	  0.019	 28.500	 99.365	  0.804
49200	 -0.252	 -0.564	  0.699	 -0.185	  0.034	 -9.482	  0.002	 -0.001	  0.020	 28.500	 99.372	  0.162
49250	 -0.252	 -0.579	  0.695	 -0.380	  0.062	 -9.522	  0.001	  0.002	  0.019	 28.500	 99.385	 -1.031
49300	 -0.253	 -0.589	  0.699	 -0.167	 -0.167	 -9.536	 -0.003	 -0.001	 -0.044	 28.500	 99.372	  0.162
49350	 -0.256	 -0.581	  0.703	 -0.360	  0.042	 -9.479	  0.006	 -0.000	 -0.015	 28.500	 99.372	  0.162
49400	 -0.253	 -0.586	  0.704	 -0.201	 -0.009	 -9.455	  0.002	  0.001	  0.019	 28.500	 99.385	 -1.031
49450	 -0.253	 -0.581	  0.699	 -0.236	  0.015	 -9.492	  0.001	  0.000	  0.019	 28.500	 99.385	 -1.031
49500	 -0.252	 -0.588	  0.698	 -0.222	 -0.024	 -9.530	  0.001	 -0.003	  0.019	 28.500	 99.372	  0.162
49550	 -0.253	 -0.585	  0.700	 -0.242	 -0.033	 -9.450	  0.003	 -0.002	  0.019	 28.500	 99.372	  0.162
49600	 -0.252	 -0.589	  0.702	 -0.230	 -0.034	 -9.510	  0.002	 -0.001	  0.019	 28.500	 99.389	 -1.397
49650	 -0.251	 -0.586	  0.694	 -0.311	 -0.318	 -9.658	  0.007	  0.008	  0.003	 28.500	 99.385	 -1.031
49700	 -0.253	 -0.586	  0.700	 -0.273	 -0.091	 -9.530	  0.006	 -0.000	  0.018	 28.500	 99.372	  0.162
49750	 -0.252	 -0.583	  0.691	 -0.155	 -0.191	 -9.526	 -0.000	 -0.002	  0.019	 28.500	 99.372	  0.162
49800	 -0.250	 -0.581	  0.699	 -0.221	 -0.177	 -9.624	 -0.003	 -0.002	  0.016	 28.500	 99.360	  1.262
49850	 -0.251	 -0.588	  0.697	 -0.216	  0.064	 -9.487	  0.002	 -0.002	  0.023	 28.500	 99.385	 -1.031
49900	 -0.252	 -0.593	  0.702	 -0.351	  0.258	 -9.271	  0.005	  0.001	  0.017	 28.500	 99.372	  0.162
49950	 -0.253	 -0.586	  0.698	 -0.234	 -0.019	 -9.513	  0.004	  0.000	  0.024	 28.500	 99.372	  0.162
50000	 -0.251	 -0.588	  0.699	 -0.299	  0.068	 -9.459	  0.010	 -0.003	  0.018	 28.500	 99.372	  0.162
50050	 -0.252	 -0.590	  0.699	 -0.331	  0.048	 -9.516	  0.013	 -0.001	  0.023	 28.500	 99.372	  0.162
50100	 -0.250	 -0.590	  0.695	 -0.239	  0.082	 -9.386	  0.000	 -0.002	  0.018	 28.500	 99.377	 -0.296
50150	 -0.250	 -0.586	  0.697	 -0.288	 -0.023	 -9.501	  0.002	 -0.002	  0.022	 28.500	 99.372	  0.162
50200	 -0.251	 -0.585	  0.697	 -0.220	 -0.041	 -9.499	  0.003	 -0.000	  0.021	 28.500	 99.372	  0.162
50250	 -0.250	 -0.586	  0.703	 -0.237	  0.043	 -9.462	  0.002	 -0.003	  0.018	 28.500	 99.372	  0.162
50300	 -0.252	 -0.593	  0.697	 -0.199	 -0.058	 -9.498	  0.000	 -0.001	  0.024	 28.500	 99.385	 -1.031
50350	 -0.249	 -0.591	  0.701	 -0.294	 -0.043	 -9.511	  0.002	 -0.000	  0.018	 28.500	 99.385	 -1.031
50400	 -0.251	 -0.578	  0.699	 -0.189	 -0.097	 -9.557	  0.000	 -0.002	  0.021	 28.500	 99.385	 -1.031
50450	 -0.250	 -0.591	  0.701	 -0.277	 -0.024	 -9.532	  0.001	 -0.002	  0.020	 28.500	 99.385	 -1.031
50500	 -0.252	 -0.590	  0.698	 -0.248	  0.031	 -9.498	  0.001	  0.001	  0.016	 28.500	 99.385	 -1.031
50550	 -0.250	 -0.584	  0.701	 -0.060	 -0.300	 -9.498	  0.001	 -0.000	 -0.001	 28.500	 99.385	 -1.031
50600	 -0.249	 -0.579	  0.698	 -0.342	  0.093	 -9.501	 -0.003	 -0.004	 -0.280	 28.500	 99.385	 -1.031
50650	 -0.235	 -0.593	  0.705	 -0.162	 -0.093	 -9.502	 -0.003	 -0.001	 -0.220	 28.500	 99.377	 -0.296
50700	 -0.235	 -0.596	  0.705	 -0.341	 -0.020	 -9.535	  0.007	  0.000	  0.022	 28.500	 99.385	 -1.031
50750	 -0.234	 -0.596	  0.697	 -0.201	 -0.450	 -9.726	 -0.001	  0.000	  0.014	 28.500	 99.377	 -0.296
50800	 -0.232	 -0.593	  0.708	 -0.207	  0.122	 -9.325	 -0.010	 -0.003	 -0.090	 28.500	 99.372	  0.162
50850	 -0.235	 -0.594	  0.700	 -0.208	 -0.006	 -9.498	  0.003	 -0.004	  0.017	 28.500	 99.372	  0.162
50900	 -0.231	 -0.584	  0.707	 -0.269	 -0.067	 -9.535	  0.001	 -0.001	  0.018	 28.500	 99.372	  0.162
50950	 -0.231	 -0.589	  0.704	 -0.224	  0.643	 -9.163	  0.056	 -0.003	  0.020	 28.500	 99.372	  0.162
51000	 -0.228	 -0.591	  0.708	 -0.188	 -0.293	 -9.529	 -0.004	 -0.000	  0.019	 28.500	 99.397	 -2.130
51050	 -0.233	 -0.586	  0.702	  1.002	  3.792	 -7.116	  0.033	  0.002	 -0.050	 28.500	 99.385	 -1.031
51100	 -0.230	 -0.594	  0.709	 -0.222	 -0.053	 -9.527	  0.007	  0.000	  0.021	 28.500	 99.372	  0.162
51150	 -0.235	 -0.589	  0.705	 -0.171	  0.006	 -9.471	  0.060	 -0.003	 -0.002	 28.500	 99.360	  1.262
51200	 -0.230	 -0.595	  0.704	 -0.316	 -1.063	 -10.037	 -0.109	  0.002	  0.019	 28.500	 99.389	 -1.397
51250	 -0.221	 -0.596	  0.705	  0.080	 -0.606	 -9.934	 -0.395	 -0.094	  0.031	 28.500	 99.372	  0.162
51300	 -0.214	 -0.604	  0.708	 -0.222	  0.998	 -8.639	  0.015	 -0.000	  0.019	 28.500	 99.385	 -1.031
51350	 -0.216	 -0.592	  0.705	  0.164	  0.245	 -9.338	  0.262	  0.070	  0.011	 28.500	 99.365	  0.804
51400	 -0.217	 -0.598	  0.706	 -0.157	 -1.665	 -9.928	 -0.092	  0.006	  0.020	 28.500	 99.372	  0.162
51450	 -0.216	 -0.601	  0.720	 -0.229	 -0.002	 -9.566	 -0.026	 -0.001	  0.022	 28.500	 99.372	  0.162
51500	 -0.212	 -0.582	  0.718	 -0.269	 -0.240	 -9.650	 -0.028	  0.000	  0.021	 28.500	 99.360	  1.262
51550	 -0.211	 -0.606	  0.717	 -0.095	  0.457	 -9.307	 -0.027	  0.001	  0.018	 28.500	 99.389	 -1.397
51601	 -0.214	 -0.611	  0.710	 -0.229	 -0.103	 -9.530	  0.000	 -0.001	  0.023	 28.500	 99.372	  0.162
51650	 -0.218	 -0.608	  0.714	 -0.204	  0.004	 -9.451	  0.002	 -0.001	  0.018	 28.500	 99.389	 -1.397
51700	 -0.223	 -0.594	  0.714	 -0.282	  0.020	 -9.474	  0.005	 -0.002	  0.019	 28.500	 99.372	  0.162
51750	 -0.222	 -0.609	  0.717	 -0.171	 -0.225	 -9.593	 -0.024	 -0.001	  0.019	 28.500	 99.372	  0.162
51800	 -0.222	 -0.610	  0.710	 -0.294	  0.179	 -9.366	  0.002	 -0.000	  0.019	 28.500	 99.385	 -1.031
51849	 -0.222	 -0.610	  0.713	 -0.185	 -0.127	 -9.578	  0.001	  0.001	  0.020	 28.500	 99.385	 -1.031
51899	 -0.221	 -0.610	  0.718	 -0.280	 -0.008	 -9.502	  0.003	 -0.001	  0.019	 28.500	 99.377	 -0.296
51949	 -0.218	 -0.608	  0.709	 -0.202	 -0.028	 -9.515	  0.003	 -0.001	  0.018	 28.500	 99.372	  0.162
52000	 -0.219	 -0.603	  0.714	 -0.263	 -0.080	 -9.603	  0.002	 -0.000	  0.020	 28.500	 99.372	  0.162
52049	 -0.215	 -0.609	  0.714	 -0.241	 -0.042	 -9.499	  0.003	 -0.001	  0.019	 28.500	 99.372	  0.162
52099	 -0.217	 -0.608	  0.714	 -0.237	 -0.049	 -9.491	  0.002	 -0.002	  0.020	 28.500	 99.389	 -1.397
52149	 -0.220	 -0.605	  0.714	 -0.262	 -0.032	 -9.509	  0.003	 -0.002	  0.019	 28.500	 99.385	 -1.031
52199	 -0.218	 -0.609	  0.721	 -0.200	 -0.045	 -9.477	  0.002	 -0.002	  0.019	 28.500	 99.372	  0.162
52250	 -0.220	 -0.603	  0.711	 -0.285	 -0.017	 -9.491	  0.002	 -0.002	  0.020	 28.500	 99.372	  0.162
52299	 -0.222	 -0.610	  0.715	 -0.194	 -0.047	 -9.497	  0.002	 -0.002	  0.019	 28.500	 99.389	 -1.397
52350	 -0.216	 -0.605	  0.711	 -0.307	  0.001	 -9.503	  0.002	 -0.001	  0.019	 28.500	 99.377	 -0.296
52400	 -0.217	 -0.605	  0.713	 -0.242	 -0.028	 -9.493	  0.001	 -0.001	  0.018	 28.500	 99.377	 -0.296
52450	 -0.217	 -0.611	  0.712	 -0.227	 -0.043	 -9.523	  0.003	 -0.002	  0.020	 28.500	 99.372	  0.162
52500	 -0.221	 -0.610	  0.710	 -0.277	 -0.028	 -9.479	  0.003	  0.000	  0.020	 28.500	 99.377	 -0.296
52550	 -0.220	 -0.605	  0.710	 -0.205	 -0.020	 -9.493	  0.003	 -0.001	  0.020	 28.500	 99.385	 -1.031
52600	 -0.216	 -0.609	  0.713	 -0.283	 -0.004	 -9.488	  0.002	 -0.002	  0.019	 28.500	 99.372	  0.162
52650	 -0.217	 -0.605	  0.711	 -0.194	 -0.033	 -9.517	  0.002	 -0.001	  0.019	 28.500	 99.360	  1.262
52700	 -0.216	 -0.605	  0.706	 -0.264	 -0.008	 -9.484	  0.002	 -0.001	  0.019	 28.500	 99.372	  0.162
52750	 -0.216	 -0.610	  0.710	 -0.216	 -0.035	 -9.488	  0.003	 -0.001	  0.019	 28.500	 99.372	  0.162
52800	 -0.216	 -0.606	  0.702	 -0.247	 -0.039	 -9.505	  0.002	 -0.002	  0.019	 28.500	 99.360	  1.262
52850	 -0.215	 -0.606	  0.712	 -0.230	 -0.021	 -9.477	  0.002	 -0.002	  0.020	 28.500	 99.385	 -1.031
52900	 -0.219	 -0.598	  0.710	 -0.236	 -0.055	 -9.466	  0.002	 -0.001	  0.020	 28.500	 99.372	  0.162
52950	 -0.217	 -0.608	  0.712	 -0.276	  0.002	 -9.502	  0.002	 -0.001	  0.020	 28.500	 99.372	  0.162
53000	 -0.216	 -0.606	  0.707	 -0.208	 -0.066	 -9.470	  0.002	 -0.001	  0.018	 28.500	 99.389	 -1.397
53050	 -0.215	 -0.613	  0.713	 -0.304	  0.009	 -9.501	  0.003	 -0.001	  0.019	 28.500	 99.372	  0.162
53100	 -0.217	 -0.611	  0.709	 -0.152	 -0.052	 -9.481	  0.003	 -0.001	  0.019	 28.500	 99.372	  0.162
53150	 -0.214	 -0.610	  0.706	 -0.303	 -0.016	 -9.477	  0.003	 -0.002	  0.020	 28.500	 99.372	  0.162
53200	 -0.216	 -0.599	  0.709	 -0.184	 -0.063	 -9.490	  0.002	  0.000	  0.020	 28.500	 99.372	  0.162
53250	 -0.216	 -0.613	  0.712	 -0.265	 -0.031	 -9.526	  0.003	 -0.001	  0.018	 28.500	 99.377	 -0.296
53300	 -0.216	 -0.608	  0.710	 -0.226	 -0.033	 -9.456	  0.002	 -0.003	  0.019	 28.500	 99.372	  0.162
53350	 -0.217	 -0.604	  0.711	 -0.211	 -0.064	 -9.494	  0.003	  0.000	  0.020	 28.500	 99.377	 -0.296
53400	 -0.215	 -0.605	  0.709	 -0.251	 -0.023	 -9.526	  0.003	  0.001	  0.019	 28.500	 99.377	 -0.296
53450	 -0.217	 -0.601	  0.709	 -0.216	 -0.043	 -9.540	  0.003	 -0.003	  0.020	 28.500	 99.365	  0.804
53500	 -0.217	 -0.605	  0.713	 -0.310	  0.015	 -9.529	  0.002	 -0.000	  0.019	 28.500	 99.372	  0.162
53550	 -0.218	 -0.608	  0.711	 -0.188	 -0.040	 -9.513	  0.003	 -0.000	  0.021	 28.500	 99.372	  0.162
53600	 -0.216	 -0.608	  0.714	 -0.285	 -0.001	 -9.516	  0.001	 -0.003	  0.019	 28.500	 99.372	  0.162
53650	 -0.216	 -0.604	  0.711	 -0.191	 -0.021	 -9.505	  0.001	 -0.001	  0.018	 28.500	 99.365	  0.804
53700	 -0.216	 -0.603	  0.711	 -0.275	 -0.032	 -9.510	  0.001	 -0.001	  0.017	 28.500	 99.385	 -1.031
53750	 -0.217	 -0.604	  0.710	 -0.195	 -0.035	 -9.522	  0.003	 -0.001	  0.019	 28.500	 99.389	 -1.397
53800	 -0.220	 -0.606	  0.713	 -0.246	 -0.050	 -9.514	  0.002	 -0.001	  0.018	 28.500	 99.372	  0.162
53850	 -0.218	 -0.611	  0.713	 -0.252	 -0.012	 -9.475	  0.001	 -0.001	  0.019	 28.500	 99.389	 -1.397
53900	 -0.215	 -0.606	  0.714	 -0.225	 -0.056	 -9.481	  0.002	 -0.002	  0.018	 28.500	 99.389	 -1.397
53950	 -0.214	 -0.608	  0.713	 -0.283	  0.004	 -9.495	  0.003	 -0.001	  0.019	 28.500	 99.377	 -0.296
54000	 -0.217	 -0.610	  0.710	 -0.185	 -0.034	 -9.494	  0.002	 -0.002	  0.019	 28.500	 99.365	  0.804
54050	 -0.218	 -0.608	  0.714	 -0.309	 -0.030	 -9.505	  0.002	  0.000	  0.020	 28.500	 99.377	 -0.296
54100	 -0.217	 -0.603	  0.711	 -0.189	  0.044	 -9.455	  0.014	 -0.002	  0.017	 28.500	 99.372	  0.162
54150	 -0.216	 -0.599	  0.709	 -0.225	 -0.157	 -9.529	  0.023	 -0.003	  0.014	 28.500	 99.365	  0.804
54200	 -0.208	 -0.605	  0.712	  0.218	 -0.388	 -9.367	 -0.012	 -0.003	 -0.271	 28.500	 99.377	 -0.296
54250	 -0.197	 -0.609	  0.718	 -0.249	  0.051	 -9.448	  0.006	 -0.003	 -0.472	 28.500	 99.365	  0.804
54300	 -0.174	 -0.596	  0.726	  0.082	  0.029	 -9.366	 -0.024	 -0.005	 -0.516	 28.500	 99.385	 -1.031
54350	 -0.160	 -0.605	  0.736	 -0.256	 -0.194	 -9.555	  0.001	 -0.005	 -0.586	 28.500	 99.360	  1.262
54400	 -0.140	 -0.601	  0.734	 -0.594	  0.388	 -9.526	 -0.015	 -0.003	 -0.358	 28.500	 99.360	  1.262
54450	 -0.129	 -0.601	  0.736	 -0.128	 -0.318	 -9.496	 -0.081	  0.002	  0.013	 28.500	 99.385	 -1.031
54500	 -0.125	 -0.613	  0.738	 -0.278	 -0.324	 -9.664	 -0.016	 -0.003	  0.019	 28.500	 99.377	 -0.296
54551	 -0.119	 -0.612	  0.743	 -0.202	 -0.302	 -9.657	 -0.002	 -0.001	  0.020	 28.500	 99.372	  0.162
54600	 -0.114	 -0.603	  0.753	 -0.283	 -0.105	 -9.511	 -0.001	 -0.002	  0.022	 28.500	 99.389	 -1.397
54650	 -0.119	 -0.600	  0.759	 -0.218	 -0.022	 -9.518	  0.002	 -0.002	  0.021	 28.500	 99.372	  0.162
54700	 -0.119	 -0.606	  0.757	 -0.283	  0.027	 -9.509	  0.004	 -0.001	  0.019	 28.500	 99.360	  1.262
54750	 -0.123	 -0.602	  0.758	  0.376	  0.720	 -9.519	  0.002	 -0.001	  0.034	 28.500	 99.377	 -0.296
54800	 -0.132	 -0.598	  0.749	 -0.157	 -0.243	 -9.549	  0.002	 -0.001	  0.018	 28.500	 99.372	  0.162
54850	 -0.137	 -0.592	  0.754	 -0.264	 -0.032	 -9.549	 -0.000	 -0.002	  0.020	 28.500	 99.372	  0.162
54900	 -0.138	 -0.595	  0.741	 -0.226	  0.049	 -9.460	  0.002	  0.002	  0.019	 28.500	 99.372	  0.162
54950	 -0.137	 -0.590	  0.726	 -0.302	 -0.045	 -9.542	  0.001	 -0.001	  0.019	 28.500	 99.377	 -0.296
55000	 -0.134	 -0.590	  0.736	 -0.212	 -0.014	 -9.510	  0.002	 -0.001	  0.019	 28.500	 99.385	 -1.031
55050	 -0.137	 -0.585	  0.730	 -0.363	  0.092	 -9.434	  0.007	 -0.001	  0.022	 28.500	 99.389	 -1.397
55100	 -0.126	 -0.588	  0.724	 -0.207	 -0.077	 -9.459	  0.002	 -0.000	  0.020	 28.500	 99.372	  0.162
55150	 -0.125	 -0.588	  0.727	 -0.531	  0.207	 -9.385	  0.009	 -0.002	  0.028	 28.500	 99.377	 -0.296
55200	 -0.125	 -0.583	  0.717	 -0.205	 -0.060	 -9.525	  0.003	 -0.002	  0.018	 28.500	 99.377	 -0.296
55250	 -0.126	 -0.582	  0.721	 -0.245	 -0.031	 -9.467	  0.003	 -0.002	  0.019	 28.500	 99.377	 -0.296
55300	 -0.120	 -0.586	  0.723	 -0.269	 -0.020	 -9.501	  0.003	 -0.001	  0.020	 28.500	 99.377	 -0.296
55350	 -0.120	 -0.577	  0.714	 -0.347	  0.134	 -9.498	  0.008	 -0.000	  0.211	 28.500	 99.389	 -1.397
55400	 -0.120	 -0.577	  0.714	 -0.353	  0.162	 -9.409	 -0.002	 -0.000	  0.020	 28.500	 99.377	 -0.296
55450	 -0.121	 -0.568	  0.717	 -0.181	 -0.115	 -9.561	  0.000	  0.000	  0.019	 28.500	 99.377	 -0.296
55500	 -0.119	 -0.568	  0.710	 -0.453	 -0.138	 -9.530	  0.003	 -0.001	  0.015	 28.500	 99.377	 -0.296
55550	 -0.112	 -0.567	  0.709	 -1.526	 -0.557	 -9.675	 -0.008	 -0.002	 -0.096	 28.500	 99.377	 -0.296
55600	 -0.103	 -0.563	  0.709	 -2.437	 -0.080	 -9.395	 -0.009	  0.002	  0.030	 28.500	 99.372	  0.162
55650	 -0.090	 -0.558	  0.711	 -1.475	 -0.381	 -9.579	  0.007	 -0.001	  0.263	 28.500	 99.385	 -1.031
55700	 -0.084	 -0.544	  0.706	  1.636	  0.384	 -9.865	  0.017	  0.002	  0.751	 28.500	 99.377	 -0.296
55750	 -0.090	 -0.537	  0.705	  2.220	 -0.222	 -9.536	  0.017	  0.002	  0.537	 28.500	 99.377	 -0.296
55800	 -0.092	 -0.535	  0.703	  0.317	 -0.201	 -9.443	  0.008	 -0.002	  0.087	 28.500	 99.372	  0.162
55850	 -0.094	 -0.534	  0.705	 -0.869	 -0.233	 -9.566	  0.005	 -0.001	  0.090	 28.500	 99.377	 -0.296
55900	 -0.093	 -0.537	  0.705	  0.199	 -0.075	 -9.640	 -0.007	 -0.000	  0.034	 28.500	 99.389	 -1.397
55950	 -0.087	 -0.530	  0.705	 -0.381	  0.219	 -9.391	  0.006	 -0.001	  0.118	 28.500	 99.372	  0.162
56000	 -0.087	 -0.513	  0.694	 -1.062	  0.076	 -9.318	  0.016	  0.002	  0.219	 28.500	 99.377	 -0.296
56050	 -0.090	 -0.527	  0.701	 -1.612	  0.567	 -8.783	  0.186	 -0.002	  0.435	 28.500	 99.377	 -0.296
56100	 -0.091	 -0.510	  0.706	 -1.125	 -0.726	 -9.463	  0.001	  0.005	  0.674	 28.500	 99.372	  0.162
56150	 -0.105	 -0.505	  0.701	  0.007	 -1.470	 -9.370	 -0.209	  0.428	  0.818	 28.500	 99.372	  0.162
56200	 -0.106	 -0.494	  0.697	  2.084	 -0.265	 -9.028	  0.042	 -0.160	  0.298	 28.500	 99.372	  0.162
56250	 -0.097	 -0.493	  0.687	 -0.096	  0.775	 -9.941	  0.018	 -0.075	  0.404	 28.500	 99.377	 -0.296
56300	 -0.095	 -0.495	  0.684	  1.445	  0.334	 -9.415	 -0.008	  0.002	  0.129	 28.500	 99.385	 -1.031
56350	 -0.091	 -0.488	  0.687	  1.065	  0.099	 -9.776	  0.067	 -0.167	  0.117	 28.600	 99.377	 -0.296
56400	 -0.072	 -0.476	  0.685	  0.233	  0.929	 -9.826	  0.404	 -0.404	 -0.226	 28.500	 99.372	  0.162
56450	 -0.055	 -0.428	  0.683	 -0.614	  0.493	 -9.279	  0.829	 -0.668	  0.014	 28.500	 99.377	 -0.296
56500	 -0.034	 -0.399	  0.702	 -1.763	 -1.002	 -9.788	  0.977	 -0.377	  0.119	 28.600	 99.377	 -0.296
56550	 -0.031	 -0.360	  0.697	 -2.100	 -2.620	 -11.825	  0.267	 -0.028	  0.283	 28.500	 99.377	 -0.296
56600	 -0.044	 -0.359	  0.683	 -1.829	 -1.707	 -10.025	 -0.595	  0.602	  0.367	 28.600	 99.377	 -0.296
56650	 -0.074	 -0.368	  0.643	 -0.566	 -0.586	 -10.060	 -0.834	  0.568	  0.280	 28.500	 99.389	 -1.397
56700	 -0.090	 -0.377	  0.612	  0.310	  0.585	 -9.576	 -0.708	  0.353	  0.172	 28.500	 99.377	 -0.296
56750	 -0.102	 -0.372	  0.580	 -0.382	  1.217	 -9.695	 -0.229	  0.005	  0.002	 28.500	 99.377	 -0.296
56800	 -0.101	 -0.364	  0.565	 -0.795	  0.694	 -10.467	  0.178	 -0.129	  0.128	 28.500	 99.360	  1.262
56850	 -0.106	 -0.341	  0.555	 -0.771	  0.100	 -10.431	  0.211	 -0.060	  0.243	 28.500	 99.377	 -0.296
56900	 -0.112	 -0.322	  0.525	 -1.313	  0.197	 -9.369	 -0.065	  0.095	  0.528	 28.500	 99.372	  0.162
56950	 -0.136	 -0.310	  0.507	 -0.049	 -0.801	 -10.382	 -0.220	  0.380	  0.735	 28.500	 99.365	  0.804
57000	 -0.160	 -0.311	  0.478	  0.418	 -0.158	 -9.922	 -0.545	  0.553	  0.370	 28.500	 99.377	 -0.296
57050	 -0.184	 -0.315	  0.449	  0.940	  0.995	 -8.920	 -0.640	  0.487	  0.398	 28.500	 99.377	 -0.296
57100	 -0.206	 -0.307	  0.420	  1.577	  1.236	 -8.176	 -0.006	  0.377	  0.140	 28.500	 99.377	 -0.296
57150	 -0.218	 -0.301	  0.420	  1.417	  0.909	 -8.441	  0.167	  0.181	  0.044	 28.500	 99.377	 -0.296
57200	 -0.222	 -0.287	  0.405	  1.112	  0.694	 -8.515	 -0.161	 -0.033	  0.452	 28.500	 99.377	 -0.296
57250	 -0.230	 -0.282	  0.399	  1.089	  0.647	 -8.139	  0.064	 -0.101	  0.441	 28.500	 99.377	 -0.296
57300	 -0.239	 -0.262	  0.397	  0.933	 -0.079	 -8.423	  0.059	 -0.165	  0.542	 28.500	 99.365	  0.804
57350	 -0.243	 -0.253	  0.387	  0.657	 -0.140	 -9.236	 -0.039	 -0.107	  0.285	 28.600	 99.389	 -1.397
57400	 -0.248	 -0.259	  0.372	  0.721	  0.091	 -9.121	 -0.181	 -0.132	  0.558	 28.500	 99.377	 -0.296
57451	 -0.251	 -0.252	  0.371	  0.991	 -0.171	 -9.328	 -0.369	 -0.204	  0.666	 28.500	 99.377	 -0.296
57500	 -0.261	 -0.256	  0.362	  0.591	  1.200	 -9.679	 -0.498	 -0.194	  0.595	 28.500	 99.377	 -0.296
57551	 -0.266	 -0.249	  0.351	  0.486	  1.908	 -9.541	 -0.242	 -0.088	  0.578	 28.500	 99.385	 -1.031
57600	 -0.273	 -0.232	  0.348	  0.485	  1.924	 -9.097	  0.075	 -0.208	  0.675	 28.500	 99.377	 -0.296
57650	 -0.282	 -0.231	  0.337	  0.311	  1.353	 -9.143	  0.013	  0.020	  0.567	 28.500	 99.389	 -1.397
57700	 -0.288	 -0.222	  0.335	  0.917	  1.400	 -9.364	 -0.026	  0.073	  0.507	 28.500	 99.377	 -0.296
57750	 -0.295	 -0.207	  0.333	  1.223	  1.283	 -9.053	  0.276	  0.048	  0.254	 28.500	 99.365	  0.804
57800	 -0.297	 -0.198	  0.337	  1.302	  0.910	 -8.737	  0.331	  0.087	  0.138	 28.500	 99.377	 -0.296
57850	 -0.299	 -0.175	  0.330	  2.117	  1.030	 -8.582	  0.267	  0.113	 -0.020	 28.500	 99.389	 -1.397
57900	 -0.295	 -0.170	  0.330	  1.620	  1.171	 -9.269	  0.175	 -0.114	 -0.246	 28.500	 99.377	 -0.296
57949	 -0.288	 -0.153	  0.322	  1.004	  1.772	 -9.451	  0.127	  0.035	 -0.351	 28.500	 99.365	  0.804
58000	 -0.283	 -0.155	  0.318	  1.033	  1.535	 -9.477	  0.060	  0.096	 -0.507	 28.500	 99.377	 -0.296
58051	 -0.271	 -0.144	  0.317	  1.295	  1.384	 -8.969	 -0.024	  0.094	 -0.625	 28.500	 99.377	 -0.296
58101	 -0.263	 -0.138	  0.313	  1.459	  1.168	 -8.542	 -0.168	  0.053	 -0.698	 28.500	 99.377	 -0.296
58151	 -0.250	 -0.136	  0.299	  1.781	  0.599	 -7.984	 -0.310	 -0.049	 -1.000	 28.500	 99.377	 -0.296
58201	 -0.228	 -0.137	  0.305	  1.433	  0.917	 -8.457	 -0.269	 -0.045	 -1.274	 28.500	 99.377	 -0.296
58251	 -0.205	 -0.140	  0.319	  1.263	  0.692	 -9.378	  0.149	 -0.229	 -1.646	 28.500	 99.377	 -0.296
58301	 -0.176	 -0.130	  0.320	  0.644	 -0.849	 -11.022	  0.423	 -0.537	 -1.934	 28.500	 99.372	  0.162
58351	 -0.140	 -0.119	  0.336	 -1.433	 -1.139	 -10.645	  0.283	 -0.459	 -1.864	 28.500	 99.365	  0.804
58401	 -0.112	 -0.114	  0.341	 -1.455	 -1.639	 -11.196	  0.132	  0.052	 -1.543	 28.500	 99.377	 -0.296
58451	 -0.101	 -0.110	  0.352	 -0.056	 -0.592	 -10.373	 -0.102	  0.193	 -0.977	 28.500	 99.389	 -1.397
58500	 -0.089	 -0.106	  0.358	  1.506	  0.641	 -9.490	  0.085	 -0.006	 -0.512	 28.500	 99.377	 -0.296
58550	 -0.079	 -0.106	  0.365	  0.937	  0.809	 -10.013	  0.157	 -0.327	 -0.328	 28.500	 99.377	 -0.296
58600	 -0.067	 -0.099	  0.372	  0.519	  0.687	 -9.819	  0.302	 -0.004	 -0.151	 28.500	 99.365	  0.804
