Time	 MagX	 MagY	 MagZ	 AccelX	 AccelY	 AccelZ	 Yaw	 Pitch	 Roll	 Temperature	 Pressure	 Altitude
15327	  0.757	 -0.308	  0.348	  0.209	  0.076	 -9.762	 -0.003	  0.002	 -0.000	 32.300	 99.092	 -99999.000
15377	  0.759	 -0.303	  0.349	  0.205	  0.037	 -9.751	 -0.003	  0.002	  0.001	 32.300	 99.088	 -99999.000
15427	  0.758	 -0.304	  0.348	  0.207	  0.087	 -9.786	 -0.003	  0.001	  0.001	 32.300	 99.088	 -99999.000
15477	  0.756	 -0.305	  0.349	  0.233	  0.058	 -9.735	 -0.004	  0.001	  0.001	 32.300	 99.088	 -99999.000
15527	  0.758	 -0.308	  0.345	  0.205	  0.056	 -9.755	 -0.002	  0.002	  0.001	 32.300	 99.099	 -99999.000
15577	  0.754	 -0.311	  0.348	  0.229	  0.062	 -9.747	 -0.003	  0.002	 -0.000	 32.300	 99.099	 -99999.000
15627	  0.756	 -0.309	  0.346	  0.208	  0.073	 -9.743	 -0.003	  0.002	 -0.001	 32.300	 99.088	 -99999.000
15677	  0.756	 -0.305	  0.348	  0.217	  0.073	 -9.779	 -0.003	  0.002	  0.000	 32.300	 99.088	 -99999.000
15727	  0.756	 -0.309	  0.348	  0.205	  0.054	 -9.769	 -0.003	  0.003	  0.001	 32.300	 99.099	 -99999.000
15777	  0.757	 -0.309	  0.344	  0.193	  0.063	 -9.778	 -0.003	  0.002	  0.001	 32.300	 99.099	 -99999.000
15827	  0.757	 -0.304	  0.347	  0.215	  0.046	 -9.768	 -0.003	  0.003	  0.000	 32.300	 99.088	 -99999.000
15877	  0.760	 -0.304	  0.349	  0.203	  0.059	 -9.758	 -0.003	  0.002	  0.000	 32.300	 99.099	 -99999.000
15927	  0.757	 -0.309	  0.349	  0.191	  0.049	 -9.724	 -0.003	  0.002	  0.000	 32.300	 99.076	 -99999.000
15977	  0.757	 -0.308	  0.347	  0.207	  0.085	 -9.756	 -0.002	  0.002	 -0.000	 32.300	 99.088	 -99999.000
16027	  0.757	 -0.307	  0.347	  0.189	  0.040	 -9.788	 -0.004	  0.001	  0.000	 32.300	 99.088	 -99999.000
16077	  0.757	 -0.303	  0.349	  0.229	  0.081	 -9.761	 -0.003	  0.003	  0.000	 32.300	 99.099	 -99999.000
16127	  0.755	 -0.305	  0.348	  0.200	  0.062	 -9.761	 -0.004	  0.002	 -0.000	 32.300	 99.103	 -99999.000
16177	  0.757	 -0.309	  0.348	  0.213	  0.064	 -9.758	 -0.003	  0.002	 -0.000	 32.300	 99.088	 -99999.000
16227	  0.757	 -0.307	  0.348	  0.228	  0.081	 -9.741	 -0.003	  0.003	  0.001	 32.300	 99.099	 -99999.000
16277	  0.757	 -0.309	  0.349	  0.230	  0.069	 -9.767	 -0.004	  0.003	  0.001	 32.300	 99.099	 -99999.000
16327	  0.756	 -0.307	  0.348	  0.201	  0.073	 -9.776	 -0.004	  0.002	 -0.000	 32.300	 99.088	 -99999.000
16377	  0.756	 -0.309	  0.346	  0.197	  0.070	 -9.752	 -0.004	  0.002	 -0.000	 32.300	 99.088	 -99999.000
16427	  0.758	 -0.306	  0.350	  0.218	  0.070	 -9.769	 -0.003	  0.002	  0.001	 32.300	 99.088	 -99999.000
16477	  0.756	 -0.307	  0.349	  0.220	  0.087	 -9.753	 -0.003	  0.003	  0.000	 32.300	 99.088	 -99999.000
16527	  0.758	 -0.311	  0.348	  0.215	  0.049	 -9.791	 -0.003	  0.002	  0.001	 32.300	 99.088	 -99999.000
16577	  0.757	 -0.308	  0.346	  0.205	  0.050	 -9.755	 -0.002	  0.002	  0.000	 32.300	 99.099	 -99999.000
16627	  0.758	 -0.307	  0.349	  0.204	  0.076	 -9.767	 -0.003	  0.002	  0.001	 32.300	 99.088	 -99999.000
16677	  0.758	 -0.309	  0.349	  0.200	  0.068	 -9.719	 -0.004	  0.002	  0.000	 32.300	 99.088	 -99999.000
16727	  0.757	 -0.308	  0.352	  0.211	  0.068	 -9.775	 -0.003	  0.002	  0.000	 32.300	 99.099	 -99999.000
16777	  0.758	 -0.303	  0.347	  0.179	  0.079	 -9.736	 -0.004	  0.002	  0.001	 32.300	 99.088	 -99999.000
16827	  0.757	 -0.306	  0.347	  0.192	  0.060	 -9.775	 -0.004	  0.003	 -0.001	 32.300	 99.088	 -99999.000
16877	  0.760	 -0.308	  0.349	  0.212	  0.075	 -9.761	 -0.003	  0.003	  0.000	 32.300	 99.088	 -99999.000
16927	  0.757	 -0.305	  0.348	  0.211	  0.068	 -9.761	 -0.003	  0.002	 -0.000	 32.300	 99.099	 -99999.000
16977	  0.757	 -0.308	  0.348	  0.209	  0.069	 -9.776	 -0.003	  0.002	  0.000	 32.300	 99.088	 -99999.000
17027	  0.760	 -0.309	  0.349	  0.216	  0.074	 -9.753	 -0.004	  0.002	  0.001	 32.300	 99.072	 -99999.000
17077	  0.755	 -0.309	  0.347	  0.208	  0.090	 -9.772	 -0.003	  0.003	  0.001	 32.300	 99.088	 -99999.000
17127	  0.758	 -0.309	  0.348	  0.216	  0.043	 -9.768	 -0.003	  0.003	 -0.000	 32.300	 99.088	 -99999.000
17177	  0.754	 -0.304	  0.349	  0.218	  0.051	 -9.763	 -0.003	  0.003	 -0.000	 32.300	 99.088	 -99999.000
17227	  0.757	 -0.310	  0.345	  0.202	  0.068	 -9.763	 -0.004	  0.002	  0.000	 32.300	 99.092	 -99999.000
17277	  0.757	 -0.309	  0.347	  0.222	  0.065	 -9.780	 -0.004	  0.003	 -0.000	 32.300	 99.076	 -99999.000
17327	  0.758	 -0.305	  0.350	  0.226	  0.064	 -9.736	 -0.003	  0.002	  0.001	 32.300	 99.088	 -99999.000
17377	  0.757	 -0.306	  0.349	  0.211	  0.087	 -9.745	 -0.003	  0.001	  0.000	 32.300	 99.088	 -99999.000
17427	  0.757	 -0.307	  0.345	  0.188	  0.060	 -9.781	 -0.003	  0.002	  0.000	 32.300	 99.099	 -99999.000
17477	  0.756	 -0.309	  0.348	  0.215	  0.073	 -9.771	 -0.003	  0.002	 -0.000	 32.300	 99.088	 -99999.000
17527	  0.760	 -0.310	  0.349	  0.202	  0.062	 -9.780	 -0.004	  0.003	  0.001	 32.300	 99.088	 -99999.000
17577	  0.757	 -0.305	  0.347	  0.212	  0.055	 -9.735	 -0.004	  0.002	  0.000	 32.300	 99.088	 -99999.000
17627	  0.758	 -0.307	  0.352	  0.210	  0.064	 -9.739	 -0.004	  0.002	  0.001	 32.300	 99.088	 -99999.000
17677	  0.756	 -0.306	  0.349	  0.216	  0.038	 -9.734	 -0.004	  0.003	  0.000	 32.300	 99.099	 -99999.000
17727	  0.757	 -0.309	  0.347	  0.193	  0.056	 -9.750	 -0.004	  0.002	  0.000	 32.300	 99.092	 -99999.000
17777	  0.758	 -0.304	  0.347	  0.208	  0.052	 -9.734	 -0.004	  0.003	 -0.000	 32.300	 99.092	 -99999.000
17827	  0.757	 -0.310	  0.345	  0.214	  0.059	 -9.791	 -0.004	  0.003	 -0.000	 32.300	 99.088	 -99999.000
17877	  0.758	 -0.304	  0.349	  0.209	  0.064	 -9.764	 -0.004	  0.002	  0.000	 32.300	 99.088	 -99999.000
17927	  0.760	 -0.306	  0.346	  0.221	  0.068	 -9.773	 -0.004	  0.003	  0.001	 32.300	 99.083	 -99999.000
17977	  0.757	 -0.307	  0.347	  0.216	  0.053	 -9.784	 -0.004	  0.003	 -0.000	 32.300	 99.088	 -99999.000
18027	  0.758	 -0.308	  0.348	  0.186	  0.051	 -9.726	 -0.003	  0.001	  0.000	 32.300	 99.088	 -99999.000
18077	  0.757	 -0.308	  0.348	  0.206	  0.053	 -9.747	 -0.003	  0.004	  0.001	 32.300	 99.088	 -99999.000
18127	  0.757	 -0.310	  0.346	  0.231	  0.045	 -9.759	 -0.003	  0.002	  0.000	 32.300	 99.088	 -99999.000
18177	  0.757	 -0.310	  0.346	  0.217	  0.049	 -9.743	 -0.004	  0.003	 -0.000	 32.300	 99.088	 -99999.000
18227	  0.758	 -0.310	  0.348	  0.206	  0.059	 -9.771	 -0.004	  0.003	  0.000	 32.300	 99.088	 -99999.000
18276	  0.757	 -0.310	  0.350	  0.202	  0.069	 -9.750	 -0.002	  0.002	  0.000	 32.300	 99.088	 -99999.000
18327	  0.757	 -0.308	  0.347	  0.207	  0.050	 -9.784	 -0.002	  0.002	 -0.000	 32.300	 99.076	 -99999.000
18377	  0.757	 -0.309	  0.341	  0.236	  0.068	 -9.757	 -0.003	  0.002	  0.000	 32.300	 99.088	 -99999.000
18426	  0.758	 -0.309	  0.349	  0.202	  0.057	 -9.740	 -0.003	  0.002	  0.000	 32.300	 99.103	 -99999.000
18476	  0.758	 -0.303	  0.349	  0.228	  0.068	 -9.778	 -0.003	  0.002	 -0.000	 32.300	 99.088	 -99999.000
18526	  0.756	 -0.310	  0.346	  0.214	  0.056	 -9.756	 -0.004	  0.002	  0.000	 32.300	 99.103	 -99999.000
18577	  0.757	 -0.309	  0.352	  0.220	  0.068	 -9.728	 -0.003	  0.003	 -0.000	 32.300	 99.088	 -99999.000
18627	  0.758	 -0.306	  0.349	  0.215	  0.082	 -9.756	 -0.003	  0.002	 -0.000	 32.300	 99.076	 -99999.000
18676	  0.756	 -0.311	  0.346	  0.218	  0.070	 -9.740	 -0.004	  0.003	  0.000	 32.300	 99.088	 -99999.000
18726	  0.757	 -0.308	  0.349	  0.207	  0.086	 -9.771	 -0.002	  0.001	  0.000	 32.300	 99.088	 -99999.000
18776	  0.760	 -0.307	  0.349	  0.227	  0.091	 -9.734	 -0.004	  0.003	  0.001	 32.300	 99.088	 -99999.000
18827	  0.757	 -0.312	  0.347	  0.231	  0.071	 -9.750	 -0.003	  0.001	 -0.000	 32.300	 99.076	 -99999.000
18876	  0.757	 -0.309	  0.347	  0.205	  0.070	 -9.764	 -0.003	  0.003	  0.001	 32.300	 99.088	 -99999.000
18926	  0.757	 -0.311	  0.350	  0.204	  0.056	 -9.763	 -0.003	  0.003	  0.000	 32.300	 99.088	 -99999.000
18977	  0.758	 -0.307	  0.343	  0.198	  0.065	 -9.760	 -0.005	  0.002	  0.001	 32.300	 99.099	 -99999.000
19027	  0.757	 -0.310	  0.349	  0.194	  0.061	 -9.773	 -0.004	  0.003	  0.001	 32.300	 99.088	 -99999.000
19077	  0.757	 -0.310	  0.347	  0.211	  0.069	 -9.746	 -0.003	  0.003	 -0.000	 32.300	 99.088	 -99999.000
19127	  0.757	 -0.308	  0.347	  0.201	  0.069	 -9.756	 -0.003	  0.003	 -0.001	 32.300	 99.088	 -99999.000
19177	  0.758	 -0.305	  0.349	  0.221	  0.051	 -9.779	 -0.004	  0.004	  0.000	 32.300	 99.088	 -99999.000
19226	  0.757	 -0.310	  0.347	  0.214	  0.063	 -9.772	 -0.004	  0.002	 -0.001	 32.300	 99.088	 -99999.000
19277	  0.760	 -0.310	  0.349	  0.192	  0.055	 -9.761	 -0.003	  0.002	  0.000	 32.300	 99.088	 -99999.000
19327	  0.757	 -0.306	  0.346	  0.219	  0.075	 -9.727	 -0.004	  0.001	  0.000	 32.300	 99.092	 -99999.000
19377	  0.757	 -0.308	  0.349	  0.204	  0.070	 -9.733	 -0.003	  0.002	  0.002	 32.300	 99.099	 -99999.000
19427	  0.755	 -0.307	  0.350	  0.215	  0.072	 -9.785	 -0.002	  0.001	 -0.001	 32.300	 99.103	 -99999.000
19477	  0.757	 -0.306	  0.348	  0.202	  0.059	 -9.765	 -0.004	  0.002	  0.000	 32.300	 99.088	 -99999.000
19527	  0.757	 -0.313	  0.346	  0.200	  0.072	 -9.739	 -0.004	  0.002	  0.001	 32.300	 99.099	 -99999.000
19577	  0.757	 -0.306	  0.345	  0.215	  0.037	 -9.754	 -0.003	  0.002	  0.001	 32.300	 99.099	 -99999.000
19627	  0.756	 -0.311	  0.348	  0.208	  0.055	 -9.761	 -0.003	  0.003	  0.001	 32.300	 99.083	 -99999.000
19677	  0.755	 -0.306	  0.349	  0.213	  0.054	 -9.732	 -0.003	  0.001	  0.000	 32.300	 99.088	 -99999.000
19727	  0.757	 -0.307	  0.346	  0.215	  0.071	 -9.727	 -0.003	  0.002	  0.001	 32.300	 99.076	 -99999.000
19777	  0.756	 -0.305	  0.350	  0.230	  0.056	 -9.772	 -0.004	  0.003	  0.000	 32.300	 99.088	 -99999.000
19827	  0.758	 -0.306	  0.350	  0.221	  0.039	 -9.768	 -0.003	  0.003	 -0.000	 32.300	 99.092	 -99999.000
19877	  0.757	 -0.308	  0.343	  0.213	  0.048	 -9.721	 -0.002	  0.003	  0.001	 32.300	 99.092	 -99999.000
19927	  0.757	 -0.303	  0.342	  0.211	  0.075	 -9.741	 -0.003	  0.002	 -0.001	 32.300	 99.076	 -99999.000
19977	  0.758	 -0.306	  0.349	  0.220	  0.079	 -9.721	 -0.004	  0.003	  0.000	 32.300	 99.088	 -99999.000
20027	  0.757	 -0.307	  0.348	  0.207	  0.057	 -9.735	 -0.003	  0.003	 -0.000	 32.300	 99.088	 -99999.000
20077	  0.757	 -0.304	  0.348	  0.205	  0.060	 -9.743	 -0.004	  0.001	  0.000	 32.300	 99.088	 -99999.000
20127	  0.757	 -0.308	  0.350	  0.194	  0.080	 -9.760	 -0.004	  0.002	  0.001	 32.300	 99.088	 -99999.000
20177	  0.756	 -0.306	  0.346	  0.211	  0.053	 -9.792	 -0.004	  0.002	 -0.000	 32.300	 99.099	 -99999.000
20228	  0.757	 -0.310	  0.348	  0.200	  0.067	 -9.772	 -0.003	  0.002	 -0.000	 32.300	 99.088	 -99999.000
20278	  0.755	 -0.306	  0.349	  0.209	  0.042	 -9.760	 -0.003	  0.002	  0.001	 32.300	 99.088	 -99999.000
20328	  0.757	 -0.306	  0.346	  0.223	  0.048	 -9.786	 -0.004	  0.003	  0.001	 32.300	 99.088	 -99999.000
20378	  0.757	 -0.308	  0.348	  0.220	  0.078	 -9.764	 -0.004	  0.002	  0.000	 32.300	 99.088	 -99999.000
20428	  0.758	 -0.309	  0.347	  0.203	  0.060	 -9.760	 -0.004	  0.001	  0.001	 32.300	 99.088	 -99999.000
20478	  0.758	 -0.311	  0.347	  0.211	  0.064	 -9.760	 -0.002	  0.002	 -0.001	 32.300	 99.088	 -99999.000
20528	  0.757	 -0.305	  0.347	  0.211	  0.070	 -9.766	 -0.004	  0.003	  0.000	 32.300	 99.088	 -99999.000
20578	  0.758	 -0.310	  0.350	  0.207	  0.053	 -9.774	 -0.004	  0.002	  0.000	 32.300	 99.099	 -99999.000
20627	  0.756	 -0.305	  0.347	  0.224	  0.060	 -9.740	 -0.004	  0.001	 -0.000	 32.300	 99.088	 -99999.000
20677	  0.757	 -0.310	  0.346	  0.209	  0.056	 -9.735	 -0.003	  0.003	  0.000	 32.300	 99.080	 -99999.000
20727	  0.756	 -0.302	  0.350	  0.187	  0.056	 -9.736	 -0.004	  0.003	  0.001	 32.300	 99.088	 -99999.000
20777	  0.758	 -0.308	  0.346	  0.221	  0.071	 -9.757	 -0.003	  0.002	  0.000	 32.300	 99.092	 -99999.000
20827	  0.757	 -0.311	  0.349	  0.222	  0.053	 -9.749	 -0.003	  0.002	  0.001	 32.300	 99.088	 -99999.000
20877	  0.755	 -0.308	  0.346	  0.201	  0.054	 -9.745	 -0.003	  0.002	  0.001	 32.300	 99.080	 -99999.000
20927	  0.756	 -0.310	  0.349	  0.206	  0.056	 -9.712	 -0.003	  0.003	  0.001	 32.300	 99.099	 -99999.000
20977	  0.757	 -0.311	  0.349	  0.179	  0.032	 -9.784	 -0.004	  0.002	 -0.000	 32.300	 99.099	 -99999.000
21027	  0.756	 -0.307	  0.350	  0.215	  0.081	 -9.717	 -0.004	  0.003	  0.000	 32.300	 99.088	 -99999.000
21077	  0.758	 -0.311	  0.345	  0.203	  0.077	 -9.810	 -0.004	  0.002	  0.001	 32.300	 99.088	 -99999.000
21127	  0.758	 -0.303	  0.349	  0.211	  0.073	 -9.724	 -0.004	  0.002	  0.001	 32.300	 99.088	 -99999.000
21177	  0.758	 -0.309	  0.348	  0.219	  0.079	 -9.769	 -0.003	  0.003	  0.001	 32.300	 99.088	 -99999.000
21227	  0.758	 -0.307	  0.349	  0.192	  0.050	 -9.766	 -0.003	  0.002	  0.001	 32.300	 99.099	 -99999.000
21277	  0.757	 -0.309	  0.349	  0.209	  0.061	 -9.724	 -0.004	  0.003	 -0.001	 32.300	 99.088	 -99999.000
27153	  0.753	 -0.309	  0.346	  0.222	  0.062	 -9.745	 -0.003	  0.002	  0.001	 32.300	 99.092	 -0.246
27202	  0.753	 -0.308	  0.343	  0.235	  0.083	 -9.737	 -0.004	  0.002	  0.000	 32.300	 99.092	 -0.246
27252	  0.756	 -0.308	  0.348	  0.226	  0.061	 -9.767	 -0.004	  0.001	  0.000	 32.300	 99.076	  1.205
27302	  0.753	 -0.308	  0.345	  0.189	  0.073	 -9.773	 -0.003	  0.002	  0.002	 32.300	 99.092	 -0.246
27352	  0.754	 -0.307	  0.343	  0.224	  0.071	 -9.795	 -0.003	  0.001	  0.001	 32.300	 99.099	 -0.880
27402	  0.754	 -0.305	  0.343	  0.214	  0.045	 -9.775	 -0.004	  0.003	  0.002	 32.300	 99.076	  1.205
27452	  0.756	 -0.309	  0.344	  0.236	  0.078	 -9.758	 -0.003	  0.002	  0.000	 32.300	 99.099	 -0.880
27502	  0.751	 -0.310	  0.342	  0.213	  0.064	 -9.762	 -0.002	  0.003	 -0.001	 32.300	 99.092	 -0.246
27552	  0.755	 -0.309	  0.341	  0.236	  0.055	 -9.734	 -0.004	  0.002	  0.001	 32.300	 99.092	 -0.246
27602	  0.753	 -0.312	  0.342	  0.189	  0.071	 -9.735	 -0.004	  0.002	  0.001	 32.300	 99.076	  1.205
27652	  0.753	 -0.309	  0.339	  0.226	  0.056	 -9.778	 -0.004	  0.002	  0.001	 32.300	 99.099	 -0.880
27702	  0.754	 -0.311	  0.341	  0.216	  0.087	 -9.716	 -0.003	  0.003	  0.001	 32.300	 99.088	  0.117
27752	  0.754	 -0.303	  0.343	  0.212	  0.078	 -9.783	 -0.003	  0.002	 -0.000	 32.300	 99.088	  0.117
27802	  0.754	 -0.304	  0.343	  0.241	  0.056	 -9.789	 -0.004	  0.001	 -0.000	 32.300	 99.092	 -0.246
27852	  0.754	 -0.311	  0.346	  0.187	  0.055	 -9.749	 -0.004	  0.002	  0.000	 32.300	 99.088	  0.117
27902	  0.755	 -0.309	  0.345	  0.199	  0.052	 -9.738	 -0.003	  0.003	 -0.000	 32.300	 99.099	 -0.880
27952	  0.754	 -0.307	  0.345	  0.220	  0.064	 -9.783	 -0.004	  0.002	  0.000	 32.300	 99.092	 -0.246
28002	  0.755	 -0.310	  0.343	  0.213	  0.053	 -9.777	 -0.004	  0.003	  0.001	 32.300	 99.076	  1.205
28052	  0.754	 -0.309	  0.345	  0.232	  0.050	 -9.756	 -0.003	  0.003	  0.001	 32.300	 99.092	 -0.246
28102	  0.752	 -0.311	  0.346	  0.208	  0.074	 -9.741	 -0.004	  0.003	  0.000	 32.300	 99.080	  0.842
28152	  0.754	 -0.308	  0.342	  0.228	  0.044	 -9.770	 -0.002	  0.003	  0.001	 32.300	 99.088	  0.117
28202	  0.755	 -0.312	  0.343	  0.206	  0.041	 -9.763	 -0.003	  0.002	 -0.000	 32.300	 99.088	  0.117
28252	  0.755	 -0.309	  0.345	  0.219	  0.032	 -9.746	 -0.004	  0.002	 -0.000	 32.300	 99.103	 -1.243
28302	  0.754	 -0.308	  0.345	  0.231	  0.066	 -9.757	 -0.003	  0.002	 -0.000	 32.300	 99.092	 -0.246
28352	  0.754	 -0.311	  0.342	  0.209	  0.084	 -9.750	 -0.003	  0.002	  0.001	 32.300	 99.092	 -0.246
28402	  0.754	 -0.309	  0.340	  0.218	  0.060	 -9.757	 -0.003	  0.002	  0.000	 32.300	 99.088	  0.117
28452	  0.756	 -0.311	  0.344	  0.200	  0.065	 -9.774	 -0.003	  0.002	 -0.001	 32.300	 99.076	  1.205
28502	  0.753	 -0.309	  0.345	  0.195	  0.068	 -9.742	 -0.003	  0.002	 -0.000	 32.300	 99.088	  0.117
28552	  0.755	 -0.310	  0.341	  0.219	  0.067	 -9.765	 -0.004	  0.002	  0.001	 32.300	 99.092	 -0.246
28602	  0.754	 -0.313	  0.342	  0.221	  0.063	 -9.757	 -0.004	  0.002	 -0.000	 32.300	 99.088	  0.117
28652	  0.756	 -0.307	  0.346	  0.209	  0.053	 -9.769	 -0.003	  0.001	 -0.000	 32.300	 99.088	  0.117
28702	  0.753	 -0.312	  0.341	  0.215	  0.053	 -9.787	 -0.004	  0.002	  0.001	 32.300	 99.092	 -0.246
28752	  0.753	 -0.309	  0.341	  0.236	  0.057	 -9.746	  0.001	  0.005	 -0.001	 32.300	 99.088	  0.117
28802	  0.753	 -0.308	  0.341	  0.249	  0.046	 -9.787	 -0.006	  0.001	 -0.001	 32.300	 99.092	 -0.246
28852	  0.754	 -0.306	  0.345	  0.211	  0.047	 -9.758	 -0.004	  0.002	 -0.000	 32.300	 99.092	 -0.246
28902	  0.743	 -0.286	  0.331	  0.188	  0.144	 -9.754	 -0.002	  0.003	 -0.006	 32.300	 99.088	  0.117
28952	  0.749	 -0.298	  0.337	  0.179	  0.127	 -9.744	  0.010	  0.015	  0.008	 32.300	 99.092	 -0.246
29002	  0.767	 -0.323	  0.327	  0.901	  0.504	 -10.034	 -0.074	 -0.022	  0.286	 32.300	 99.076	  1.205
29052	  0.831	 -0.375	  0.299	  0.425	 -1.650	 -11.164	  0.089	  0.060	  0.047	 32.300	 99.088	  0.117
29102	  0.826	 -0.319	  0.287	  2.794	 -2.194	 -9.867	  0.609	  0.033	 -0.728	 32.300	 99.099	 -0.880
29152	  0.735	 -0.103	  0.361	 -1.869	  2.990	 -13.415	  1.875	  1.180	 -0.258	 32.300	 99.092	 -0.246
29202	  0.653	  0.070	  0.342	 -1.421	 -3.319	 -3.415	 -1.115	 -2.685	 -1.321	 32.300	 99.092	 -0.246
29252	  0.628	  0.029	  0.351	  6.192	  2.745	 -12.812	 -4.661	  1.529	 -0.365	 32.300	 99.085	  0.389
29302	  0.587	 -0.001	  0.365	 -3.699	  4.999	 -9.897	  1.016	  0.851	  1.500	 32.300	 99.080	  0.842
29352	  0.605	  0.002	  0.344	  0.426	 -4.397	 -7.824	  0.561	 -0.919	 -0.752	 32.300	 99.092	 -0.246
29402	  0.636	  0.011	  0.338	  0.019	  2.561	 -11.818	  0.448	  0.425	  0.302	 32.300	 99.088	  0.117
29452	  0.639	 -0.005	  0.338	  0.788	 -1.154	 -10.510	  0.378	 -0.107	  0.010	 32.300	 99.088	  0.117
29502	  0.627	  0.034	  0.354	 -0.707	  0.501	 -8.508	 -0.094	 -0.857	 -0.445	 32.300	 99.092	 -0.246
29552	  0.635	  0.012	  0.323	 -0.785	  1.853	 -10.411	 -0.422	 -0.368	  0.242	 32.300	 99.080	  0.842
29602	  0.626	 -0.005	  0.334	  2.265	  0.148	 -14.168	 -0.043	  0.881	  0.077	 32.300	 99.092	 -0.246
29652	  0.577	  0.054	  0.352	 -2.496	  2.091	 -7.017	  1.162	 -0.381	  0.271	 32.300	 99.088	  0.117
29702	  0.603	  0.033	  0.299	  0.470	 -3.969	 -4.209	 -0.619	 -1.117	  0.218	 32.300	 99.092	 -0.246
29752	  0.594	  0.020	  0.366	  3.216	  0.232	 -15.213	 -1.066	  1.962	 -1.769	 32.300	 99.092	 -0.246
29803	  0.589	  0.080	  0.370	  1.010	  1.007	 -3.082	  1.707	 -2.044	  0.728	 32.300	 99.092	 -0.246
29852	  0.615	  0.088	  0.374	 -5.724	  1.604	 -5.290	 -1.114	  0.243	 -1.281	 32.300	 99.092	 -0.246
29902	  0.616	  0.086	  0.388	  3.994	 -1.269	 -18.108	  2.385	  1.148	  0.108	 32.300	 99.076	  1.205
29952	  0.624	  0.138	  0.341	 -7.830	  5.147	 -4.312	  0.095	 -2.676	  0.963	 32.300	 99.092	 -0.246
30002	  0.633	  0.033	  0.333	  5.521	 -5.576	 -15.648	 -3.291	  2.195	 -0.275	 32.300	 99.092	 -0.246
30052	  0.595	  0.078	  0.336	 -6.037	  6.624	  2.420	  2.876	 -1.977	  1.829	 32.300	 99.088	  0.117
30102	  0.638	  0.024	  0.278	  6.665	 -12.974	 -19.909	 -1.365	  1.694	 -1.260	 32.300	 99.088	  0.117
30153	  0.591	  0.086	  0.326	 -11.780	 10.645	 -1.954	  0.686	 -1.906	  1.287	 32.300	 99.103	 -1.243
30202	  0.615	  0.021	  0.284	 10.403	 -14.194	 -14.452	 -2.734	  1.601	 -1.672	 32.300	 99.088	  0.117
30252	  0.581	  0.080	  0.341	 -14.761	 16.715	 -0.711	  1.562	 -2.094	  1.073	 32.300	 99.088	  0.117
30302	  0.628	  0.013	  0.301	  8.659	 -11.581	 -10.763	 -1.059	  1.861	 -1.480	 32.300	 99.103	 -1.243
30352	  0.607	  0.026	  0.345	 -5.486	 11.074	 -10.182	  1.740	 -1.310	  1.525	 32.300	 99.088	  0.117
30403	  0.623	  0.040	  0.336	 -3.938	 -1.404	 -5.262	 -0.168	  0.202	 -1.676	 32.300	 99.092	 -0.246
30452	  0.620	  0.003	  0.345	 -2.582	  3.169	 -11.924	 -0.497	  0.235	  1.953	 32.300	 99.088	  0.117
30503	  0.610	 -0.083	  0.329	  1.971	 -2.507	 -9.138	 -0.643	  0.294	 -0.133	 32.300	 99.088	  0.117
30552	  0.593	 -0.021	  0.360	 -2.333	  2.063	 -8.768	 -0.400	  0.327	 -0.682	 32.300	 99.103	 -1.243
30603	  0.592	 -0.022	  0.364	 -0.335	  2.019	 -7.581	  0.530	 -0.433	  0.143	 32.300	 99.080	  0.842
30652	  0.619	 -0.046	  0.352	 -2.283	 -0.386	 -12.654	  0.702	 -0.021	  0.058	 32.300	 99.092	 -0.246
30702	  0.609	 -0.050	  0.368	 -0.982	  0.620	 -8.849	  0.218	  0.299	  0.008	 32.300	 99.092	 -0.246
30753	  0.601	 -0.070	  0.375	  1.159	  0.595	 -18.114	 -0.028	  0.251	  0.057	 32.300	 99.103	 -1.243
30802	  0.582	 -0.073	  0.397	 -0.216	  0.209	 -9.857	 -0.020	  0.429	  0.064	 32.300	 99.092	 -0.246
30853	  0.566	 -0.071	  0.405	  0.363	  0.101	 -9.943	  0.105	  0.196	  0.103	 32.300	 99.092	 -0.246
30903	  0.564	 -0.072	  0.412	  0.287	 -0.153	 -9.835	 -0.011	  0.116	  0.112	 32.300	 99.088	  0.117
30952	  0.561	 -0.080	  0.418	 -1.400	 -0.356	 -10.516	  0.067	  0.253	  0.108	 32.300	 99.103	 -1.243
31003	  0.560	 -0.079	  0.423	  0.081	  0.115	 -9.729	  0.013	  0.039	  0.009	 32.300	 99.092	 -0.246
31053	  0.559	 -0.080	  0.423	  0.009	 -0.036	 -9.846	  0.056	  0.130	 -0.003	 32.300	 99.092	 -0.246
31103	  0.557	 -0.072	  0.428	  0.296	  0.083	 -9.436	 -0.024	 -0.017	  0.006	 32.300	 99.076	  1.205
31153	  0.557	 -0.079	  0.427	  0.204	  0.064	 -9.720	 -0.007	  0.001	 -0.001	 32.300	 99.103	 -1.243
31203	  0.558	 -0.080	  0.433	  0.166	  0.079	 -9.742	 -0.003	  0.004	  0.001	 32.300	 99.092	 -0.246
31253	  0.557	 -0.075	  0.431	  0.163	  0.079	 -9.732	 -0.005	  0.000	  0.003	 32.300	 99.092	 -0.246
31303	  0.557	 -0.072	  0.430	  0.190	  0.110	 -9.756	 -0.003	  0.002	  0.002	 32.300	 99.092	 -0.246
31353	  0.559	 -0.071	  0.426	  0.192	  0.087	 -9.769	 -0.003	  0.003	  0.001	 32.300	 99.088	  0.117
31403	  0.562	 -0.062	  0.424	  0.177	  0.062	 -9.763	  0.002	  0.006	  0.006	 32.300	 99.103	 -1.243
31453	  0.562	 -0.069	  0.426	  0.110	  0.177	 -9.723	 -0.000	  0.004	  0.010	 32.300	 99.092	 -0.246
31503	  0.562	 -0.071	  0.431	  0.166	  0.052	 -9.771	 -0.001	  0.004	  0.005	 32.300	 99.088	  0.117
31553	  0.564	 -0.073	  0.433	  0.179	  0.107	 -9.709	  0.002	  0.007	  0.004	 32.300	 99.092	 -0.246
31603	  0.564	 -0.071	  0.433	  0.230	  0.022	 -9.782	 -0.002	  0.003	  0.003	 32.300	 99.099	 -0.880
31653	  0.563	 -0.074	  0.433	  0.209	  0.043	 -9.782	 -0.009	 -0.003	 -0.007	 32.300	 99.103	 -1.243
31703	  0.561	 -0.076	  0.435	  0.200	 -0.110	 -9.757	 -0.006	  0.002	  0.007	 32.300	 99.092	 -0.246
31753	  0.562	 -0.074	  0.431	  0.108	  0.125	 -9.725	 -0.002	  0.005	 -0.004	 32.300	 99.092	 -0.246
31803	  0.563	 -0.074	  0.431	  0.184	  0.092	 -9.699	 -0.003	  0.002	 -0.001	 32.300	 99.103	 -1.243
31853	  0.562	 -0.076	  0.431	  0.261	 -0.242	 -9.735	  0.003	  0.003	 -0.004	 32.300	 99.092	 -0.246
31903	  0.562	 -0.071	  0.435	  0.246	  0.050	 -9.656	 -0.004	 -0.004	 -0.009	 32.300	 99.088	  0.117
31953	  0.560	 -0.078	  0.430	  0.235	  0.017	 -9.741	  0.007	  0.008	 -0.000	 32.300	 99.092	 -0.246
32003	  0.559	 -0.071	  0.429	  0.235	  0.370	 -9.830	  0.026	  0.034	  0.023	 32.300	 99.088	  0.117
32053	  0.561	 -0.073	  0.433	  0.240	  0.073	 -9.786	  0.005	  0.011	  0.010	 32.300	 99.092	 -0.246
32103	  0.559	 -0.072	  0.431	  0.242	  0.027	 -9.786	  0.007	  0.013	  0.013	 32.300	 99.080	  0.842
32153	  0.559	 -0.070	  0.435	  0.178	  0.047	 -9.757	  0.003	  0.008	 -0.004	 32.300	 99.092	 -0.246
32203	  0.561	 -0.071	  0.435	  0.215	  0.165	 -9.801	  0.012	  0.019	  0.022	 32.300	 99.107	 -1.606
32253	  0.561	 -0.068	  0.431	  0.236	  0.028	 -9.723	  0.003	  0.008	  0.008	 32.300	 99.092	 -0.246
32303	  0.562	 -0.071	  0.436	  0.202	  0.030	 -9.740	  0.005	  0.010	  0.003	 32.300	 99.092	 -0.246
32353	  0.562	 -0.069	  0.430	  0.239	  0.036	 -9.738	  0.002	  0.006	  0.005	 32.300	 99.092	 -0.246
32403	  0.559	 -0.069	  0.435	  0.223	  0.012	 -9.778	 -0.003	  0.003	  0.007	 32.300	 99.092	 -0.246
32453	  0.562	 -0.072	  0.435	  0.260	  0.024	 -9.757	  0.001	  0.008	  0.008	 32.300	 99.092	 -0.246
32503	  0.562	 -0.069	  0.435	  0.224	  0.023	 -9.761	 -0.003	  0.003	  0.001	 32.300	 99.092	 -0.246
32552	  0.559	 -0.072	  0.431	  0.216	  0.008	 -9.735	 -0.004	  0.002	  0.001	 32.300	 99.103	 -1.243
32602	  0.561	 -0.073	  0.436	  0.230	  0.033	 -9.790	 -0.002	  0.004	  0.001	 32.300	 99.103	 -1.243
32652	  0.562	 -0.072	  0.435	  0.232	  0.021	 -9.769	 -0.005	  0.003	  0.003	 32.300	 99.092	 -0.246
32702	  0.562	 -0.069	  0.434	  0.237	  0.018	 -9.734	 -0.003	  0.005	  0.002	 32.300	 99.092	 -0.246
32753	  0.562	 -0.069	  0.433	  0.234	  0.025	 -9.771	 -0.002	  0.003	  0.004	 32.300	 99.103	 -1.243
32802	  0.562	 -0.065	  0.436	  0.261	  0.111	 -9.719	  0.014	  0.022	  0.008	 32.300	 99.092	 -0.246
32852	  0.561	 -0.067	  0.437	  0.203	  0.076	 -9.781	 -0.023	 -0.017	 -0.007	 32.300	 99.092	 -0.246
32902	  0.561	 -0.066	  0.433	  0.225	  0.063	 -9.738	 -0.000	  0.005	  0.003	 32.300	 99.103	 -1.243
32952	  0.562	 -0.066	  0.436	  0.233	  0.085	 -9.698	 -0.014	 -0.008	  0.025	 32.300	 99.103	 -1.243
33002	  0.562	 -0.062	  0.433	  0.254	 -0.037	 -9.730	  0.041	  0.047	 -0.008	 32.300	 99.080	  0.842
33052	  0.562	 -0.063	  0.435	  0.262	 -0.050	 -9.698	  0.003	  0.008	 -0.014	 32.300	 99.092	 -0.246
33102	  0.562	 -0.060	  0.429	  0.240	  0.028	 -9.740	  0.002	  0.008	 -0.004	 32.300	 99.088	  0.117
33152	  0.562	 -0.062	  0.437	  0.234	  0.055	 -9.752	  0.002	  0.007	 -0.019	 32.300	 99.103	 -1.243
33202	  0.560	 -0.056	  0.433	  0.254	  0.026	 -9.742	 -0.005	  0.001	 -0.001	 32.300	 99.092	 -0.246
33252	  0.562	 -0.063	  0.437	  0.226	  0.049	 -9.764	 -0.005	 -0.000	 -0.011	 32.300	 99.092	 -0.246
33302	  0.562	 -0.064	  0.435	  0.264	 -0.041	 -9.785	 -0.010	 -0.005	  0.006	 32.300	 99.103	 -1.243
33352	  0.562	 -0.061	  0.436	  0.254	  0.035	 -9.755	 -0.019	 -0.016	  0.013	 32.300	 99.092	 -0.246
33402	  0.561	 -0.063	  0.437	  0.275	  0.181	 -9.734	 -0.006	 -0.001	  0.024	 32.300	 99.080	  0.842
33452	  0.562	 -0.068	  0.430	  0.203	  0.056	 -9.754	 -0.018	 -0.014	  0.018	 32.300	 99.092	 -0.246
33502	  0.564	 -0.068	  0.431	  0.234	 -0.065	 -9.751	 -0.007	  0.000	  0.028	 32.300	 99.103	 -1.243
33552	  0.563	 -0.071	  0.428	  0.225	 -0.041	 -9.732	 -0.013	 -0.010	  0.021	 32.300	 99.092	 -0.246
33602	  0.563	 -0.071	  0.431	  0.236	  0.010	 -9.765	 -0.003	  0.003	  0.001	 32.300	 99.092	 -0.246
33652	  0.567	 -0.067	  0.430	  0.215	  0.013	 -9.755	 -0.001	  0.005	 -0.002	 32.300	 99.088	  0.117
33702	  0.565	 -0.073	  0.430	  0.203	  0.008	 -9.784	 -0.008	 -0.003	  0.001	 32.300	 99.092	 -0.246
33752	  0.565	 -0.072	  0.433	  0.225	  0.024	 -9.731	 -0.011	 -0.006	 -0.001	 32.300	 99.088	  0.117
33802	  0.567	 -0.070	  0.432	  0.222	  0.021	 -9.743	 -0.008	 -0.002	  0.002	 32.300	 99.092	 -0.246
33852	  0.565	 -0.072	  0.427	  0.177	  0.046	 -9.753	 -0.002	  0.003	  0.002	 32.300	 99.103	 -1.243
33902	  0.566	 -0.074	  0.428	  0.223	  0.032	 -9.767	 -0.008	 -0.003	  0.001	 32.300	 99.092	 -0.246
33952	  0.565	 -0.072	  0.429	  0.276	 -0.020	 -9.783	 -0.010	 -0.007	  0.000	 32.300	 99.103	 -1.243
34002	  0.568	 -0.071	  0.435	  0.170	  0.040	 -9.762	 -0.002	  0.001	 -0.006	 32.300	 99.099	 -0.880
34052	  0.567	 -0.068	  0.433	  0.203	  0.038	 -9.732	  0.001	  0.006	 -0.004	 32.300	 99.103	 -1.243
34102	  0.567	 -0.072	  0.433	  0.181	  0.046	 -9.767	  0.002	  0.007	  0.000	 32.300	 99.092	 -0.246
34152	  0.567	 -0.068	  0.433	  0.193	  0.024	 -9.785	 -0.006	 -0.001	  0.000	 32.300	 99.092	 -0.246
34202	  0.570	 -0.073	  0.433	  0.213	  0.060	 -9.726	 -0.006	 -0.000	 -0.001	 32.300	 99.092	 -0.246
34252	  0.566	 -0.072	  0.433	  0.141	  0.130	 -9.758	 -0.003	  0.012	  0.004	 32.300	 99.092	 -0.246
34302	  0.568	 -0.070	  0.432	  0.245	 -0.003	 -9.777	 -0.008	 -0.003	  0.001	 32.300	 99.080	  0.842
34352	  0.567	 -0.076	  0.431	  0.220	  0.055	 -9.766	 -0.003	  0.002	  0.001	 32.300	 99.088	  0.117
34402	  0.568	 -0.071	  0.431	  0.239	  0.040	 -9.737	 -0.000	  0.006	 -0.000	 32.300	 99.088	  0.117
34452	  0.567	 -0.071	  0.430	  0.195	  0.024	 -9.762	 -0.002	  0.003	 -0.001	 32.300	 99.088	  0.117
34502	  0.567	 -0.074	  0.432	  0.224	  0.018	 -9.796	 -0.006	  0.000	  0.001	 32.300	 99.103	 -1.243
34552	  0.563	 -0.072	  0.429	  0.213	  0.010	 -9.768	 -0.006	  0.001	  0.000	 32.300	 99.099	 -0.880
34602	  0.564	 -0.077	  0.431	  0.218	  0.013	 -9.787	 -0.002	  0.004	 -0.001	 32.300	 99.092	 -0.246
34652	  0.568	 -0.072	  0.433	  0.232	  0.023	 -9.762	 -0.004	  0.000	  0.000	 32.300	 99.092	 -0.246
34702	  0.565	 -0.076	  0.434	  0.229	  0.012	 -9.760	 -0.005	  0.001	 -0.001	 32.300	 99.092	 -0.246
34752	  0.567	 -0.072	  0.434	  0.218	  0.030	 -9.757	 -0.003	  0.003	  0.000	 32.300	 99.088	  0.117
34802	  0.566	 -0.072	  0.433	  0.212	  0.035	 -9.791	 -0.006	  0.000	  0.001	 32.300	 99.096	 -0.608
34852	  0.567	 -0.075	  0.429	  0.232	  0.036	 -9.747	 -0.004	  0.002	 -0.001	 32.300	 99.092	 -0.246
34902	  0.567	 -0.071	  0.429	  0.201	  0.047	 -9.787	 -0.005	 -0.002	  0.000	 32.300	 99.088	  0.117
34952	  0.568	 -0.075	  0.431	  0.216	  0.015	 -9.739	 -0.006	 -0.000	 -0.000	 32.300	 99.103	 -1.243
35002	  0.566	 -0.074	  0.429	  0.218	  0.056	 -9.736	 -0.004	  0.002	 -0.002	 32.300	 99.092	 -0.246
35052	  0.566	 -0.074	  0.433	  0.204	  0.039	 -9.778	 -0.007	 -0.002	 -0.002	 32.300	 99.107	 -1.606
35102	  0.566	 -0.072	  0.430	  0.187	 -0.049	 -9.717	 -0.018	 -0.016	 -0.049	 32.300	 99.092	 -0.246
35152	  0.569	 -0.069	  0.432	  0.174	  0.091	 -9.767	 -0.007	 -0.002	 -0.046	 32.300	 99.088	  0.117
35202	  0.565	 -0.068	  0.430	  0.201	  0.038	 -9.753	 -0.004	  0.003	 -0.033	 32.300	 99.092	 -0.246
35252	  0.567	 -0.060	  0.434	  0.224	 -0.082	 -9.791	 -0.002	  0.007	 -0.061	 32.300	 99.092	 -0.246
35302	  0.567	 -0.059	  0.434	  0.177	  0.162	 -9.703	 -0.001	  0.004	 -0.091	 32.300	 99.080	  0.842
35352	  0.567	 -0.052	  0.435	  0.188	  0.127	 -9.700	 -0.008	 -0.004	 -0.088	 32.300	 99.092	 -0.246
35402	  0.567	 -0.054	  0.435	  0.187	  0.071	 -9.757	 -0.004	  0.002	 -0.029	 32.300	 99.092	 -0.246
35452	  0.566	 -0.049	  0.437	  0.205	  0.051	 -9.775	 -0.004	  0.003	 -0.020	 32.300	 99.092	 -0.246
35502	  0.569	 -0.047	  0.440	  0.160	  0.074	 -9.725	 -0.004	  0.003	 -0.025	 32.300	 99.088	  0.117
35552	  0.569	 -0.048	  0.440	  0.281	 -0.001	 -9.661	 -0.009	 -0.003	 -0.084	 32.300	 99.092	 -0.246
35602	  0.566	 -0.044	  0.443	  0.137	  0.077	 -9.754	 -0.002	  0.006	 -0.071	 32.300	 99.092	 -0.246
35652	  0.569	 -0.038	  0.444	  0.133	  0.129	 -9.776	 -0.003	  0.004	 -0.042	 32.300	 99.092	 -0.246
35703	  0.567	 -0.039	  0.444	  0.192	  0.023	 -9.767	 -0.002	  0.003	 -0.035	 32.300	 99.103	 -1.243
35752	  0.568	 -0.035	  0.446	  0.282	 -0.035	 -9.798	 -0.006	 -0.003	 -0.094	 32.300	 99.092	 -0.246
35802	  0.570	 -0.029	  0.448	  0.201	  0.077	 -9.766	 -0.008	 -0.009	 -0.127	 32.300	 99.092	 -0.246
35852	  0.585	 -0.086	  0.436	  1.288	 -3.530	 -9.885	 -0.050	 -0.093	  0.328	 32.300	 99.080	  0.842
35902	  0.591	 -0.102	  0.429	  0.243	 -0.949	 -9.936	 -0.013	 -0.021	  0.101	 32.300	 99.092	 -0.246
35952	  0.592	 -0.101	  0.437	  0.053	  0.041	 -9.903	  0.047	  0.058	 -0.025	 32.300	 99.092	 -0.246
36002	  0.586	 -0.096	  0.433	  0.347	  0.092	 -9.653	  0.023	  0.034	 -0.103	 32.300	 99.092	 -0.246
36053	  0.584	 -0.094	  0.441	  0.323	  0.069	 -9.585	  0.005	  0.012	 -0.009	 32.300	 99.092	 -0.246
36102	  0.584	 -0.087	  0.439	  0.235	 -0.012	 -9.734	 -0.001	  0.004	 -0.008	 32.300	 99.080	  0.842
36153	  0.586	 -0.091	  0.441	  0.246	 -0.026	 -9.760	 -0.016	 -0.005	 -0.014	 32.300	 99.092	 -0.246
36202	  0.586	 -0.091	  0.441	  0.241	 -0.072	 -9.742	 -0.003	  0.005	 -0.009	 32.300	 99.092	 -0.246
36252	  0.584	 -0.086	  0.440	  0.053	 -0.677	 -10.067	 -0.043	 -0.029	  0.018	 32.300	 99.092	 -0.246
36303	  0.582	 -0.086	  0.439	  0.273	  0.094	 -9.669	  0.009	  0.015	 -0.023	 32.300	 99.092	 -0.246
36352	  0.582	 -0.082	  0.437	  0.262	 -0.007	 -9.761	 -0.009	 -0.003	 -0.002	 32.300	 99.092	 -0.246
36403	  0.585	 -0.088	  0.441	  0.259	 -0.028	 -9.752	 -0.005	  0.000	  0.002	 32.300	 99.092	 -0.246
36452	  0.583	 -0.083	  0.442	  0.259	 -0.057	 -9.829	 -0.003	  0.004	  0.001	 32.300	 99.092	 -0.246
36502	  0.583	 -0.083	  0.439	  0.298	 -0.288	 -9.996	  0.080	  0.060	 -0.024	 32.300	 99.103	 -1.243
36553	  0.583	 -0.081	  0.446	  0.324	 -0.037	 -9.702	 -0.004	  0.002	  0.016	 32.300	 99.103	 -1.243
36603	  0.586	 -0.081	  0.439	  0.319	 -0.298	 -9.711	 -0.056	 -0.047	  0.023	 32.300	 99.080	  0.842
36653	  0.586	 -0.083	  0.440	  0.248	 -0.011	 -9.766	 -0.018	 -0.013	  0.142	 32.300	 99.088	  0.117
36703	  0.587	 -0.086	  0.441	  0.176	  0.236	 -9.698	  0.022	  0.026	 -0.001	 32.300	 99.092	 -0.246
36753	  0.586	 -0.086	  0.444	  0.248	 -0.049	 -9.822	  0.029	  0.031	 -0.023	 32.300	 99.092	 -0.246
36803	  0.583	 -0.080	  0.444	  0.238	  0.093	 -9.678	 -0.032	 -0.014	 -0.011	 32.300	 99.092	 -0.246
36853	  0.588	 -0.084	  0.446	  0.226	 -0.286	 -9.712	 -0.000	 -0.002	 -0.031	 32.300	 99.080	  0.842
36903	  0.585	 -0.077	  0.442	  0.236	  0.216	 -9.764	  0.017	  0.024	 -0.014	 32.300	 99.092	 -0.246
36953	  0.585	 -0.079	  0.443	  0.327	 -0.098	 -9.743	 -0.004	  0.003	 -0.002	 32.300	 99.092	 -0.246
37003	  0.584	 -0.075	  0.445	  0.290	 -0.075	 -9.775	  0.009	  0.008	 -0.005	 32.300	 99.092	 -0.246
37052	  0.585	 -0.076	  0.444	  0.249	 -0.092	 -9.839	 -0.009	 -0.002	 -0.007	 32.300	 99.092	 -0.246
37103	  0.583	 -0.074	  0.447	  0.299	  0.301	 -9.621	  0.086	  0.072	 -0.039	 32.300	 99.092	 -0.246
37152	  0.581	 -0.070	  0.446	  0.264	 -0.458	 -9.750	  0.023	  0.021	 -0.124	 32.300	 99.092	 -0.246
37202	  0.580	 -0.054	  0.450	  0.288	 -0.806	 -9.731	 -0.010	 -0.005	 -0.265	 32.300	 99.103	 -1.243
37252	  0.580	 -0.038	  0.459	  0.197	  1.321	 -9.985	 -0.012	 -0.004	 -0.171	 32.300	 99.092	 -0.246
37302	  0.579	 -0.036	  0.453	  0.700	 -0.320	 -9.832	  0.087	  0.081	  0.038	 32.300	 99.103	 -1.243
37352	  0.582	 -0.028	  0.464	  0.326	 -0.221	 -9.667	 -0.029	 -0.003	 -0.002	 32.300	 99.080	  0.842
37402	  0.592	 -0.058	  0.454	 -2.525	 -4.382	 -9.949	  0.856	  0.697	  0.333	 32.300	 99.092	 -0.246
37452	  0.591	 -0.054	  0.462	  0.505	 -0.278	 -9.602	 -0.161	 -0.126	  0.054	 32.300	 99.092	 -0.246
37502	  0.594	 -0.067	  0.453	  0.406	 -0.243	 -9.774	  0.032	  0.027	  0.120	 32.300	 99.103	 -1.243
37552	  0.598	 -0.061	  0.454	  0.095	 -0.080	 -9.893	  0.033	  0.065	 -0.049	 32.300	 99.092	 -0.246
37603	  0.594	 -0.065	  0.451	  0.383	 -0.223	 -9.690	  0.045	  0.049	 -0.060	 32.300	 99.092	 -0.246
37653	  0.594	 -0.053	  0.455	  0.178	  0.320	 -9.589	 -0.070	 -0.043	 -0.018	 32.300	 99.103	 -1.243
37703	  0.592	 -0.061	  0.460	  0.286	 -0.082	 -9.774	  0.014	  0.012	  0.005	 32.300	 99.103	 -1.243
37753	  0.594	 -0.061	  0.456	  0.406	 -0.201	 -9.660	 -0.019	 -0.000	  0.014	 32.300	 99.080	  0.842
37803	  0.591	 -0.060	  0.455	  0.274	  0.040	 -9.715	 -0.032	 -0.031	 -0.011	 32.300	 99.092	 -0.246
37853	  0.592	 -0.063	  0.450	  0.242	  0.004	 -9.694	 -0.057	 -0.056	 -0.004	 32.300	 99.092	 -0.246
37903	  0.592	 -0.068	  0.446	  0.233	 -0.028	 -9.702	 -0.081	 -0.081	  0.021	 32.300	 99.092	 -0.246
37952	  0.592	 -0.068	  0.443	  0.206	  0.061	 -9.758	 -0.010	  0.004	  0.001	 32.300	 99.092	 -0.246
38002	  0.593	 -0.069	  0.445	  0.178	  0.074	 -9.753	 -0.001	  0.002	 -0.000	 32.300	 99.092	 -0.246
38052	  0.593	 -0.062	  0.445	  0.181	  0.051	 -9.756	  0.000	 -0.002	 -0.001	 32.300	 99.080	  0.842
38102	  0.595	 -0.072	  0.448	  0.194	  0.035	 -9.708	  0.004	  0.003	 -0.001	 32.300	 99.080	  0.842
38152	  0.592	 -0.064	  0.449	  0.226	  0.024	 -9.764	 -0.005	  0.005	  0.001	 32.300	 99.092	 -0.246
38202	  0.594	 -0.072	  0.448	  0.297	 -0.003	 -9.449	  0.003	  0.009	  0.002	 32.300	 99.103	 -1.243
38252	  0.594	 -0.069	  0.444	  0.220	  0.067	 -9.665	 -0.006	 -0.001	 -0.003	 32.300	 99.103	 -1.243
38302	  0.590	 -0.072	  0.449	  0.191	  0.059	 -9.725	 -0.006	  0.006	 -0.000	 32.300	 99.092	 -0.246
38352	  0.591	 -0.071	  0.444	  0.229	  0.053	 -9.770	 -0.004	 -0.003	  0.001	 32.300	 99.092	 -0.246
38402	  0.590	 -0.069	  0.444	  0.198	  0.083	 -9.792	 -0.002	  0.005	 -0.001	 32.300	 99.080	  0.842
38452	  0.592	 -0.070	  0.442	  0.206	  0.057	 -9.714	 -0.003	  0.003	  0.000	 32.300	 99.092	 -0.246
38502	  0.592	 -0.069	  0.446	  0.208	  0.079	 -9.766	 -0.004	  0.002	  0.001	 32.300	 99.092	 -0.246
38552	  0.592	 -0.063	  0.446	  0.190	  0.076	 -9.779	 -0.002	  0.002	  0.000	 32.300	 99.088	  0.117
38602	  0.591	 -0.067	  0.443	  0.190	  0.052	 -9.772	 -0.003	  0.003	 -0.000	 32.300	 99.096	 -0.608
38652	  0.594	 -0.066	  0.449	  0.176	  0.057	 -9.740	 -0.004	  0.003	  0.001	 32.300	 99.092	 -0.246
38702	  0.592	 -0.071	  0.445	  0.175	  0.062	 -9.754	 -0.003	  0.003	  0.000	 32.300	 99.092	 -0.246
38752	  0.594	 -0.068	  0.447	  0.152	  0.051	 -9.787	 -0.003	  0.002	 -0.001	 32.300	 99.092	 -0.246
38802	  0.591	 -0.071	  0.445	  0.185	  0.044	 -9.789	 -0.003	  0.001	 -0.000	 32.300	 99.080	  0.842
38852	  0.593	 -0.066	  0.446	  0.149	  0.061	 -9.785	 -0.003	  0.003	  0.000	 32.300	 99.092	 -0.246
38902	  0.591	 -0.066	  0.445	  0.169	  0.084	 -9.737	 -0.003	  0.003	  0.000	 32.300	 99.092	 -0.246
38952	  0.593	 -0.069	  0.441	  0.178	  0.080	 -9.775	 -0.003	  0.001	  0.000	 32.300	 99.080	  0.842
39002	  0.590	 -0.071	  0.447	  0.187	  0.086	 -9.739	 -0.003	  0.002	 -0.000	 32.300	 99.080	  0.842
39052	  0.594	 -0.070	  0.445	  0.189	  0.064	 -9.758	 -0.005	  0.003	  0.000	 32.300	 99.092	 -0.246
39102	  0.590	 -0.064	  0.446	  0.189	  0.057	 -9.736	 -0.004	  0.003	  0.000	 32.300	 99.096	 -0.608
39152	  0.591	 -0.065	  0.447	  0.179	  0.073	 -9.765	 -0.003	  0.004	 -0.000	 32.300	 99.080	  0.842
39202	  0.594	 -0.066	  0.444	  0.179	  0.064	 -9.745	 -0.003	  0.000	 -0.001	 32.300	 99.092	 -0.246
39252	  0.592	 -0.068	  0.443	  0.167	  0.063	 -9.739	 -0.003	  0.001	 -0.000	 32.300	 99.080	  0.842
39302	  0.592	 -0.065	  0.447	  0.206	  0.057	 -9.746	 -0.003	  0.002	 -0.001	 32.300	 99.080	  0.842
39352	  0.593	 -0.064	  0.444	  0.194	  0.077	 -9.766	 -0.002	  0.002	  0.000	 32.300	 99.092	 -0.246
39402	  0.591	 -0.066	  0.447	  0.178	  0.048	 -9.746	 -0.003	  0.002	  0.001	 32.300	 99.096	 -0.608
39452	  0.591	 -0.069	  0.441	  0.176	  0.049	 -9.780	 -0.004	  0.003	 -0.001	 32.300	 99.092	 -0.246
39502	  0.593	 -0.065	  0.446	  0.188	  0.062	 -9.761	 -0.003	  0.002	 -0.000	 32.300	 99.092	 -0.246
39552	  0.593	 -0.064	  0.446	  0.185	  0.051	 -9.755	 -0.002	  0.002	  0.001	 32.300	 99.080	  0.842
39602	  0.596	 -0.071	  0.442	  0.202	  0.054	 -9.753	 -0.003	  0.001	  0.001	 32.300	 99.080	  0.842
39652	  0.596	 -0.069	  0.444	  0.191	  0.076	 -9.753	 -0.004	  0.003	 -0.000	 32.300	 99.092	 -0.246
39702	  0.593	 -0.071	  0.445	  0.172	  0.053	 -9.764	 -0.004	  0.003	  0.001	 32.300	 99.080	  0.842
39752	  0.594	 -0.066	  0.443	  0.215	  0.043	 -9.781	 -0.003	  0.002	 -0.000	 32.300	 99.092	 -0.246
39802	  0.594	 -0.067	  0.443	  0.192	  0.049	 -9.782	 -0.003	  0.003	  0.000	 32.300	 99.092	 -0.246
39852	  0.592	 -0.066	  0.444	  0.203	  0.055	 -9.728	 -0.003	  0.003	 -0.000	 32.300	 99.092	 -0.246
39902	  0.594	 -0.068	  0.442	  0.200	  0.049	 -9.737	 -0.003	  0.003	  0.001	 32.300	 99.092	 -0.246
39952	  0.593	 -0.071	  0.445	  0.190	  0.077	 -9.738	 -0.004	  0.001	 -0.000	 32.300	 99.080	  0.842
40002	  0.594	 -0.065	  0.445	  0.174	  0.058	 -9.737	 -0.003	  0.002	  0.001	 32.300	 99.092	 -0.246
40052	  0.591	 -0.069	  0.442	  0.164	  0.055	 -9.757	 -0.003	  0.002	 -0.000	 32.300	 99.092	 -0.246
40102	  0.593	 -0.068	  0.448	  0.181	  0.077	 -9.777	 -0.003	  0.002	 -0.000	 32.300	 99.096	 -0.608
40152	  0.593	 -0.069	  0.444	  0.189	  0.085	 -9.754	 -0.002	  0.002	  0.000	 32.300	 99.103	 -1.243
40202	  0.592	 -0.069	  0.448	  0.171	  0.054	 -9.771	 -0.002	  0.002	  0.001	 32.300	 99.080	  0.842
40252	  0.591	 -0.064	  0.443	  0.196	  0.079	 -9.754	 -0.004	  0.002	 -0.000	 32.300	 99.092	 -0.246
40302	  0.591	 -0.069	  0.447	  0.150	  0.068	 -9.756	 -0.003	  0.003	  0.000	 32.300	 99.092	 -0.246
40352	  0.594	 -0.069	  0.445	  0.204	  0.055	 -9.765	 -0.004	  0.003	 -0.000	 32.300	 99.080	  0.842
40402	  0.591	 -0.065	  0.447	  0.148	  0.085	 -9.734	 -0.002	  0.003	  0.001	 32.300	 99.088	  0.117
40452	  0.591	 -0.065	  0.443	  0.176	  0.059	 -9.743	 -0.004	  0.003	  0.000	 32.300	 99.092	 -0.246
40502	  0.592	 -0.071	  0.445	  0.178	  0.064	 -9.762	 -0.003	  0.002	  0.001	 32.300	 99.092	 -0.246
40552	  0.591	 -0.067	  0.441	  0.168	  0.071	 -9.771	 -0.004	  0.002	  0.001	 32.300	 99.080	  0.842
40602	  0.591	 -0.063	  0.445	  0.176	  0.071	 -9.760	 -0.003	  0.003	  0.001	 32.300	 99.092	 -0.246
40652	  0.592	 -0.061	  0.444	  0.201	  0.052	 -9.762	 -0.004	  0.002	  0.001	 32.300	 99.085	  0.389
40702	  0.592	 -0.068	  0.444	  0.170	  0.070	 -9.798	 -0.003	  0.003	  0.000	 32.300	 99.092	 -0.246
40752	  0.590	 -0.067	  0.442	  0.179	  0.056	 -9.778	 -0.003	  0.003	  0.000	 32.300	 99.103	 -1.243
40802	  0.594	 -0.069	  0.444	  0.182	  0.049	 -9.768	 -0.004	  0.002	 -0.001	 32.300	 99.092	 -0.246
40852	  0.592	 -0.071	  0.444	  0.167	  0.068	 -9.770	 -0.003	  0.002	  0.001	 32.300	 99.096	 -0.608
40902	  0.593	 -0.066	  0.445	  0.174	  0.062	 -9.780	 -0.003	  0.002	  0.001	 32.300	 99.092	 -0.246
40952	  0.591	 -0.066	  0.442	  0.164	  0.059	 -9.765	 -0.003	  0.002	  0.001	 32.300	 99.096	 -0.608
41002	  0.593	 -0.065	  0.444	  0.155	  0.063	 -9.754	 -0.003	  0.002	  0.001	 32.300	 99.085	  0.389
41052	  0.592	 -0.069	  0.442	  0.214	  0.069	 -9.747	 -0.003	  0.002	  0.001	 32.300	 99.092	 -0.246
41102	  0.591	 -0.067	  0.444	  0.190	  0.090	 -9.769	 -0.004	  0.002	  0.001	 32.300	 99.092	 -0.246
41152	  0.593	 -0.066	  0.443	  0.185	  0.064	 -9.721	 -0.004	  0.003	 -0.001	 32.300	 99.092	 -0.246
41202	  0.591	 -0.068	  0.444	  0.165	  0.046	 -9.722	 -0.004	  0.002	 -0.000	 32.300	 99.103	 -1.243
41252	  0.592	 -0.070	  0.446	  0.153	  0.046	 -9.794	 -0.004	  0.000	  0.000	 32.300	 99.092	 -0.246
41302	  0.594	 -0.071	  0.441	  0.153	  0.079	 -9.751	 -0.003	  0.002	  0.001	 32.300	 99.107	 -1.606
41352	  0.591	 -0.071	  0.445	  0.187	  0.046	 -9.762	 -0.003	  0.002	 -0.000	 32.300	 99.092	 -0.246
41402	  0.594	 -0.067	  0.447	  0.176	  0.070	 -9.753	 -0.003	  0.001	 -0.000	 32.300	 99.092	 -0.246
41452	  0.593	 -0.068	  0.445	  0.176	  0.078	 -9.780	 -0.005	  0.003	  0.000	 32.300	 99.096	 -0.608
41503	  0.593	 -0.074	  0.442	  0.179	  0.074	 -9.758	 -0.003	  0.003	  0.001	 32.300	 99.103	 -1.243
41552	  0.593	 -0.068	  0.443	  0.151	  0.078	 -9.749	 -0.004	  0.002	  0.000	 32.300	 99.096	 -0.608
41602	  0.592	 -0.070	  0.444	  0.172	  0.078	 -9.790	 -0.003	  0.003	 -0.001	 32.300	 99.092	 -0.246
41652	  0.591	 -0.069	  0.441	  0.184	  0.034	 -9.755	 -0.003	  0.002	 -0.001	 32.300	 99.103	 -1.243
41702	  0.591	 -0.073	  0.437	  0.182	  0.052	 -9.777	 -0.003	  0.002	  0.000	 32.300	 99.092	 -0.246
41752	  0.594	 -0.069	  0.445	  0.201	  0.062	 -9.754	 -0.003	  0.003	  0.000	 32.300	 99.096	 -0.608
41802	  0.591	 -0.069	  0.441	  0.208	  0.049	 -9.775	 -0.003	  0.002	 -0.001	 32.300	 99.092	 -0.246
41853	  0.592	 -0.070	  0.442	  0.197	  0.075	 -9.739	 -0.003	  0.003	 -0.000	 32.300	 99.080	  0.842
41902	  0.594	 -0.061	  0.445	  0.181	  0.062	 -9.766	 -0.004	  0.002	  0.000	 32.300	 99.080	  0.842
41952	  0.591	 -0.068	  0.444	  0.196	  0.073	 -9.739	 -0.004	  0.002	  0.001	 32.300	 99.103	 -1.243
42002	  0.594	 -0.068	  0.443	  0.177	  0.058	 -9.731	 -0.004	  0.002	  0.001	 32.300	 99.092	 -0.246
42052	  0.592	 -0.068	  0.445	  0.211	  0.066	 -9.761	 -0.003	  0.002	 -0.001	 32.300	 99.092	 -0.246
42103	  0.594	 -0.064	  0.451	  0.184	  0.081	 -9.757	 -0.003	  0.003	  0.000	 32.300	 99.092	 -0.246
42152	  0.590	 -0.070	  0.443	  0.156	  0.081	 -9.773	 -0.003	  0.003	  0.000	 32.300	 99.092	 -0.246
42203	  0.593	 -0.064	  0.449	  0.173	  0.088	 -9.724	 -0.002	  0.004	  0.000	 32.300	 99.096	 -0.608
42253	  0.592	 -0.066	  0.442	  0.176	  0.055	 -9.750	 -0.003	  0.000	  0.001	 32.300	 99.080	  0.842
42303	  0.593	 -0.071	  0.445	  0.183	  0.056	 -9.808	 -0.003	  0.002	 -0.002	 32.300	 99.092	 -0.246
42353	  0.592	 -0.069	  0.443	  0.169	  0.066	 -9.758	 -0.004	  0.001	  0.001	 32.300	 99.092	 -0.246
42403	  0.595	 -0.071	  0.443	  0.209	  0.041	 -9.767	 -0.002	  0.004	 -0.003	 32.300	 99.092	 -0.246
42453	  0.591	 -0.068	  0.443	  0.162	  0.139	 -9.711	 -0.001	  0.004	  0.002	 32.300	 99.092	 -0.246
42503	  0.592	 -0.069	  0.444	  0.167	  0.056	 -9.802	 -0.002	  0.006	 -0.001	 32.300	 99.092	 -0.246
42553	  0.592	 -0.070	  0.443	  0.168	  0.053	 -9.740	 -0.003	  0.003	  0.001	 32.300	 99.096	 -0.608
42603	  0.593	 -0.066	  0.445	  0.197	  0.076	 -9.730	 -0.004	  0.002	  0.000	 32.300	 99.092	 -0.246
42653	  0.591	 -0.070	  0.445	  0.191	  0.082	 -9.775	 -0.003	  0.002	 -0.000	 32.300	 99.096	 -0.608
42703	  0.593	 -0.067	  0.443	  0.179	  0.053	 -9.740	 -0.003	  0.003	  0.000	 32.300	 99.092	 -0.246
42753	  0.594	 -0.069	  0.445	  0.186	  0.073	 -9.755	 -0.004	  0.001	  0.001	 32.300	 99.092	 -0.246
42803	  0.594	 -0.070	  0.445	  0.207	  0.051	 -9.762	 -0.004	  0.002	  0.000	 32.300	 99.096	 -0.608
42853	  0.592	 -0.069	  0.444	  0.195	  0.066	 -9.784	 -0.002	  0.003	 -0.000	 32.300	 99.085	  0.389
42903	  0.592	 -0.068	  0.441	  0.187	  0.042	 -9.769	 -0.003	  0.004	  0.001	 32.300	 99.103	 -1.243
42953	  0.591	 -0.066	  0.442	  0.193	  0.077	 -9.799	 -0.003	  0.002	  0.001	 32.300	 99.096	 -0.608
43003	  0.590	 -0.067	  0.447	  0.200	  0.041	 -9.684	 -0.005	 -0.002	 -0.000	 32.300	 99.085	  0.389
43053	  0.590	 -0.070	  0.443	  0.186	  0.050	 -9.725	 -0.003	  0.001	 -0.000	 32.300	 99.096	 -0.608
43103	  0.590	 -0.069	  0.444	  0.214	  0.019	 -9.777	 -0.002	  0.006	 -0.002	 32.300	 99.092	 -0.246
43153	  0.591	 -0.071	  0.441	  0.201	  0.060	 -9.768	 -0.003	  0.003	  0.001	 32.300	 99.092	 -0.246
43203	  0.592	 -0.068	  0.443	  0.164	  0.079	 -9.731	 -0.002	  0.003	 -0.000	 32.300	 99.092	 -0.246
43253	  0.592	 -0.070	  0.440	  0.165	  0.080	 -9.694	 -0.005	  0.001	  0.003	 32.300	 99.096	 -0.608
43303	  0.592	 -0.069	  0.445	  0.181	  0.096	 -9.701	 -0.003	  0.001	  0.002	 32.300	 99.103	 -1.243
43353	  0.593	 -0.067	  0.443	  0.180	  0.063	 -9.772	 -0.001	  0.006	  0.001	 32.300	 99.092	 -0.246
43403	  0.590	 -0.069	  0.445	  0.300	  0.191	 -9.769	  0.081	  0.099	  0.004	 32.300	 99.103	 -1.243
43453	  0.588	 -0.074	  0.449	  0.349	 -0.122	 -9.448	  0.306	  0.260	  0.329	 32.300	 99.103	 -1.243
43503	  0.579	 -0.067	  0.457	  0.561	 -0.320	 -9.811	  0.550	  0.446	  0.442	 32.300	 99.092	 -0.246
43553	  0.569	 -0.075	  0.465	  0.562	  0.032	 -9.313	  0.321	  0.276	  0.335	 32.300	 99.085	  0.389
43603	  0.570	 -0.092	  0.469	  0.762	 -0.886	 -9.759	  0.064	  0.092	  0.517	 32.300	 99.092	 -0.246
43653	  0.570	 -0.093	  0.472	  0.715	 -0.770	 -9.813	  0.281	 -0.063	 -0.050	 32.300	 99.092	 -0.246
43703	  0.564	 -0.079	  0.476	  1.083	  0.187	 -9.571	  0.183	  0.155	  0.151	 32.300	 99.096	 -0.608
43753	  0.558	 -0.092	  0.481	  1.352	 -0.747	 -9.465	 -0.063	  0.045	  0.563	 32.300	 99.092	 -0.246
43803	  0.567	 -0.105	  0.469	  1.090	 -1.570	 -9.784	 -0.180	 -0.432	  0.573	 32.300	 99.080	  0.842
43853	  0.575	 -0.133	  0.456	  0.421	 -0.912	 -9.617	 -0.066	 -0.319	  0.849	 32.300	 99.096	 -0.608
43903	  0.583	 -0.141	  0.442	  0.856	 -1.527	 -9.818	  0.272	 -0.142	  0.467	 32.300	 99.096	 -0.608
43953	  0.589	 -0.138	  0.449	 -0.430	 -1.090	 -9.961	  0.546	  0.270	  0.412	 32.300	 99.092	 -0.246
44003	  0.583	 -0.134	  0.457	  0.394	 -1.435	 -9.568	  0.708	  0.212	  0.308	 32.300	 99.092	 -0.246
44053	  0.582	 -0.129	  0.461	  0.572	 -1.877	 -9.751	  0.506	 -0.091	  0.330	 32.300	 99.096	 -0.608
44103	  0.585	 -0.118	  0.453	  0.666	 -2.541	 -9.338	  0.335	 -0.138	  0.249	 32.300	 99.096	 -0.608
44153	  0.587	 -0.102	  0.444	 -0.557	 -1.691	 -10.055	 -0.088	 -0.401	  0.393	 32.300	 99.092	 -0.246
44203	  0.588	 -0.090	  0.433	  0.110	 -2.107	 -9.133	 -0.282	 -0.249	  0.134	 32.300	 99.096	 -0.608
44253	  0.585	 -0.065	  0.435	  0.421	 -2.121	 -8.204	 -0.319	  0.127	 -0.067	 32.300	 99.092	 -0.246
44303	  0.577	 -0.040	  0.451	 -0.976	 -1.148	 -9.638	  0.098	  0.149	  0.093	 32.300	 99.085	  0.389
44352	  0.563	 -0.026	  0.463	 -0.203	 -1.713	 -9.901	  0.035	  0.374	  0.192	 32.300	 99.107	 -1.606
44402	  0.553	 -0.019	  0.472	  0.180	 -1.477	 -10.194	 -0.249	 -0.060	  0.152	 32.300	 99.080	  0.842
44452	  0.551	 -0.013	  0.468	  0.314	 -1.281	 -9.689	 -0.495	 -0.141	  0.081	 32.300	 99.092	 -0.246
44502	  0.551	 -0.021	  0.464	  0.005	 -0.645	 -9.473	 -0.220	  0.032	 -0.001	 32.300	 99.092	 -0.246
44552	  0.546	 -0.009	  0.466	  0.050	 -1.371	 -9.872	  0.040	  0.183	 -0.032	 32.300	 99.092	 -0.246
44602	  0.544	 -0.009	  0.470	  0.198	 -1.396	 -9.749	 -0.015	  0.188	  0.009	 32.300	 99.092	 -0.246
44652	  0.537	 -0.003	  0.470	  0.455	 -1.490	 -9.759	 -0.064	 -0.027	 -0.078	 32.300	 99.092	 -0.246
44702	  0.537	  0.004	  0.465	 -0.073	 -1.356	 -9.251	 -0.093	 -0.186	 -0.092	 32.300	 99.092	 -0.246
44752	  0.537	  0.010	  0.458	  0.141	 -1.158	 -9.560	 -0.135	 -0.211	 -0.037	 32.300	 99.085	  0.389
44802	  0.540	  0.014	  0.458	 -0.142	 -0.912	 -9.290	 -0.033	 -0.068	  0.099	 32.300	 99.092	 -0.246
44852	  0.530	  0.011	  0.457	 -1.089	 -0.696	 -9.970	  0.194	  0.081	  0.264	 32.300	 99.092	 -0.246
44902	  0.521	  0.015	  0.457	  0.720	 -1.562	 -10.060	  0.286	  0.161	  0.139	 32.300	 99.096	 -0.608
44952	  0.511	  0.027	  0.458	  0.841	 -1.497	 -10.545	  0.077	  0.152	  0.100	 32.300	 99.092	 -0.246
45002	  0.499	  0.024	  0.458	  0.172	 -0.934	 -9.917	 -0.431	  0.119	  0.003	 32.300	 99.085	  0.389
45052	  0.492	  0.016	  0.460	  0.527	 -1.122	 -9.336	 -0.411	  0.292	  0.095	 32.300	 99.092	 -0.246
45102	  0.482	  0.013	  0.468	  0.651	 -0.669	 -9.315	 -0.023	  0.196	  0.057	 32.300	 99.085	  0.389
45152	  0.479	  0.010	  0.466	  1.068	 -1.218	 -9.972	  0.061	  0.111	  0.007	 32.300	 99.080	  0.842
45202	  0.475	  0.015	  0.470	  0.811	 -1.118	 -10.242	 -0.075	  0.164	  0.005	 32.300	 99.096	 -0.608
45252	  0.469	  0.015	  0.476	  0.930	 -0.911	 -10.380	 -0.199	  0.237	 -0.022	 32.300	 99.092	 -0.246
45302	  0.464	  0.012	  0.474	  1.448	 -1.133	 -10.691	 -0.256	  0.399	 -0.018	 32.300	 99.096	 -0.608
45352	  0.450	 -0.016	  0.446	  1.418	 -0.917	 -10.608	 -0.398	  0.533	 -0.026	 32.300	 99.096	 -0.608
45402	  0.431	 -0.020	  0.450	  1.571	 -0.419	 -10.170	 -0.553	  0.601	  0.107	 32.300	 99.085	  0.389
45452	  0.408	 -0.027	  0.472	  1.731	 -0.355	 -9.879	 -0.633	  0.570	  0.034	 32.300	 99.107	 -1.606
45502	  0.389	 -0.032	  0.477	  1.337	  0.124	 -9.621	 -0.523	  0.155	  0.043	 32.300	 99.092	 -0.246
45552	  0.368	 -0.036	  0.482	  1.230	  0.297	 -9.880	 -0.425	  0.275	 -0.010	 32.300	 99.092	 -0.246
45602	  0.349	 -0.032	  0.486	  1.313	  0.697	 -10.125	 -0.297	  0.236	  0.175	 32.300	 99.092	 -0.246
45652	  0.327	 -0.041	  0.484	  1.356	  0.650	 -9.683	 -0.422	  0.233	  0.160	 32.300	 99.080	  0.842
45702	  0.310	 -0.047	  0.474	  2.258	  0.695	 -10.347	 -0.343	  0.324	  0.181	 32.300	 99.103	 -1.243
45752	  0.284	 -0.056	  0.474	  1.797	  1.098	 -8.606	 -0.460	  0.267	  0.152	 32.300	 99.080	  0.842
45802	  0.272	 -0.060	  0.464	  2.054	  0.957	 -9.010	 -0.061	 -0.080	  0.239	 32.300	 99.092	 -0.246
45852	  0.264	 -0.057	  0.455	  2.551	  0.276	 -9.569	 -0.052	  0.024	  0.140	 32.300	 99.080	  0.842
45902	  0.258	 -0.063	  0.442	  2.049	  0.680	 -9.138	 -0.493	 -0.115	  0.021	 32.300	 99.085	  0.389
45952	  0.259	 -0.077	  0.433	  2.471	  1.248	 -9.015	 -0.672	 -0.196	  0.168	 32.300	 99.085	  0.389
46002	  0.253	 -0.084	  0.423	  2.621	  1.382	 -8.547	 -0.499	  0.013	  0.043	 32.300	 99.096	 -0.608
46052	  0.249	 -0.097	  0.416	  2.424	  1.733	 -8.084	 -0.418	 -0.130	  0.101	 32.300	 99.085	  0.389
46102	  0.251	 -0.103	  0.407	  2.514	  1.638	 -7.938	 -0.202	 -0.272	  0.028	 32.300	 99.096	 -0.608
46152	  0.260	 -0.103	  0.399	  2.100	  1.779	 -8.718	  0.046	 -0.353	  0.070	 32.300	 99.096	 -0.608
46202	  0.264	 -0.102	  0.393	  2.241	  1.660	 -9.563	  0.105	 -0.281	  0.137	 32.300	 99.096	 -0.608
46252	  0.270	 -0.099	  0.387	  1.695	  1.527	 -9.965	 -0.119	 -0.163	  0.113	 32.300	 99.085	  0.389
46302	  0.267	 -0.105	  0.383	  1.576	  1.514	 -9.808	 -0.291	 -0.101	  0.190	 32.300	 99.096	 -0.608
46352	  0.268	 -0.113	  0.382	  1.569	  1.699	 -9.958	 -0.321	 -0.128	  0.240	 32.300	 99.080	  0.842
46402	  0.268	 -0.121	  0.375	  1.639	  1.784	 -9.624	 -0.385	 -0.175	  0.359	 32.300	 99.080	  0.842
46452	  0.266	 -0.128	  0.369	  1.427	  2.005	 -9.537	 -0.325	 -0.338	  0.412	 32.300	 99.085	  0.389
46502	  0.267	 -0.139	  0.357	  1.306	  2.096	 -9.534	 -0.301	 -0.350	  0.565	 32.300	 99.085	  0.389
46552	  0.270	 -0.148	  0.350	  1.625	  2.015	 -9.819	 -0.418	 -0.368	  0.667	 32.300	 99.080	  0.842
46602	  0.270	 -0.159	  0.338	  1.313	  2.700	 -8.841	 -0.698	 -0.471	  0.696	 32.300	 99.080	  0.842
46652	  0.269	 -0.176	  0.317	  1.783	  2.967	 -9.553	 -0.386	 -0.522	  0.789	 32.300	 99.080	  0.842
46702	  0.266	 -0.190	  0.309	  0.978	  2.901	 -9.007	 -0.197	 -0.347	  0.698	 32.300	 99.085	  0.389
46752	  0.268	 -0.193	  0.303	  0.815	  2.702	 -8.836	  0.049	 -0.465	  0.782	 32.300	 99.085	  0.389
46802	  0.265	 -0.192	  0.292	  0.807	  2.475	 -9.301	  0.134	 -0.563	  0.850	 32.300	 99.080	  0.842
46852	  0.264	 -0.193	  0.279	  0.481	  2.652	 -9.451	  0.059	 -0.704	  0.930	 32.300	 99.085	  0.389
46902	  0.263	 -0.205	  0.267	  0.605	  2.566	 -9.712	 -0.181	 -0.659	  1.069	 32.300	 99.096	 -0.608
46952	  0.260	 -0.218	  0.255	  0.776	  2.794	 -9.585	 -0.480	 -0.457	  1.307	 32.300	 99.096	 -0.608
47002	  0.245	 -0.232	  0.243	  1.245	  2.883	 -8.974	 -0.242	 -0.348	  1.307	 32.300	 99.096	 -0.608
47052	  0.233	 -0.240	  0.239	  1.168	  2.460	 -8.519	 -0.003	 -0.366	  1.148	 32.300	 99.085	  0.389
47102	  0.226	 -0.249	  0.229	  1.121	  2.393	 -8.455	  0.056	 -0.599	  1.079	 32.300	 99.085	  0.389
47152	  0.218	 -0.250	  0.224	  1.021	  2.669	 -8.991	  0.166	 -0.649	  1.037	 32.300	 99.085	  0.389
47202	  0.213	 -0.253	  0.218	  1.131	  3.140	 -9.401	 -0.077	 -0.532	  1.024	 32.300	 99.073	  1.477
47252	  0.206	 -0.264	  0.212	  1.442	  3.118	 -9.099	 -0.132	 -0.340	  0.879	 32.300	 99.092	 -0.246
47302	  0.200	 -0.269	  0.213	  1.106	  3.081	 -8.716	 -0.057	 -0.356	  0.863	 32.300	 99.085	  0.389
47352	  0.195	 -0.276	  0.207	  1.097	  2.922	 -9.014	  0.201	 -0.280	  0.817	 32.300	 99.073	  1.477
47402	  0.188	 -0.276	  0.207	  0.256	  2.463	 -8.916	  0.235	 -0.385	  0.706	 32.300	 99.080	  0.842
47452	  0.181	 -0.279	  0.202	 -0.319	  2.314	 -9.859	 -0.076	 -0.248	  0.909	 32.300	 99.092	 -0.246
47502	  0.174	 -0.282	  0.203	 -0.350	  2.382	 -9.429	 -0.217	 -0.494	  1.094	 32.300	 99.080	  0.842
47552	  0.164	 -0.296	  0.196	 -0.306	  2.425	 -9.262	 -0.141	 -0.346	  1.242	 32.300	 99.085	  0.389
47602	  0.148	 -0.299	  0.195	 -0.801	  2.382	 -9.302	 -0.100	 -0.039	  1.351	 32.300	 99.096	 -0.608
47653	  0.128	 -0.311	  0.194	 -0.762	  2.444	 -9.082	 -0.127	 -0.020	  1.352	 32.300	 99.085	  0.389
47702	  0.106	 -0.312	  0.193	 -0.862	  2.672	 -9.342	 -0.175	 -0.227	  1.312	 32.300	 99.092	 -0.246
47753	  0.092	 -0.319	  0.190	  0.126	  3.323	 -9.332	 -0.098	 -0.325	  1.134	 32.300	 99.069	  1.840
47802	  0.082	 -0.316	  0.186	  0.158	  3.742	 -9.755	 -0.109	 -0.446	  0.745	 32.300	 99.092	 -0.246
47853	  0.076	 -0.315	  0.188	  0.992	  3.695	 -9.461	  0.005	 -0.531	  0.724	 32.300	 99.085	  0.389
47902	  0.073	 -0.315	  0.191	  1.580	  3.062	 -9.796	  0.122	 -0.342	  0.617	 32.300	 99.096	 -0.608
47952	  0.066	 -0.312	  0.197	  0.862	  3.797	 -9.244	  0.083	 -0.184	  0.507	 32.300	 99.092	 -0.246
48003	  0.062	 -0.310	  0.197	  1.547	  3.096	 -9.043	  0.100	 -0.161	  0.486	 32.300	 99.085	  0.389
48052	  0.057	 -0.305	  0.199	  1.217	  3.263	 -8.846	  0.128	 -0.038	  0.349	 32.300	 99.080	  0.842
48103	  0.051	 -0.304	  0.204	  1.541	  3.459	 -8.434	  0.081	  0.048	  0.304	 32.300	 99.085	  0.389
48153	  0.046	 -0.303	  0.202	  1.828	  3.562	 -8.718	  0.021	  0.133	  0.155	 32.300	 99.080	  0.842
48203	  0.042	 -0.305	  0.205	  1.350	  3.701	 -8.365	 -0.054	  0.004	  0.025	 32.300	 99.085	  0.389
48253	  0.040	 -0.300	  0.203	  1.141	  3.787	 -8.618	  0.029	 -0.272	  0.066	 32.300	 99.085	  0.389
48303	  0.043	 -0.294	  0.204	  0.682	  3.478	 -8.898	  0.095	 -0.202	  0.036	 32.300	 99.069	  1.840
48353	  0.045	 -0.289	  0.207	  0.805	  3.434	 -9.408	  0.344	 -0.047	  0.061	 32.300	 99.080	  0.842
48403	  0.041	 -0.288	  0.207	  0.415	  3.027	 -10.094	  0.407	  0.175	  0.109	 32.300	 99.080	  0.842
48453	  0.035	 -0.281	  0.213	  0.270	  2.451	 -10.280	 -0.117	 -0.009	  0.094	 32.300	 99.096	 -0.608
48503	  0.036	 -0.290	  0.205	  0.741	  2.559	 -9.663	 -0.672	 -0.165	  0.098	 32.300	 99.080	  0.842
48553	  0.038	 -0.296	  0.205	  0.321	  3.062	 -8.716	 -0.262	 -0.269	  0.068	 32.300	 99.085	  0.389
48603	  0.041	 -0.290	  0.201	  0.215	  2.805	 -9.292	  0.270	 -0.059	 -0.053	 32.300	 99.092	 -0.246
48653	  0.040	 -0.288	  0.205	  0.470	  2.331	 -9.831	  0.124	  0.251	 -0.141	 32.300	 99.080	  0.842
48703	  0.036	 -0.287	  0.205	  0.470	  2.742	 -8.820	 -0.206	  0.233	 -0.376	 32.300	 99.085	  0.389
48753	  0.043	 -0.283	  0.203	  0.517	  2.231	 -8.137	 -0.073	 -0.105	 -0.630	 32.300	 99.073	  1.477
48803	  0.057	 -0.285	  0.203	 -0.458	  2.458	 -7.903	  0.272	 -0.246	 -0.877	 32.300	 99.080	  0.842
48853	  0.069	 -0.274	  0.204	 -1.109	  2.147	 -9.199	  0.346	 -0.100	 -0.961	 32.300	 99.085	  0.389
48903	  0.079	 -0.270	  0.210	 -1.770	  2.441	 -10.158	 -0.093	  0.276	 -0.868	 32.300	 99.069	  1.840
48953	  0.084	 -0.271	  0.208	 -2.099	  2.909	 -10.216	 -0.482	  0.554	 -0.625	 32.300	 99.096	 -0.608
49003	  0.083	 -0.273	  0.201	 -1.037	  3.210	 -9.668	 -0.173	  0.381	 -0.781	 32.300	 99.092	 -0.246
49053	  0.090	 -0.274	  0.201	 -0.663	  1.897	 -10.184	 -0.203	  0.422	 -1.257	 32.300	 99.096	 -0.608
49103	  0.099	 -0.266	  0.202	 -0.270	  2.033	 -9.727	 -0.463	  0.485	 -1.201	 32.300	 99.085	  0.389
49153	  0.112	 -0.273	  0.198	 -0.298	  2.138	 -9.749	 -0.275	  0.398	 -1.344	 32.300	 99.085	  0.389
49203	  0.118	 -0.267	  0.198	 -0.134	  3.742	 -9.884	  0.491	  0.390	 -0.891	 32.300	 99.092	 -0.246
49253	  0.120	 -0.246	  0.213	  1.726	  2.503	 -10.769	  0.702	  0.540	 -0.604	 32.300	 99.085	  0.389
49303	  0.118	 -0.239	  0.222	  1.018	  2.962	 -10.945	  0.459	  0.424	 -0.427	 32.300	 99.085	  0.389
49353	  0.115	 -0.238	  0.224	  2.176	  2.902	 -8.848	 -0.384	  0.543	 -0.521	 32.300	 99.085	  0.389
49403	  0.116	 -0.237	  0.221	  0.966	  4.171	 -8.024	 -0.110	  0.382	 -0.480	 32.300	 99.069	  1.840
49453	  0.111	 -0.232	  0.223	  1.719	  4.423	 -8.591	  0.188	  0.313	 -0.192	 32.300	 99.085	  0.389
49503	  0.107	 -0.233	  0.233	  2.629	  4.067	 -9.455	  0.372	  0.469	 -0.147	 32.300	 99.085	  0.389
49553	  0.103	 -0.228	  0.230	  2.216	  3.438	 -8.930	  0.155	  0.310	 -0.340	 32.300	 99.073	  1.477
49603	  0.103	 -0.224	  0.235	  1.376	  3.082	 -9.163	 -0.060	  0.183	 -0.408	 32.300	 99.085	  0.389
49653	  0.103	 -0.222	  0.234	  1.115	  3.071	 -8.275	  0.083	  0.125	 -0.359	 32.300	 99.073	  1.477
49703	  0.107	 -0.218	  0.236	  0.667	  3.347	 -8.461	  0.185	 -0.038	 -0.322	 32.300	 99.085	  0.389
49753	  0.109	 -0.208	  0.241	  1.123	  3.499	 -9.196	  0.297	 -0.050	 -0.147	 32.300	 99.085	  0.389
49803	  0.109	 -0.211	  0.242	  1.235	  3.079	 -9.255	  0.242	  0.055	 -0.270	 32.300	 99.085	  0.389
49853	  0.111	 -0.203	  0.244	  0.845	  3.161	 -9.234	  0.047	 -0.056	 -0.249	 32.300	 99.073	  1.477
49903	  0.117	 -0.196	  0.243	  0.945	  3.018	 -8.611	 -0.017	 -0.265	 -0.357	 32.300	 99.089	  0.026
49953	  0.125	 -0.204	  0.244	  0.054	  3.305	 -9.257	 -0.173	 -0.390	 -0.356	 32.300	 99.085	  0.389
50003	  0.136	 -0.202	  0.236	  0.331	  3.380	 -9.065	 -0.091	 -0.328	 -0.305	 32.300	 99.073	  1.477
50053	  0.142	 -0.200	  0.238	 -0.303	  3.543	 -9.171	  0.148	 -0.128	 -0.316	 32.300	 99.085	  0.389
50103	  0.148	 -0.196	  0.239	 -0.253	  3.411	 -9.587	  0.127	 -0.041	 -0.136	 32.300	 99.080	  0.842
50153	  0.146	 -0.192	  0.233	  0.336	  3.361	 -9.545	  0.071	 -0.126	 -0.220	 32.300	 99.085	  0.389
50203	  0.154	 -0.187	  0.236	  0.483	  3.384	 -9.603	  0.004	 -0.213	 -0.387	 32.300	 99.085	  0.389
