Time	 MagX	 MagY	 MagZ	 AccelX	 AccelY	 AccelZ	 Yaw	 Pitch	 Roll	 Temperature	 Pressure	 Altitude
16245	 -0.417	 -0.230	  0.045	  0.277	 -0.268	 -9.859	 -0.003	 -0.000	  0.000	 31.500	 99.251	 -99999.000
16292	 -0.417	 -0.223	  0.048	  0.266	 -0.264	 -9.839	 -0.003	  0.002	  0.000	 31.500	 99.251	 -99999.000
16342	 -0.419	 -0.231	  0.053	  0.286	 -0.268	 -9.818	 -0.003	  0.001	  0.000	 31.500	 99.251	 -99999.000
16392	 -0.416	 -0.222	  0.054	  0.273	 -0.282	 -9.832	 -0.002	  0.002	  0.000	 31.500	 99.246	 -99999.000
16442	 -0.418	 -0.233	  0.054	  0.284	 -0.240	 -9.826	 -0.002	  0.000	 -0.000	 31.500	 99.262	 -99999.000
16492	 -0.415	 -0.232	  0.042	  0.269	 -0.256	 -9.837	 -0.003	  0.001	 -0.000	 31.500	 99.262	 -99999.000
16542	 -0.418	 -0.231	  0.051	  0.296	 -0.267	 -9.829	 -0.002	  0.002	  0.001	 31.500	 99.251	 -99999.000
16592	 -0.416	 -0.231	  0.050	  0.263	 -0.247	 -9.858	 -0.003	  0.002	  0.001	 31.500	 99.262	 -99999.000
16642	 -0.417	 -0.231	  0.050	  0.261	 -0.270	 -9.853	 -0.003	  0.000	  0.000	 31.500	 99.262	 -99999.000
16692	 -0.417	 -0.230	  0.052	  0.303	 -0.259	 -9.813	 -0.003	  0.001	  0.001	 31.500	 99.262	 -99999.000
16742	 -0.417	 -0.230	  0.053	  0.278	 -0.278	 -9.819	 -0.004	  0.003	  0.001	 31.500	 99.251	 -99999.000
16792	 -0.418	 -0.230	  0.052	  0.270	 -0.249	 -9.808	 -0.002	  0.000	  0.000	 31.500	 99.251	 -99999.000
16842	 -0.417	 -0.226	  0.051	  0.282	 -0.269	 -9.833	 -0.003	  0.002	 -0.000	 31.500	 99.251	 -99999.000
16892	 -0.417	 -0.227	  0.055	  0.270	 -0.250	 -9.849	 -0.002	  0.001	 -0.001	 31.500	 99.251	 -99999.000
16942	 -0.418	 -0.229	  0.053	  0.291	 -0.241	 -9.807	 -0.003	  0.002	  0.001	 31.500	 99.262	 -99999.000
16992	 -0.417	 -0.225	  0.053	  0.276	 -0.259	 -9.825	 -0.002	  0.004	  0.001	 31.500	 99.251	 -99999.000
17042	 -0.417	 -0.229	  0.050	  0.284	 -0.265	 -9.827	 -0.002	  0.001	  0.000	 31.500	 99.246	 -99999.000
17092	 -0.416	 -0.232	  0.054	  0.252	 -0.280	 -9.824	 -0.002	  0.000	 -0.001	 31.500	 99.251	 -99999.000
17142	 -0.415	 -0.234	  0.046	  0.284	 -0.257	 -9.837	 -0.002	  0.001	 -0.001	 31.500	 99.251	 -99999.000
17192	 -0.416	 -0.232	  0.049	  0.275	 -0.280	 -9.835	 -0.003	  0.001	  0.000	 31.500	 99.251	 -99999.000
17242	 -0.417	 -0.232	  0.051	  0.275	 -0.258	 -9.847	 -0.003	  0.001	 -0.000	 31.500	 99.251	 -99999.000
17292	 -0.417	 -0.229	  0.047	  0.266	 -0.254	 -9.867	 -0.003	  0.002	  0.000	 31.500	 99.251	 -99999.000
17342	 -0.418	 -0.229	  0.052	  0.258	 -0.249	 -9.838	 -0.002	  0.001	  0.000	 31.500	 99.262	 -99999.000
17392	 -0.419	 -0.230	  0.051	  0.275	 -0.256	 -9.814	 -0.002	  0.001	  0.001	 31.500	 99.251	 -99999.000
17442	 -0.416	 -0.230	  0.052	  0.275	 -0.266	 -9.827	 -0.002	  0.002	  0.000	 31.500	 99.262	 -99999.000
17492	 -0.419	 -0.230	  0.044	  0.254	 -0.272	 -9.845	 -0.002	 -0.000	  0.001	 31.500	 99.262	 -99999.000
17542	 -0.420	 -0.233	  0.049	  0.260	 -0.251	 -9.841	 -0.001	  0.002	  0.002	 31.500	 99.251	 -99999.000
17592	 -0.416	 -0.233	  0.054	  0.289	 -0.247	 -9.859	 -0.003	  0.002	  0.000	 31.500	 99.251	 -99999.000
17642	 -0.417	 -0.230	  0.052	  0.258	 -0.262	 -9.840	 -0.002	  0.001	 -0.000	 31.500	 99.251	 -99999.000
17692	 -0.417	 -0.235	  0.051	  0.274	 -0.259	 -9.857	 -0.004	  0.001	  0.001	 31.500	 99.262	 -99999.000
17742	 -0.419	 -0.231	  0.051	  0.271	 -0.251	 -9.840	 -0.003	  0.001	  0.001	 31.500	 99.266	 -99999.000
17792	 -0.418	 -0.224	  0.054	  0.293	 -0.261	 -9.808	 -0.003	  0.001	  0.000	 31.500	 99.255	 -99999.000
17842	 -0.418	 -0.227	  0.048	  0.263	 -0.252	 -9.820	 -0.003	  0.001	  0.002	 31.500	 99.251	 -99999.000
17892	 -0.418	 -0.232	  0.051	  0.265	 -0.253	 -9.830	 -0.003	  0.001	  0.001	 31.500	 99.251	 -99999.000
17942	 -0.415	 -0.231	  0.049	  0.299	 -0.246	 -9.833	 -0.003	  0.002	  0.002	 31.500	 99.251	 -99999.000
17992	 -0.416	 -0.234	  0.047	  0.259	 -0.242	 -9.833	 -0.003	  0.001	  0.001	 31.500	 99.262	 -99999.000
18042	 -0.417	 -0.235	  0.053	  0.273	 -0.246	 -9.817	 -0.002	  0.002	  0.001	 31.500	 99.251	 -99999.000
18092	 -0.418	 -0.224	  0.052	  0.285	 -0.276	 -9.815	 -0.003	  0.002	  0.001	 31.500	 99.251	 -99999.000
18142	 -0.416	 -0.233	  0.052	  0.266	 -0.242	 -9.832	 -0.002	  0.002	  0.001	 31.500	 99.239	 -99999.000
18192	 -0.418	 -0.235	  0.050	  0.281	 -0.269	 -9.821	 -0.002	  0.002	  0.000	 31.500	 99.255	 -99999.000
18242	 -0.417	 -0.229	  0.050	  0.272	 -0.269	 -9.807	 -0.002	  0.002	 -0.000	 31.500	 99.239	 -99999.000
18292	 -0.418	 -0.232	  0.046	  0.271	 -0.266	 -9.807	 -0.002	  0.003	  0.000	 31.500	 99.251	 -99999.000
18342	 -0.416	 -0.232	  0.053	  0.289	 -0.245	 -9.838	 -0.004	  0.000	  0.001	 31.500	 99.251	 -99999.000
18392	 -0.420	 -0.225	  0.049	  0.263	 -0.247	 -9.822	 -0.003	  0.001	 -0.000	 31.500	 99.251	 -99999.000
18442	 -0.417	 -0.227	  0.051	  0.268	 -0.257	 -9.813	 -0.002	  0.002	  0.001	 31.500	 99.239	 -99999.000
18492	 -0.417	 -0.230	  0.050	  0.277	 -0.256	 -9.839	 -0.002	  0.001	  0.000	 31.500	 99.251	 -99999.000
18542	 -0.417	 -0.236	  0.050	  0.282	 -0.270	 -9.838	 -0.003	  0.002	 -0.000	 31.500	 99.251	 -99999.000
18592	 -0.418	 -0.232	  0.051	  0.286	 -0.260	 -9.833	 -0.003	  0.001	  0.001	 31.500	 99.251	 -99999.000
18642	 -0.418	 -0.230	  0.052	  0.277	 -0.276	 -9.815	 -0.003	  0.000	  0.001	 31.500	 99.251	 -99999.000
18692	 -0.417	 -0.226	  0.053	  0.268	 -0.262	 -9.832	 -0.001	  0.001	  0.001	 31.500	 99.251	 -99999.000
18742	 -0.418	 -0.230	  0.046	  0.278	 -0.276	 -9.815	 -0.002	 -0.001	 -0.000	 31.500	 99.239	 -99999.000
18792	 -0.417	 -0.232	  0.054	  0.263	 -0.275	 -9.812	 -0.002	  0.002	 -0.000	 31.500	 99.239	 -99999.000
18842	 -0.420	 -0.232	  0.048	  0.271	 -0.274	 -9.866	 -0.002	  0.000	  0.000	 31.500	 99.255	 -99999.000
18892	 -0.419	 -0.234	  0.047	  0.295	 -0.246	 -9.792	 -0.003	  0.001	  0.001	 31.500	 99.251	 -99999.000
18942	 -0.415	 -0.233	  0.053	  0.276	 -0.241	 -9.871	 -0.003	  0.003	  0.001	 31.500	 99.251	 -99999.000
18992	 -0.417	 -0.231	  0.049	  0.270	 -0.257	 -9.831	 -0.003	  0.003	  0.000	 31.500	 99.239	 -99999.000
19042	 -0.416	 -0.229	  0.054	  0.267	 -0.254	 -9.824	 -0.003	  0.001	  0.002	 31.500	 99.239	 -99999.000
19092	 -0.418	 -0.231	  0.051	  0.275	 -0.248	 -9.816	 -0.002	  0.003	  0.001	 31.500	 99.239	 -99999.000
19142	 -0.418	 -0.234	  0.046	  0.281	 -0.270	 -9.837	 -0.002	  0.001	  0.001	 31.500	 99.251	 -99999.000
19192	 -0.417	 -0.229	  0.050	  0.239	 -0.298	 -9.816	 -0.003	  0.001	  0.000	 31.500	 99.251	 -99999.000
19242	 -0.418	 -0.232	  0.053	  0.273	 -0.240	 -9.837	 -0.003	  0.000	 -0.001	 31.500	 99.251	 -99999.000
19292	 -0.416	 -0.227	  0.050	  0.288	 -0.265	 -9.844	 -0.001	  0.001	 -0.000	 31.500	 99.251	 -99999.000
19342	 -0.418	 -0.226	  0.053	  0.281	 -0.272	 -9.861	 -0.003	  0.001	  0.001	 31.500	 99.251	 -99999.000
19392	 -0.417	 -0.234	  0.047	  0.274	 -0.277	 -9.831	 -0.002	  0.001	  0.001	 31.500	 99.251	 -99999.000
19442	 -0.417	 -0.223	  0.054	  0.281	 -0.261	 -9.841	 -0.002	  0.002	  0.001	 31.500	 99.251	 -99999.000
19492	 -0.417	 -0.229	  0.052	  0.276	 -0.258	 -9.823	 -0.003	  0.002	  0.000	 31.500	 99.251	 -99999.000
19542	 -0.419	 -0.232	  0.054	  0.256	 -0.275	 -9.798	 -0.002	  0.002	  0.001	 31.500	 99.251	 -99999.000
19592	 -0.417	 -0.230	  0.054	  0.254	 -0.256	 -9.841	 -0.002	  0.001	 -0.001	 31.500	 99.251	 -99999.000
19642	 -0.419	 -0.232	  0.052	  0.276	 -0.269	 -9.812	 -0.002	 -0.000	  0.000	 31.500	 99.251	 -99999.000
19692	 -0.415	 -0.229	  0.052	  0.263	 -0.267	 -9.831	 -0.002	  0.001	 -0.001	 31.500	 99.266	 -99999.000
19742	 -0.415	 -0.229	  0.051	  0.282	 -0.251	 -9.860	 -0.003	  0.001	 -0.001	 31.500	 99.243	 -99999.000
19792	 -0.418	 -0.224	  0.056	  0.283	 -0.269	 -9.840	 -0.002	 -0.001	 -0.001	 31.500	 99.251	 -99999.000
19842	 -0.415	 -0.229	  0.049	  0.261	 -0.264	 -9.827	 -0.001	  0.002	  0.001	 31.500	 99.251	 -99999.000
19892	 -0.416	 -0.228	  0.054	  0.267	 -0.285	 -9.823	 -0.003	  0.000	  0.000	 31.500	 99.251	 -99999.000
19942	 -0.419	 -0.230	  0.047	  0.288	 -0.270	 -9.832	 -0.003	  0.001	  0.000	 31.500	 99.262	 -99999.000
19992	 -0.416	 -0.231	  0.054	  0.278	 -0.264	 -9.842	 -0.001	  0.005	 -0.001	 31.500	 99.251	 -99999.000
20042	 -0.418	 -0.234	  0.049	  0.254	 -0.247	 -9.842	 -0.003	  0.002	 -0.001	 31.500	 99.239	 -99999.000
20092	 -0.418	 -0.232	  0.053	  0.259	 -0.265	 -9.866	 -0.002	  0.001	  0.001	 31.500	 99.255	 -99999.000
20142	 -0.417	 -0.228	  0.051	  0.306	 -0.229	 -9.843	 -0.003	  0.002	 -0.000	 31.500	 99.255	 -99999.000
20192	 -0.418	 -0.234	  0.043	  0.263	 -0.256	 -9.845	 -0.002	  0.004	 -0.000	 31.500	 99.262	 -99999.000
20242	 -0.417	 -0.231	  0.056	  0.286	 -0.237	 -9.843	 -0.003	  0.004	 -0.002	 31.500	 99.251	 -99999.000
20293	 -0.417	 -0.229	  0.050	  0.268	 -0.273	 -9.864	 -0.003	 -0.000	  0.002	 31.500	 99.255	 -99999.000
20342	 -0.418	 -0.232	  0.051	  0.288	 -0.249	 -9.829	 -0.001	  0.001	  0.001	 31.500	 99.255	 -99999.000
20393	 -0.415	 -0.231	  0.049	  0.263	 -0.241	 -9.845	 -0.001	  0.002	 -0.000	 31.500	 99.251	 -99999.000
20442	 -0.417	 -0.225	  0.050	  0.247	 -0.272	 -9.826	 -0.002	 -0.001	  0.001	 31.500	 99.255	 -99999.000
20492	 -0.417	 -0.231	  0.053	  0.266	 -0.253	 -9.829	 -0.003	 -0.000	 -0.001	 31.500	 99.239	 -99999.000
20542	 -0.417	 -0.230	  0.051	  0.279	 -0.248	 -9.849	 -0.002	  0.002	  0.001	 31.500	 99.243	 -99999.000
20592	 -0.416	 -0.230	  0.051	  0.281	 -0.247	 -9.866	 -0.002	  0.003	  0.001	 31.500	 99.262	 -99999.000
20642	 -0.416	 -0.230	  0.052	  0.275	 -0.267	 -9.830	 -0.003	  0.003	  0.001	 31.500	 99.255	 -99999.000
20693	 -0.417	 -0.233	  0.046	  0.270	 -0.284	 -9.811	 -0.004	  0.003	 -0.002	 31.500	 99.251	 -99999.000
20742	 -0.418	 -0.230	  0.051	  0.265	 -0.258	 -9.852	 -0.003	  0.000	  0.000	 31.500	 99.251	 -99999.000
20792	 -0.416	 -0.232	  0.052	  0.267	 -0.262	 -9.815	 -0.002	  0.003	  0.002	 31.500	 99.251	 -99999.000
20843	 -0.417	 -0.224	  0.052	  0.278	 -0.248	 -9.834	 -0.003	  0.001	  0.001	 31.500	 99.266	 -99999.000
20893	 -0.417	 -0.234	  0.053	  0.281	 -0.248	 -9.819	 -0.002	  0.001	 -0.000	 31.500	 99.255	 -99999.000
20943	 -0.417	 -0.229	  0.052	  0.288	 -0.277	 -9.859	 -0.004	  0.002	 -0.002	 31.500	 99.239	 -99999.000
20993	 -0.418	 -0.225	  0.052	  0.275	 -0.255	 -9.842	 -0.002	  0.004	  0.001	 31.500	 99.251	 -99999.000
21043	 -0.416	 -0.232	  0.044	  0.289	 -0.254	 -9.879	 -0.003	  0.003	  0.002	 31.500	 99.251	 -99999.000
21093	 -0.419	 -0.230	  0.053	  0.262	 -0.254	 -9.802	 -0.003	  0.003	 -0.000	 31.500	 99.239	 -99999.000
21143	 -0.418	 -0.231	  0.050	  0.298	 -0.263	 -9.859	 -0.002	  0.004	  0.000	 31.500	 99.239	 -99999.000
21193	 -0.416	 -0.233	  0.055	  0.258	 -0.248	 -9.818	 -0.002	  0.000	  0.001	 31.500	 99.251	 -99999.000
21243	 -0.418	 -0.229	  0.051	  0.281	 -0.239	 -9.881	 -0.001	  0.002	 -0.000	 31.500	 99.251	 -99999.000
21293	 -0.416	 -0.232	  0.051	  0.266	 -0.261	 -9.830	 -0.001	  0.001	  0.000	 31.500	 99.251	 -99999.000
21343	 -0.416	 -0.231	  0.053	  0.274	 -0.241	 -9.852	 -0.004	  0.002	  0.001	 31.500	 99.251	 -99999.000
21393	 -0.419	 -0.230	  0.048	  0.272	 -0.276	 -9.827	 -0.002	 -0.000	 -0.000	 31.500	 99.251	 -99999.000
21443	 -0.417	 -0.230	  0.046	  0.248	 -0.263	 -9.879	 -0.003	  0.003	  0.000	 31.500	 99.255	 -99999.000
21493	 -0.416	 -0.226	  0.043	  0.281	 -0.243	 -9.818	 -0.003	  0.002	  0.000	 31.500	 99.251	 -99999.000
21543	 -0.417	 -0.231	  0.052	  0.250	 -0.270	 -9.825	 -0.002	  0.003	 -0.001	 31.500	 99.251	 -99999.000
21593	 -0.417	 -0.230	  0.049	  0.275	 -0.244	 -9.842	 -0.003	  0.000	  0.000	 31.500	 99.262	 -99999.000
21643	 -0.417	 -0.234	  0.049	  0.287	 -0.251	 -9.804	 -0.004	  0.000	  0.001	 31.500	 99.251	 -99999.000
21693	 -0.418	 -0.231	  0.053	  0.299	 -0.252	 -9.797	 -0.003	  0.004	 -0.000	 31.500	 99.239	 -99999.000
21743	 -0.416	 -0.229	  0.051	  0.269	 -0.240	 -9.830	 -0.003	  0.001	  0.001	 31.500	 99.255	 -99999.000
21793	 -0.416	 -0.232	  0.050	  0.282	 -0.251	 -9.834	 -0.003	  0.001	  0.002	 31.500	 99.251	 -99999.000
21843	 -0.415	 -0.225	  0.051	  0.263	 -0.240	 -9.834	 -0.003	  0.002	 -0.000	 31.500	 99.251	 -99999.000
21893	 -0.415	 -0.231	  0.054	  0.290	 -0.273	 -9.847	 -0.002	  0.001	  0.001	 31.500	 99.255	 -99999.000
21943	 -0.415	 -0.233	  0.049	  0.272	 -0.239	 -9.786	 -0.003	  0.000	  0.001	 31.500	 99.251	 -99999.000
21993	 -0.417	 -0.232	  0.046	  0.236	 -0.255	 -9.826	 -0.003	  0.001	 -0.000	 31.500	 99.239	 -99999.000
22043	 -0.414	 -0.230	  0.047	  0.256	 -0.270	 -9.850	 -0.003	  0.001	  0.001	 31.500	 99.255	 -99999.000
22093	 -0.416	 -0.222	  0.053	  0.306	 -0.254	 -9.822	 -0.001	  0.003	 -0.000	 31.500	 99.255	 -99999.000
22143	 -0.415	 -0.233	  0.047	  0.240	 -0.264	 -9.882	 -0.004	  0.003	  0.000	 31.500	 99.255	 -99999.000
22193	 -0.416	 -0.224	  0.050	  0.291	 -0.262	 -9.859	 -0.001	  0.001	 -0.001	 31.500	 99.255	 -99999.000
51468	 -0.417	 -0.233	  0.047	  0.279	 -0.251	 -9.859	 -0.004	  0.004	 -0.000	 31.500	 99.248	  0.310
51518	 -0.421	 -0.234	  0.047	  0.290	 -0.279	 -9.812	 -0.003	  0.000	  0.001	 31.500	 99.252	 -0.048
51568	 -0.420	 -0.236	  0.045	  0.253	 -0.255	 -9.865	 -0.002	  0.002	  0.001	 31.500	 99.248	  0.310
51618	 -0.420	 -0.236	  0.045	  0.304	 -0.223	 -9.819	 -0.001	  0.002	 -0.001	 31.500	 99.248	  0.310
51668	 -0.420	 -0.224	  0.051	  0.247	 -0.259	 -9.854	 -0.002	  0.002	  0.001	 31.500	 99.248	  0.310
51718	 -0.420	 -0.235	  0.049	  0.265	 -0.248	 -9.827	 -0.001	 -0.001	  0.000	 31.500	 99.252	 -0.048
51768	 -0.418	 -0.226	  0.051	  0.290	 -0.248	 -9.872	 -0.002	  0.002	  0.001	 31.500	 99.248	  0.310
51818	 -0.419	 -0.235	  0.046	  0.271	 -0.265	 -9.889	 -0.003	  0.001	  0.001	 31.500	 99.248	  0.310
51868	 -0.419	 -0.232	  0.048	  0.263	 -0.267	 -9.829	 -0.002	  0.001	  0.001	 31.500	 99.252	 -0.048
51918	 -0.421	 -0.239	  0.052	  0.257	 -0.263	 -9.826	 -0.004	  0.002	  0.001	 31.500	 99.248	  0.310
51968	 -0.419	 -0.233	  0.049	  0.291	 -0.261	 -9.822	 -0.002	  0.002	  0.000	 31.500	 99.252	 -0.048
52018	 -0.422	 -0.230	  0.048	  0.258	 -0.266	 -9.833	 -0.003	  0.002	  0.001	 31.500	 99.243	  0.758
52068	 -0.418	 -0.231	  0.052	  0.253	 -0.247	 -9.851	 -0.001	 -0.001	  0.000	 31.500	 99.248	  0.310
52118	 -0.419	 -0.235	  0.043	  0.274	 -0.255	 -9.874	 -0.005	  0.004	 -0.000	 31.500	 99.248	  0.310
52168	 -0.421	 -0.230	  0.051	  0.287	 -0.251	 -9.848	 -0.002	 -0.000	  0.000	 31.500	 99.252	 -0.048
52218	 -0.420	 -0.229	  0.051	  0.274	 -0.262	 -9.882	 -0.005	  0.003	  0.001	 31.500	 99.248	  0.310
52268	 -0.419	 -0.235	  0.050	  0.276	 -0.262	 -9.865	 -0.003	  0.001	  0.001	 31.500	 99.252	 -0.048
52318	 -0.420	 -0.235	  0.047	  0.293	 -0.248	 -9.883	 -0.002	  0.001	  0.000	 31.500	 99.252	 -0.048
52368	 -0.419	 -0.235	  0.047	  0.291	 -0.270	 -9.844	 -0.003	  0.002	 -0.000	 31.500	 99.248	  0.310
52418	 -0.420	 -0.231	  0.047	  0.290	 -0.276	 -9.859	 -0.002	 -0.000	 -0.000	 31.500	 99.252	 -0.048
52468	 -0.419	 -0.234	  0.048	  0.278	 -0.253	 -9.832	 -0.002	  0.002	  0.001	 31.500	 99.248	  0.310
52518	 -0.420	 -0.233	  0.044	  0.294	 -0.259	 -9.858	 -0.004	  0.001	  0.000	 31.500	 99.248	  0.310
52568	 -0.421	 -0.237	  0.047	  0.268	 -0.280	 -9.831	 -0.002	  0.001	  0.001	 31.500	 99.252	 -0.048
52618	 -0.420	 -0.234	  0.049	  0.277	 -0.256	 -9.850	 -0.002	  0.002	  0.000	 31.500	 99.263	 -1.032
52668	 -0.419	 -0.234	  0.046	  0.278	 -0.258	 -9.848	 -0.002	  0.002	  0.000	 31.500	 99.248	  0.310
52718	 -0.420	 -0.234	  0.054	  0.298	 -0.270	 -9.835	 -0.002	  0.001	  0.000	 31.500	 99.252	 -0.048
52768	 -0.417	 -0.234	  0.049	  0.261	 -0.227	 -9.809	 -0.003	  0.001	  0.000	 31.500	 99.248	  0.310
52818	 -0.419	 -0.223	  0.049	  0.244	 -0.263	 -9.834	 -0.004	  0.004	 -0.001	 31.500	 99.248	  0.310
52868	 -0.419	 -0.232	  0.043	  0.315	 -0.287	 -9.819	 -0.002	  0.001	  0.001	 31.500	 99.252	 -0.048
52918	 -0.421	 -0.233	  0.049	  0.273	 -0.250	 -9.832	 -0.001	  0.003	  0.001	 31.500	 99.263	 -1.032
52968	 -0.420	 -0.226	  0.049	  0.295	 -0.283	 -9.848	 -0.002	 -0.000	  0.000	 31.500	 99.252	 -0.048
53018	 -0.419	 -0.235	  0.054	  0.246	 -0.289	 -9.818	 -0.002	  0.001	  0.000	 31.500	 99.252	 -0.048
53068	 -0.419	 -0.235	  0.050	  0.271	 -0.258	 -9.836	 -0.003	  0.003	 -0.000	 31.500	 99.240	  1.026
53118	 -0.419	 -0.234	  0.046	  0.289	 -0.271	 -9.866	 -0.003	 -0.000	  0.001	 31.500	 99.252	 -0.048
53168	 -0.419	 -0.236	  0.045	  0.257	 -0.272	 -9.790	 -0.003	  0.001	  0.000	 31.500	 99.248	  0.310
53218	 -0.419	 -0.226	  0.051	  0.263	 -0.280	 -9.829	 -0.004	  0.003	  0.001	 31.500	 99.252	 -0.048
53268	 -0.420	 -0.233	  0.052	  0.277	 -0.262	 -9.816	 -0.002	  0.001	  0.000	 31.500	 99.252	 -0.048
53318	 -0.419	 -0.236	  0.047	  0.269	 -0.271	 -9.820	 -0.002	  0.002	 -0.001	 31.500	 99.240	  1.026
53368	 -0.419	 -0.230	  0.048	  0.268	 -0.286	 -9.864	 -0.002	  0.002	  0.000	 31.500	 99.252	 -0.048
53418	 -0.420	 -0.230	  0.048	  0.283	 -0.238	 -9.842	 -0.001	 -0.001	  0.001	 31.500	 99.248	  0.310
53468	 -0.417	 -0.225	  0.051	  0.264	 -0.267	 -9.825	 -0.003	  0.005	 -0.001	 31.500	 99.240	  1.026
53518	 -0.421	 -0.233	  0.045	  0.274	 -0.253	 -9.839	  0.000	 -0.001	  0.000	 31.500	 99.252	 -0.048
53568	 -0.420	 -0.234	  0.046	  0.280	 -0.271	 -9.818	 -0.002	  0.003	  0.000	 31.500	 99.252	 -0.048
53618	 -0.420	 -0.236	  0.051	  0.267	 -0.252	 -9.836	 -0.001	 -0.001	  0.001	 31.500	 99.252	 -0.048
53668	 -0.419	 -0.231	  0.045	  0.263	 -0.277	 -9.835	 -0.004	 -0.002	  0.001	 31.500	 99.252	 -0.048
53718	 -0.421	 -0.236	  0.043	  0.215	 -0.311	 -9.855	 -0.002	  0.005	  0.001	 31.500	 99.248	  0.310
53768	 -0.420	 -0.225	  0.049	  0.528	 -0.162	 -9.732	 -0.005	  0.004	 -0.000	 31.500	 99.240	  1.026
53818	 -0.421	 -0.238	  0.048	  0.189	 -0.415	 -9.860	 -0.013	  0.015	 -0.001	 31.500	 99.240	  1.026
53868	 -0.420	 -0.230	  0.047	  0.334	 -0.258	 -9.841	  0.002	 -0.006	  0.001	 31.500	 99.248	  0.310
53918	 -0.421	 -0.231	  0.048	  0.279	 -0.268	 -9.831	 -0.005	  0.007	 -0.001	 31.500	 99.252	 -0.048
53968	 -0.420	 -0.233	  0.047	  0.325	 -0.245	 -9.832	 -0.001	 -0.004	 -0.000	 31.500	 99.263	 -1.032
54018	 -0.420	 -0.232	  0.052	  0.217	 -0.287	 -9.869	 -0.003	  0.005	  0.001	 31.500	 99.252	 -0.048
54068	 -0.419	 -0.233	  0.049	  0.218	 -0.241	 -9.868	 -0.003	  0.004	 -0.002	 31.500	 99.263	 -1.032
54118	 -0.419	 -0.235	  0.049	  0.304	 -0.214	 -9.814	 -0.004	  0.003	  0.001	 31.500	 99.263	 -1.032
54168	 -0.420	 -0.235	  0.047	  0.207	 -0.261	 -9.866	  0.003	 -0.011	  0.001	 31.500	 99.240	  1.026
54219	 -0.420	 -0.223	  0.048	  0.291	 -0.213	 -9.843	 -0.015	  0.021	 -0.001	 31.500	 99.248	  0.310
54268	 -0.419	 -0.232	  0.051	 -0.030	 -0.320	 -9.872	  0.004	 -0.009	  0.002	 31.500	 99.252	 -0.048
54319	 -0.417	 -0.235	  0.051	  0.419	 -0.036	 -9.744	 -0.006	  0.009	  0.001	 31.500	 99.240	  1.026
54368	 -0.421	 -0.231	  0.048	  0.431	 -0.427	 -9.843	 -0.011	  0.012	  0.001	 31.500	 99.252	 -0.048
54418	 -0.420	 -0.233	  0.047	  0.159	 -0.231	 -9.915	 -0.016	  0.033	 -0.001	 31.500	 99.252	 -0.048
54468	 -0.420	 -0.234	  0.045	  0.488	 -0.217	 -9.840	 -0.034	  0.033	  0.002	 31.500	 99.240	  1.026
54518	 -0.419	 -0.223	  0.049	 -0.108	 -0.472	 -9.985	  0.021	 -0.056	  0.121	 31.500	 99.263	 -1.032
54569	 -0.420	 -0.235	  0.048	  0.309	 -0.166	 -9.974	 -0.014	  0.024	  0.183	 31.500	 99.240	  1.026
54618	 -0.422	 -0.230	  0.051	  0.336	 -0.332	 -9.855	 -0.001	  0.002	  0.058	 31.500	 99.252	 -0.048
54669	 -0.422	 -0.232	  0.047	  0.155	 -0.337	 -9.876	 -0.014	  0.022	  0.021	 31.500	 99.252	 -0.048
54719	 -0.425	 -0.227	  0.051	  0.231	 -0.272	 -9.857	 -0.045	  0.051	  0.146	 31.500	 99.263	 -1.032
54769	 -0.430	 -0.218	  0.047	  0.265	 -0.277	 -9.880	 -0.060	  0.061	  0.097	 31.600	 99.259	 -0.674
54819	 -0.430	 -0.222	  0.048	  0.882	  0.002	 -9.656	 -0.056	  0.052	  0.096	 31.500	 99.263	 -1.032
54869	 -0.429	 -0.224	  0.049	  0.284	  0.006	 -9.644	  0.057	 -0.077	  0.019	 31.500	 99.252	 -0.048
54919	 -0.429	 -0.224	  0.048	  0.012	 -0.202	 -9.815	  0.055	 -0.047	  0.019	 31.500	 99.252	 -0.048
54969	 -0.431	 -0.221	  0.043	  0.238	 -0.243	 -9.820	  0.071	 -0.087	  0.009	 31.500	 99.263	 -1.032
55019	 -0.428	 -0.216	  0.054	  0.318	 -0.180	 -9.801	 -0.023	  0.041	 -0.003	 31.500	 99.240	  1.026
55069	 -0.428	 -0.218	  0.050	 -0.313	 -0.407	 -9.884	 -0.015	  0.013	  0.003	 31.500	 99.252	 -0.048
55119	 -0.431	 -0.222	  0.050	  0.062	 -0.229	 -9.815	 -0.078	  0.087	  0.077	 31.500	 99.240	  1.026
55169	 -0.431	 -0.218	  0.051	  0.695	 -0.086	 -9.821	 -0.064	  0.068	  0.056	 31.500	 99.252	 -0.048
55219	 -0.433	 -0.221	  0.054	  0.389	 -0.204	 -9.842	 -0.006	  0.016	  0.005	 31.500	 99.252	 -0.048
55269	 -0.433	 -0.221	  0.052	  0.150	 -0.306	 -9.874	 -0.011	  0.007	  0.013	 31.500	 99.263	 -1.032
55319	 -0.431	 -0.221	  0.049	  0.220	 -0.132	 -9.815	 -0.068	  0.070	  0.010	 31.500	 99.240	  1.026
55369	 -0.433	 -0.222	  0.048	  0.637	 -0.427	 -9.909	  0.025	 -0.026	  0.183	 31.500	 99.252	 -0.048
55419	 -0.436	 -0.218	  0.052	  0.710	 -0.290	 -9.841	  0.003	 -0.002	  0.029	 31.500	 99.240	  1.026
55469	 -0.438	 -0.219	  0.051	  0.462	 -0.183	 -9.822	  0.003	 -0.015	  0.001	 31.500	 99.263	 -1.032
55519	 -0.436	 -0.219	  0.052	  0.156	 -0.069	 -9.695	  0.036	 -0.051	  0.011	 31.500	 99.252	 -0.048
55569	 -0.435	 -0.219	  0.051	  0.237	 -0.323	 -9.871	 -0.009	  0.022	 -0.000	 31.500	 99.252	 -0.048
55619	 -0.435	 -0.220	  0.053	  0.581	 -0.128	 -9.744	  0.004	 -0.019	 -0.000	 31.500	 99.252	 -0.048
55669	 -0.438	 -0.213	  0.047	  0.260	 -0.141	 -9.719	  0.051	 -0.057	  0.020	 31.500	 99.263	 -1.032
55719	 -0.433	 -0.217	  0.056	  0.012	 -0.900	 -9.991	  0.048	 -0.081	  0.007	 31.500	 99.259	 -0.674
55769	 -0.433	 -0.217	  0.052	  0.398	 -0.119	 -9.763	 -0.024	  0.049	 -0.003	 31.500	 99.263	 -1.032
55819	 -0.436	 -0.218	  0.047	  0.278	 -0.298	 -9.833	  0.005	 -0.020	  0.002	 31.500	 99.263	 -1.032
55869	 -0.434	 -0.219	  0.054	  0.336	 -0.264	 -9.545	 -0.011	  0.023	 -0.000	 31.500	 99.252	 -0.048
55919	 -0.433	 -0.214	  0.053	  0.095	 -0.110	 -9.149	  0.016	 -0.027	  0.001	 31.500	 99.252	 -0.048
55969	 -0.433	 -0.218	  0.052	  0.173	 -0.124	 -9.185	 -0.018	  0.029	 -0.000	 31.500	 99.252	 -0.048
56019	 -0.434	 -0.213	  0.047	 -0.203	 -0.515	 -9.459	 -0.035	  0.047	  0.032	 31.500	 99.252	 -0.048
56069	 -0.436	 -0.219	  0.053	  0.080	 -0.139	 -9.430	 -0.123	  0.118	  0.178	 31.500	 99.252	 -0.048
56119	 -0.439	 -0.215	  0.051	  0.726	  0.088	 -9.320	 -0.029	  0.028	  0.081	 31.500	 99.252	 -0.048
56169	 -0.440	 -0.214	  0.053	  0.392	 -0.138	 -9.721	  0.009	 -0.012	  0.000	 31.500	 99.248	  0.310
56219	 -0.438	 -0.217	  0.053	  0.394	  0.185	 -9.539	  0.029	 -0.037	  0.004	 31.500	 99.252	 -0.048
56269	 -0.439	 -0.210	  0.055	  0.495	 -0.264	 -9.918	  0.117	 -0.125	  0.047	 31.500	 99.248	  0.310
56319	 -0.437	 -0.211	  0.056	 -0.629	 -0.232	 -9.963	 -0.003	 -0.044	  0.004	 31.500	 99.252	 -0.048
56369	 -0.438	 -0.205	  0.054	  0.419	 -0.337	 -9.859	 -0.006	 -0.007	  0.000	 31.500	 99.252	 -0.048
56419	 -0.437	 -0.213	  0.054	  0.316	 -0.279	 -9.845	 -0.018	  0.037	 -0.002	 31.500	 99.248	  0.310
56469	 -0.437	 -0.211	  0.056	  0.587	 -0.316	 -9.886	 -0.032	  0.035	 -0.108	 31.500	 99.252	 -0.048
56519	 -0.434	 -0.213	  0.055	  0.220	 -0.300	 -9.880	  0.007	 -0.018	 -0.076	 31.500	 99.252	 -0.048
56569	 -0.435	 -0.218	  0.053	 -0.166	 -0.262	 -10.030	 -0.063	  0.082	 -0.088	 31.500	 99.263	 -1.032
56619	 -0.437	 -0.216	  0.049	  0.447	 -0.365	 -9.921	 -0.229	  0.218	  0.007	 31.500	 99.252	 -0.048
56669	 -0.439	 -0.210	  0.046	  0.343	 -0.021	 -9.750	 -0.180	  0.171	 -0.055	 31.500	 99.252	 -0.048
56719	 -0.441	 -0.219	  0.045	  0.693	  0.330	 -9.538	 -0.034	  0.038	  0.023	 31.500	 99.263	 -1.032
56769	 -0.439	 -0.219	  0.046	  0.768	 -0.042	 -10.140	 -0.024	 -0.025	 -0.014	 31.500	 99.252	 -0.048
56819	 -0.440	 -0.223	  0.039	  0.408	  0.333	 -10.145	 -0.029	 -0.033	  0.049	 31.500	 99.252	 -0.048
56869	 -0.438	 -0.217	  0.044	  0.438	 -0.135	 -10.466	  0.051	  0.021	  0.033	 31.600	 99.252	 -0.048
56919	 -0.437	 -0.209	  0.043	  0.568	 -0.165	 -10.173	  0.227	  0.094	  0.010	 31.500	 99.248	  0.310
56968	 -0.434	 -0.203	  0.047	  0.511	 -0.676	 -10.160	  0.211	  0.037	 -0.027	 31.500	 99.236	  1.384
57019	 -0.429	 -0.199	  0.053	  0.523	 -0.524	 -9.333	  0.288	 -0.015	 -0.050	 31.500	 99.252	 -0.048
57068	 -0.427	 -0.194	  0.060	  0.447	 -0.621	 -9.257	  0.113	 -0.032	 -0.021	 31.500	 99.252	 -0.048
57118	 -0.425	 -0.194	  0.060	  0.360	 -0.320	 -9.552	 -0.112	 -0.008	  0.018	 31.500	 99.252	 -0.048
57168	 -0.426	 -0.187	  0.065	  0.538	 -0.017	 -9.812	 -0.133	 -0.091	  0.092	 31.500	 99.240	  1.026
57218	 -0.425	 -0.190	  0.065	  0.841	  0.009	 -11.150	 -0.157	 -0.066	  0.009	 31.500	 99.252	 -0.048
57268	 -0.419	 -0.187	  0.072	  0.843	  0.110	 -12.532	 -0.102	  0.015	 -0.030	 31.500	 99.252	 -0.048
57319	 -0.413	 -0.176	  0.079	  0.759	 -0.072	 -10.909	  0.202	 -0.341	 -0.125	 31.500	 99.252	 -0.048
57368	 -0.396	 -0.167	  0.085	 -0.443	 -0.855	 -7.365	  0.281	 -0.200	 -0.038	 31.500	 99.252	 -0.048
57418	 -0.391	 -0.154	  0.098	  0.108	 -1.578	 -5.281	 -0.054	 -0.246	  0.115	 31.600	 99.256	 -0.405
57468	 -0.393	 -0.168	  0.098	 -0.545	 -0.746	 -8.594	 -0.584	 -0.019	  0.110	 31.500	 99.252	 -0.048
57518	 -0.401	 -0.181	  0.088	  0.868	  2.020	 -16.294	 -0.725	  0.344	 -0.065	 31.500	 99.263	 -1.032
57568	 -0.397	 -0.175	  0.085	  0.590	  2.380	 -12.269	  0.891	  0.013	 -0.072	 31.500	 99.252	 -0.048
57619	 -0.386	 -0.152	  0.107	 -0.225	 -3.250	 -3.188	  0.865	 -0.594	  0.001	 31.500	 99.240	  1.026
57668	 -0.380	 -0.145	  0.115	 -0.267	 -2.351	 -3.712	 -0.693	 -0.057	  0.102	 31.500	 99.263	 -1.032
57718	 -0.397	 -0.177	  0.099	  0.915	  3.920	 -19.939	 -1.499	  0.985	 -0.022	 31.600	 99.256	 -0.405
57768	 -0.397	 -0.174	  0.093	  1.581	  4.070	 -11.818	  1.193	 -0.396	 -0.099	 31.500	 99.252	 -0.048
57818	 -0.379	 -0.151	  0.114	 -0.656	 -5.601	 -1.479	  0.838	 -0.719	 -0.135	 31.500	 99.263	 -1.032
57868	 -0.379	 -0.161	  0.106	 -1.066	 -1.976	 -6.191	 -1.322	  0.528	 -0.131	 31.500	 99.252	 -0.048
57918	 -0.402	 -0.191	  0.086	  1.801	  6.146	 -20.018	 -0.961	  0.874	  0.330	 31.500	 99.252	 -0.048
57968	 -0.395	 -0.164	  0.092	  1.213	  1.353	 -9.080	  1.776	 -1.179	  0.151	 31.500	 99.252	 -0.048
58018	 -0.372	 -0.141	  0.111	 -1.988	 -5.718	 -1.804	  0.474	 -0.553	 -0.343	 31.600	 99.245	  0.578
58068	 -0.383	 -0.165	  0.113	 -0.982	  0.549	 -12.737	 -1.219	  1.226	  0.045	 31.600	 99.256	 -0.405
58118	 -0.393	 -0.164	  0.100	  2.870	  4.544	 -15.489	  0.817	 -0.379	  0.256	 31.500	 99.263	 -1.032
58168	 -0.372	 -0.133	  0.122	  0.003	 -3.579	 -3.117	  1.496	 -1.361	 -0.029	 31.500	 99.263	 -1.032
58218	 -0.363	 -0.130	  0.131	 -2.081	 -2.514	 -5.762	 -0.929	  0.534	 -0.023	 31.500	 99.252	 -0.048
58268	 -0.388	 -0.155	  0.108	  2.742	  4.719	 -19.156	 -0.805	  1.259	  0.222	 31.500	 99.252	 -0.048
58318	 -0.375	 -0.130	  0.119	  0.112	 -1.883	 -5.491	  1.867	 -1.734	 -0.190	 31.500	 99.240	  1.026
58368	 -0.359	 -0.110	  0.128	 -1.679	 -5.463	 -3.876	 -0.741	  0.378	 -0.029	 31.500	 99.240	  1.026
58418	 -0.388	 -0.139	  0.108	  0.050	  3.847	 -17.744	 -1.138	  1.684	  0.231	 31.500	 99.263	 -1.032
58468	 -0.385	 -0.138	  0.106	  1.758	  0.136	 -11.666	  1.550	 -1.550	 -0.036	 31.600	 99.240	  1.026
58518	 -0.356	 -0.107	  0.136	 -0.995	 -5.546	 -0.868	  0.199	 -0.809	 -0.142	 31.500	 99.252	 -0.048
58568	 -0.368	 -0.131	  0.126	 -3.010	  0.135	 -11.796	 -1.721	  1.731	  0.118	 31.500	 99.252	 -0.048
58618	 -0.391	 -0.146	  0.107	  4.232	  4.440	 -15.309	  0.682	  0.021	  0.168	 31.500	 99.252	 -0.048
58668	 -0.367	 -0.117	  0.123	 -0.318	 -4.422	 -3.730	  1.468	 -1.541	 -0.017	 31.500	 99.252	 -0.048
58718	 -0.362	 -0.115	  0.132	 -1.686	 -3.318	 -6.388	 -1.455	  0.833	  0.066	 31.500	 99.263	 -1.032
58768	 -0.392	 -0.146	  0.105	  2.468	  4.351	 -16.581	 -0.648	  1.057	  0.108	 31.500	 99.240	  1.026
58818	 -0.379	 -0.132	  0.117	  0.500	 -1.053	 -8.798	  1.509	 -1.547	 -0.174	 31.500	 99.240	  1.026
58868	 -0.358	 -0.119	  0.132	 -0.841	 -4.976	 -1.947	 -0.282	 -0.116	 -0.181	 31.500	 99.252	 -0.048
58918	 -0.375	 -0.143	  0.120	 -1.569	  2.593	 -14.548	 -1.613	  1.764	  0.308	 31.500	 99.252	 -0.048
58968	 -0.393	 -0.140	  0.106	  4.093	  3.556	 -14.501	  1.068	 -0.712	  0.031	 31.500	 99.240	  1.026
59018	 -0.365	 -0.110	  0.129	 -0.810	 -5.873	 -2.781	  1.541	 -1.392	 -0.144	 31.500	 99.252	 -0.048
59068	 -0.359	 -0.118	  0.130	 -1.549	 -3.811	 -5.034	 -1.721	  0.873	 -0.009	 31.600	 99.256	 -0.405
59118	 -0.393	 -0.155	  0.102	  1.147	  6.338	 -21.724	 -1.387	  1.471	  0.302	 31.500	 99.252	 -0.048
59168	 -0.386	 -0.137	  0.114	  1.584	  1.166	 -8.555	  2.323	 -1.790	 -0.219	 31.500	 99.252	 -0.048
59218	 -0.352	 -0.103	  0.138	 -1.635	 -8.646	 -1.406	  0.379	 -0.599	 -0.230	 31.600	 99.256	 -0.405
59268	 -0.366	 -0.136	  0.120	 -3.052	  0.381	 -8.951	 -2.284	  1.637	  0.199	 31.500	 99.252	 -0.048
59318	 -0.396	 -0.153	  0.105	  2.431	  6.220	 -19.533	  0.244	  0.327	  0.333	 31.500	 99.252	 -0.048
59368	 -0.381	 -0.121	  0.126	  0.963	 -1.662	 -7.447	  2.128	 -1.525	  0.170	 31.500	 99.252	 -0.048
59418	 -0.357	 -0.093	  0.143	 -1.062	 -6.275	 -1.300	 -0.022	 -0.358	 -0.182	 31.500	 99.263	 -1.032
59469	 -0.374	 -0.137	  0.126	 -2.934	 -0.002	 -10.960	 -1.961	  1.662	  0.017	 31.500	 99.240	  1.026
59518	 -0.398	 -0.163	  0.102	  4.411	  5.264	 -19.827	 -0.214	  0.055	  0.130	 31.500	 99.252	 -0.048
59568	 -0.375	 -0.127	  0.122	 -0.332	 -1.392	 -7.588	  2.108	 -1.488	 -0.047	 31.500	 99.252	 -0.048
59618	 -0.351	 -0.100	  0.139	 -0.903	 -5.481	  0.087	  0.249	 -0.235	 -0.114	 31.500	 99.252	 -0.048
59668	 -0.368	 -0.131	  0.124	 -0.752	 -1.240	 -5.686	 -1.872	  1.103	  0.090	 31.500	 99.252	 -0.048
59718	 -0.391	 -0.168	  0.109	 -0.897	  5.686	 -24.236	 -1.822	  0.769	  0.476	 31.500	 99.240	  1.026
59768	 -0.393	 -0.143	  0.111	  1.593	  3.546	 -12.898	  2.355	 -0.776	  0.015	 31.500	 99.240	  1.026
59818	 -0.365	 -0.094	  0.138	  0.959	 -5.747	  1.700	  1.935	 -1.350	 -0.081	 31.500	 99.252	 -0.048
59868	 -0.352	 -0.101	  0.141	 -1.191	 -4.367	 -1.078	 -1.939	  0.249	  0.014	 31.500	 99.252	 -0.048
59918	 -0.387	 -0.152	  0.114	 -3.121	  6.544	 -18.338	 -2.271	  2.448	  0.239	 31.500	 99.252	 -0.048
59968	 -0.409	 -0.155	  0.091	  2.928	  4.303	 -18.778	  1.535	 -0.559	 -0.125	 31.600	 99.245	  0.578
60018	 -0.383	 -0.115	  0.125	  0.770	 -6.088	 -3.618	  1.953	 -1.608	 -0.096	 31.500	 99.252	 -0.048
60068	 -0.364	 -0.106	  0.130	 -0.938	 -4.481	 -1.070	 -0.683	  0.137	 -0.146	 31.500	 99.240	  1.026
60118	 -0.389	 -0.142	  0.111	 -2.002	  3.756	 -17.142	 -1.997	  1.785	  0.372	 31.600	 99.252	 -0.048
60169	 -0.405	 -0.152	  0.104	  3.276	  3.752	 -15.416	  0.788	 -0.808	  0.029	 31.500	 99.252	 -0.048
60219	 -0.378	 -0.109	  0.125	  0.290	 -4.700	 -4.402	  1.439	 -1.450	 -0.199	 31.500	 99.252	 -0.048
60269	 -0.367	 -0.114	  0.130	 -0.885	 -4.011	 -2.866	 -0.538	  0.433	 -0.212	 31.500	 99.240	  1.026
60319	 -0.386	 -0.146	  0.114	 -1.009	  1.130	 -11.864	 -1.322	  1.270	  0.135	 31.600	 99.245	  0.578
60369	 -0.408	 -0.154	  0.096	  2.309	  2.220	 -14.871	 -0.074	 -0.002	  0.238	 31.500	 99.252	 -0.048
60419	 -0.399	 -0.146	  0.107	  0.040	 -0.530	 -10.780	  0.748	 -0.685	  0.086	 31.500	 99.252	 -0.048
60469	 -0.391	 -0.138	  0.111	 -0.222	 -2.383	 -8.109	  0.234	 -0.157	  0.012	 31.500	 99.252	 -0.048
60519	 -0.391	 -0.127	  0.114	 -0.048	 -1.375	 -9.214	 -0.081	  0.179	 -0.012	 31.500	 99.252	 -0.048
60569	 -0.392	 -0.138	  0.113	 -0.092	 -0.730	 -11.293	 -0.078	  0.107	  0.054	 31.500	 99.252	 -0.048
60619	 -0.390	 -0.126	  0.110	  0.179	 -0.776	 -13.335	  0.242	 -0.115	 -0.013	 31.500	 99.252	 -0.048
60669	 -0.385	 -0.117	  0.118	 -0.156	 -0.860	 -10.907	  0.757	 -0.381	 -0.093	 31.500	 99.229	  2.011
60719	 -0.370	 -0.101	  0.137	 -0.120	 -1.690	 -8.038	  0.799	 -0.339	 -0.041	 31.500	 99.252	 -0.048
60769	 -0.361	 -0.083	  0.140	  0.043	 -1.739	 -6.864	  0.252	 -0.280	  0.058	 31.500	 99.252	 -0.048
60819	 -0.359	 -0.081	  0.151	 -0.518	 -1.015	 -7.657	 -0.195	  0.007	 -0.012	 31.500	 99.252	 -0.048
60869	 -0.367	 -0.091	  0.144	 -0.463	 -0.930	 -9.237	 -0.323	  0.317	 -0.053	 31.500	 99.252	 -0.048
60919	 -0.368	 -0.097	  0.141	 -0.145	 -0.913	 -9.963	 -0.266	  0.213	  0.006	 31.500	 99.252	 -0.048
60969	 -0.373	 -0.100	  0.135	 -0.158	 -1.359	 -10.198	 -0.147	  0.032	  0.016	 31.500	 99.252	 -0.048
61019	 -0.373	 -0.102	  0.133	 -0.071	 -1.351	 -9.878	 -0.136	 -0.002	  0.041	 31.500	 99.236	  1.384
61069	 -0.375	 -0.106	  0.134	 -0.313	 -1.262	 -9.801	 -0.129	  0.058	  0.033	 31.500	 99.252	 -0.048
61118	 -0.376	 -0.114	  0.130	 -0.211	 -1.126	 -9.790	 -0.124	  0.095	  0.044	 31.500	 99.252	 -0.048
61168	 -0.377	 -0.112	  0.127	 -0.151	 -1.157	 -9.890	 -0.128	  0.053	  0.073	 31.500	 99.252	 -0.048
61218	 -0.379	 -0.113	  0.124	 -0.120	 -0.937	 -9.852	 -0.144	  0.008	  0.073	 31.500	 99.240	  1.026
61268	 -0.383	 -0.117	  0.127	 -0.019	 -0.857	 -9.675	 -0.095	  0.019	  0.046	 31.500	 99.263	 -1.032
61319	 -0.386	 -0.117	  0.118	 -0.167	 -0.819	 -9.719	 -0.069	  0.033	  0.039	 31.500	 99.252	 -0.048
61368	 -0.386	 -0.119	  0.125	  0.038	 -0.853	 -9.811	 -0.109	  0.053	  0.050	 31.500	 99.252	 -0.048
61418	 -0.386	 -0.114	  0.120	 -0.011	 -0.813	 -9.843	 -0.157	  0.016	  0.048	 31.500	 99.240	  1.026
61468	 -0.387	 -0.125	  0.120	  0.012	 -0.609	 -9.919	 -0.127	  0.081	  0.008	 31.500	 99.252	 -0.048
61518	 -0.389	 -0.125	  0.117	 -0.112	 -0.595	 -9.931	 -0.045	  0.031	 -0.002	 31.500	 99.240	  1.026
61568	 -0.391	 -0.127	  0.111	 -0.066	 -0.640	 -9.987	 -0.039	  0.019	  0.053	 31.500	 99.252	 -0.048
61618	 -0.391	 -0.130	  0.117	  0.007	 -0.664	 -9.702	 -0.042	 -0.025	  0.078	 31.500	 99.252	 -0.048
61668	 -0.392	 -0.132	  0.112	 -0.136	 -0.683	 -9.955	 -0.078	 -0.017	  0.038	 31.500	 99.263	 -1.032
61718	 -0.392	 -0.128	  0.114	 -0.117	 -0.484	 -9.813	 -0.053	  0.019	  0.034	 31.500	 99.263	 -1.032
61768	 -0.393	 -0.123	  0.111	 -0.046	 -0.445	 -9.769	  0.044	 -0.054	  0.057	 31.500	 99.263	 -1.032
61818	 -0.393	 -0.129	  0.114	 -0.132	 -0.691	 -9.790	 -0.004	 -0.053	  0.091	 31.500	 99.252	 -0.048
61868	 -0.394	 -0.123	  0.110	 -0.619	 -1.129	 -10.267	 -0.239	  0.172	 -0.060	 31.500	 99.252	 -0.048
61918	 -0.398	 -0.138	  0.108	  0.214	 -0.145	 -9.237	 -0.365	  0.211	  0.092	 31.500	 99.263	 -1.032
61968	 -0.401	 -0.141	  0.105	  0.397	 -0.681	 -8.475	 -0.175	  0.060	  0.112	 31.500	 99.240	  1.026
62018	 -0.407	 -0.143	  0.104	  0.115	 -0.887	 -10.963	 -0.326	  0.023	 -0.003	 31.600	 99.256	 -0.405
62068	 -0.412	 -0.152	  0.097	 -1.403	  4.283	 -22.532	 -0.364	  0.720	  0.074	 31.500	 99.263	 -1.032
62118	 -0.401	 -0.126	  0.109	  3.604	  1.600	 -8.827	  1.953	 -1.186	 -0.377	 31.500	 99.252	 -0.048
62168	 -0.356	 -0.094	  0.144	  0.425	 -6.368	  6.469	  0.628	 -1.480	 -0.270	 31.500	 99.252	 -0.048
62218	 -0.365	 -0.124	  0.128	 -2.247	 -3.213	 -3.967	 -2.105	  1.373	  0.036	 31.500	 99.240	  1.026
62268	 -0.401	 -0.162	  0.106	 -0.195	  7.492	 -26.728	 -0.832	  0.761	  0.988	 31.500	 99.252	 -0.048
62318	 -0.404	 -0.119	  0.110	  1.411	  3.272	 -16.863	  2.021	 -0.855	  0.213	 31.600	 99.256	 -0.405
62368	 -0.377	 -0.085	  0.129	  2.729	 -5.736	 -2.911	  1.397	 -0.678	 -0.907	 31.500	 99.263	 -1.032
62418	 -0.351	 -0.082	  0.141	 -2.758	 -4.680	  4.932	 -0.071	 -0.402	 -0.478	 31.500	 99.240	  1.026
62468	 -0.372	 -0.116	  0.130	 -1.424	  0.047	 -8.373	 -2.094	  0.957	  0.772	 31.600	 99.256	 -0.405
62518	 -0.404	 -0.149	  0.108	 -2.801	  8.066	 -33.194	 -1.384	  0.874	  0.551	 31.500	 99.252	 -0.048
62568	 -0.385	 -0.114	  0.126	  1.454	 -0.605	 -6.110	  3.327	 -1.698	 -0.739	 31.600	 99.256	 -0.405
62618	 -0.347	 -0.090	  0.146	  0.350	 -9.639	  4.094	 -0.201	 -0.440	 -0.489	 31.500	 99.252	 -0.048
62668	 -0.370	 -0.130	  0.130	 -2.776	  2.536	 -7.474	 -2.059	  1.302	  0.435	 31.500	 99.252	 -0.048
62718	 -0.400	 -0.138	  0.111	  1.143	  5.485	 -23.542	 -0.246	  0.902	  0.740	 31.500	 99.252	 -0.048
62768	 -0.390	 -0.116	  0.121	  1.645	 -2.482	 -8.140	  1.664	 -1.466	 -0.043	 31.500	 99.252	 -0.048
62818	 -0.369	 -0.109	  0.133	 -0.289	 -3.704	 -1.579	 -0.317	 -0.468	 -0.236	 31.500	 99.252	 -0.048
62868	 -0.377	 -0.130	  0.123	 -1.927	 -0.457	 -8.340	 -1.010	  0.893	  0.062	 31.500	 99.252	 -0.048
62918	 -0.396	 -0.152	  0.111	  0.679	  1.343	 -13.992	 -0.437	  0.446	  0.167	 31.500	 99.252	 -0.048
62968	 -0.399	 -0.147	  0.105	  0.021	 -0.022	 -12.130	  0.174	 -0.252	  0.052	 31.600	 99.256	 -0.405
63018	 -0.397	 -0.144	  0.108	 -0.731	 -0.567	 -9.468	  0.187	 -0.072	 -0.042	 31.600	 99.245	  0.578
63068	 -0.396	 -0.144	  0.110	 -0.077	 -0.956	 -9.209	  0.093	  0.147	 -0.057	 31.500	 99.240	  1.026
63118	 -0.397	 -0.142	  0.106	 -0.024	 -0.631	 -9.628	  0.039	  0.100	 -0.013	 31.600	 99.256	 -0.405
63168	 -0.399	 -0.144	  0.107	  0.036	 -0.205	 -10.291	 -0.049	  0.057	  0.053	 31.500	 99.248	  0.310
63218	 -0.400	 -0.141	  0.108	  0.085	  0.113	 -9.822	 -0.025	  0.038	  0.122	 31.500	 99.240	  1.026
63268	 -0.400	 -0.140	  0.108	  0.055	  0.093	 -9.414	  0.085	  0.060	 -0.010	 31.600	 99.240	  1.026
63318	 -0.403	 -0.144	  0.109	  0.116	 -0.221	 -9.362	  0.104	  0.089	 -0.010	 31.500	 99.252	 -0.048
63368	 -0.402	 -0.143	  0.104	  0.174	 -0.261	 -9.452	  0.074	  0.019	 -0.002	 31.500	 99.252	 -0.048
63418	 -0.406	 -0.138	  0.106	  0.042	 -0.123	 -9.928	 -0.068	 -0.015	  0.051	 31.500	 99.252	 -0.048
63468	 -0.411	 -0.143	  0.097	 -0.057	 -0.117	 -10.139	 -0.108	  0.065	  0.043	 31.500	 99.252	 -0.048
63518	 -0.410	 -0.148	  0.096	  0.154	 -0.330	 -10.105	 -0.053	  0.021	  0.035	 31.500	 99.263	 -1.032
63568	 -0.412	 -0.147	  0.094	  0.056	 -0.486	 -9.975	 -0.025	 -0.051	  0.043	 31.500	 99.252	 -0.048
63618	 -0.411	 -0.150	  0.090	  0.034	 -0.449	 -9.432	  0.042	 -0.004	 -0.034	 31.600	 99.256	 -0.405
63668	 -0.413	 -0.146	  0.095	 -0.087	 -0.515	 -9.830	  0.078	  0.053	 -0.100	 31.600	 99.256	 -0.405
63718	 -0.412	 -0.156	  0.092	  0.101	 -0.401	 -9.621	  0.063	  0.037	 -0.012	 31.500	 99.252	 -0.048
63768	 -0.414	 -0.154	  0.092	  0.230	 -0.351	 -10.163	  0.017	  0.041	  0.039	 31.600	 99.263	 -1.032
63818	 -0.416	 -0.153	  0.089	  0.474	 -0.123	 -9.760	  0.128	  0.057	 -0.051	 31.500	 99.252	 -0.048
63868	 -0.420	 -0.160	  0.085	  0.300	 -0.545	 -9.962	  0.044	  0.110	 -0.131	 31.500	 99.240	  1.026
63918	 -0.421	 -0.159	  0.080	  0.446	 -0.436	 -9.649	  0.017	  0.086	 -0.145	 31.500	 99.252	 -0.048
63968	 -0.418	 -0.162	  0.085	  0.272	 -0.534	 -9.654	  0.017	  0.024	 -0.111	 31.600	 99.252	 -0.048
64018	 -0.420	 -0.166	  0.084	  0.184	 -0.514	 -9.918	 -0.119	  0.020	 -0.046	 31.500	 99.259	 -0.674
64068	 -0.425	 -0.169	  0.077	  0.345	 -0.285	 -9.730	 -0.096	  0.030	 -0.011	 31.500	 99.240	  1.026
64118	 -0.422	 -0.171	  0.077	  0.245	 -0.308	 -9.803	 -0.099	  0.004	  0.005	 31.500	 99.240	  1.026
64168	 -0.427	 -0.176	  0.073	  0.312	 -0.268	 -9.828	 -0.050	 -0.026	 -0.032	 31.500	 99.252	 -0.048
64218	 -0.427	 -0.183	  0.070	  0.196	 -0.303	 -9.917	 -0.069	  0.025	 -0.002	 31.600	 99.252	 -0.048
64268	 -0.431	 -0.180	  0.065	  0.138	 -0.388	 -10.018	 -0.072	 -0.029	  0.035	 31.600	 99.256	 -0.405
64318	 -0.431	 -0.179	  0.064	  0.172	 -0.369	 -10.113	 -0.046	 -0.080	  0.053	 31.600	 99.256	 -0.405
64368	 -0.431	 -0.181	  0.067	  0.217	 -0.149	 -9.761	 -0.119	 -0.064	  0.023	 31.500	 99.252	 -0.048
64418	 -0.431	 -0.187	  0.064	  0.144	  0.143	 -9.392	 -0.116	  0.088	 -0.050	 31.500	 99.252	 -0.048
64468	 -0.431	 -0.186	  0.063	  0.152	  0.184	 -10.051	 -0.206	  0.063	 -0.039	 31.500	 99.252	 -0.048
64518	 -0.432	 -0.188	  0.061	  0.080	  0.032	 -8.887	 -0.169	 -0.086	  0.037	 31.500	 99.252	 -0.048
64568	 -0.435	 -0.201	  0.060	  0.796	 -0.218	 -9.757	  0.038	 -0.067	 -0.027	 31.500	 99.252	 -0.048
64618	 -0.434	 -0.194	  0.060	  0.117	 -0.239	 -9.970	 -0.123	 -0.082	  0.054	 31.600	 99.256	 -0.405
64668	 -0.433	 -0.196	  0.059	  0.397	  0.188	 -10.780	 -0.004	 -0.108	 -0.030	 31.600	 99.252	 -0.048
64718	 -0.435	 -0.194	  0.064	 -0.021	  0.132	 -9.909	 -0.006	  0.014	 -0.001	 31.600	 99.252	 -0.048
64768	 -0.434	 -0.196	  0.064	  0.262	  0.149	 -9.754	 -0.017	  0.045	 -0.001	 31.500	 99.252	 -0.048
64818	 -0.433	 -0.196	  0.056	  0.347	  0.169	 -9.750	  0.012	 -0.069	 -0.017	 31.500	 99.252	 -0.048
64869	 -0.431	 -0.196	  0.061	 -0.149	 -0.083	 -10.265	  0.011	 -0.073	 -0.024	 31.500	 99.252	 -0.048
64918	 -0.431	 -0.187	  0.067	  0.130	  0.258	 -9.725	  0.008	 -0.024	  0.002	 31.500	 99.252	 -0.048
64968	 -0.430	 -0.198	  0.059	 -0.039	 -0.022	 -9.944	  0.003	 -0.002	  0.000	 31.600	 99.240	  1.026
65018	 -0.432	 -0.193	  0.060	  0.054	  0.119	 -9.878	 -0.014	  0.021	 -0.000	 31.500	 99.252	 -0.048
65068	 -0.433	 -0.195	  0.063	  0.306	  0.195	 -9.756	  0.001	 -0.008	 -0.010	 31.500	 99.252	 -0.048
65118	 -0.432	 -0.189	  0.064	  0.095	  0.291	 -9.758	  0.014	 -0.038	 -0.001	 31.500	 99.240	  1.026
65168	 -0.431	 -0.196	  0.063	 -0.080	 -0.024	 -9.893	  0.004	 -0.017	  0.001	 31.600	 99.267	 -1.390
65219	 -0.432	 -0.196	  0.061	  0.106	  0.096	 -9.851	 -0.006	  0.011	  0.002	 31.600	 99.240	  1.026
65268	 -0.433	 -0.198	  0.064	  0.096	  0.125	 -9.830	 -0.004	  0.003	  0.000	 31.600	 99.252	 -0.048
65319	 -0.429	 -0.194	  0.064	  0.091	  0.137	 -9.856	 -0.001	 -0.003	 -0.000	 31.600	 99.240	  1.026
65368	 -0.429	 -0.199	  0.060	  0.082	  0.112	 -9.861	  0.001	 -0.004	 -0.001	 31.600	 99.256	 -0.405
65418	 -0.431	 -0.188	  0.065	  0.053	  0.095	 -9.854	 -0.005	  0.007	  0.000	 31.600	 99.256	 -0.405
65468	 -0.430	 -0.197	  0.066	  0.081	  0.154	 -9.814	 -0.005	  0.008	  0.000	 31.500	 99.252	 -0.048
65518	 -0.430	 -0.186	  0.064	  0.118	  0.103	 -9.847	 -0.003	  0.001	  0.001	 31.600	 99.240	  1.026
65569	 -0.430	 -0.193	  0.066	  0.081	  0.109	 -9.868	 -0.000	 -0.005	 -0.000	 31.600	 99.256	 -0.405
65618	 -0.431	 -0.195	  0.066	  0.070	  0.103	 -9.850	 -0.005	  0.006	 -0.000	 31.500	 99.252	 -0.048
65669	 -0.434	 -0.194	  0.065	  0.127	  0.112	 -9.844	 -0.000	 -0.001	 -0.001	 31.500	 99.240	  1.026
65718	 -0.433	 -0.197	  0.059	  0.089	  0.095	 -9.809	  0.001	 -0.006	  0.001	 31.500	 99.252	 -0.048
65769	 -0.432	 -0.193	  0.068	  0.104	  0.092	 -9.832	  0.001	 -0.005	 -0.000	 31.600	 99.256	 -0.405
65819	 -0.430	 -0.197	  0.063	  0.061	  0.089	 -9.866	 -0.001	 -0.002	 -0.001	 31.500	 99.252	 -0.048
65869	 -0.432	 -0.190	  0.065	  0.095	  0.143	 -9.814	 -0.002	  0.001	 -0.000	 31.600	 99.263	 -1.032
65919	 -0.431	 -0.192	  0.064	  0.044	  0.102	 -9.844	 -0.003	  0.002	  0.001	 31.600	 99.245	  0.578
65969	 -0.431	 -0.197	  0.068	  0.116	  0.123	 -9.855	  0.001	 -0.004	  0.000	 31.600	 99.245	  0.578
66019	 -0.432	 -0.195	  0.064	  0.184	  0.217	 -9.751	  0.025	 -0.032	  0.001	 31.500	 99.252	 -0.048
66069	 -0.429	 -0.186	  0.067	  0.229	  0.223	 -9.725	  0.100	 -0.134	 -0.000	 31.500	 99.252	 -0.048
66119	 -0.429	 -0.182	  0.065	 -0.724	 -0.535	 -10.151	  0.000	  0.021	 -0.000	 31.600	 99.256	 -0.405
66169	 -0.427	 -0.194	  0.064	  0.330	  0.274	 -9.607	  0.004	 -0.020	 -0.001	 31.500	 99.252	 -0.048
66219	 -0.428	 -0.193	  0.068	 -0.228	 -0.003	 -9.882	 -0.013	  0.021	 -0.000	 31.500	 99.252	 -0.048
66269	 -0.427	 -0.192	  0.065	  0.079	  0.082	 -9.804	  0.000	 -0.009	  0.000	 31.500	 99.252	 -0.048
66319	 -0.427	 -0.192	  0.067	 -0.019	  0.020	 -9.838	 -0.006	  0.008	  0.002	 31.600	 99.256	 -0.405
66369	 -0.429	 -0.194	  0.066	 -0.006	  0.039	 -9.846	  0.002	 -0.007	  0.000	 31.600	 99.256	 -0.405
66419	 -0.424	 -0.196	  0.065	 -0.013	  0.030	 -9.836	 -0.003	  0.004	  0.001	 31.600	 99.256	 -0.405
66469	 -0.429	 -0.191	  0.059	 -0.010	  0.027	 -9.837	 -0.001	  0.000	 -0.000	 31.600	 99.252	 -0.048
66519	 -0.429	 -0.194	  0.064	  0.019	  0.060	 -9.843	 -0.002	  0.002	 -0.001	 31.500	 99.240	  1.026
66569	 -0.429	 -0.190	  0.067	 -0.014	  0.041	 -9.837	 -0.000	 -0.001	  0.002	 31.500	 99.252	 -0.048
66619	 -0.428	 -0.194	  0.066	  0.025	  0.062	 -9.826	 -0.003	  0.002	 -0.001	 31.500	 99.252	 -0.048
66669	 -0.429	 -0.184	  0.066	 -0.077	  0.006	 -9.853	 -0.003	  0.002	 -0.000	 31.600	 99.245	  0.578
66719	 -0.428	 -0.194	  0.065	 -0.023	 -0.023	 -9.877	 -0.007	  0.007	 -0.000	 31.500	 99.252	 -0.048
66769	 -0.429	 -0.190	  0.069	 -0.163	 -0.100	 -9.871	  0.004	 -0.018	  0.001	 31.600	 99.256	 -0.405
66819	 -0.431	 -0.190	  0.068	  0.233	  0.143	 -9.769	  0.009	 -0.025	  0.001	 31.600	 99.256	 -0.405
66869	 -0.427	 -0.184	  0.069	 -0.023	  0.047	 -9.900	 -0.015	  0.037	 -0.003	 31.600	 99.245	  0.578
66919	 -0.428	 -0.192	  0.063	  0.153	 -0.094	 -9.928	  0.012	 -0.018	 -0.002	 31.500	 99.252	 -0.048
66969	 -0.429	 -0.197	  0.065	  0.084	  0.006	 -9.828	 -0.010	  0.022	  0.000	 31.500	 99.252	 -0.048
67019	 -0.427	 -0.185	  0.067	 -0.165	 -0.056	 -9.898	  0.000	 -0.006	  0.000	 31.500	 99.252	 -0.048
67069	 -0.427	 -0.190	  0.069	  0.136	  0.053	 -9.809	 -0.007	  0.008	  0.002	 31.600	 99.252	 -0.048
67119	 -0.427	 -0.195	  0.068	 -0.115	  0.093	 -9.831	  0.002	 -0.005	 -0.000	 31.600	 99.256	 -0.405
67169	 -0.430	 -0.188	  0.068	  0.025	  0.067	 -9.871	 -0.003	  0.004	  0.000	 31.600	 99.256	 -0.405
67219	 -0.429	 -0.195	  0.068	 -0.010	  0.053	 -9.829	 -0.001	 -0.004	 -0.001	 31.500	 99.252	 -0.048
67269	 -0.428	 -0.190	  0.066	 -0.011	  0.026	 -9.865	 -0.004	  0.005	  0.001	 31.500	 99.263	 -1.032
67319	 -0.427	 -0.200	  0.065	  0.019	  0.080	 -9.821	 -0.003	 -0.001	 -0.001	 31.600	 99.245	  0.578
67369	 -0.424	 -0.195	  0.068	 -0.022	  0.062	 -9.868	 -0.003	  0.003	  0.000	 31.600	 99.245	  0.578
67419	 -0.427	 -0.196	  0.068	 -0.039	  0.027	 -9.846	 -0.001	  0.000	 -0.001	 31.500	 99.252	 -0.048
67469	 -0.428	 -0.189	  0.068	  0.017	  0.059	 -9.828	 -0.002	  0.003	 -0.001	 31.600	 99.245	  0.578
67519	 -0.427	 -0.192	  0.065	 -0.001	  0.019	 -9.892	 -0.003	  0.000	  0.001	 31.500	 99.252	 -0.048
67569	 -0.427	 -0.185	  0.068	  0.014	  0.046	 -9.834	 -0.002	  0.001	 -0.000	 31.600	 99.256	 -0.405
67619	 -0.429	 -0.193	  0.064	 -0.007	  0.040	 -9.838	 -0.003	  0.002	  0.001	 31.600	 99.256	 -0.405
67669	 -0.430	 -0.195	  0.068	 -0.011	  0.043	 -9.835	 -0.002	  0.001	  0.000	 31.600	 99.256	 -0.405
67719	 -0.426	 -0.196	  0.058	  0.005	  0.035	 -9.852	 -0.003	  0.001	 -0.002	 31.600	 99.245	  0.578
67769	 -0.427	 -0.196	  0.068	 -0.821	 -0.072	 -10.292	 -0.061	  0.074	  0.000	 31.600	 99.256	 -0.405
67819	 -0.427	 -0.196	  0.059	  0.976	  0.247	 -9.953	 -0.067	  0.195	  0.013	 31.500	 99.252	 -0.048
67869	 -0.428	 -0.194	  0.067	  1.147	  0.302	 -9.601	  0.039	 -0.110	  0.088	 31.500	 99.252	 -0.048
67919	 -0.431	 -0.193	  0.069	  0.118	 -0.305	 -9.930	  0.248	 -0.279	 -0.004	 31.600	 99.256	 -0.405
67969	 -0.429	 -0.190	  0.072	  0.151	  0.214	 -10.123	 -0.081	  0.137	 -0.000	 31.500	 99.252	 -0.048
68019	 -0.430	 -0.196	  0.068	  0.405	 -0.003	 -9.854	 -0.071	  0.087	  0.000	 31.600	 99.256	 -0.405
68069	 -0.433	 -0.189	  0.064	  0.294	  0.204	 -9.780	  0.004	 -0.014	 -0.000	 31.600	 99.256	 -0.405
68119	 -0.427	 -0.195	  0.070	  0.123	  0.136	 -9.814	  0.069	 -0.095	 -0.001	 31.500	 99.252	 -0.048
68169	 -0.427	 -0.194	  0.070	 -0.687	 -0.044	 -9.976	  0.007	 -0.016	  0.002	 31.600	 99.245	  0.578
68219	 -0.430	 -0.191	  0.068	  1.558	  0.164	 -10.121	 -0.034	  0.115	  0.163	 31.500	 99.240	  1.026
68269	 -0.428	 -0.193	  0.066	 -0.297	  0.824	 -9.323	  0.193	 -0.235	  0.000	 31.500	 99.263	 -1.032
68319	 -0.429	 -0.188	  0.068	 -0.673	 -0.949	 -10.099	 -0.009	  0.029	 -0.000	 31.600	 99.256	 -0.405
68369	 -0.427	 -0.192	  0.074	 -0.066	  0.165	 -9.715	 -0.007	 -0.000	 -0.001	 31.600	 99.245	  0.578
68419	 -0.428	 -0.186	  0.062	 -0.052	  0.136	 -9.843	 -0.068	  0.088	  0.000	 31.600	 99.245	  0.578
68469	 -0.429	 -0.190	  0.064	  0.443	  0.385	 -9.599	  0.056	 -0.069	 -0.001	 31.500	 99.252	 -0.048
68519	 -0.430	 -0.184	  0.069	 -0.752	 -0.228	 -9.940	 -0.003	  0.036	 -0.000	 31.500	 99.240	  1.026
68569	 -0.426	 -0.188	  0.070	 -0.001	  0.084	 -9.766	 -0.001	  0.013	 -0.001	 31.600	 99.245	  0.578
68619	 -0.428	 -0.188	  0.069	 -0.041	  0.007	 -9.863	 -0.000	  0.001	  0.000	 31.500	 99.240	  1.026
68669	 -0.431	 -0.187	  0.069	  0.108	  0.059	 -9.812	 -0.040	  0.046	  0.000	 31.600	 99.245	  0.578
68719	 -0.428	 -0.193	  0.063	  0.113	  0.171	 -9.741	  0.044	 -0.059	 -0.000	 31.600	 99.256	 -0.405
68769	 -0.429	 -0.188	  0.067	 -0.293	  0.134	 -9.847	 -0.000	 -0.007	 -0.001	 31.600	 99.256	 -0.405
68819	 -0.430	 -0.187	  0.062	 -0.058	  0.093	 -9.823	  0.000	 -0.004	 -0.001	 31.500	 99.252	 -0.048
68869	 -0.432	 -0.189	  0.067	  0.050	  0.057	 -9.790	 -0.002	  0.000	  0.001	 31.600	 99.240	  1.026
68919	 -0.430	 -0.187	  0.065	 -0.067	  0.016	 -9.846	 -0.002	  0.001	  0.001	 31.500	 99.252	 -0.048
68969	 -0.427	 -0.187	  0.067	 -0.004	  0.053	 -9.834	 -0.003	  0.003	 -0.002	 31.500	 99.252	 -0.048
69019	 -0.430	 -0.182	  0.071	 -0.069	  0.087	 -9.843	 -0.004	  0.006	 -0.001	 31.500	 99.252	 -0.048
69069	 -0.430	 -0.180	  0.068	  0.004	  0.080	 -9.834	 -0.002	 -0.001	  0.000	 31.600	 99.256	 -0.405
69119	 -0.427	 -0.186	  0.063	 -0.018	  0.035	 -9.854	 -0.001	 -0.003	  0.000	 31.600	 99.256	 -0.405
69169	 -0.430	 -0.190	  0.071	  0.015	  0.054	 -9.856	 -0.004	  0.004	 -0.000	 31.500	 99.252	 -0.048
69219	 -0.429	 -0.184	  0.066	  0.013	  0.048	 -9.820	 -0.001	 -0.002	  0.001	 31.600	 99.256	 -0.405
69268	 -0.432	 -0.188	  0.063	 -0.002	  0.050	 -9.853	 -0.004	  0.005	 -0.000	 31.600	 99.245	  0.578
69319	 -0.431	 -0.185	  0.067	 -0.044	  0.016	 -9.801	 -0.000	 -0.001	  0.001	 31.500	 99.252	 -0.048
69368	 -0.429	 -0.190	  0.067	 -0.013	  0.044	 -9.832	 -0.000	  0.001	  0.000	 31.600	 99.256	 -0.405
69419	 -0.428	 -0.187	  0.066	  0.001	  0.055	 -9.852	 -0.003	  0.002	 -0.002	 31.500	 99.240	  1.026
69468	 -0.431	 -0.186	  0.067	 -0.026	  0.025	 -9.846	 -0.003	  0.001	 -0.000	 31.600	 99.256	 -0.405
69518	 -0.430	 -0.190	  0.064	 -0.006	  0.052	 -9.842	 -0.006	  0.008	  0.000	 31.500	 99.240	  1.026
69569	 -0.431	 -0.189	  0.069	 -0.001	  0.039	 -9.871	 -0.002	  0.002	 -0.000	 31.600	 99.256	 -0.405
69618	 -0.427	 -0.187	  0.066	 -0.015	  0.044	 -9.864	 -0.002	 -0.000	  0.001	 31.500	 99.240	  1.026
69668	 -0.429	 -0.184	  0.064	 -0.017	  0.030	 -9.837	 -0.001	 -0.001	 -0.000	 31.600	 99.252	 -0.048
69718	 -0.429	 -0.189	  0.066	 -0.011	  0.021	 -9.796	 -0.004	  0.002	  0.000	 31.600	 99.256	 -0.405
69768	 -0.430	 -0.188	  0.067	  0.002	  0.041	 -9.829	 -0.003	  0.001	  0.001	 31.600	 99.245	  0.578
69818	 -0.428	 -0.190	  0.068	 -0.014	  0.042	 -9.843	 -0.001	 -0.002	 -0.002	 31.600	 99.267	 -1.390
69868	 -0.429	 -0.186	  0.064	 -0.060	 -0.046	 -9.871	 -0.005	  0.003	  0.000	 31.600	 99.256	 -0.405
69918	 -0.431	 -0.182	  0.067	  0.067	  0.071	 -9.817	 -0.006	  0.005	  0.000	 31.600	 99.256	 -0.405
69968	 -0.428	 -0.190	  0.070	 -0.034	  0.033	 -9.869	  0.000	 -0.002	  0.001	 31.600	 99.256	 -0.405
70018	 -0.432	 -0.187	  0.064	 -0.020	  0.015	 -9.889	 -0.003	  0.003	  0.001	 31.600	 99.256	 -0.405
70068	 -0.430	 -0.182	  0.061	  0.022	  0.024	 -9.845	 -0.005	  0.004	 -0.000	 31.500	 99.252	 -0.048
70118	 -0.429	 -0.186	  0.063	  0.042	  0.066	 -9.814	 -0.001	 -0.003	  0.001	 31.600	 99.245	  0.578
70168	 -0.430	 -0.187	  0.068	 -0.031	  0.027	 -9.846	 -0.003	  0.003	 -0.001	 31.600	 99.245	  0.578
70218	 -0.431	 -0.189	  0.067	 -0.026	  0.059	 -9.827	 -0.006	  0.004	  0.001	 31.600	 99.256	 -0.405
70268	 -0.429	 -0.188	  0.066	 -0.115	  0.031	 -9.855	 -0.004	  0.008	  0.000	 31.500	 99.252	 -0.048
70318	 -0.429	 -0.183	  0.069	  0.017	  0.076	 -9.856	 -0.001	 -0.005	 -0.000	 31.500	 99.240	  1.026
70368	 -0.428	 -0.180	  0.071	  0.011	  0.073	 -9.845	 -0.002	  0.001	 -0.000	 31.600	 99.252	 -0.048
70418	 -0.431	 -0.185	  0.067	 -0.005	  0.038	 -9.858	 -0.006	  0.009	  0.001	 31.500	 99.252	 -0.048
70469	 -0.432	 -0.189	  0.068	 -0.095	 -0.027	 -9.918	 -0.016	  0.013	  0.000	 31.600	 99.256	 -0.405
70518	 -0.429	 -0.191	  0.062	  0.287	  0.119	 -9.839	 -0.036	  0.042	  0.000	 31.600	 99.256	 -0.405
70568	 -0.429	 -0.188	  0.066	  0.539	  0.224	 -9.714	  0.016	 -0.026	  0.004	 31.600	 99.252	 -0.048
70618	 -0.431	 -0.193	  0.068	 -0.268	 -0.162	 -9.983	 -0.010	  0.006	 -0.001	 31.500	 99.252	 -0.048
70668	 -0.429	 -0.188	  0.067	  0.304	  0.328	 -9.587	 -0.035	  0.038	  0.001	 31.600	 99.256	 -0.405
70718	 -0.430	 -0.194	  0.068	 -0.143	  0.056	 -9.884	  0.001	  0.030	  0.001	 31.600	 99.256	 -0.405
70768	 -0.429	 -0.185	  0.068	 -0.241	  0.993	 -9.887	  0.078	  0.018	  0.176	 31.600	 99.267	 -1.390
70819	 -0.431	 -0.179	  0.070	 -0.598	 -0.447	 -11.318	  0.149	  0.099	  0.151	 31.600	 99.256	 -0.405
70868	 -0.432	 -0.164	  0.066	  0.506	 -0.540	 -10.907	  0.113	 -0.033	  0.076	 31.500	 99.252	 -0.048
70918	 -0.423	 -0.169	  0.076	  0.395	 -0.416	 -10.578	  0.138	 -0.254	 -0.231	 31.600	 99.252	 -0.048
70968	 -0.412	 -0.164	  0.086	 -0.014	 -0.525	 -10.403	  0.101	 -0.128	 -0.322	 31.600	 99.252	 -0.048
71018	 -0.403	 -0.159	  0.090	 -0.145	  0.019	 -10.237	  0.182	  0.048	 -0.410	 31.600	 99.252	 -0.048
71068	 -0.393	 -0.153	  0.095	 -0.861	 -0.249	 -10.108	 -0.101	  0.080	 -0.284	 31.600	 99.245	  0.578
71118	 -0.384	 -0.148	  0.104	 -0.409	  0.358	 -10.535	  0.065	 -0.171	 -0.072	 31.600	 99.240	  1.026
71169	 -0.377	 -0.132	  0.114	  0.251	 -0.408	 -10.818	  0.103	 -0.254	 -0.045	 31.600	 99.252	 -0.048
71218	 -0.363	 -0.125	  0.117	 -0.317	 -3.774	  3.120	  0.128	 -0.341	  0.267	 31.500	 99.252	 -0.048
71269	 -0.367	 -0.145	  0.115	 -0.928	 -4.014	 -4.841	 -1.891	 -0.111	 -0.435	 31.600	 99.240	  1.026
71319	 -0.392	 -0.189	  0.097	 -0.075	 16.639	 -36.868	 -0.133	  1.921	  0.015	 31.600	 99.256	 -0.405
71369	 -0.379	 -0.123	  0.126	  1.949	 -6.237	  1.012	  3.106	 -1.625	  0.729	 31.600	 99.245	  0.578
71419	 -0.350	 -0.119	  0.137	 -1.485	 -7.174	  8.098	 -1.161	 -0.261	 -0.469	 31.600	 99.245	  0.578
71469	 -0.387	 -0.163	  0.109	  1.758	 13.942	 -30.310	 -1.388	  2.514	 -0.268	 31.600	 99.256	 -0.405
71519	 -0.366	 -0.130	  0.133	  0.519	 -4.632	 -0.833	  2.555	 -2.723	  0.326	 31.600	 99.256	 -0.405
71569	 -0.335	 -0.122	  0.150	 -3.501	 -5.550	  4.375	 -0.767	  1.121	 -0.487	 31.600	 99.256	 -0.405
71619	 -0.395	 -0.160	  0.108	 10.695	 10.988	 -31.053	 -0.941	  1.437	  0.611	 31.500	 99.252	 -0.048
71669	 -0.354	 -0.130	  0.141	  0.989	 -8.292	  4.113	  1.626	 -3.560	  0.243	 31.600	 99.252	 -0.048
71719	 -0.352	 -0.141	  0.140	 -8.862	  5.626	 -8.719	 -1.534	  3.591	 -0.333	 31.500	 99.240	  1.026
71769	 -0.388	 -0.154	  0.119	  6.983	  1.383	 -21.385	  0.215	 -1.971	  0.295	 31.600	 99.256	 -0.405
71819	 -0.346	 -0.128	  0.142	 -3.082	 -2.878	 -1.256	  0.801	 -0.374	 -0.569	 31.600	 99.245	  0.578
71869	 -0.366	 -0.148	  0.127	 -0.319	  2.644	 -8.643	 -0.891	  1.431	 -0.027	 31.600	 99.252	 -0.048
71919	 -0.380	 -0.162	  0.114	  1.229	  1.574	 -13.369	 -0.369	 -0.019	  0.298	 31.600	 99.256	 -0.405
71969	 -0.382	 -0.160	  0.117	 -0.096	 -1.449	 -8.998	  0.082	 -0.159	 -0.107	 31.600	 99.240	  1.026
72019	 -0.380	 -0.160	  0.118	 -0.532	 -0.465	 -8.029	 -0.146	  0.165	  0.064	 31.600	 99.256	 -0.405
72069	 -0.390	 -0.171	  0.106	  0.642	  0.432	 -15.250	 -0.527	  0.452	  0.040	 31.600	 99.256	 -0.405
72119	 -0.393	 -0.171	  0.107	  1.482	  2.311	 -16.885	  0.691	 -0.135	 -0.007	 31.500	 99.252	 -0.048
72169	 -0.371	 -0.136	  0.132	  1.279	 -2.435	 -3.376	  1.610	 -1.168	 -0.125	 31.600	 99.256	 -0.405
72219	 -0.347	 -0.125	  0.149	 -0.038	 -4.720	  6.589	 -0.246	 -0.151	 -0.066	 31.600	 99.245	  0.578
72269	 -0.383	 -0.173	  0.120	 -1.128	  8.048	 -21.690	 -2.885	  1.680	  0.089	 31.600	 99.256	 -0.405
72319	 -0.390	 -0.173	  0.109	  0.730	  7.161	 -19.221	  1.714	 -0.953	  0.035	 31.600	 99.256	 -0.405
72369	 -0.356	 -0.132	  0.138	  1.124	 -10.401	  8.439	  1.562	 -1.067	 -0.366	 31.600	 99.245	  0.578
72419	 -0.359	 -0.154	  0.136	 -2.393	  2.400	 -13.944	 -2.170	  1.221	  0.280	 31.600	 99.245	  0.578
72469	 -0.387	 -0.166	  0.109	  3.533	  6.381	 -21.143	  0.748	 -0.189	  0.274	 31.600	 99.256	 -0.405
72519	 -0.354	 -0.134	  0.142	 -0.163	 -10.019	  5.271	  1.441	 -1.586	 -0.668	 31.600	 99.245	  0.578
72569	 -0.366	 -0.155	  0.131	 -5.387	  7.444	 -16.724	 -2.178	  2.561	  0.233	 31.600	 99.263	 -1.032
72619	 -0.384	 -0.145	  0.127	  3.288	  1.719	 -9.884	  1.970	 -1.895	  0.606	 31.600	 99.245	  0.578
72669	 -0.350	 -0.120	  0.153	 -3.220	 -5.940	  0.076	 -0.217	 -0.287	 -0.674	 31.600	 99.252	 -0.048
72719	 -0.374	 -0.147	  0.134	 -0.041	  8.402	 -22.946	 -0.957	  1.336	  0.288	 31.600	 99.256	 -0.405
72769	 -0.361	 -0.118	  0.149	  4.436	 -9.843	 -0.589	  2.112	 -1.695	  0.166	 31.500	 99.252	 -0.048
72819	 -0.356	 -0.137	  0.149	 -5.184	  3.968	 -15.629	 -2.444	  1.811	 -0.317	 31.600	 99.256	 -0.405
72869	 -0.368	 -0.136	  0.143	  1.379	  1.114	 -7.448	  2.189	 -1.675	  0.217	 31.600	 99.256	 -0.405
72919	 -0.345	 -0.117	  0.162	 -2.372	 -7.172	 -3.143	 -1.059	  1.032	 -0.219	 31.500	 99.240	  1.026
72969	 -0.376	 -0.145	  0.143	  3.005	  7.689	 -23.930	 -0.356	 -0.791	  0.305	 31.600	 99.256	 -0.405
73019	 -0.338	 -0.110	  0.167	 -1.080	 -10.300	  0.123	  0.610	 -0.795	 -0.526	 31.600	 99.256	 -0.405
73069	 -0.372	 -0.141	  0.140	 -2.675	  8.035	 -20.086	 -1.227	  1.667	 -0.195	 31.600	 99.252	 -0.048
73119	 -0.346	 -0.128	  0.160	  0.955	 -4.394	 -6.884	  1.579	 -1.807	  0.223	 31.500	 99.240	  1.026
73169	 -0.361	 -0.127	  0.151	  2.789	 -6.291	 -11.951	 -1.752	  1.573	  0.256	 31.600	 99.245	  0.578
73219	 -0.349	 -0.144	  0.153	 -9.054	  7.312	 -13.697	  1.688	 -1.654	  0.092	 31.600	 99.256	 -0.405
73269	 -0.351	 -0.130	  0.153	  5.633	 -13.153	 -1.996	 -1.230	  0.837	  0.003	 31.600	 99.256	 -0.405
73319	 -0.353	 -0.147	  0.147	 -4.885	 13.227	 -9.636	  1.322	  0.879	  0.326	 31.500	 99.240	  1.026
73369	 -0.365	 -0.136	  0.149	 -0.022	 -6.018	 -7.867	 -0.915	 -0.425	 -0.168	 31.500	 99.240	  1.026
73418	 -0.362	 -0.149	  0.144	 -1.509	  2.531	 -7.452	  0.389	  0.563	 -0.046	 31.600	 99.256	 -0.405
73469	 -0.375	 -0.146	  0.131	  0.301	 -0.230	 -9.180	 -0.595	  0.236	  0.482	 31.600	 99.256	 -0.405
73518	 -0.378	 -0.155	  0.129	 -0.124	  0.791	 -10.958	  0.148	  0.403	 -0.424	 31.600	 99.256	 -0.405
73568	 -0.389	 -0.160	  0.112	 -1.052	  0.170	 -9.703	  0.012	  0.389	  0.169	 31.500	 99.252	 -0.048
73619	 -0.389	 -0.162	  0.109	  1.022	 -0.641	 -10.210	 -0.083	 -0.302	  0.436	 31.500	 99.252	 -0.048
73669	 -0.392	 -0.161	  0.102	 -0.315	 -1.041	 -9.523	  0.129	  0.004	  0.126	 31.500	 99.252	 -0.048
73718	 -0.397	 -0.162	  0.097	 -0.143	 -0.298	 -10.706	  0.105	  0.300	 -0.040	 31.600	 99.256	 -0.405
73768	 -0.403	 -0.167	  0.084	  0.303	 -0.225	 -9.422	 -0.021	  0.274	 -0.153	 31.500	 99.240	  1.026
73818	 -0.411	 -0.171	  0.075	  0.636	 -0.469	 -10.569	  0.106	  0.240	 -0.073	 31.500	 99.252	 -0.048
73868	 -0.407	 -0.170	  0.073	  0.089	 -0.798	 -9.610	  0.055	 -0.072	  0.015	 31.600	 99.245	  0.578
73918	 -0.411	 -0.166	  0.074	  0.069	 -0.608	 -9.679	  0.150	 -0.163	  0.134	 31.600	 99.256	 -0.405
73968	 -0.410	 -0.171	  0.068	  0.087	 -0.462	 -9.449	  0.116	  0.023	  0.093	 31.600	 99.256	 -0.405
74018	 -0.413	 -0.171	  0.063	  0.519	 -0.619	 -10.263	  0.072	  0.103	 -0.025	 31.500	 99.252	 -0.048
74068	 -0.416	 -0.172	  0.062	  0.498	 -0.230	 -9.996	  0.027	  0.204	 -0.155	 31.600	 99.252	 -0.048
74118	 -0.420	 -0.177	  0.054	  0.537	 -0.609	 -9.832	  0.062	 -0.027	 -0.046	 31.600	 99.256	 -0.405
74168	 -0.419	 -0.181	  0.055	  0.459	 -0.798	 -9.509	 -0.044	 -0.021	  0.121	 31.600	 99.256	 -0.405
74218	 -0.422	 -0.182	  0.049	  0.405	 -0.871	 -10.830	 -0.273	 -0.187	  0.128	 31.500	 99.229	  2.011
74268	 -0.420	 -0.181	  0.057	  0.958	 -1.148	 -9.783	 -0.128	 -0.517	  0.176	 31.600	 99.240	  1.026
74318	 -0.415	 -0.188	  0.058	 -1.095	 -0.123	 -9.452	 -0.201	 -0.241	 -0.029	 31.600	 99.252	 -0.048
74368	 -0.412	 -0.187	  0.056	 -0.794	 -0.172	 -10.403	 -0.354	 -0.057	 -0.086	 31.600	 99.240	  1.026
74418	 -0.415	 -0.197	  0.054	  0.330	  0.408	 -9.661	 -0.125	 -0.128	 -0.097	 31.600	 99.256	 -0.405
74468	 -0.410	 -0.198	  0.053	 -0.102	 -0.113	 -9.823	 -0.037	 -0.174	 -0.008	 31.600	 99.256	 -0.405
