Time	 MagX	 MagY	 MagZ	 AccelX	 AccelY	 AccelZ	 Yaw	 Pitch	 Roll	 Temperature	 Pressure	 Altitude
1259	  0.303	 -0.211	  0.337	  0.235	  0.129	 -9.851	 -0.002	  0.000	  0.002	 30.500	 99.370	 -99999.000
1308	  0.303	 -0.206	  0.337	  0.241	  0.124	 -9.877	 -0.002	  0.000	  0.002	 30.500	 99.370	 -99999.000
1358	  0.304	 -0.211	  0.336	  0.252	  0.121	 -9.809	 -0.003	  0.001	 -0.001	 30.500	 99.355	 -99999.000
1408	  0.304	 -0.206	  0.342	  0.224	  0.110	 -9.838	 -0.002	  0.001	  0.002	 30.500	 99.370	 -99999.000
1458	  0.301	 -0.211	  0.343	  0.255	  0.133	 -9.832	 -0.003	  0.000	  0.001	 30.500	 99.370	 -99999.000
1508	  0.304	 -0.207	  0.338	  0.250	  0.154	 -9.897	 -0.002	 -0.001	  0.000	 30.500	 99.370	 -99999.000
1558	  0.306	 -0.211	  0.343	  0.259	  0.079	 -9.844	 -0.003	  0.001	 -0.000	 30.500	 99.370	 -99999.000
1608	  0.304	 -0.206	  0.338	  0.235	  0.151	 -9.838	 -0.001	  0.001	  0.000	 30.500	 99.370	 -99999.000
1658	  0.304	 -0.206	  0.344	  0.243	  0.124	 -9.857	 -0.003	  0.001	 -0.000	 30.500	 99.366	 -99999.000
1708	  0.303	 -0.211	  0.338	  0.225	  0.131	 -9.864	 -0.003	  0.001	 -0.000	 30.500	 99.370	 -99999.000
1758	  0.303	 -0.206	  0.339	  0.228	  0.098	 -9.820	 -0.001	  0.002	  0.001	 30.500	 99.370	 -99999.000
1808	  0.304	 -0.206	  0.344	  0.231	  0.139	 -9.833	 -0.003	  0.000	 -0.000	 30.500	 99.370	 -99999.000
1858	  0.303	 -0.200	  0.343	  0.234	  0.111	 -9.845	 -0.002	  0.002	  0.001	 30.500	 99.382	 -99999.000
1908	  0.302	 -0.212	  0.342	  0.224	  0.130	 -9.884	 -0.002	  0.000	  0.001	 30.500	 99.370	 -99999.000
1958	  0.300	 -0.208	  0.336	  0.233	  0.141	 -9.833	 -0.002	  0.001	  0.001	 30.500	 99.370	 -99999.000
2008	  0.303	 -0.206	  0.342	  0.240	  0.124	 -9.885	 -0.003	  0.001	  0.000	 30.500	 99.370	 -99999.000
2058	  0.305	 -0.200	  0.338	  0.253	  0.126	 -9.831	 -0.003	  0.001	  0.001	 30.500	 99.370	 -99999.000
2108	  0.304	 -0.207	  0.338	  0.259	  0.120	 -9.824	 -0.002	  0.002	  0.001	 30.500	 99.370	 -99999.000
2158	  0.303	 -0.206	  0.338	  0.233	  0.142	 -9.829	 -0.002	  0.002	 -0.000	 30.500	 99.370	 -99999.000
2209	  0.305	 -0.210	  0.338	  0.241	  0.135	 -9.858	 -0.003	  0.002	  0.001	 30.500	 99.359	 -99999.000
2258	  0.304	 -0.206	  0.343	  0.243	  0.121	 -9.845	 -0.003	  0.001	 -0.001	 30.500	 99.382	 -99999.000
2308	  0.303	 -0.208	  0.333	  0.251	  0.113	 -9.850	 -0.003	  0.001	 -0.001	 30.500	 99.382	 -99999.000
2358	  0.304	 -0.208	  0.335	  0.209	  0.098	 -9.879	 -0.001	  0.001	  0.002	 30.500	 99.378	 -99999.000
2408	  0.304	 -0.207	  0.338	  0.217	  0.097	 -9.889	 -0.003	  0.003	 -0.000	 30.500	 99.370	 -99999.000
2458	  0.306	 -0.209	  0.341	  0.207	  0.126	 -9.855	 -0.002	  0.002	  0.002	 30.500	 99.382	 -99999.000
2508	  0.304	 -0.198	  0.339	  0.295	  0.141	 -9.852	 -0.002	  0.001	 -0.000	 30.500	 99.370	 -99999.000
2558	  0.306	 -0.209	  0.340	  0.240	  0.133	 -9.868	 -0.002	  0.000	  0.001	 30.500	 99.382	 -99999.000
2608	  0.302	 -0.209	  0.340	  0.231	  0.129	 -9.874	 -0.002	  0.001	  0.001	 30.500	 99.370	 -99999.000
2659	  0.302	 -0.208	  0.342	  0.224	  0.130	 -9.873	 -0.002	 -0.001	  0.001	 30.500	 99.366	 -99999.000
2709	  0.305	 -0.212	  0.337	  0.283	  0.104	 -9.856	 -0.002	  0.002	  0.001	 30.500	 99.366	 -99999.000
2759	  0.303	 -0.206	  0.340	  0.261	  0.117	 -9.868	 -0.003	  0.001	 -0.001	 30.500	 99.370	 -99999.000
2809	  0.300	 -0.206	  0.343	  0.191	  0.129	 -9.849	 -0.002	  0.002	  0.002	 30.500	 99.382	 -99999.000
2859	  0.295	 -0.210	  0.337	  0.227	  0.140	 -9.886	 -0.002	  0.001	  0.000	 30.500	 99.378	 -99999.000
2909	  0.299	 -0.208	  0.339	  0.235	  0.155	 -9.830	 -0.002	  0.001	 -0.000	 30.500	 99.370	 -99999.000
2959	  0.298	 -0.204	  0.339	  0.203	  0.048	 -9.885	 -0.003	 -0.002	  0.000	 30.500	 99.355	 -99999.000
3009	  0.297	 -0.208	  0.336	  0.168	  0.123	 -9.885	 -0.002	  0.003	 -0.000	 30.500	 99.359	 -99999.000
3059	  0.297	 -0.203	  0.340	  0.225	  0.089	 -9.879	 -0.003	  0.002	  0.000	 30.500	 99.370	 -99999.000
3109	  0.296	 -0.202	  0.343	  0.196	  0.136	 -9.840	 -0.003	 -0.001	 -0.000	 30.500	 99.370	 -99999.000
3159	  0.310	 -0.187	  0.366	  0.123	  0.067	 -9.897	 -0.002	  0.002	 -0.000	 30.500	 99.370	 -99999.000
3209	  0.305	 -0.185	  0.364	  0.156	  0.107	 -9.885	 -0.003	  0.005	  0.000	 30.500	 99.370	 -99999.000
3259	  0.301	 -0.189	  0.363	  0.252	  0.157	 -9.853	 -0.004	  0.003	  0.000	 30.500	 99.366	 -99999.000
3309	  0.292	 -0.190	  0.354	  0.268	  0.137	 -9.826	 -0.003	  0.002	  0.000	 30.500	 99.370	 -99999.000
3359	  0.295	 -0.194	  0.352	  0.238	  0.146	 -9.836	 -0.001	 -0.001	  0.001	 30.500	 99.370	 -99999.000
3409	  0.292	 -0.191	  0.351	  0.236	  0.116	 -9.851	 -0.002	  0.000	  0.002	 30.500	 99.370	 -99999.000
3459	  0.294	 -0.195	  0.348	  0.227	  0.086	 -9.859	 -0.002	  0.002	  0.001	 30.500	 99.382	 -99999.000
3509	  0.291	 -0.197	  0.344	  0.222	  0.118	 -9.818	 -0.001	  0.002	  0.001	 30.500	 99.370	 -99999.000
3559	  0.289	 -0.192	  0.351	  0.246	  0.166	 -9.857	 -0.001	  0.001	  0.000	 30.500	 99.370	 -99999.000
3609	  0.288	 -0.186	  0.351	  0.263	  0.132	 -9.835	 -0.002	  0.000	  0.001	 30.500	 99.378	 -99999.000
3659	  0.287	 -0.191	  0.351	  0.198	  0.122	 -9.836	 -0.003	  0.002	  0.001	 30.500	 99.370	 -99999.000
3709	  0.288	 -0.192	  0.350	  0.212	  0.102	 -9.884	 -0.002	  0.001	  0.001	 30.500	 99.366	 -99999.000
3759	  0.290	 -0.195	  0.342	  0.211	  0.141	 -9.879	 -0.001	  0.003	 -0.000	 30.500	 99.370	 -99999.000
3809	  0.289	 -0.193	  0.350	  0.229	  0.119	 -9.875	 -0.002	  0.001	 -0.001	 30.500	 99.378	 -99999.000
3859	  0.290	 -0.193	  0.347	  0.240	  0.132	 -9.850	 -0.002	  0.001	  0.000	 30.500	 99.366	 -99999.000
3909	  0.291	 -0.187	  0.351	  0.254	  0.138	 -9.857	 -0.003	  0.002	  0.001	 30.500	 99.370	 -99999.000
3959	  0.291	 -0.194	  0.352	  0.218	  0.123	 -9.830	 -0.002	  0.000	  0.001	 30.500	 99.366	 -99999.000
4009	  0.293	 -0.191	  0.347	  0.223	  0.109	 -9.894	 -0.003	  0.001	  0.001	 30.500	 99.366	 -99999.000
4059	  0.293	 -0.193	  0.349	  0.223	  0.130	 -9.863	 -0.003	  0.002	  0.001	 30.500	 99.366	 -99999.000
4109	  0.291	 -0.195	  0.344	  0.244	  0.101	 -9.875	 -0.003	  0.002	  0.001	 30.500	 99.366	 -99999.000
4159	  0.293	 -0.190	  0.347	  0.236	  0.165	 -9.832	 -0.001	 -0.000	  0.001	 30.500	 99.370	 -99999.000
4209	  0.291	 -0.192	  0.349	  0.224	  0.123	 -9.849	 -0.003	 -0.000	 -0.000	 30.500	 99.359	 -99999.000
5259	  0.293	 -0.188	  0.356	  0.264	  0.135	 -9.798	 -0.003	  0.002	  0.000	 30.500	 99.366	 -99999.000
5309	  0.293	 -0.193	  0.353	  0.209	  0.131	 -9.832	 -0.001	  0.001	 -0.000	 30.500	 99.366	 -99999.000
5359	  0.291	 -0.188	  0.351	  0.251	  0.118	 -9.873	 -0.002	  0.001	 -0.000	 30.500	 99.366	 -99999.000
5409	  0.292	 -0.191	  0.354	  0.241	  0.107	 -9.801	 -0.003	  0.001	  0.001	 30.500	 99.370	 -99999.000
5459	  0.292	 -0.190	  0.354	  0.232	  0.118	 -9.843	 -0.002	  0.000	  0.000	 30.500	 99.370	 -99999.000
5509	  0.291	 -0.190	  0.348	  0.266	  0.164	 -9.878	 -0.003	  0.001	  0.000	 30.500	 99.382	 -99999.000
5559	  0.293	 -0.194	  0.349	  0.240	  0.128	 -9.834	 -0.003	  0.001	  0.001	 30.500	 99.370	 -99999.000
5609	  0.294	 -0.191	  0.350	  0.226	  0.122	 -9.841	 -0.002	  0.001	 -0.000	 30.500	 99.382	 -99999.000
5659	  0.292	 -0.184	  0.353	  0.265	  0.129	 -9.853	 -0.002	  0.000	  0.001	 30.500	 99.382	 -99999.000
5708	  0.292	 -0.189	  0.353	  0.245	  0.118	 -9.862	 -0.002	  0.002	  0.000	 30.500	 99.370	 -99999.000
5758	  0.292	 -0.192	  0.353	  0.251	  0.140	 -9.819	 -0.003	  0.002	  0.001	 30.500	 99.359	 -99999.000
5808	  0.294	 -0.188	  0.352	  0.247	  0.105	 -9.877	 -0.002	  0.001	  0.001	 30.500	 99.370	 -99999.000
5858	  0.292	 -0.190	  0.353	  0.239	  0.115	 -9.855	 -0.001	  0.001	  0.001	 30.500	 99.370	 -99999.000
5908	  0.291	 -0.192	  0.354	  0.246	  0.112	 -9.842	 -0.003	  0.000	  0.001	 30.500	 99.355	 -99999.000
5959	  0.290	 -0.182	  0.351	  0.220	  0.122	 -9.818	 -0.002	 -0.000	 -0.000	 30.500	 99.366	 -99999.000
6008	  0.293	 -0.190	  0.348	  0.221	  0.114	 -9.836	 -0.003	  0.001	  0.001	 30.500	 99.370	 -99999.000
6058	  0.290	 -0.190	  0.351	  0.228	  0.122	 -9.837	 -0.002	  0.001	 -0.000	 30.500	 99.370	 -99999.000
6108	  0.290	 -0.191	  0.354	  0.226	  0.123	 -9.859	 -0.003	  0.001	  0.000	 30.500	 99.370	 -99999.000
6158	  0.290	 -0.196	  0.354	  0.237	  0.138	 -9.838	 -0.002	  0.000	 -0.000	 30.500	 99.370	 -99999.000
6208	  0.291	 -0.193	  0.349	  0.241	  0.132	 -9.851	 -0.002	  0.001	  0.000	 30.500	 99.359	 -99999.000
6258	  0.294	 -0.185	  0.354	  0.232	  0.132	 -9.852	 -0.003	  0.002	  0.002	 30.500	 99.359	 -99999.000
6308	  0.291	 -0.190	  0.350	  0.214	  0.109	 -9.856	 -0.003	  0.002	  0.001	 30.500	 99.370	 -99999.000
6358	  0.291	 -0.189	  0.354	  0.243	  0.120	 -9.850	 -0.003	  0.002	  0.000	 30.500	 99.382	 -99999.000
6408	  0.289	 -0.191	  0.349	  0.256	  0.137	 -9.878	 -0.002	  0.001	  0.001	 30.600	 99.375	 -99999.000
6458	  0.293	 -0.193	  0.352	  0.247	  0.100	 -9.856	 -0.001	  0.001	  0.001	 30.500	 99.370	 -99999.000
6508	  0.292	 -0.190	  0.351	  0.221	  0.134	 -9.854	 -0.002	  0.002	  0.001	 30.500	 99.370	 -99999.000
6558	  0.292	 -0.192	  0.356	  0.232	  0.126	 -9.827	 -0.001	  0.001	  0.001	 30.500	 99.382	 -99999.000
6608	  0.291	 -0.192	  0.351	  0.239	  0.123	 -9.837	 -0.004	  0.001	  0.001	 30.500	 99.370	 -99999.000
6658	  0.289	 -0.191	  0.351	  0.263	  0.135	 -9.859	 -0.003	  0.001	  0.000	 30.500	 99.366	 -99999.000
6708	  0.292	 -0.193	  0.357	  0.237	  0.127	 -9.872	 -0.001	  0.001	  0.000	 30.500	 99.378	 -99999.000
6758	  0.289	 -0.191	  0.352	  0.250	  0.130	 -9.862	 -0.001	  0.001	  0.000	 30.500	 99.370	 -99999.000
6808	  0.292	 -0.187	  0.353	  0.245	  0.120	 -9.818	 -0.003	  0.001	  0.001	 30.500	 99.370	 -99999.000
6858	  0.292	 -0.187	  0.353	  0.241	  0.117	 -9.860	 -0.003	  0.002	  0.000	 30.500	 99.370	 -99999.000
6908	  0.291	 -0.189	  0.354	  0.236	  0.126	 -9.858	 -0.001	 -0.000	  0.000	 30.500	 99.370	 -99999.000
6958	  0.293	 -0.192	  0.351	  0.249	  0.137	 -9.851	 -0.001	  0.001	  0.001	 30.500	 99.366	 -99999.000
7008	  0.291	 -0.190	  0.352	  0.230	  0.128	 -9.846	 -0.003	 -0.000	 -0.000	 30.500	 99.378	 -99999.000
7058	  0.290	 -0.190	  0.354	  0.241	  0.127	 -9.886	 -0.002	  0.001	  0.001	 30.500	 99.370	 -99999.000
7108	  0.292	 -0.187	  0.351	  0.232	  0.123	 -9.838	 -0.003	  0.002	  0.000	 30.500	 99.378	 -99999.000
7158	  0.292	 -0.188	  0.352	  0.241	  0.156	 -9.870	 -0.003	  0.001	  0.000	 30.500	 99.366	 -99999.000
7208	  0.291	 -0.187	  0.347	  0.246	  0.107	 -9.841	 -0.002	  0.001	  0.001	 30.500	 99.366	 -99999.000
7258	  0.295	 -0.192	  0.352	  0.236	  0.116	 -9.831	 -0.002	  0.001	  0.001	 30.500	 99.366	 -99999.000
7308	  0.292	 -0.186	  0.356	  0.245	  0.126	 -9.827	 -0.002	  0.001	  0.001	 30.500	 99.370	 -99999.000
7358	  0.291	 -0.193	  0.351	  0.248	  0.121	 -9.867	 -0.003	  0.000	  0.000	 30.500	 99.370	 -99999.000
7408	  0.290	 -0.193	  0.353	  0.241	  0.138	 -9.873	 -0.002	  0.001	  0.000	 30.500	 99.370	 -99999.000
7458	  0.293	 -0.188	  0.350	  0.235	  0.149	 -9.804	 -0.003	  0.001	 -0.000	 30.500	 99.370	 -99999.000
7508	  0.293	 -0.190	  0.352	  0.250	  0.142	 -9.876	 -0.002	  0.002	  0.001	 30.500	 99.366	 -99999.000
7558	  0.293	 -0.187	  0.352	  0.230	  0.113	 -9.852	 -0.002	  0.001	  0.000	 30.500	 99.366	 -99999.000
7608	  0.292	 -0.192	  0.352	  0.239	  0.131	 -9.828	 -0.002	  0.001	 -0.000	 30.500	 99.370	 -99999.000
7658	  0.291	 -0.194	  0.351	  0.245	  0.121	 -9.833	 -0.002	  0.000	  0.001	 30.500	 99.370	 -99999.000
7708	  0.294	 -0.184	  0.351	  0.241	  0.144	 -9.841	 -0.002	  0.001	  0.001	 30.500	 99.370	 -99999.000
7758	  0.292	 -0.189	  0.353	  0.231	  0.116	 -9.878	 -0.002	  0.002	  0.001	 30.500	 99.370	 -99999.000
7808	  0.292	 -0.188	  0.347	  0.227	  0.119	 -9.841	 -0.002	  0.001	  0.001	 30.500	 99.370	 -99999.000
7858	  0.294	 -0.182	  0.356	  0.236	  0.120	 -9.836	 -0.002	  0.001	 -0.000	 30.500	 99.382	 -99999.000
7908	  0.292	 -0.191	  0.356	  0.245	  0.135	 -9.833	 -0.002	  0.001	  0.001	 30.500	 99.382	 -99999.000
7959	  0.292	 -0.184	  0.353	  0.240	  0.130	 -9.806	 -0.002	  0.001	  0.001	 30.500	 99.366	 -99999.000
8008	  0.291	 -0.190	  0.349	  0.248	  0.120	 -9.845	 -0.003	  0.001	  0.001	 30.500	 99.382	 -99999.000
8059	  0.292	 -0.191	  0.352	  0.268	  0.125	 -9.857	 -0.002	  0.000	 -0.001	 30.500	 99.370	 -99999.000
8108	  0.292	 -0.194	  0.354	  0.252	  0.118	 -9.884	 -0.003	  0.002	  0.002	 30.500	 99.370	 -99999.000
8158	  0.293	 -0.191	  0.353	  0.245	  0.118	 -9.852	 -0.003	  0.001	 -0.001	 30.500	 99.370	 -99999.000
8209	  0.295	 -0.191	  0.351	  0.234	  0.128	 -9.855	 -0.003	  0.001	  0.000	 30.500	 99.370	 -99999.000
10234	  0.292	 -0.183	  0.352	  0.265	  0.119	 -9.898	 -0.004	  0.002	  0.001	 30.500	 99.370	  0.046
10284	  0.290	 -0.187	  0.353	  0.231	  0.137	 -9.887	 -0.003	 -0.001	  0.001	 30.500	 99.370	  0.046
10334	  0.292	 -0.189	  0.351	  0.239	  0.120	 -9.865	 -0.003	  0.002	  0.001	 30.500	 99.382	 -1.022
10384	  0.293	 -0.189	  0.349	  0.249	  0.112	 -9.853	 -0.003	  0.002	  0.001	 30.500	 99.370	  0.046
10434	  0.294	 -0.192	  0.353	  0.229	  0.124	 -9.906	 -0.003	  0.002	 -0.000	 30.500	 99.370	  0.046
10484	  0.290	 -0.191	  0.351	  0.253	  0.152	 -9.855	 -0.002	  0.001	  0.001	 30.500	 99.370	  0.046
10534	  0.292	 -0.189	  0.354	  0.243	  0.140	 -9.880	 -0.002	  0.001	  0.000	 30.500	 99.370	  0.046
10584	  0.292	 -0.191	  0.349	  0.248	  0.120	 -9.833	 -0.001	  0.000	 -0.001	 30.500	 99.366	  0.403
10634	  0.290	 -0.186	  0.351	  0.233	  0.137	 -9.814	 -0.002	  0.002	  0.000	 30.500	 99.370	  0.046
10684	  0.293	 -0.196	  0.354	  0.251	  0.134	 -9.846	 -0.002	  0.000	  0.002	 30.500	 99.370	  0.046
10734	  0.291	 -0.191	  0.351	  0.242	  0.114	 -9.870	 -0.002	  0.001	  0.002	 30.500	 99.382	 -1.022
10784	  0.291	 -0.190	  0.350	  0.231	  0.121	 -9.848	 -0.002	  0.000	  0.000	 30.600	 99.370	  0.046
10834	  0.292	 -0.191	  0.349	  0.234	  0.146	 -9.867	 -0.002	  0.001	  0.000	 30.500	 99.370	  0.046
10884	  0.291	 -0.193	  0.352	  0.234	  0.118	 -9.847	 -0.003	  0.001	 -0.000	 30.500	 99.366	  0.403
10934	  0.292	 -0.186	  0.352	  0.247	  0.129	 -9.843	 -0.003	  0.000	 -0.001	 30.500	 99.382	 -1.022
10984	  0.293	 -0.192	  0.350	  0.240	  0.123	 -9.891	 -0.003	  0.001	  0.000	 30.500	 99.370	  0.046
11034	  0.291	 -0.192	  0.351	  0.240	  0.110	 -9.835	 -0.002	  0.001	  0.001	 30.500	 99.382	 -1.022
11084	  0.293	 -0.187	  0.352	  0.243	  0.130	 -9.833	 -0.002	  0.000	  0.002	 30.500	 99.382	 -1.022
11134	  0.291	 -0.191	  0.351	  0.230	  0.112	 -9.872	 -0.002	  0.002	  0.000	 30.500	 99.370	  0.046
11184	  0.295	 -0.185	  0.351	  0.237	  0.109	 -9.858	 -0.003	  0.001	  0.001	 30.500	 99.370	  0.046
11234	  0.294	 -0.185	  0.351	  0.281	  0.140	 -9.847	 -0.003	  0.001	  0.001	 30.500	 99.370	  0.046
11284	  0.293	 -0.185	  0.353	  0.248	  0.131	 -9.837	 -0.002	  0.001	 -0.000	 30.500	 99.370	  0.046
11334	  0.291	 -0.192	  0.351	  0.243	  0.118	 -9.872	 -0.003	  0.002	  0.001	 30.600	 99.386	 -1.378
11384	  0.292	 -0.191	  0.350	  0.236	  0.129	 -9.872	 -0.002	  0.001	  0.001	 30.500	 99.375	 -0.399
11434	  0.290	 -0.190	  0.354	  0.264	  0.113	 -9.837	 -0.003	  0.000	  0.001	 30.500	 99.370	  0.046
11484	  0.290	 -0.191	  0.351	  0.259	  0.101	 -9.856	 -0.002	  0.000	  0.001	 30.500	 99.370	  0.046
11534	  0.293	 -0.181	  0.353	  0.234	  0.156	 -9.861	 -0.002	  0.002	  0.002	 30.500	 99.366	  0.403
11584	  0.290	 -0.188	  0.353	  0.249	  0.123	 -9.840	 -0.002	  0.000	  0.001	 30.500	 99.370	  0.046
11634	  0.294	 -0.183	  0.352	  0.256	  0.129	 -9.837	 -0.002	  0.001	  0.001	 30.500	 99.370	  0.046
11684	  0.291	 -0.186	  0.349	  0.227	  0.144	 -9.808	 -0.003	  0.002	 -0.001	 30.500	 99.370	  0.046
11734	  0.291	 -0.193	  0.353	  0.248	  0.131	 -9.843	 -0.003	  0.001	  0.000	 30.500	 99.378	 -0.665
11784	  0.293	 -0.192	  0.352	  0.227	  0.137	 -9.832	 -0.002	  0.001	  0.001	 30.500	 99.370	  0.046
11835	  0.292	 -0.190	  0.354	  0.216	  0.141	 -9.871	 -0.002	  0.001	 -0.000	 30.500	 99.378	 -0.665
11884	  0.293	 -0.181	  0.350	  0.245	  0.131	 -9.850	 -0.002	  0.001	  0.001	 30.500	 99.370	  0.046
11934	  0.291	 -0.194	  0.350	  0.241	  0.127	 -9.823	 -0.003	  0.001	  0.000	 30.500	 99.370	  0.046
11984	  0.293	 -0.192	  0.344	  0.231	  0.105	 -9.833	 -0.003	  0.001	  0.000	 30.500	 99.382	 -1.022
12034	  0.292	 -0.194	  0.351	  0.248	  0.138	 -9.838	 -0.002	  0.000	  0.000	 30.500	 99.382	 -1.022
12084	  0.290	 -0.194	  0.350	  0.241	  0.118	 -9.858	 -0.001	  0.001	 -0.001	 30.500	 99.370	  0.046
12134	  0.289	 -0.187	  0.352	  0.249	  0.129	 -9.805	 -0.003	  0.002	  0.000	 30.500	 99.370	  0.046
12184	  0.291	 -0.192	  0.351	  0.220	  0.108	 -9.828	 -0.001	  0.001	  0.001	 30.500	 99.370	  0.046
12234	  0.290	 -0.188	  0.349	  0.251	  0.123	 -9.868	 -0.001	  0.001	  0.001	 30.500	 99.370	  0.046
12284	  0.289	 -0.193	  0.353	  0.237	  0.112	 -9.851	 -0.002	  0.002	  0.000	 30.500	 99.382	 -1.022
12334	  0.292	 -0.194	  0.352	  0.241	  0.110	 -9.887	 -0.002	  0.001	  0.001	 30.500	 99.382	 -1.022
12384	  0.292	 -0.192	  0.352	  0.235	  0.115	 -9.863	 -0.004	  0.002	  0.001	 30.500	 99.382	 -1.022
12434	  0.291	 -0.185	  0.350	  0.226	  0.117	 -9.854	 -0.003	  0.001	  0.000	 30.500	 99.370	  0.046
12484	  0.291	 -0.193	  0.350	  0.222	  0.127	 -9.844	 -0.002	  0.002	 -0.000	 30.500	 99.370	  0.046
12534	  0.291	 -0.185	  0.354	  0.222	  0.102	 -9.832	 -0.003	  0.001	  0.000	 30.500	 99.370	  0.046
12584	  0.293	 -0.188	  0.351	  0.246	  0.130	 -9.815	 -0.002	  0.002	  0.002	 30.600	 99.382	 -1.022
12634	  0.293	 -0.191	  0.353	  0.262	  0.134	 -9.828	 -0.003	  0.002	  0.001	 30.500	 99.370	  0.046
12684	  0.292	 -0.187	  0.350	  0.230	  0.136	 -9.845	 -0.002	 -0.000	 -0.000	 30.500	 99.382	 -1.022
12734	  0.291	 -0.195	  0.352	  0.241	  0.137	 -9.871	 -0.003	  0.001	  0.001	 30.500	 99.370	  0.046
12784	  0.292	 -0.184	  0.354	  0.241	  0.151	 -9.835	 -0.003	  0.002	  0.001	 30.500	 99.370	  0.046
12834	  0.291	 -0.196	  0.354	  0.239	  0.105	 -9.829	 -0.003	 -0.000	 -0.000	 30.500	 99.382	 -1.022
12884	  0.293	 -0.193	  0.352	  0.228	  0.103	 -9.829	 -0.003	  0.002	  0.000	 30.500	 99.370	  0.046
12934	  0.292	 -0.192	  0.350	  0.234	  0.125	 -9.836	 -0.002	  0.001	 -0.001	 30.500	 99.370	  0.046
12984	  0.290	 -0.190	  0.352	  0.224	  0.100	 -9.845	 -0.002	  0.002	  0.000	 30.500	 99.370	  0.046
13034	  0.292	 -0.192	  0.345	  0.260	  0.133	 -9.847	 -0.003	  0.001	  0.001	 30.500	 99.370	  0.046
13084	  0.291	 -0.196	  0.350	  0.255	  0.120	 -9.868	 -0.002	  0.002	  0.001	 30.500	 99.366	  0.403
13134	  0.293	 -0.192	  0.351	  0.252	  0.128	 -9.828	 -0.001	  0.001	  0.001	 30.500	 99.370	  0.046
13184	  0.292	 -0.193	  0.351	  0.231	  0.122	 -9.881	 -0.003	  0.001	  0.001	 30.500	 99.359	  1.026
13234	  0.291	 -0.193	  0.347	  0.249	  0.129	 -9.854	 -0.001	  0.002	  0.001	 30.500	 99.370	  0.046
13284	  0.295	 -0.186	  0.348	  0.217	  0.140	 -9.878	 -0.002	  0.002	 -0.001	 30.500	 99.382	 -1.022
13334	  0.292	 -0.183	  0.353	  0.213	  0.134	 -9.834	 -0.003	  0.001	 -0.000	 30.500	 99.370	  0.046
13384	  0.294	 -0.190	  0.353	  0.233	  0.151	 -9.837	 -0.002	  0.001	 -0.000	 30.500	 99.355	  1.382
13434	  0.293	 -0.192	  0.350	  0.244	  0.117	 -9.867	 -0.003	  0.003	  0.000	 30.500	 99.370	  0.046
13484	  0.291	 -0.195	  0.352	  0.245	  0.132	 -9.847	 -0.002	  0.002	  0.001	 30.500	 99.370	  0.046
13534	  0.294	 -0.195	  0.346	  0.240	  0.136	 -9.856	 -0.002	  0.001	  0.000	 30.500	 99.370	  0.046
13584	  0.292	 -0.189	  0.353	  0.246	  0.133	 -9.814	 -0.002	  0.001	  0.002	 30.500	 99.370	  0.046
13634	  0.291	 -0.187	  0.348	  0.258	  0.121	 -9.846	 -0.002	  0.001	 -0.000	 30.500	 99.382	 -1.022
13684	  0.290	 -0.193	  0.349	  0.229	  0.094	 -9.845	 -0.002	  0.002	 -0.000	 30.500	 99.359	  1.026
13734	  0.289	 -0.194	  0.352	  0.249	  0.118	 -9.824	 -0.002	  0.001	  0.000	 30.500	 99.370	  0.046
13784	  0.291	 -0.195	  0.353	  0.238	  0.142	 -9.852	 -0.002	  0.002	 -0.001	 30.500	 99.370	  0.046
13833	  0.291	 -0.195	  0.347	  0.235	  0.136	 -9.851	 -0.002	  0.002	 -0.000	 30.500	 99.382	 -1.022
13885	  0.289	 -0.193	  0.350	  0.237	  0.109	 -9.855	 -0.002	  0.002	  0.001	 30.500	 99.370	  0.046
13934	  0.290	 -0.184	  0.352	  0.256	  0.131	 -9.870	 -0.002	  0.000	  0.001	 30.500	 99.382	 -1.022
13983	  0.288	 -0.190	  0.350	  0.249	  0.102	 -9.867	 -0.002	  0.002	  0.000	 30.500	 99.370	  0.046
14033	  0.291	 -0.198	  0.349	  0.249	  0.118	 -9.858	 -0.002	  0.002	 -0.000	 30.500	 99.370	  0.046
14083	  0.290	 -0.194	  0.350	  0.254	  0.120	 -9.865	 -0.002	  0.002	  0.002	 30.500	 99.370	  0.046
14133	  0.290	 -0.190	  0.351	  0.238	  0.117	 -9.857	 -0.003	  0.002	  0.002	 30.500	 99.366	  0.403
14183	  0.289	 -0.192	  0.352	  0.232	  0.115	 -9.840	 -0.003	  0.001	 -0.000	 30.500	 99.370	  0.046
14234	  0.289	 -0.191	  0.344	  0.251	  0.135	 -9.832	 -0.002	  0.001	  0.000	 30.600	 99.375	 -0.399
14283	  0.289	 -0.197	  0.353	  0.234	  0.146	 -9.867	 -0.001	  0.002	  0.001	 30.500	 99.370	  0.046
14334	  0.290	 -0.186	  0.352	  0.223	  0.115	 -9.859	 -0.003	  0.001	  0.001	 30.500	 99.370	  0.046
14383	  0.290	 -0.186	  0.353	  0.240	  0.106	 -9.863	 -0.001	  0.002	  0.002	 30.500	 99.370	  0.046
14434	  0.289	 -0.189	  0.350	  0.229	  0.133	 -9.893	 -0.002	  0.002	  0.001	 30.500	 99.382	 -1.022
14484	  0.288	 -0.191	  0.353	  0.240	  0.137	 -9.871	 -0.002	  0.001	 -0.000	 30.500	 99.386	 -1.378
14533	  0.289	 -0.193	  0.350	  0.236	  0.132	 -9.858	 -0.001	  0.001	  0.000	 30.600	 99.375	 -0.399
14584	  0.289	 -0.194	  0.353	  0.249	  0.119	 -9.856	 -0.002	  0.001	  0.001	 30.500	 99.366	  0.403
14634	  0.289	 -0.182	  0.353	  0.256	  0.117	 -9.848	 -0.000	  0.000	 -0.000	 30.500	 99.370	  0.046
14684	  0.290	 -0.196	  0.353	  0.231	  0.118	 -9.838	 -0.003	  0.003	  0.001	 30.500	 99.370	  0.046
14734	  0.291	 -0.194	  0.354	 -0.593	  2.587	 -9.968	  0.000	 -0.001	  0.152	 30.500	 99.370	  0.046
14784	  0.289	 -0.190	  0.346	  0.161	  0.143	 -9.852	 -0.003	  0.007	  0.000	 30.500	 99.370	  0.046
14834	  0.289	 -0.196	  0.351	  0.268	  0.126	 -9.825	 -0.002	  0.000	 -0.001	 30.500	 99.370	  0.046
14884	  0.289	 -0.189	  0.349	  0.266	  0.139	 -9.859	 -0.002	  0.000	  0.002	 30.500	 99.370	  0.046
14934	  0.289	 -0.194	  0.349	  0.238	  0.122	 -9.840	 -0.003	  0.001	  0.001	 30.600	 99.375	 -0.399
14984	  0.289	 -0.195	  0.343	  0.253	  0.124	 -9.848	 -0.002	  0.002	  0.001	 30.500	 99.370	  0.046
15034	  0.287	 -0.192	  0.350	  0.601	  0.461	 -9.878	 -0.020	  0.012	  0.411	 30.500	 99.382	 -1.022
15084	  0.287	 -0.203	  0.352	  0.559	 -0.211	 -9.817	 -0.007	 -0.000	  0.247	 30.500	 99.370	  0.046
15134	  0.285	 -0.207	  0.346	  0.481	  0.213	 -9.749	 -0.006	  0.007	  0.001	 30.500	 99.370	  0.046
15184	  0.288	 -0.208	  0.347	  0.395	  0.169	 -9.785	 -0.001	 -0.001	 -0.001	 30.500	 99.370	  0.046
15234	  0.284	 -0.204	  0.349	  0.234	  0.108	 -9.853	 -0.002	 -0.001	  0.000	 30.500	 99.359	  1.026
15284	  0.284	 -0.207	  0.354	  1.101	  1.348	 -9.732	 -0.005	  0.010	  0.289	 30.500	 99.359	  1.026
15334	  0.285	 -0.207	  0.351	  0.695	 -0.340	 -9.726	 -0.000	 -0.009	  0.064	 30.500	 99.370	  0.046
15384	  0.286	 -0.209	  0.352	  0.061	  0.070	 -9.890	 -0.000	 -0.007	  0.002	 30.500	 99.370	  0.046
15434	  0.285	 -0.209	  0.352	  0.092	  0.052	 -9.925	 -0.003	  0.002	  0.000	 30.500	 99.382	 -1.022
15484	  0.283	 -0.211	  0.351	  0.259	  0.148	 -9.871	 -0.004	  0.004	  0.001	 30.500	 99.370	  0.046
15534	  0.285	 -0.210	  0.344	  0.294	  0.172	 -9.813	 -0.002	  0.001	  0.000	 30.500	 99.382	 -1.022
15584	  0.284	 -0.204	  0.349	  0.232	  0.143	 -9.846	 -0.001	  0.000	  0.001	 30.500	 99.382	 -1.022
15634	  0.284	 -0.211	  0.344	  0.224	  0.119	 -9.846	 -0.001	  0.000	  0.002	 30.500	 99.382	 -1.022
15684	  0.284	 -0.211	  0.344	  0.237	  0.127	 -9.842	 -0.002	  0.003	  0.001	 30.500	 99.359	  1.026
15734	  0.285	 -0.205	  0.352	  0.242	  0.143	 -9.847	 -0.002	  0.001	  0.000	 30.500	 99.359	  1.026
15784	  0.292	 -0.206	  0.348	  0.467	 -0.428	 -9.619	  0.052	 -0.006	 -0.261	 30.500	 99.370	  0.046
15834	  0.287	 -0.200	  0.347	 -0.658	  0.719	 -11.450	 -0.139	  0.088	 -0.054	 30.500	 99.370	  0.046
15884	  0.285	 -0.206	  0.353	  0.560	 -0.124	 -9.947	 -0.032	  0.048	  0.131	 30.500	 99.370	  0.046
15934	  0.286	 -0.206	  0.346	  0.512	  0.130	 -9.774	 -0.009	  0.016	  0.004	 30.500	 99.370	  0.046
15984	  0.285	 -0.209	  0.351	  0.524	  0.271	 -9.763	 -0.004	  0.005	  0.000	 30.500	 99.370	  0.046
16034	  0.287	 -0.202	  0.344	  0.468	  0.199	 -9.774	 -0.001	 -0.002	 -0.000	 30.500	 99.366	  0.403
16084	  0.283	 -0.203	  0.352	  0.358	  0.161	 -9.839	 -0.001	 -0.005	  0.001	 30.500	 99.363	  0.670
16134	  0.287	 -0.203	  0.350	  0.563	  0.123	 -9.622	  0.000	 -0.007	  0.007	 30.600	 99.375	 -0.399
16184	  0.289	 -0.201	  0.345	 -0.152	 -0.419	 -9.904	 -0.032	 -0.003	 -0.287	 30.500	 99.370	  0.046
16234	  0.286	 -0.198	  0.351	  1.416	 -0.734	 -9.789	  0.022	 -0.069	  0.014	 30.500	 99.370	  0.046
16284	  0.289	 -0.199	  0.345	  0.536	  0.206	 -9.711	  0.008	 -0.025	  0.002	 30.500	 99.359	  1.026
16334	  0.287	 -0.197	  0.345	  0.328	  0.141	 -9.759	  0.003	 -0.016	  0.000	 30.500	 99.370	  0.046
16384	  0.289	 -0.197	  0.349	  0.142	  0.094	 -9.848	  0.002	 -0.010	  0.001	 30.500	 99.370	  0.046
16434	  0.286	 -0.197	  0.352	  0.109	  0.080	 -9.887	 -0.001	 -0.003	  0.001	 30.600	 99.386	 -1.378
16484	  0.296	 -0.185	  0.350	 -0.880	 -0.457	 -9.589	  0.104	 -0.026	 -0.440	 30.500	 99.370	  0.046
16534	  0.290	 -0.196	  0.353	 -0.853	  0.325	 -10.742	 -0.081	  0.067	 -0.329	 30.500	 99.370	  0.046
16584	  0.293	 -0.187	  0.352	 -1.071	 -0.171	 -10.386	 -0.011	  0.018	  0.048	 30.500	 99.370	  0.046
16634	  0.290	 -0.185	  0.353	 -0.188	 -0.070	 -9.987	 -0.007	  0.014	  0.000	 30.500	 99.359	  1.026
16684	  0.289	 -0.190	  0.352	  0.139	  0.114	 -9.953	 -0.008	  0.012	 -0.000	 30.500	 99.370	  0.046
16734	  0.292	 -0.183	  0.349	  0.265	  0.165	 -9.836	 -0.004	  0.010	  0.000	 30.500	 99.359	  1.026
16784	  0.291	 -0.188	  0.350	  0.355	  0.161	 -9.781	 -0.004	  0.003	  0.000	 30.500	 99.370	  0.046
16834	  0.290	 -0.191	  0.349	  0.348	  0.163	 -9.809	 -0.003	  0.002	  0.001	 30.500	 99.370	  0.046
16884	  0.292	 -0.189	  0.352	  0.302	  0.162	 -9.829	 -0.002	 -0.002	  0.001	 30.500	 99.382	 -1.022
16934	  0.289	 -0.187	  0.351	  0.226	  0.129	 -9.843	 -0.000	 -0.002	  0.001	 30.500	 99.370	  0.046
16984	  0.291	 -0.188	  0.351	  0.231	  0.116	 -9.861	 -0.002	  0.000	 -0.001	 30.500	 99.370	  0.046
17034	  0.289	 -0.179	  0.352	  0.198	  0.123	 -9.881	 -0.002	  0.001	  0.000	 30.500	 99.366	  0.403
17084	  0.290	 -0.184	  0.350	  0.207	  0.116	 -9.877	 -0.004	  0.002	  0.001	 30.500	 99.370	  0.046
17134	  0.289	 -0.186	  0.352	  0.226	  0.139	 -9.852	 -0.003	  0.001	  0.000	 30.500	 99.370	  0.046
17184	  0.288	 -0.189	  0.354	  0.220	  0.116	 -9.850	 -0.003	  0.001	  0.001	 30.500	 99.363	  0.670
17234	  0.293	 -0.191	  0.353	  0.236	  0.116	 -9.865	 -0.001	  0.001	 -0.000	 30.500	 99.359	  1.026
17284	  0.292	 -0.189	  0.351	  0.232	  0.126	 -9.848	 -0.002	  0.001	  0.001	 30.600	 99.370	  0.046
17334	  0.287	 -0.188	  0.349	  0.245	  0.152	 -9.858	 -0.003	  0.001	  0.001	 30.500	 99.370	  0.046
17384	  0.291	 -0.188	  0.350	  0.227	  0.130	 -9.841	 -0.002	  0.002	  0.001	 30.500	 99.370	  0.046
17434	  0.291	 -0.185	  0.349	  0.227	  0.127	 -9.850	 -0.003	  0.002	  0.002	 30.500	 99.370	  0.046
17484	  0.292	 -0.186	  0.353	  0.227	  0.111	 -9.866	 -0.002	  0.001	  0.001	 30.500	 99.370	  0.046
17534	  0.292	 -0.179	  0.350	  0.232	  0.128	 -9.843	 -0.002	  0.002	  0.001	 30.500	 99.382	 -1.022
17584	  0.292	 -0.187	  0.353	  0.254	  0.110	 -9.856	 -0.002	  0.002	  0.001	 30.500	 99.370	  0.046
17634	  0.290	 -0.184	  0.352	  0.246	  0.132	 -9.861	 -0.004	  0.001	  0.000	 30.500	 99.370	  0.046
17684	  0.291	 -0.190	  0.356	  0.255	  0.127	 -9.850	 -0.003	  0.001	  0.001	 30.500	 99.370	  0.046
17733	  0.293	 -0.183	  0.352	 -2.105	  0.096	 -9.958	  0.073	 -0.024	 -0.757	 30.500	 99.370	  0.046
17783	  0.290	 -0.187	  0.353	  0.966	 -0.309	 -9.681	 -0.005	 -0.006	  0.269	 30.600	 99.370	  0.046
17833	  0.290	 -0.193	  0.349	  0.113	  0.283	 -9.832	 -0.002	 -0.001	 -0.002	 30.500	 99.370	  0.046
17883	  0.291	 -0.189	  0.348	  0.212	  0.109	 -9.827	 -0.002	  0.001	  0.001	 30.600	 99.370	  0.046
17933	  0.291	 -0.187	  0.350	  0.237	  0.115	 -9.867	 -0.002	  0.001	  0.001	 30.500	 99.370	  0.046
17983	  0.290	 -0.187	  0.347	  0.231	  0.119	 -9.849	 -0.002	  0.002	 -0.000	 30.500	 99.370	  0.046
18033	  0.289	 -0.189	  0.350	  0.247	  0.107	 -9.858	 -0.003	  0.002	  0.000	 30.500	 99.370	  0.046
18083	  0.289	 -0.189	  0.354	  0.242	  0.131	 -9.845	 -0.002	  0.002	  0.001	 30.600	 99.359	  1.026
18133	  0.291	 -0.187	  0.352	  0.262	  0.123	 -9.862	 -0.004	  0.001	  0.001	 30.600	 99.386	 -1.378
18183	  0.290	 -0.188	  0.351	  0.204	  0.126	 -9.841	 -0.000	  0.001	  0.001	 30.500	 99.375	 -0.399
18233	  0.293	 -0.171	  0.354	  0.267	 -0.543	 -9.702	 -0.009	  0.007	 -0.933	 30.500	 99.370	  0.046
18283	  0.292	 -0.167	  0.353	  1.303	  1.256	 -9.240	  0.005	 -0.019	  0.011	 30.600	 99.370	  0.046
18333	  0.295	 -0.169	  0.350	  0.056	 -0.517	 -10.022	 -0.001	 -0.005	 -0.000	 30.500	 99.370	  0.046
18383	  0.294	 -0.160	  0.353	  0.197	 -0.022	 -9.896	 -0.003	  0.004	  0.001	 30.500	 99.370	  0.046
18433	  0.293	 -0.161	  0.354	  0.242	  0.176	 -9.800	 -0.002	  0.001	  0.001	 30.500	 99.366	  0.403
18483	  0.294	 -0.165	  0.353	  0.223	  0.118	 -9.792	 -0.002	  0.002	 -0.000	 30.500	 99.370	  0.046
18533	  0.293	 -0.171	  0.353	  0.239	  0.123	 -9.873	 -0.002	  0.001	 -0.000	 30.600	 99.375	 -0.399
18583	  0.292	 -0.163	  0.353	 -0.353	 -0.011	 -9.636	 -0.001	  0.009	  0.029	 30.500	 99.386	 -1.378
18633	  0.295	 -0.155	  0.356	 -0.150	 -0.398	 -10.053	 -0.003	 -0.002	  0.053	 30.500	 99.370	  0.046
18683	  0.298	 -0.152	  0.358	 -0.071	 -0.017	 -9.893	 -0.007	  0.004	  0.003	 30.500	 99.370	  0.046
18733	  0.295	 -0.160	  0.353	  0.299	  0.111	 -9.851	 -0.001	  0.002	  0.000	 30.500	 99.382	 -1.022
18783	  0.296	 -0.163	  0.354	  0.240	  0.076	 -9.857	 -0.002	  0.000	  0.000	 30.500	 99.370	  0.046
18833	  0.293	 -0.150	  0.350	  0.220	  0.163	 -9.850	 -0.003	 -0.000	 -0.000	 30.500	 99.370	  0.046
18883	  0.296	 -0.151	  0.355	  0.257	  0.120	 -9.838	 -0.002	  0.001	  0.000	 30.500	 99.370	  0.046
18933	  0.298	 -0.161	  0.351	  0.181	  0.068	 -9.877	 -0.003	  0.001	  0.000	 30.500	 99.370	  0.046
18983	  0.294	 -0.160	  0.349	  0.239	  0.115	 -9.884	 -0.002	  0.001	 -0.000	 30.500	 99.375	 -0.399
19033	  0.295	 -0.160	  0.350	  0.248	  0.110	 -9.876	 -0.002	  0.000	  0.001	 30.500	 99.370	  0.046
19083	  0.296	 -0.161	  0.353	  0.920	  0.213	 -9.296	  0.006	 -0.013	  0.000	 30.600	 99.370	  0.046
19133	  0.297	 -0.163	  0.349	 -0.452	 -0.403	 -10.153	 -0.007	  0.009	 -0.002	 30.600	 99.375	 -0.399
19184	  0.296	 -0.157	  0.352	  0.267	  0.304	 -9.857	 -0.002	  0.001	 -0.000	 30.500	 99.370	  0.046
19233	  0.295	 -0.167	  0.357	  0.259	  0.173	 -9.907	 -0.004	  0.002	  0.001	 30.500	 99.370	  0.046
19283	  0.297	 -0.163	  0.349	  0.237	  0.109	 -9.881	 -0.003	  0.001	  0.001	 30.500	 99.359	  1.026
19333	  0.295	 -0.164	  0.350	  0.235	  0.113	 -9.894	 -0.002	 -0.000	  0.001	 30.500	 99.370	  0.046
19383	  0.296	 -0.158	  0.350	  0.374	  0.183	 -9.747	 -0.002	  0.003	  0.005	 30.600	 99.370	  0.046
19433	  0.296	 -0.159	  0.353	  0.283	  0.158	 -9.793	 -0.003	  0.003	  0.001	 30.500	 99.370	  0.046
19483	  0.295	 -0.165	  0.357	  0.201	  0.094	 -9.871	 -0.001	  0.000	  0.001	 30.600	 99.370	  0.046
19534	  0.296	 -0.159	  0.350	  0.222	  0.118	 -9.892	 -0.003	  0.002	  0.001	 30.500	 99.370	  0.046
19583	  0.294	 -0.162	  0.354	 -1.103	  0.579	 -9.781	 -0.019	  0.004	  0.186	 30.500	 99.370	  0.046
19633	  0.293	 -0.175	  0.353	  0.899	  0.120	 -9.931	 -0.041	  0.004	  1.085	 30.600	 99.375	 -0.399
19683	  0.291	 -0.191	  0.352	 -0.064	  0.177	 -9.871	  0.006	 -0.027	  0.000	 30.600	 99.375	 -0.399
19733	  0.289	 -0.188	  0.350	  0.071	  0.025	 -9.874	  0.002	 -0.013	  0.000	 30.600	 99.375	 -0.399
19784	  0.292	 -0.183	  0.349	  0.081	  0.105	 -9.887	 -0.000	 -0.006	  0.000	 30.600	 99.359	  1.026
19833	  0.291	 -0.189	  0.351	  0.074	  0.040	 -9.884	 -0.001	  0.001	 -0.000	 30.500	 99.370	  0.046
19884	  0.290	 -0.184	  0.351	  0.135	  0.106	 -9.862	 -0.003	  0.004	 -0.000	 30.500	 99.370	  0.046
19933	  0.289	 -0.187	  0.354	  0.206	  0.110	 -9.851	 -0.004	  0.006	  0.001	 30.600	 99.375	 -0.399
19984	  0.292	 -0.187	  0.348	  0.253	  0.113	 -9.841	 -0.004	  0.005	  0.001	 30.500	 99.370	  0.046
20034	  0.290	 -0.180	  0.352	  0.936	 -0.374	 -9.406	  0.030	 -0.002	 -0.567	 30.500	 99.359	  1.026
20084	  0.293	 -0.177	  0.353	  1.397	  0.465	 -9.443	  0.020	 -0.075	  0.005	 30.500	 99.370	  0.046
20134	  0.294	 -0.176	  0.357	 -1.427	  0.117	 -10.338	  0.007	 -0.001	  0.003	 30.500	 99.370	  0.046
20184	  0.290	 -0.178	  0.351	  0.537	  0.063	 -9.849	 -0.003	  0.001	 -0.002	 30.500	 99.370	  0.046
20234	  0.294	 -0.173	  0.351	  1.473	 -0.375	 -10.145	  0.014	 -0.000	 -0.531	 30.500	 99.370	  0.046
20284	  0.295	 -0.165	  0.352	  0.292	  2.424	 -9.323	 -0.014	  0.032	 -0.030	 30.500	 99.363	  0.670
20334	  0.295	 -0.168	  0.353	  0.747	  0.326	 -9.556	 -0.006	  0.003	  0.001	 30.500	 99.359	  1.026
20384	  0.295	 -0.156	  0.353	  0.229	  0.041	 -9.859	 -0.002	  0.002	  0.001	 30.500	 99.370	  0.046
20434	  0.295	 -0.165	  0.349	  0.274	  0.185	 -9.847	 -0.002	  0.001	  0.001	 30.600	 99.375	 -0.399
20484	  0.293	 -0.166	  0.350	  0.245	  0.183	 -9.814	 -0.001	  0.001	  0.002	 30.500	 99.370	  0.046
20534	  0.295	 -0.167	  0.358	  0.213	  0.064	 -9.882	 -0.003	  0.001	 -0.002	 30.500	 99.370	  0.046
20584	  0.294	 -0.170	  0.354	  0.222	  0.154	 -9.872	 -0.003	  0.001	 -0.001	 30.600	 99.359	  1.026
20634	  0.295	 -0.164	  0.354	  0.013	 -0.048	 -9.936	 -0.005	  0.002	 -0.001	 30.600	 99.375	 -0.399
20684	  0.300	 -0.162	  0.357	  0.446	  0.016	 -9.845	 -0.003	 -0.000	 -0.007	 30.500	 99.370	  0.046
20734	  0.295	 -0.166	  0.349	 -0.047	  0.224	 -9.827	  0.003	  0.004	 -0.180	 30.500	 99.370	  0.046
20784	  0.296	 -0.162	  0.354	  0.228	  0.134	 -9.851	 -0.003	  0.002	  0.000	 30.500	 99.375	 -0.399
20834	  0.296	 -0.164	  0.356	  0.224	  0.107	 -9.908	 -0.004	  0.001	  0.002	 30.600	 99.375	 -0.399
20884	  0.295	 -0.167	  0.352	  0.239	  0.110	 -9.846	 -0.002	  0.002	 -0.001	 30.600	 99.363	  0.670
20934	  0.296	 -0.168	  0.356	  0.243	  0.153	 -9.863	 -0.002	  0.002	  0.000	 30.500	 99.370	  0.046
20984	  0.297	 -0.165	  0.354	  0.205	  0.127	 -9.867	 -0.003	  0.000	  0.001	 30.500	 99.382	 -1.022
21034	  0.298	 -0.164	  0.351	  0.206	  0.114	 -9.859	 -0.002	  0.000	  0.001	 30.500	 99.370	  0.046
21084	  0.296	 -0.165	  0.352	  0.227	  0.091	 -9.868	 -0.001	  0.002	  0.001	 30.500	 99.375	 -0.399
21134	  0.296	 -0.166	  0.354	  0.228	  0.145	 -9.863	 -0.002	 -0.000	  0.001	 30.500	 99.370	  0.046
21184	  0.298	 -0.166	  0.358	  0.232	  0.126	 -9.885	 -0.002	  0.002	  0.001	 30.500	 99.370	  0.046
21234	  0.297	 -0.166	  0.349	 -0.109	 -0.316	 -10.043	 -0.004	 -0.001	  0.001	 30.500	 99.370	  0.046
21284	  0.302	 -0.153	  0.353	  0.504	  0.127	 -9.855	  0.002	  0.004	 -0.115	 30.500	 99.375	 -0.399
21334	  0.302	 -0.153	  0.353	  0.216	  0.082	 -9.873	 -0.003	  0.002	 -0.000	 30.500	 99.359	  1.026
21384	  0.294	 -0.167	  0.363	  0.265	  0.116	 -9.831	 -0.003	  0.001	 -0.000	 30.500	 99.370	  0.046
21434	  0.298	 -0.164	  0.361	  0.241	  0.127	 -9.847	 -0.002	  0.000	  0.001	 30.500	 99.359	  1.026
21484	  0.299	 -0.166	  0.354	  0.242	  0.127	 -9.845	 -0.002	  0.001	  0.001	 30.600	 99.370	  0.046
21534	  0.299	 -0.165	  0.360	  0.239	  0.125	 -9.902	 -0.002	  0.001	  0.001	 30.500	 99.370	  0.046
21584	  0.300	 -0.163	  0.360	  2.256	 -0.083	 -9.677	  0.014	  0.003	 -0.334	 30.500	 99.382	 -1.022
21634	  0.301	 -0.147	  0.358	 -1.145	  0.015	 -10.008	  0.029	  0.009	 -0.947	 30.600	 99.375	 -0.399
21684	  0.302	 -0.139	  0.358	  0.531	  0.798	 -9.448	  0.006	 -0.010	 -0.000	 30.500	 99.363	  0.670
21734	  0.301	 -0.140	  0.362	 -0.311	 -0.113	 -10.038	 -0.002	  0.003	  0.003	 30.600	 99.375	 -0.399
21784	  0.302	 -0.141	  0.358	  0.351	  0.234	 -9.743	 -0.000	 -0.002	  0.000	 30.600	 99.370	  0.046
21834	  0.299	 -0.143	  0.358	  0.121	  0.045	 -9.868	 -0.002	  0.001	 -0.001	 30.600	 99.386	 -1.378
21884	  0.302	 -0.140	  0.357	  0.210	  0.119	 -9.867	 -0.002	 -0.000	  0.000	 30.500	 99.375	 -0.399
21934	  0.303	 -0.139	  0.359	  1.618	 -0.241	 -9.893	  0.010	  0.007	 -0.373	 30.600	 99.363	  0.670
21984	  0.304	 -0.125	  0.359	 -2.467	 -0.088	 -9.742	  0.022	  0.025	 -0.845	 30.500	 99.370	  0.046
22034	  0.302	 -0.129	  0.360	  0.915	  0.018	 -9.823	 -0.005	 -0.007	  0.210	 30.500	 99.370	  0.046
22084	  0.302	 -0.125	  0.360	  0.264	  0.118	 -9.841	 -0.004	 -0.006	  0.143	 30.500	 99.382	 -1.022
22134	  0.302	 -0.123	  0.358	  0.270	  0.194	 -9.846	 -0.002	  0.002	  0.001	 30.500	 99.370	  0.046
22184	  0.304	 -0.130	  0.353	 -0.382	 -1.586	 -10.816	  0.072	 -0.012	 -0.328	 30.600	 99.370	  0.046
22234	  0.303	 -0.115	  0.359	 -1.030	  0.149	 -9.729	 -0.006	  0.017	 -0.086	 30.500	 99.370	  0.046
22284	  0.307	 -0.124	  0.358	  0.608	  0.090	 -9.783	 -0.005	 -0.009	  0.079	 30.500	 99.370	  0.046
22334	  0.303	 -0.119	  0.358	  0.184	  0.132	 -9.960	 -0.001	 -0.008	  0.084	 30.500	 99.359	  1.026
22384	  0.305	 -0.130	  0.359	  0.298	 -0.015	 -9.858	 -0.003	  0.001	  0.025	 30.500	 99.375	 -0.399
22434	  0.304	 -0.129	  0.361	  0.242	  0.117	 -9.841	 -0.003	  0.001	  0.001	 30.500	 99.370	  0.046
22484	  0.304	 -0.128	  0.354	  0.231	  0.139	 -9.852	 -0.003	  0.002	 -0.001	 30.600	 99.370	  0.046
22534	  0.302	 -0.118	  0.360	  0.241	  0.128	 -9.868	 -0.003	  0.001	  0.001	 30.500	 99.370	  0.046
22584	  0.304	 -0.124	  0.358	  0.239	  0.100	 -9.849	 -0.003	 -0.000	  0.000	 30.600	 99.370	  0.046
22634	  0.303	 -0.126	  0.362	  0.228	  0.105	 -9.881	 -0.002	  0.002	 -0.001	 30.600	 99.375	 -0.399
22684	  0.300	 -0.125	  0.359	  0.237	  0.136	 -9.840	 -0.003	  0.001	  0.001	 30.500	 99.370	  0.046
22734	  0.305	 -0.128	  0.363	  2.891	 -0.372	 -9.470	  0.047	 -0.016	 -0.238	 30.500	 99.370	  0.046
22784	  0.304	 -0.116	  0.359	 -0.025	  0.178	 -9.900	 -0.002	  0.007	 -0.003	 30.500	 99.363	  0.670
22834	  0.304	 -0.125	  0.358	  0.659	 -0.026	 -9.832	 -0.003	 -0.002	  0.094	 30.500	 99.370	  0.046
22884	  0.304	 -0.127	  0.359	  0.283	  0.139	 -9.841	 -0.003	  0.002	  0.001	 30.600	 99.370	  0.046
22934	  0.299	 -0.129	  0.354	  0.245	  0.118	 -9.866	 -0.002	  0.001	  0.000	 30.600	 99.375	 -0.399
22984	  0.303	 -0.126	  0.360	 -3.586	 -0.221	 -10.414	 -0.028	 -0.007	  0.001	 30.500	 99.375	 -0.399
23034	  0.311	 -0.112	  0.349	  0.310	  0.058	 -9.911	 -0.002	  0.005	 -0.003	 30.500	 99.359	  1.026
23084	  0.306	 -0.121	  0.349	  0.106	  0.239	 -9.794	 -0.006	  0.004	  0.005	 30.500	 99.370	  0.046
23134	  0.300	 -0.126	  0.364	  0.253	  0.068	 -9.860	 -0.003	  0.002	  0.001	 30.500	 99.370	  0.046
23184	  0.302	 -0.129	  0.360	  0.233	  0.148	 -9.870	  0.000	  0.001	  0.000	 30.500	 99.370	  0.046
23234	  0.302	 -0.125	  0.360	  0.533	 -0.162	 -9.899	 -0.003	  0.010	 -0.019	 30.500	 99.359	  1.026
23284	  0.302	 -0.123	  0.359	  0.156	  0.147	 -9.866	 -0.005	  0.002	 -0.001	 30.500	 99.375	 -0.399
23334	  0.303	 -0.120	  0.357	  0.312	  0.112	 -9.835	 -0.002	 -0.001	  0.000	 30.600	 99.375	 -0.399
23384	  0.302	 -0.120	  0.363	  0.213	  0.115	 -9.889	 -0.003	  0.001	  0.002	 30.500	 99.375	 -0.399
23434	  0.300	 -0.127	  0.360	  0.270	  0.159	 -9.851	 -0.002	  0.001	  0.000	 30.500	 99.370	  0.046
23484	  0.302	 -0.129	  0.361	  0.266	  0.104	 -9.817	 -0.003	  0.002	  0.001	 30.600	 99.375	 -0.399
23534	  0.304	 -0.122	  0.362	  0.227	  0.127	 -9.848	 -0.002	  0.001	  0.002	 30.500	 99.370	  0.046
23584	  0.301	 -0.124	  0.359	  0.227	  0.113	 -9.823	 -0.002	  0.001	  0.001	 30.600	 99.370	  0.046
23634	  0.304	 -0.118	  0.361	  0.236	  0.134	 -9.820	 -0.002	  0.001	 -0.000	 30.500	 99.370	  0.046
23684	  0.302	 -0.123	  0.359	  0.219	  0.132	 -9.879	 -0.002	  0.002	  0.001	 30.500	 99.382	 -1.022
23734	  0.306	 -0.123	  0.362	  0.245	  0.104	 -9.831	 -0.003	  0.001	  0.001	 30.500	 99.370	  0.046
23784	  0.302	 -0.137	  0.352	 -0.015	 -2.518	 -11.924	 -0.163	  0.019	  1.784	 30.500	 99.386	 -1.378
23834	  0.301	 -0.154	  0.356	  1.405	 -0.367	 -9.577	 -0.024	 -0.020	  0.931	 30.500	 99.370	  0.046
23884	  0.296	 -0.181	  0.357	  0.973	 -0.510	 -9.667	 -0.009	 -0.032	  0.529	 30.500	 99.382	 -1.022
23934	  0.295	 -0.186	  0.360	  0.371	 -0.455	 -9.857	  0.001	 -0.016	  0.082	 30.500	 99.359	  1.026
23984	  0.295	 -0.188	  0.358	  0.039	  0.034	 -9.916	  0.003	 -0.013	  0.001	 30.500	 99.386	 -1.378
24034	  0.293	 -0.180	  0.354	  0.013	  0.040	 -9.942	 -0.001	 -0.001	 -0.000	 30.600	 99.375	 -0.399
24084	  0.298	 -0.184	  0.355	  0.188	  0.106	 -9.890	 -0.005	  0.005	  0.001	 30.500	 99.370	  0.046
24134	  0.295	 -0.183	  0.352	 -0.820	  0.143	 -10.060	  0.013	  0.001	 -0.194	 30.500	 99.370	  0.046
24184	  0.298	 -0.180	  0.357	 -1.039	  0.015	 -10.330	  0.002	 -0.013	  0.025	 30.600	 99.370	  0.046
24234	  0.294	 -0.182	  0.357	 -0.197	 -0.072	 -10.035	 -0.002	  0.002	  0.000	 30.500	 99.370	  0.046
24284	  0.293	 -0.186	  0.356	 -0.012	  0.050	 -9.937	 -0.004	  0.007	  0.001	 30.600	 99.375	 -0.399
24334	  0.297	 -0.183	  0.351	  0.157	  0.103	 -9.929	 -0.004	  0.007	  0.000	 30.500	 99.370	  0.046
24384	  0.296	 -0.178	  0.359	  0.263	  0.108	 -9.870	 -0.004	  0.005	 -0.000	 30.600	 99.382	 -1.022
24434	  0.294	 -0.184	  0.359	  0.322	  0.159	 -9.849	 -0.003	  0.003	  0.001	 30.500	 99.382	 -1.022
24484	  0.296	 -0.180	  0.357	  0.303	  0.135	 -9.819	 -0.002	 -0.000	 -0.001	 30.600	 99.370	  0.046
24534	  0.296	 -0.184	  0.357	  0.291	  0.137	 -9.843	 -0.001	  0.001	  0.001	 30.600	 99.375	 -0.399
24584	  0.294	 -0.184	  0.358	  0.238	  0.120	 -9.857	 -0.003	  0.001	  0.002	 30.600	 99.382	 -1.022
24634	  0.297	 -0.185	  0.355	  0.243	  0.133	 -9.881	 -0.002	  0.001	 -0.001	 30.600	 99.363	  0.670
24685	  0.296	 -0.182	  0.348	  0.220	  0.129	 -9.828	 -0.003	  0.001	  0.001	 30.500	 99.375	 -0.399
24734	  0.296	 -0.184	  0.355	  0.466	  0.346	 -9.710	  0.009	  0.004	 -0.007	 30.600	 99.375	 -0.399
24783	  0.297	 -0.182	  0.357	 -1.192	 -0.169	 -10.093	  0.066	  0.039	 -0.057	 30.600	 99.375	 -0.399
24833	  0.300	 -0.168	  0.359	 -1.231	 -1.094	 -10.557	  0.008	  0.023	 -0.803	 30.500	 99.370	  0.046
24883	  0.300	 -0.164	  0.358	 -1.542	  1.366	 -12.438	 -0.195	  0.093	 -0.100	 30.500	 99.375	 -0.399
24933	  0.300	 -0.160	  0.356	 -0.241	 -0.957	 -10.362	 -0.008	  0.054	  0.116	 30.600	 99.375	 -0.399
24983	  0.299	 -0.158	  0.358	  0.061	 -0.080	 -9.995	 -0.009	  0.009	 -0.002	 30.600	 99.370	  0.046
25034	  0.301	 -0.162	  0.358	  0.225	  0.094	 -9.897	 -0.006	  0.007	  0.002	 30.500	 99.370	  0.046
25084	  0.298	 -0.165	  0.359	  0.343	  0.190	 -9.855	 -0.004	  0.006	  0.000	 30.600	 99.363	  0.670
25133	  0.301	 -0.164	  0.358	  0.414	  0.210	 -9.819	 -0.003	  0.000	  0.002	 30.500	 99.370	  0.046
25183	  0.301	 -0.154	  0.361	 -0.465	 -0.574	 -9.967	 -0.004	  0.001	 -0.294	 30.600	 99.375	 -0.399
25233	  0.303	 -0.150	  0.358	 -0.898	 -0.838	 -10.444	  0.031	 -0.056	  0.067	 30.600	 99.375	 -0.399
25283	  0.303	 -0.151	  0.359	 -0.415	 -0.074	 -10.047	 -0.004	  0.001	  0.018	 30.500	 99.375	 -0.399
25333	  0.300	 -0.152	  0.359	  0.059	  0.048	 -9.957	 -0.004	  0.007	 -0.000	 30.600	 99.375	 -0.399
25384	  0.299	 -0.157	  0.356	  0.172	  0.091	 -9.802	 -0.004	  0.007	  0.001	 30.600	 99.370	  0.046
25434	  0.301	 -0.156	  0.360	  4.942	  0.616	 -9.420	  0.018	 -0.025	 -0.142	 30.600	 99.375	 -0.399
25484	  0.302	 -0.141	  0.359	 -0.672	 -0.319	 -10.211	 -0.102	  0.012	  0.029	 30.600	 99.370	  0.046
25534	  0.300	 -0.154	  0.354	 -0.544	 -0.115	 -10.106	 -0.010	  0.015	  0.035	 30.500	 99.370	  0.046
25584	  0.300	 -0.143	  0.357	  0.038	  0.090	 -9.922	 -0.005	  0.008	  0.002	 30.600	 99.363	  0.670
25634	  0.301	 -0.150	  0.357	  0.214	  0.103	 -9.839	 -0.006	  0.008	  0.000	 30.500	 99.382	 -1.022
25684	  0.300	 -0.148	  0.359	  0.371	  0.166	 -9.805	 -0.004	  0.005	  0.001	 30.500	 99.363	  0.670
25734	  0.301	 -0.148	  0.357	  0.369	  0.144	 -9.823	 -0.003	  0.002	  0.001	 30.500	 99.370	  0.046
25784	  0.299	 -0.149	  0.350	  0.328	  0.169	 -9.803	 -0.001	  0.000	  0.001	 30.500	 99.363	  0.670
25834	  0.302	 -0.148	  0.356	  0.270	  0.119	 -9.824	 -0.001	 -0.001	 -0.001	 30.500	 99.359	  1.026
25884	  0.303	 -0.146	  0.357	  0.267	  0.124	 -9.827	 -0.001	  0.001	  0.002	 30.600	 99.375	 -0.399
25934	  0.302	 -0.143	  0.359	  0.233	  0.149	 -9.823	 -0.003	  0.001	  0.001	 30.500	 99.370	  0.046
25984	  0.301	 -0.147	  0.360	  0.256	  0.111	 -9.858	 -0.001	 -0.000	 -0.001	 30.600	 99.375	 -0.399
26034	  0.303	 -0.154	  0.359	  0.753	  0.439	 -10.220	 -0.036	  0.066	  0.006	 30.600	 99.375	 -0.399
26084	  0.299	 -0.148	  0.357	  1.148	  0.130	 -9.498	  0.036	 -0.019	 -0.180	 30.600	 99.375	 -0.399
26134	  0.302	 -0.146	  0.361	  0.685	  2.271	 -8.938	  0.000	 -0.021	  0.010	 30.500	 99.370	  0.046
26184	  0.300	 -0.147	  0.356	  0.497	 -0.280	 -9.855	 -0.006	 -0.005	 -0.004	 30.600	 99.375	 -0.399
26234	  0.302	 -0.148	  0.358	  0.145	  0.015	 -9.842	 -0.002	  0.001	  0.000	 30.500	 99.370	  0.046
26284	  0.301	 -0.147	  0.360	  0.231	  0.123	 -9.826	 -0.003	  0.001	  0.002	 30.600	 99.363	  0.670
26334	  0.301	 -0.150	  0.357	  1.754	 -0.240	 -10.123	  0.001	  0.019	  0.044	 30.500	 99.359	  1.026
26384	  0.300	 -0.148	  0.359	  0.133	  0.136	 -9.897	 -0.003	 -0.002	 -0.004	 30.500	 99.363	  0.670
26434	  0.300	 -0.144	  0.358	  0.353	  0.115	 -9.915	 -0.003	  0.003	 -0.000	 30.500	 99.370	  0.046
26484	  0.302	 -0.146	  0.356	  0.336	  0.179	 -9.811	 -0.003	  0.000	  0.001	 30.600	 99.370	  0.046
26534	  0.302	 -0.147	  0.361	  0.301	  0.121	 -9.852	 -0.001	 -0.002	  0.001	 30.500	 99.370	  0.046
26585	  0.302	 -0.147	  0.361	 -0.758	  1.975	 -9.901	 -0.006	  0.015	 -0.048	 30.600	 99.375	 -0.399
26634	  0.303	 -0.145	  0.356	  0.132	  0.111	 -9.921	  0.001	 -0.006	 -0.003	 30.500	 99.370	  0.046
26684	  0.301	 -0.149	  0.359	  0.378	  0.116	 -9.803	  0.001	 -0.007	  0.001	 30.500	 99.370	  0.046
26734	  0.303	 -0.150	  0.352	  0.232	  0.151	 -9.873	  0.000	 -0.007	  0.001	 30.600	 99.363	  0.670
26784	  0.300	 -0.144	  0.359	 -0.336	  0.887	 -9.650	  0.006	  0.024	  0.025	 30.600	 99.363	  0.670
26834	  0.301	 -0.147	  0.356	 -0.091	  0.073	 -9.925	 -0.003	  0.000	 -0.001	 30.600	 99.363	  0.670
26885	  0.302	 -0.151	  0.358	  0.246	  0.064	 -9.888	 -0.007	  0.017	 -0.001	 30.600	 99.370	  0.046
26934	  0.303	 -0.152	  0.356	  0.353	  0.143	 -9.818	 -0.005	  0.007	  0.001	 30.600	 99.375	 -0.399
26984	  0.301	 -0.140	  0.360	 -0.420	 -0.480	 -10.333	 -0.014	 -0.005	 -0.025	 30.500	 99.375	 -0.399
27034	  0.304	 -0.152	  0.359	  0.058	  0.138	 -9.897	 -0.003	 -0.001	  0.003	 30.500	 99.359	  1.026
27084	  0.301	 -0.147	  0.358	  0.097	 -0.003	 -9.917	 -0.004	  0.003	 -0.000	 30.600	 99.375	 -0.399
27134	  0.300	 -0.152	  0.356	  0.132	  0.079	 -9.927	 -0.004	  0.003	  0.000	 30.600	 99.375	 -0.399
27184	  0.300	 -0.142	  0.359	  0.214	  0.145	 -9.858	 -0.003	  0.004	  0.002	 30.600	 99.359	  1.026
27234	  0.302	 -0.150	  0.360	  0.261	  0.126	 -9.841	 -0.004	  0.003	 -0.001	 30.600	 99.375	 -0.399
27284	  0.302	 -0.151	  0.359	  0.256	  0.116	 -9.847	 -0.003	  0.002	 -0.000	 30.600	 99.375	 -0.399
27334	  0.304	 -0.149	  0.360	  0.235	  0.114	 -9.867	 -0.002	  0.002	  0.001	 30.600	 99.375	 -0.399
27384	  0.302	 -0.152	  0.355	  0.240	  0.104	 -9.844	 -0.002	 -0.000	  0.000	 30.600	 99.375	 -0.399
27434	  0.303	 -0.149	  0.355	  0.209	  0.422	 -9.531	 -0.007	 -0.019	  0.007	 30.500	 99.370	  0.046
27484	  0.300	 -0.142	  0.352	  0.664	 -0.708	 -10.060	  0.020	  0.002	 -1.046	 30.500	 99.375	 -0.399
27534	  0.305	 -0.131	  0.356	 -1.096	  1.240	 -9.830	  0.033	  0.015	  0.449	 30.500	 99.370	  0.046
27584	  0.302	 -0.132	  0.353	  0.718	 -0.274	 -9.930	  0.003	 -0.008	  0.008	 30.500	 99.386	 -1.378
27634	  0.305	 -0.124	  0.360	  0.174	  0.126	 -9.876	 -0.003	 -0.000	  0.002	 30.600	 99.375	 -0.399
27684	  0.303	 -0.125	  0.362	  0.281	  0.100	 -9.882	 -0.002	  0.002	  0.001	 30.500	 99.375	 -0.399
27734	  0.302	 -0.130	  0.358	  0.575	  0.039	 -9.835	 -0.005	  0.010	 -0.005	 30.500	 99.370	  0.046
27784	  0.303	 -0.137	  0.358	  0.264	  0.085	 -9.827	 -0.002	  0.000	  0.007	 30.600	 99.359	  1.026
27834	  0.302	 -0.134	  0.352	  0.209	  0.109	 -9.833	 -0.002	 -0.001	  0.001	 30.500	 99.370	  0.046
27884	  0.303	 -0.129	  0.360	  0.231	  0.114	 -9.844	 -0.003	  0.001	  0.000	 30.600	 99.370	  0.046
27934	  0.308	 -0.122	  0.355	  0.067	 -0.077	 -9.933	 -0.007	  0.007	  0.001	 30.600	 99.375	 -0.399
27984	  0.305	 -0.130	  0.359	  0.175	  0.147	 -9.815	 -0.006	  0.001	  0.001	 30.600	 99.370	  0.046
28034	  0.300	 -0.138	  0.362	  0.247	  0.114	 -9.872	 -0.002	 -0.002	 -0.000	 30.500	 99.370	  0.046
28084	  0.304	 -0.138	  0.365	  0.229	  0.127	 -9.848	 -0.002	 -0.000	  0.002	 30.600	 99.363	  0.670
28134	  0.304	 -0.140	  0.358	  0.253	  0.217	 -9.804	  0.001	  0.003	 -0.004	 30.500	 99.359	  1.026
28184	  0.303	 -0.133	  0.361	  0.193	  0.127	 -9.857	 -0.003	  0.001	  0.001	 30.600	 99.359	  1.026
28234	  0.304	 -0.135	  0.359	  0.257	  0.142	 -9.834	 -0.002	  0.001	  0.000	 30.500	 99.370	  0.046
28284	  0.302	 -0.132	  0.358	  0.234	  0.120	 -9.846	 -0.002	 -0.000	 -0.000	 30.600	 99.375	 -0.399
28334	  0.301	 -0.127	  0.361	  0.222	  0.121	 -9.883	 -0.001	  0.002	  0.001	 30.600	 99.375	 -0.399
28384	  0.301	 -0.137	  0.363	  0.207	  0.115	 -9.854	 -0.001	  0.001	 -0.000	 30.600	 99.386	 -1.378
28434	  0.302	 -0.135	  0.363	  0.227	  0.123	 -9.872	 -0.003	  0.001	 -0.000	 30.600	 99.363	  0.670
28484	  0.302	 -0.132	  0.360	  0.640	  1.145	 -9.408	 -0.003	 -0.004	  0.004	 30.600	 99.370	  0.046
28534	  0.303	 -0.134	  0.363	  0.192	  0.280	 -9.805	 -0.004	  0.003	 -0.001	 30.600	 99.375	 -0.399
28584	  0.301	 -0.133	  0.358	  0.232	  0.148	 -9.874	 -0.003	  0.001	 -0.001	 30.500	 99.363	  0.670
28634	  0.304	 -0.135	  0.360	  0.232	  0.138	 -9.848	 -0.003	  0.001	  0.000	 30.600	 99.375	 -0.399
28684	  0.303	 -0.134	  0.361	  0.198	  0.083	 -9.784	  0.000	  0.001	  0.001	 30.600	 99.370	  0.046
28734	  0.302	 -0.136	  0.365	  0.258	  0.363	 -9.739	 -0.006	  0.006	 -0.004	 30.600	 99.375	 -0.399
28784	  0.304	 -0.135	  0.358	  0.309	  0.141	 -9.851	 -0.001	  0.000	  0.001	 30.600	 99.375	 -0.399
28834	  0.302	 -0.133	  0.362	  0.242	  0.113	 -9.859	 -0.003	  0.000	  0.001	 30.600	 99.375	 -0.399
28884	  0.303	 -0.136	  0.368	  0.211	  0.117	 -9.853	 -0.003	  0.001	  0.000	 30.600	 99.359	  1.026
28934	  0.303	 -0.131	  0.360	  0.254	  0.101	 -9.880	 -0.003	  0.002	  0.000	 30.500	 99.359	  1.026
28984	  0.305	 -0.133	  0.361	 -0.194	  0.382	 -9.902	 -0.009	 -0.001	  0.210	 30.600	 99.375	 -0.399
29034	  0.303	 -0.136	  0.359	  0.335	  0.378	 -9.787	 -0.006	  0.004	  0.002	 30.600	 99.375	 -0.399
29084	  0.303	 -0.147	  0.358	  0.216	  0.043	 -9.866	 -0.003	  0.002	 -0.000	 30.600	 99.363	  0.670
29134	  0.301	 -0.140	  0.363	  0.223	  0.137	 -9.821	 -0.003	  0.001	  0.000	 30.600	 99.386	 -1.378
29184	  0.302	 -0.134	  0.363	  0.243	  0.124	 -9.866	 -0.001	  0.001	  0.001	 30.600	 99.375	 -0.399
29234	  0.303	 -0.129	  0.365	  0.258	  0.146	 -9.868	 -0.004	  0.001	 -0.001	 30.600	 99.375	 -0.399
29284	  0.304	 -0.128	  0.360	  0.240	  0.135	 -9.845	 -0.003	  0.001	  0.002	 30.600	 99.375	 -0.399
29333	  0.301	 -0.139	  0.362	  0.217	  0.088	 -9.845	 -0.002	  0.002	  0.000	 30.600	 99.375	 -0.399
29383	  0.302	 -0.138	  0.362	  0.211	  0.120	 -9.860	 -0.002	  0.001	  0.000	 30.500	 99.359	  1.026
29434	  0.302	 -0.137	  0.363	  0.251	  0.109	 -9.834	 -0.002	  0.002	 -0.000	 30.500	 99.370	  0.046
29483	  0.302	 -0.137	  0.362	  0.216	  0.134	 -9.809	 -0.003	  0.000	  0.001	 30.600	 99.386	 -1.378
29533	  0.303	 -0.141	  0.359	  0.256	  0.122	 -9.873	 -0.002	  0.000	  0.002	 30.500	 99.375	 -0.399
29583	  0.302	 -0.135	  0.359	  0.218	  0.117	 -9.842	 -0.002	  0.001	 -0.001	 30.500	 99.363	  0.670
29633	  0.303	 -0.132	  0.361	  0.207	  0.117	 -9.849	 -0.002	  0.001	 -0.001	 30.600	 99.386	 -1.378
29683	  0.305	 -0.135	  0.364	  0.255	  0.129	 -9.858	 -0.004	  0.001	  0.001	 30.600	 99.359	  1.026
29733	  0.304	 -0.137	  0.361	  0.204	  0.105	 -9.839	 -0.002	  0.001	  0.001	 30.600	 99.386	 -1.378
29783	  0.301	 -0.138	  0.361	  0.229	  0.096	 -9.820	 -0.001	 -0.000	  0.000	 30.600	 99.375	 -0.399
29833	  0.302	 -0.139	  0.359	  0.227	  0.113	 -9.872	 -0.003	  0.002	  0.001	 30.600	 99.375	 -0.399
29883	  0.302	 -0.139	  0.362	  0.232	  0.108	 -9.857	 -0.001	  0.002	  0.001	 30.600	 99.375	 -0.399
29933	  0.303	 -0.137	  0.358	  0.245	  0.119	 -9.859	 -0.003	  0.001	  0.000	 30.600	 99.375	 -0.399
29983	  0.303	 -0.137	  0.362	  0.099	  0.184	 -9.840	  0.001	 -0.002	  0.001	 30.600	 99.363	  0.670
30033	  0.301	 -0.138	  0.357	  0.274	  0.143	 -9.877	 -0.003	  0.002	  0.001	 30.600	 99.363	  0.670
30083	  0.303	 -0.138	  0.359	  0.229	  0.152	 -9.873	 -0.003	  0.001	  0.001	 30.600	 99.363	  0.670
30133	  0.302	 -0.137	  0.359	  0.247	  0.120	 -9.864	 -0.001	  0.002	 -0.000	 30.600	 99.375	 -0.399
30183	  0.302	 -0.135	  0.361	  0.258	  0.150	 -9.848	 -0.002	  0.001	  0.001	 30.600	 99.363	  0.670
30233	  0.302	 -0.136	  0.360	  0.248	  0.115	 -9.872	 -0.002	  0.001	  0.002	 30.600	 99.375	 -0.399
30283	  0.301	 -0.137	  0.354	  0.234	  0.127	 -9.838	 -0.001	  0.002	  0.000	 30.600	 99.375	 -0.399
30333	  0.300	 -0.141	  0.359	  0.238	  0.111	 -9.838	 -0.002	  0.001	 -0.000	 30.600	 99.363	  0.670
30383	  0.300	 -0.135	  0.361	  0.257	  0.125	 -9.874	 -0.002	  0.001	  0.001	 30.500	 99.375	 -0.399
30433	  0.301	 -0.140	  0.354	  0.209	  0.133	 -9.847	 -0.002	  0.002	  0.001	 30.600	 99.375	 -0.399
30483	  0.298	 -0.130	  0.356	  0.224	  0.153	 -9.850	 -0.003	  0.001	  0.001	 30.600	 99.363	  0.670
30533	  0.301	 -0.139	  0.362	  0.269	  0.131	 -9.855	 -0.003	  0.002	 -0.000	 30.600	 99.375	 -0.399
30583	  0.302	 -0.130	  0.357	  0.234	  0.110	 -9.827	 -0.003	  0.002	  0.000	 30.600	 99.386	 -1.378
30634	  0.298	 -0.136	  0.356	  0.244	  0.139	 -9.832	 -0.002	  0.001	 -0.001	 30.500	 99.382	 -1.022
30683	  0.301	 -0.138	  0.357	  0.241	  0.120	 -9.833	 -0.003	  0.001	  0.001	 30.500	 99.375	 -0.399
30734	  0.299	 -0.136	  0.360	  0.231	  0.138	 -9.814	 -0.003	  0.001	 -0.000	 30.500	 99.370	  0.046
30783	  0.300	 -0.132	  0.362	  0.247	  0.101	 -9.834	 -0.002	  0.001	  0.001	 30.600	 99.375	 -0.399
30833	  0.301	 -0.135	  0.362	  0.252	  0.113	 -9.878	 -0.004	  0.002	  0.001	 30.600	 99.375	 -0.399
30883	  0.300	 -0.141	  0.360	  0.214	  0.137	 -9.814	 -0.001	  0.000	 -0.000	 30.600	 99.363	  0.670
30934	  0.298	 -0.137	  0.356	  0.229	  0.124	 -9.829	 -0.001	  0.002	 -0.000	 30.600	 99.375	 -0.399
30983	  0.301	 -0.138	  0.356	  0.223	  0.133	 -9.856	 -0.001	  0.001	 -0.000	 30.600	 99.363	  0.670
31034	  0.301	 -0.140	  0.353	  0.250	  0.119	 -9.849	 -0.002	  0.001	  0.001	 30.600	 99.375	 -0.399
31084	  0.299	 -0.126	  0.362	  0.225	  0.119	 -9.843	 -0.002	  0.001	  0.001	 30.600	 99.359	  1.026
31134	  0.300	 -0.135	  0.359	  0.237	  0.120	 -9.852	 -0.003	  0.001	  0.001	 30.600	 99.375	 -0.399
31184	  0.298	 -0.126	  0.363	  0.231	  0.149	 -9.866	 -0.002	  0.002	  0.001	 30.600	 99.375	 -0.399
31234	  0.300	 -0.139	  0.362	  0.245	  0.102	 -9.873	 -0.002	  0.002	 -0.001	 30.600	 99.375	 -0.399
31284	  0.301	 -0.135	  0.362	  0.222	  0.121	 -9.854	 -0.002	  0.001	  0.000	 30.600	 99.363	  0.670
31334	  0.298	 -0.135	  0.358	  0.244	  0.106	 -9.852	 -0.001	  0.002	  0.001	 30.600	 99.375	 -0.399
31384	  0.300	 -0.143	  0.360	  0.243	  0.113	 -9.848	 -0.002	  0.001	  0.000	 30.600	 99.363	  0.670
31434	  0.298	 -0.134	  0.352	  0.242	  0.133	 -9.865	 -0.002	  0.001	  0.000	 30.600	 99.375	 -0.399
31484	  0.298	 -0.136	  0.358	  0.252	  0.123	 -9.876	 -0.002	  0.002	 -0.001	 30.600	 99.375	 -0.399
31534	  0.300	 -0.130	  0.362	  0.225	  0.099	 -9.840	 -0.002	  0.002	 -0.000	 30.600	 99.375	 -0.399
31584	  0.301	 -0.140	  0.359	  0.237	  0.117	 -9.828	 -0.002	  0.001	  0.001	 30.600	 99.363	  0.670
31634	  0.301	 -0.134	  0.360	  0.225	  0.108	 -9.843	 -0.003	  0.001	  0.001	 30.600	 99.375	 -0.399
31684	  0.299	 -0.138	  0.355	  0.247	  0.116	 -9.867	 -0.002	  0.002	  0.002	 30.600	 99.375	 -0.399
31734	  0.300	 -0.135	  0.354	  0.223	  0.124	 -9.835	 -0.003	  0.001	  0.001	 30.500	 99.370	  0.046
31784	  0.297	 -0.130	  0.357	  0.223	  0.112	 -9.859	 -0.001	  0.002	  0.000	 30.600	 99.375	 -0.399
31834	  0.298	 -0.137	  0.360	  0.238	  0.094	 -9.833	 -0.002	  0.002	 -0.001	 30.600	 99.363	  0.670
31884	  0.300	 -0.135	  0.359	  0.250	  0.123	 -9.836	 -0.003	  0.000	  0.001	 30.600	 99.375	 -0.399
31934	  0.300	 -0.132	  0.361	  0.226	  0.104	 -9.857	 -0.003	  0.001	  0.001	 30.600	 99.375	 -0.399
31984	  0.298	 -0.137	  0.356	  0.234	  0.112	 -9.875	 -0.002	  0.001	  0.001	 30.600	 99.375	 -0.399
32034	  0.300	 -0.135	  0.361	  0.253	  0.137	 -9.850	 -0.001	  0.002	 -0.000	 30.600	 99.363	  0.670
32084	  0.297	 -0.132	  0.362	  0.225	  0.138	 -9.837	 -0.003	  0.001	  0.000	 30.600	 99.375	 -0.399
32134	  0.300	 -0.133	  0.353	  0.225	  0.115	 -9.869	 -0.002	  0.001	  0.000	 30.600	 99.375	 -0.399
32184	  0.302	 -0.138	  0.363	  0.246	  0.125	 -9.876	 -0.003	  0.001	  0.001	 30.500	 99.375	 -0.399
32234	  0.298	 -0.136	  0.358	  0.235	  0.127	 -9.851	 -0.002	  0.002	  0.000	 30.600	 99.375	 -0.399
32284	  0.302	 -0.137	  0.354	  0.234	  0.136	 -9.831	 -0.003	  0.002	 -0.001	 30.600	 99.370	  0.046
32334	  0.299	 -0.127	  0.356	  0.261	  0.127	 -9.837	 -0.001	  0.002	  0.000	 30.600	 99.375	 -0.399
32384	  0.300	 -0.137	  0.358	  0.243	  0.125	 -9.816	 -0.002	  0.001	  0.001	 30.600	 99.386	 -1.378
32434	  0.300	 -0.130	  0.358	  0.278	  0.131	 -9.824	 -0.002	  0.001	  0.000	 30.600	 99.375	 -0.399
32484	  0.302	 -0.134	  0.357	  0.243	  0.099	 -9.834	 -0.002	  0.002	  0.001	 30.600	 99.375	 -0.399
32534	  0.298	 -0.139	  0.362	  0.223	  0.119	 -9.858	 -0.002	  0.001	 -0.000	 30.600	 99.375	 -0.399
32584	  0.298	 -0.139	  0.355	  0.235	  0.116	 -9.835	 -0.001	  0.001	 -0.000	 30.600	 99.363	  0.670
32634	  0.298	 -0.128	  0.360	  0.255	  0.119	 -9.865	 -0.002	  0.002	  0.002	 30.600	 99.375	 -0.399
32684	  0.298	 -0.132	  0.360	  0.238	  0.103	 -9.823	 -0.002	  0.002	 -0.000	 30.600	 99.375	 -0.399
32734	  0.300	 -0.139	  0.356	  0.239	  0.116	 -9.871	 -0.003	  0.001	 -0.000	 30.500	 99.370	  0.046
32784	  0.300	 -0.141	  0.361	  0.254	  0.133	 -9.842	 -0.002	  0.001	  0.000	 30.500	 99.375	 -0.399
32834	  0.300	 -0.133	  0.362	  0.246	  0.130	 -9.876	 -0.003	  0.002	  0.000	 30.600	 99.375	 -0.399
32884	  0.301	 -0.133	  0.362	  0.257	  0.111	 -9.814	 -0.002	  0.001	  0.001	 30.600	 99.363	  0.670
32934	  0.299	 -0.132	  0.358	  0.270	  0.114	 -9.849	 -0.002	  0.001	 -0.000	 30.600	 99.363	  0.670
32984	  0.299	 -0.138	  0.355	  0.254	  0.093	 -9.852	 -0.001	  0.001	 -0.000	 30.600	 99.375	 -0.399
33034	  0.297	 -0.129	  0.357	  0.235	  0.121	 -9.852	 -0.002	  0.002	  0.000	 30.600	 99.375	 -0.399
33084	  0.301	 -0.136	  0.354	  0.228	  0.127	 -9.829	 -0.002	  0.000	  0.000	 30.600	 99.375	 -0.399
33134	  0.300	 -0.128	  0.358	  0.246	  0.139	 -9.846	 -0.003	  0.001	  0.001	 30.600	 99.375	 -0.399
33184	  0.301	 -0.130	  0.361	  0.248	  0.100	 -9.858	 -0.002	  0.001	  0.000	 30.600	 99.363	  0.670
33234	  0.302	 -0.136	  0.354	  0.227	  0.106	 -9.856	 -0.002	  0.001	  0.001	 30.600	 99.363	  0.670
33284	  0.298	 -0.135	  0.354	  0.239	  0.122	 -9.842	 -0.002	  0.002	 -0.000	 30.600	 99.379	 -0.755
33334	  0.301	 -0.134	  0.360	  0.218	  0.129	 -9.837	 -0.002	  0.001	  0.000	 30.600	 99.375	 -0.399
