Time	 MagX	 MagY	 MagZ	 AccelX	 AccelY	 AccelZ	 Yaw	 Pitch	 Roll	 Temperature	 Pressure	 Altitude
1337	  0.062	  0.654	  1.000	 -0.329	 -0.063	 -9.477	  0.002	 -0.001	  0.018	 30.300	 99.512	 -99999.000
1386	  0.063	  0.658	  0.996	 -0.316	 -0.066	 -9.486	  0.002	 -0.001	  0.018	 30.300	 99.516	 -99999.000
1436	  0.065	  0.654	  0.997	 -0.251	 -0.108	 -9.474	  0.002	 -0.001	  0.017	 30.300	 99.500	 -99999.000
1486	  0.065	  0.659	  0.997	 -0.277	 -0.071	 -9.501	  0.003	 -0.000	  0.016	 30.300	 99.516	 -99999.000
1536	  0.063	  0.676	  1.006	 -0.336	 -0.085	 -9.471	  0.003	 -0.002	  0.018	 30.300	 99.516	 -99999.000
1586	  0.066	  0.657	  1.001	 -0.227	 -0.103	 -9.467	  0.002	 -0.002	  0.018	 30.300	 99.516	 -99999.000
1636	  0.065	  0.656	  1.005	 -0.345	 -0.078	 -9.498	  0.002	  0.000	  0.018	 30.300	 99.516	 -99999.000
1686	  0.066	  0.666	  1.005	 -0.234	 -0.118	 -9.523	  0.002	 -0.000	  0.020	 30.300	 99.512	 -99999.000
1736	  0.061	  0.656	  0.996	 -0.338	 -0.048	 -9.470	  0.003	 -0.001	  0.019	 30.300	 99.512	 -99999.000
1786	  0.068	  0.654	  1.007	 -0.258	 -0.128	 -9.521	  0.002	  0.000	  0.018	 30.300	 99.504	 -99999.000
1836	  0.067	  0.656	  1.003	 -0.272	 -0.065	 -9.501	  0.003	 -0.001	  0.018	 30.300	 99.516	 -99999.000
1886	  0.067	  0.662	  0.996	 -0.299	 -0.097	 -9.492	  0.002	 -0.002	  0.018	 30.300	 99.504	 -99999.000
1936	  0.065	  0.654	  1.001	 -0.282	 -0.106	 -9.509	  0.002	 -0.002	  0.019	 30.300	 99.524	 -99999.000
1986	  0.067	  0.671	  1.009	 -0.342	 -0.090	 -9.455	  0.001	 -0.000	  0.019	 30.300	 99.512	 -99999.000
2036	  0.062	  0.653	  1.000	 -0.254	 -0.115	 -9.475	  0.002	 -0.002	  0.018	 30.300	 99.516	 -99999.000
2086	  0.065	  0.651	  1.005	 -0.309	 -0.070	 -9.489	  0.002	 -0.002	  0.018	 30.300	 99.512	 -99999.000
2136	  0.063	  0.659	  1.000	 -0.254	 -0.064	 -9.457	  0.002	 -0.001	  0.017	 30.300	 99.516	 -99999.000
2186	  0.065	  0.659	  1.005	 -0.336	 -0.082	 -9.483	  0.003	 -0.001	  0.018	 30.300	 99.504	 -99999.000
2236	  0.065	  0.657	  1.003	 -0.255	 -0.103	 -9.463	  0.001	 -0.000	  0.019	 30.300	 99.504	 -99999.000
2286	  0.062	  0.656	  1.003	 -0.289	 -0.092	 -9.519	  0.004	 -0.003	  0.018	 30.300	 99.504	 -99999.000
2336	  0.065	  0.654	  1.007	 -0.282	 -0.100	 -9.450	  0.002	 -0.000	  0.017	 30.300	 99.516	 -99999.000
2386	  0.063	  0.658	  1.004	 -0.260	 -0.073	 -9.468	  0.003	 -0.000	  0.018	 30.300	 99.504	 -99999.000
2436	  0.066	  0.656	  1.004	 -0.324	 -0.063	 -9.480	  0.003	 -0.001	  0.018	 30.300	 99.504	 -99999.000
2486	  0.065	  0.656	  1.005	 -0.221	 -0.112	 -9.494	  0.002	 -0.002	  0.019	 30.300	 99.516	 -99999.000
2536	  0.069	  0.658	  1.004	 -0.325	 -0.060	 -9.505	  0.004	 -0.001	  0.017	 30.300	 99.516	 -99999.000
2586	  0.068	  0.661	  0.996	 -0.226	 -0.100	 -9.487	  0.003	 -0.001	  0.018	 30.300	 99.504	 -99999.000
2636	  0.063	  0.661	  1.007	 -0.306	 -0.091	 -9.477	  0.002	 -0.001	  0.018	 30.300	 99.504	 -99999.000
2686	  0.063	  0.662	  1.003	 -0.258	 -0.108	 -9.491	  0.002	 -0.000	  0.019	 30.300	 99.504	 -99999.000
2736	  0.062	  0.656	  1.003	 -0.270	 -0.093	 -9.486	  0.003	 -0.001	  0.018	 30.300	 99.504	 -99999.000
2786	  0.065	  0.657	  1.000	 -0.283	 -0.091	 -9.491	  0.002	 -0.002	  0.018	 30.300	 99.500	 -99999.000
2836	  0.067	  0.656	  1.005	 -0.269	 -0.097	 -9.463	  0.002	 -0.001	  0.017	 30.300	 99.504	 -99999.000
2886	  0.068	  0.659	  1.004	 -0.335	 -0.077	 -9.525	  0.002	 -0.002	  0.019	 30.300	 99.504	 -99999.000
2936	  0.066	  0.650	  0.992	 -0.234	 -0.115	 -9.488	  0.002	 -0.000	  0.018	 30.300	 99.516	 -99999.000
2986	  0.066	  0.653	  1.003	 -0.345	 -0.077	 -9.532	  0.002	 -0.001	  0.018	 30.300	 99.516	 -99999.000
3036	  0.065	  0.656	  0.996	 -0.239	 -0.085	 -9.469	  0.002	 -0.002	  0.018	 30.300	 99.504	 -99999.000
3086	  0.066	  0.654	  1.003	 -0.312	 -0.050	 -9.473	  0.002	 -0.002	  0.019	 30.300	 99.500	 -99999.000
3136	  0.065	  0.656	  0.995	 -0.276	 -0.100	 -9.507	  0.002	 -0.003	  0.018	 30.300	 99.516	 -99999.000
3186	  0.068	  0.663	  1.007	 -0.276	 -0.058	 -9.457	  0.003	  0.001	  0.018	 30.300	 99.504	 -99999.000
3236	  0.066	  0.662	  1.001	 -0.301	 -0.083	 -9.454	  0.002	  0.000	  0.018	 30.300	 99.516	 -99999.000
3286	  0.067	  0.657	  1.001	 -0.230	 -0.089	 -9.508	  0.003	 -0.003	  0.019	 30.300	 99.516	 -99999.000
3336	  0.068	  0.657	  0.995	 -0.345	 -0.071	 -9.486	  0.002	 -0.002	  0.017	 30.300	 99.504	 -99999.000
3386	  0.063	  0.656	  1.005	 -0.238	 -0.093	 -9.474	  0.003	 -0.001	  0.018	 30.300	 99.504	 -99999.000
3436	  0.061	  0.658	  0.998	 -0.349	 -0.081	 -9.470	  0.002	 -0.002	  0.018	 30.300	 99.516	 -99999.000
3486	  0.065	  0.654	  1.001	 -0.251	 -0.092	 -9.467	  0.002	 -0.002	  0.019	 30.300	 99.492	 -99999.000
3536	  0.067	  0.657	  1.007	 -0.319	 -0.067	 -9.486	  0.003	 -0.001	  0.018	 30.300	 99.504	 -99999.000
3586	  0.066	  0.659	  1.000	 -0.279	 -0.093	 -9.516	  0.002	 -0.001	  0.018	 30.300	 99.504	 -99999.000
3636	  0.066	  0.656	  1.000	 -0.270	 -0.098	 -9.506	  0.001	 -0.002	  0.019	 30.300	 99.504	 -99999.000
3686	  0.065	  0.654	  1.005	 -0.323	 -0.106	 -9.463	  0.004	 -0.002	  0.019	 30.300	 99.516	 -99999.000
3736	  0.066	  0.654	  1.003	 -0.238	 -0.105	 -9.512	  0.003	 -0.001	  0.019	 30.300	 99.529	 -99999.000
3786	  0.068	  0.661	  1.005	 -0.337	 -0.076	 -9.477	  0.003	 -0.001	  0.019	 30.300	 99.500	 -99999.000
3836	  0.063	  0.661	  1.001	 -0.213	 -0.105	 -9.547	  0.002	 -0.002	  0.020	 30.300	 99.504	 -99999.000
3886	  0.066	  0.654	  1.001	 -0.327	 -0.080	 -9.450	  0.003	 -0.000	  0.018	 30.300	 99.516	 -99999.000
3936	  0.064	  0.652	  1.005	 -0.245	 -0.109	 -9.495	  0.003	 -0.001	  0.018	 30.300	 99.516	 -99999.000
3986	  0.066	  0.653	  1.001	 -0.292	 -0.077	 -9.446	  0.001	 -0.001	  0.017	 30.300	 99.504	 -99999.000
4036	  0.062	  0.654	  1.009	 -0.282	 -0.103	 -9.496	  0.002	 -0.000	  0.019	 30.300	 99.516	 -99999.000
4086	  0.067	  0.667	  1.001	 -0.229	 -0.092	 -9.506	  0.002	 -0.000	  0.018	 30.300	 99.504	 -99999.000
4136	  0.062	  0.659	  1.004	 -0.317	 -0.071	 -9.474	  0.003	 -0.000	  0.017	 30.300	 99.504	 -99999.000
4186	  0.065	  0.658	  1.005	 -0.240	 -0.091	 -9.497	  0.003	 -0.001	  0.017	 30.300	 99.504	 -99999.000
4236	  0.066	  0.653	  1.001	 -0.297	 -0.044	 -9.472	  0.002	 -0.001	  0.018	 30.300	 99.492	 -99999.000
4286	  0.063	  0.656	  1.000	 -0.262	 -0.110	 -9.510	  0.002	  0.000	  0.019	 30.300	 99.516	 -99999.000
5336	  0.066	  0.656	  1.005	 -0.305	 -0.089	 -9.478	  0.000	 -0.001	  0.017	 30.300	 99.516	 -99999.000
5386	  0.065	  0.654	  1.000	 -0.330	 -0.077	 -9.494	  0.002	 -0.001	  0.018	 30.300	 99.504	 -99999.000
5436	  0.067	  0.654	  1.003	 -0.238	 -0.110	 -9.475	  0.003	 -0.000	  0.017	 30.300	 99.516	 -99999.000
5486	  0.065	  0.659	  1.008	 -0.311	 -0.061	 -9.468	  0.001	  0.000	  0.019	 30.300	 99.504	 -99999.000
5536	  0.067	  0.666	  1.003	 -0.258	 -0.102	 -9.478	  0.002	 -0.001	  0.017	 30.300	 99.504	 -99999.000
5586	  0.065	  0.656	  1.004	 -0.298	 -0.084	 -9.479	  0.002	 -0.002	  0.018	 30.300	 99.504	 -99999.000
5637	  0.062	  0.658	  1.000	 -0.274	 -0.092	 -9.515	  0.002	 -0.001	  0.019	 30.300	 99.504	 -99999.000
5686	  0.067	  0.658	  0.999	 -0.317	 -0.086	 -9.490	  0.003	 -0.001	  0.017	 30.300	 99.504	 -99999.000
5737	  0.064	  0.653	  1.007	 -0.330	 -0.076	 -9.512	  0.002	 -0.001	  0.018	 30.300	 99.504	 -99999.000
5786	  0.066	  0.662	  1.003	 -0.245	 -0.084	 -9.477	  0.003	 -0.001	  0.018	 30.300	 99.504	 -99999.000
5836	  0.064	  0.650	  0.999	 -0.326	 -0.049	 -9.493	  0.001	 -0.000	  0.017	 30.300	 99.516	 -99999.000
5886	  0.065	  0.658	  1.005	 -0.268	 -0.109	 -9.488	  0.003	 -0.001	  0.019	 30.300	 99.504	 -99999.000
5936	  0.062	  0.658	  1.001	 -0.300	 -0.088	 -9.507	  0.002	 -0.003	  0.017	 30.300	 99.504	 -99999.000
5987	  0.063	  0.657	  1.007	 -0.244	 -0.117	 -9.460	  0.003	  0.000	  0.018	 30.300	 99.504	 -99999.000
6037	  0.065	  0.654	  0.999	 -0.331	 -0.074	 -9.515	  0.003	 -0.001	  0.018	 30.300	 99.500	 -99999.000
6087	  0.063	  0.661	  1.004	 -0.235	 -0.107	 -9.468	  0.003	 -0.002	  0.017	 30.300	 99.492	 -99999.000
6137	  0.066	  0.666	  1.008	 -0.295	 -0.075	 -9.546	  0.002	 -0.000	  0.018	 30.300	 99.512	 -99999.000
6187	  0.068	  0.654	  0.999	 -0.283	 -0.096	 -9.428	  0.002	 -0.001	  0.018	 30.300	 99.516	 -99999.000
6237	  0.067	  0.654	  1.004	 -0.252	 -0.087	 -9.499	  0.004	 -0.001	  0.019	 30.300	 99.504	 -99999.000
6287	  0.063	  0.656	  1.005	 -0.339	 -0.074	 -9.445	  0.003	 -0.001	  0.018	 30.300	 99.492	 -99999.000
6337	  0.065	  0.664	  1.005	 -0.220	 -0.121	 -9.519	  0.002	 -0.001	  0.018	 30.300	 99.500	 -99999.000
6387	  0.066	  0.656	  1.004	 -0.358	 -0.057	 -9.448	  0.003	 -0.001	  0.018	 30.300	 99.504	 -99999.000
6437	  0.066	  0.661	  1.003	 -0.239	 -0.108	 -9.476	  0.003	 -0.002	  0.017	 30.300	 99.504	 -99999.000
6487	  0.062	  0.661	  1.000	 -0.297	 -0.050	 -9.476	  0.003	 -0.001	  0.018	 30.300	 99.504	 -99999.000
6537	  0.065	  0.656	  0.999	 -0.274	 -0.095	 -9.484	  0.002	 -0.002	  0.018	 30.300	 99.516	 -99999.000
6587	  0.065	  0.662	  1.001	 -0.284	 -0.054	 -9.512	  0.004	 -0.001	  0.018	 30.300	 99.504	 -99999.000
6637	  0.065	  0.653	  1.004	 -0.294	 -0.057	 -9.496	  0.003	 -0.002	  0.017	 30.300	 99.504	 -99999.000
6687	  0.065	  0.658	  0.996	 -0.253	 -0.091	 -9.496	  0.003	 -0.001	  0.018	 30.400	 99.521	 -99999.000
6737	  0.062	  0.666	  1.001	 -0.308	 -0.094	 -9.526	  0.003	 -0.002	  0.018	 30.300	 99.504	 -99999.000
6787	  0.062	  0.672	  1.001	 -0.247	 -0.088	 -9.538	  0.003	 -0.001	  0.018	 30.400	 99.496	 -99999.000
6837	  0.062	  0.656	  1.003	 -0.316	 -0.061	 -9.440	  0.002	 -0.001	  0.019	 30.300	 99.504	 -99999.000
6887	  0.066	  0.657	  0.992	 -0.248	 -0.115	 -9.505	  0.002	 -0.002	  0.018	 30.300	 99.516	 -99999.000
6937	  0.065	  0.658	  1.001	 -0.306	 -0.063	 -9.478	  0.002	 -0.002	  0.017	 30.300	 99.504	 -99999.000
6987	  0.066	  0.658	  1.007	 -0.285	 -0.111	 -9.455	  0.002	 -0.000	  0.018	 30.300	 99.516	 -99999.000
7037	  0.067	  0.658	  0.997	 -0.266	 -0.076	 -9.451	  0.002	 -0.001	  0.018	 30.300	 99.504	 -99999.000
7087	  0.066	  0.661	  1.003	 -0.297	 -0.087	 -9.474	  0.002	 -0.002	  0.019	 30.300	 99.504	 -99999.000
7137	  0.067	  0.658	  0.997	 -0.264	 -0.072	 -9.489	  0.003	 -0.001	  0.018	 30.300	 99.516	 -99999.000
7187	  0.066	  0.656	  1.007	 -0.338	 -0.082	 -9.460	  0.003	 -0.001	  0.018	 30.300	 99.516	 -99999.000
7237	  0.065	  0.653	  1.001	 -0.245	 -0.122	 -9.456	  0.002	  0.002	  0.017	 30.300	 99.516	 -99999.000
7287	  0.066	  0.652	  1.003	 -0.330	 -0.064	 -9.499	  0.002	 -0.001	  0.019	 30.400	 99.508	 -99999.000
7337	  0.065	  0.661	  0.993	 -0.249	 -0.108	 -9.467	  0.003	 -0.001	  0.017	 30.300	 99.512	 -99999.000
7387	  0.066	  0.658	  1.003	 -0.308	 -0.061	 -9.471	  0.001	 -0.002	  0.016	 30.300	 99.492	 -99999.000
7437	  0.063	  0.671	  1.002	 -0.284	 -0.085	 -9.497	  0.001	 -0.002	  0.016	 30.300	 99.492	 -99999.000
7487	  0.063	  0.657	  1.004	 -0.265	 -0.091	 -9.479	  0.003	 -0.001	  0.018	 30.300	 99.504	 -99999.000
7537	  0.062	  0.658	  1.003	 -0.337	 -0.076	 -9.493	  0.003	 -0.001	  0.018	 30.300	 99.516	 -99999.000
7587	  0.065	  0.659	  1.005	 -0.235	 -0.093	 -9.485	  0.002	 -0.001	  0.017	 30.300	 99.516	 -99999.000
7637	  0.063	  0.657	  0.999	 -0.326	 -0.048	 -9.501	  0.003	 -0.002	  0.018	 30.300	 99.516	 -99999.000
7687	  0.066	  0.658	  1.004	 -0.231	 -0.117	 -9.465	  0.002	 -0.001	  0.018	 30.300	 99.516	 -99999.000
7737	  0.069	  0.656	  1.002	 -0.332	 -0.071	 -9.495	  0.002	 -0.001	  0.018	 30.300	 99.504	 -99999.000
7787	  0.066	  0.658	  1.004	 -0.252	 -0.110	 -9.451	  0.003	 -0.001	  0.017	 30.300	 99.512	 -99999.000
7837	  0.066	  0.660	  1.008	 -0.287	 -0.076	 -9.515	  0.002	 -0.001	  0.018	 30.400	 99.508	 -99999.000
7887	  0.062	  0.656	  1.004	 -0.299	 -0.105	 -9.445	  0.002	  0.000	  0.019	 30.300	 99.504	 -99999.000
7937	  0.062	  0.657	  1.005	 -0.243	 -0.076	 -9.537	  0.003	 -0.002	  0.018	 30.400	 99.492	 -99999.000
7987	  0.065	  0.658	  1.004	 -0.340	 -0.085	 -9.465	  0.003	 -0.002	  0.018	 30.300	 99.504	 -99999.000
8037	  0.066	  0.658	  1.000	 -0.244	 -0.099	 -9.486	  0.002	 -0.001	  0.018	 30.300	 99.504	 -99999.000
8087	  0.062	  0.662	  0.996	 -0.360	 -0.065	 -9.475	  0.003	 -0.000	  0.019	 30.300	 99.529	 -99999.000
8137	  0.063	  0.656	  1.001	 -0.237	 -0.109	 -9.479	  0.002	 -0.000	  0.018	 30.300	 99.504	 -99999.000
8187	  0.067	  0.654	  1.004	 -0.334	 -0.036	 -9.483	  0.002	 -0.002	  0.018	 30.300	 99.516	 -99999.000
8237	  0.062	  0.658	  1.005	 -0.262	 -0.098	 -9.484	  0.003	  0.001	  0.018	 30.300	 99.504	 -99999.000
8286	  0.063	  0.661	  1.001	 -0.289	 -0.086	 -9.509	  0.004	 -0.001	  0.017	 30.400	 99.508	 -99999.000
10186	  0.063	  0.667	  1.004	 -0.319	 -0.085	 -9.506	  0.003	 -0.000	  0.018	 30.300	 99.504	  0.280
10236	  0.064	  0.653	  0.993	 -0.297	 -0.058	 -9.484	  0.003	 -0.001	  0.018	 30.300	 99.504	  0.280
10286	  0.065	  0.658	  1.007	 -0.288	 -0.083	 -9.486	  0.003	 -0.000	  0.018	 30.300	 99.516	 -0.827
10336	  0.065	  0.653	  0.999	 -0.266	 -0.108	 -9.509	  0.002	 -0.001	  0.017	 30.300	 99.504	  0.280
10386	  0.065	  0.653	  1.000	 -0.306	 -0.073	 -9.470	  0.003	  0.000	  0.017	 30.300	 99.516	 -0.827
10436	  0.067	  0.666	  1.007	 -0.260	 -0.114	 -9.466	  0.002	 -0.003	  0.018	 30.300	 99.516	 -0.827
10486	  0.061	  0.653	  1.000	 -0.340	 -0.054	 -9.487	  0.003	 -0.002	  0.018	 30.400	 99.496	  1.018
10536	  0.063	  0.663	  1.005	 -0.275	 -0.100	 -9.521	  0.003	 -0.001	  0.018	 30.300	 99.504	  0.280
10586	  0.066	  0.653	  1.003	 -0.320	 -0.080	 -9.484	  0.002	 -0.000	  0.018	 30.300	 99.504	  0.280
10636	  0.062	  0.658	  1.001	 -0.252	 -0.115	 -9.470	  0.003	 -0.000	  0.018	 30.300	 99.504	  0.280
10686	  0.066	  0.670	  1.005	 -0.319	 -0.065	 -9.484	  0.003	 -0.001	  0.017	 30.300	 99.504	  0.280
10736	  0.066	  0.659	  1.003	 -0.273	 -0.101	 -9.465	  0.003	 -0.002	  0.017	 30.300	 99.516	 -0.827
10786	  0.066	  0.656	  1.003	 -0.279	 -0.073	 -9.508	  0.002	 -0.000	  0.018	 30.300	 99.504	  0.280
10836	  0.068	  0.667	  1.008	 -0.333	 -0.077	 -9.488	  0.002	 -0.001	  0.018	 30.400	 99.492	  1.387
10886	  0.063	  0.656	  0.997	 -0.253	 -0.078	 -9.527	  0.003	 -0.001	  0.017	 30.400	 99.504	  0.280
10936	  0.066	  0.660	  1.008	 -0.334	 -0.077	 -9.477	  0.001	 -0.001	  0.019	 30.300	 99.504	  0.280
10986	  0.068	  0.654	  1.000	 -0.228	 -0.094	 -9.516	  0.003	 -0.002	  0.018	 30.300	 99.504	  0.280
11037	  0.067	  0.653	  1.000	 -0.318	 -0.069	 -9.476	  0.003	 -0.002	  0.018	 30.300	 99.504	  0.280
11086	  0.066	  0.654	  1.004	 -0.230	 -0.126	 -9.492	  0.002	 -0.001	  0.018	 30.400	 99.508	 -0.090
11137	  0.064	  0.654	  1.005	 -0.287	 -0.073	 -9.445	  0.002	 -0.001	  0.018	 30.300	 99.516	 -0.827
11187	  0.066	  0.653	  1.005	 -0.226	 -0.126	 -9.521	  0.002	 -0.001	  0.018	 30.300	 99.516	 -0.827
11237	  0.067	  0.652	  0.995	 -0.332	 -0.095	 -9.485	  0.004	  0.000	  0.017	 30.300	 99.504	  0.280
11287	  0.066	  0.657	  1.003	 -0.278	 -0.097	 -9.494	  0.004	 -0.002	  0.019	 30.300	 99.504	  0.280
11337	  0.067	  0.658	  1.005	 -0.279	 -0.060	 -9.525	  0.003	  0.000	  0.018	 30.300	 99.504	  0.280
11387	  0.067	  0.654	  0.996	 -0.307	 -0.087	 -9.527	  0.003	 -0.001	  0.019	 30.300	 99.504	  0.280
11437	  0.067	  0.654	  1.001	 -0.233	 -0.069	 -9.542	  0.003	 -0.000	  0.019	 30.400	 99.492	  1.387
11487	  0.066	  0.657	  1.003	 -0.327	 -0.067	 -9.517	  0.003	 -0.001	  0.019	 30.400	 99.521	 -1.289
11537	  0.066	  0.659	  1.003	 -0.259	 -0.086	 -9.553	  0.002	 -0.001	  0.020	 30.400	 99.516	 -0.827
11587	  0.068	  0.656	  1.007	 -0.334	 -0.081	 -9.584	  0.002	  0.001	  0.017	 30.300	 99.504	  0.280
11637	  0.068	  0.663	  1.005	 -0.217	 -0.075	 -9.515	  0.004	  0.000	  0.019	 30.300	 99.504	  0.280
11687	  0.068	  0.661	  0.999	 -0.281	 -0.078	 -9.516	  0.002	 -0.001	  0.017	 30.300	 99.512	 -0.458
11737	  0.069	  0.658	  1.000	 -0.281	 -0.123	 -9.531	  0.003	 -0.001	  0.018	 30.300	 99.504	  0.280
11787	  0.071	  0.656	  1.008	 -0.249	 -0.070	 -9.509	  0.002	 -0.001	  0.016	 30.400	 99.508	 -0.090
11837	  0.065	  0.654	  1.007	 -0.336	 -0.083	 -9.535	  0.002	 -0.001	  0.018	 30.300	 99.504	  0.280
11887	  0.067	  0.664	  1.000	 -0.236	 -0.025	 -9.459	  0.003	  0.000	  0.017	 30.400	 99.496	  1.018
11937	  0.066	  0.658	  1.005	 -0.340	 -0.106	 -9.520	  0.001	 -0.001	  0.017	 30.300	 99.504	  0.280
11987	  0.067	  0.657	  1.005	 -0.228	 -0.006	 -9.374	 -0.006	 -0.002	  0.017	 30.300	 99.504	  0.280
12037	  0.067	  0.662	  1.004	 -0.291	 -0.120	 -9.475	  0.004	 -0.001	  0.020	 30.300	 99.504	  0.280
12087	  0.067	  0.658	  1.003	 -0.259	 -0.162	 -9.526	 -0.000	 -0.002	  0.017	 30.300	 99.504	  0.280
12137	  0.069	  0.656	  1.002	  0.721	  0.212	 -10.179	 -0.286	 -0.076	  0.178	 30.300	 99.504	  0.280
12187	  0.067	  0.630	  1.005	  1.302	  2.140	 -8.401	  0.199	 -0.000	  0.343	 30.300	 99.516	 -0.827
12237	  0.056	  0.617	  1.031	 -1.039	  0.291	 -9.696	  0.084	  0.000	  0.357	 30.400	 99.508	 -0.090
12287	  0.037	  0.614	  1.048	 -0.475	 -0.092	 -9.747	 -0.000	 -0.020	  0.415	 30.300	 99.504	  0.280
12337	  0.029	  0.601	  1.063	 -0.877	  0.061	 -9.522	  0.010	 -0.010	  0.507	 30.400	 99.504	  0.280
12387	  0.021	  0.582	  1.081	 -0.670	  0.762	 -8.246	  0.129	  0.006	  0.364	 30.300	 99.516	 -0.827
12437	  0.005	  0.596	  1.093	  1.013	 -0.407	 -12.336	 -0.115	 -0.073	  0.379	 30.300	 99.516	 -0.827
12487	  0.004	  0.598	  1.101	 -0.680	 -0.313	 -9.407	 -0.001	 -0.024	  0.513	 30.300	 99.516	 -0.827
12537	  0.007	  0.586	  1.100	 -0.964	 -0.736	 -9.242	 -0.002	 -0.015	  0.223	 30.300	 99.504	  0.280
12587	  0.009	  0.585	  1.106	 -0.266	 -0.061	 -9.463	 -0.000	 -0.002	  0.019	 30.300	 99.516	 -0.827
12637	  0.009	  0.586	  1.106	 -0.355	 -0.098	 -9.493	  0.002	 -0.001	  0.018	 30.400	 99.504	  0.280
12687	  0.006	  0.579	  1.107	 -0.293	 -0.038	 -9.490	  0.003	 -0.002	  0.020	 30.300	 99.504	  0.280
12737	  0.009	  0.582	  1.105	 -0.390	 -0.060	 -9.492	  0.002	  0.000	  0.017	 30.400	 99.504	  0.280
12787	  0.005	  0.581	  1.106	 -0.292	 -0.094	 -9.482	  0.003	 -0.000	  0.019	 30.300	 99.504	  0.280
12837	  0.009	  0.586	  1.105	 -0.421	 -0.011	 -9.420	  0.003	 -0.001	  0.017	 30.400	 99.504	  0.280
12887	  0.007	  0.589	  1.106	 -0.277	 -0.071	 -9.484	  0.004	 -0.001	  0.017	 30.400	 99.508	 -0.090
12937	  0.007	  0.586	  1.106	 -0.389	 -0.016	 -9.477	  0.002	 -0.001	  0.018	 30.300	 99.516	 -0.827
12987	  0.009	  0.586	  1.105	 -0.321	 -0.079	 -9.489	  0.003	 -0.001	  0.018	 30.400	 99.521	 -1.289
13036	  0.007	  0.589	  1.109	 -0.357	 -0.060	 -9.472	  0.003	 -0.002	  0.019	 30.300	 99.504	  0.280
13086	  0.007	  0.581	  1.098	 -0.359	 -0.091	 -9.482	  0.002	  0.000	  0.017	 30.300	 99.504	  0.280
13136	  0.005	  0.582	  1.106	 -0.320	 -0.077	 -9.448	  0.002	 -0.001	  0.018	 30.300	 99.504	  0.280
13186	  0.007	  0.584	  1.105	 -0.391	 -0.050	 -9.511	  0.002	 -0.002	  0.018	 30.300	 99.504	  0.280
13236	  0.011	  0.582	  1.102	 -0.286	 -0.095	 -9.501	  0.002	 -0.001	  0.018	 30.300	 99.516	 -0.827
13286	  0.009	  0.589	  1.109	 -0.408	 -0.042	 -9.477	  0.002	 -0.001	  0.018	 30.300	 99.516	 -0.827
13336	  0.009	  0.580	  1.106	 -0.289	 -0.091	 -9.489	  0.002	 -0.001	  0.019	 30.300	 99.516	 -0.827
13386	  0.006	  0.589	  1.102	 -0.381	 -0.063	 -9.430	  0.002	 -0.001	  0.015	 30.400	 99.508	 -0.090
13436	  0.007	  0.594	  1.107	 -0.326	 -0.069	 -9.498	  0.003	 -0.001	  0.018	 30.300	 99.504	  0.280
13486	  0.006	  0.584	  1.105	 -0.346	 -0.056	 -9.518	  0.002	 -0.002	  0.018	 30.400	 99.521	 -1.289
13536	  0.007	  0.582	  1.107	 -0.341	 -0.077	 -9.495	  0.003	 -0.001	  0.019	 30.400	 99.508	 -0.090
13586	  0.007	  0.581	  1.103	 -0.289	 -0.067	 -9.483	  0.002	 -0.001	  0.019	 30.400	 99.508	 -0.090
13636	  0.012	  0.584	  1.107	 -0.775	  1.229	 -9.530	  0.005	 -0.013	  0.458	 30.300	 99.516	 -0.827
13686	  0.034	  0.564	  1.115	 -0.360	  1.206	 -9.522	  0.009	 -0.031	  1.183	 30.400	 99.516	 -0.827
13736	  0.079	  0.542	  1.128	 -0.518	  1.014	 -9.269	  0.003	 -0.065	  1.793	 30.400	 99.508	 -0.090
13786	  0.133	  0.511	  1.150	  0.336	 -0.753	 -9.569	  0.032	 -0.072	  2.190	 30.400	 99.504	  0.280
13836	  0.169	  0.464	  1.161	 -0.060	 -1.327	 -9.567	 -0.029	 -0.092	  1.473	 30.400	 99.496	  1.018
13886	  0.177	  0.438	  1.166	 -1.128	 -0.748	 -8.953	 -0.034	 -0.084	  0.568	 30.300	 99.516	 -0.827
13936	  0.172	  0.430	  1.174	 -2.096	 -0.872	 -9.484	 -0.007	 -0.011	  0.102	 30.300	 99.516	 -0.827
13986	  0.173	  0.425	  1.173	 -0.622	  0.216	 -9.381	  0.001	 -0.001	  0.017	 30.300	 99.504	  0.280
14036	  0.172	  0.430	  1.176	 -0.432	  0.104	 -9.481	  0.005	 -0.002	  0.020	 30.300	 99.504	  0.280
14086	  0.169	  0.426	  1.178	 -0.939	  0.338	 -9.475	  0.004	  0.001	  0.074	 30.400	 99.521	 -1.289
14137	  0.188	  0.425	  1.179	 -0.767	  1.948	 -9.195	  0.229	  0.209	  0.595	 30.300	 99.504	  0.280
14186	  0.183	  0.429	  1.188	 -0.062	 -0.910	 -11.072	  0.101	  0.504	  0.984	 30.400	 99.508	 -0.090
14237	  0.170	  0.384	  1.181	  0.737	 -1.136	 -8.693	 -0.315	  0.251	  0.817	 30.300	 99.516	 -0.827
14287	  0.200	  0.364	  1.191	  0.388	  1.350	 -8.444	  0.375	 -0.653	  0.665	 30.400	 99.516	 -0.827
14337	  0.227	  0.361	  1.202	 -0.843	  0.031	 -8.771	 -0.132	 -0.160	  0.508	 30.300	 99.504	  0.280
14386	  0.230	  0.340	  1.200	 -0.845	  0.332	 -9.138	  0.060	  0.038	  0.324	 30.300	 99.504	  0.280
14436	  0.223	  0.334	  1.208	 -0.827	 -0.452	 -9.477	  0.161	  0.135	  0.138	 30.300	 99.504	  0.280
14486	  0.229	  0.339	  1.207	 -0.244	 -0.537	 -8.792	 -0.034	 -0.033	  0.088	 30.300	 99.504	  0.280
14536	  0.227	  0.352	  1.209	 -0.409	 -0.014	 -9.449	  0.009	  0.003	  0.018	 30.300	 99.504	  0.280
14586	  0.225	  0.335	  1.212	 -0.124	 -0.016	 -9.424	 -0.019	 -0.028	  0.014	 30.400	 99.508	 -0.090
14636	  0.225	  0.337	  1.209	 -0.580	  0.156	 -9.409	  0.028	  0.017	  0.017	 30.400	 99.508	 -0.090
14686	  0.229	  0.342	  1.208	 -0.013	 -0.777	 -9.701	 -0.020	 -0.014	  0.041	 30.300	 99.504	  0.280
14736	  0.225	  0.330	  1.211	 -0.215	  0.059	 -9.524	  0.009	  0.001	  0.201	 30.400	 99.521	 -1.289
14786	  0.234	  0.324	  1.202	 -0.951	  0.681	 -9.424	  0.025	  0.013	  0.852	 30.300	 99.504	  0.280
14836	  0.255	  0.296	  1.214	 -0.694	  0.097	 -10.631	 -0.025	  0.275	  1.720	 30.300	 99.504	  0.280
14886	  0.247	  0.264	  1.205	  1.644	 -1.140	 -8.601	  0.237	  0.472	  0.688	 30.400	 99.504	  0.280
14936	  0.211	  0.281	  1.212	  0.953	 -1.184	 -9.665	  0.330	  0.379	 -0.329	 30.300	 99.504	  0.280
14986	  0.140	  0.319	  1.211	  0.795	 -0.860	 -9.467	  0.131	  0.556	 -0.621	 30.400	 99.516	 -0.827
15036	  0.079	  0.344	  1.201	  0.026	 -0.498	 -9.016	 -0.001	 -0.131	 -0.608	 30.300	 99.516	 -0.827
15086	  0.059	  0.350	  1.196	 -1.345	 -0.110	 -10.099	 -0.494	 -0.123	  0.036	 30.400	 99.508	 -0.090
15136	  0.066	  0.321	  1.181	 -0.300	  0.713	 -9.658	 -0.796	 -0.068	  0.465	 30.300	 99.516	 -0.827
15186	  0.064	  0.323	  1.181	 -0.670	  0.972	 -10.054	  0.365	  0.241	  0.027	 30.400	 99.504	  0.280
15236	  0.060	  0.330	  1.190	  1.264	 -1.085	 -9.394	  0.408	  0.280	 -0.055	 30.400	 99.504	  0.280
15286	  0.050	  0.340	  1.189	  2.449	 -2.198	 -9.162	 -0.182	 -0.291	 -0.490	 30.400	 99.508	 -0.090
15336	  0.055	  0.329	  1.176	  3.682	  3.636	 -8.956	 -0.757	 -1.271	 -0.503	 30.300	 99.504	  0.280
15386	  0.072	  0.342	  1.160	 -1.500	  1.628	 -9.816	 -0.124	 -0.599	 -0.899	 30.400	 99.508	 -0.090
15436	  0.077	  0.322	  1.141	 -0.210	  0.817	 -9.055	 -0.394	 -0.731	  0.212	 30.400	 99.508	 -0.090
15486	  0.116	  0.299	  1.141	 -0.703	  0.255	 -9.769	 -0.514	 -0.808	  0.015	 30.400	 99.496	  1.018
15536	  0.141	  0.288	  1.125	 -1.638	  1.504	 -9.032	 -0.126	 -0.565	 -0.289	 30.300	 99.516	 -0.827
15586	  0.135	  0.298	  1.126	 -2.548	  1.341	 -9.430	  0.189	 -0.031	 -0.351	 30.400	 99.508	 -0.090
15636	  0.113	  0.319	  1.133	 -2.373	  0.539	 -10.036	  0.458	  0.509	 -0.015	 30.300	 99.492	  1.387
15686	  0.075	  0.350	  1.125	 -2.416	  0.702	 -9.664	  0.497	  1.061	  0.127	 30.400	 99.504	  0.280
15736	  0.039	  0.358	  1.141	 -0.277	  0.329	 -9.041	  0.195	  1.138	  0.211	 30.400	 99.516	 -0.827
15786	  0.016	  0.379	  1.145	  1.337	 -0.169	 -9.305	  0.145	  0.469	 -0.024	 30.400	 99.496	  1.018
15836	  0.012	  0.371	  1.147	  0.673	 -0.509	 -9.427	  0.028	 -0.154	 -0.204	 30.300	 99.504	  0.280
15886	  0.018	  0.371	  1.146	 -0.278	  0.060	 -9.559	 -0.098	 -0.023	 -0.122	 30.300	 99.516	 -0.827
15936	  0.015	  0.368	  1.154	  0.357	  0.582	 -9.739	 -0.021	 -0.085	  0.007	 30.300	 99.504	  0.280
15986	  0.019	  0.367	  1.157	 -0.171	  0.123	 -9.618	  0.061	  0.016	  0.028	 30.400	 99.521	 -1.289
16036	  0.015	  0.371	  1.151	  0.024	 -0.050	 -9.640	  0.054	  0.026	 -0.075	 30.300	 99.504	  0.280
16086	  0.011	  0.381	  1.144	 -0.236	  0.157	 -9.618	  0.070	  0.017	 -0.077	 30.400	 99.508	 -0.090
16136	  0.016	  0.385	  1.141	 -0.065	 -0.027	 -9.769	  0.168	 -0.046	 -0.104	 30.400	 99.508	 -0.090
16186	  0.019	  0.408	  1.133	 -0.521	  1.146	 -9.585	  0.225	 -0.042	  0.031	 30.300	 99.504	  0.280
16236	  0.035	  0.405	  1.111	  0.363	 -0.624	 -10.993	  0.318	 -0.081	  0.269	 30.400	 99.496	  1.018
16286	  0.073	  0.391	  1.083	 -0.032	 -0.397	 -10.569	 -0.101	 -0.520	  0.178	 30.400	 99.516	 -0.827
16337	  0.109	  0.371	  1.028	 -1.068	 -0.108	 -9.783	  0.089	 -0.391	  0.006	 30.300	 99.504	  0.280
16386	  0.135	  0.366	  0.987	 -0.405	 -0.272	 -9.202	 -0.046	 -0.258	  0.058	 30.400	 99.504	  0.280
16437	  0.164	  0.320	  0.931	  0.659	 -0.510	 -9.011	 -0.616	 -0.209	 -0.103	 30.300	 99.492	  1.387
16486	  0.165	  0.284	  0.921	 -3.106	  1.387	 -7.060	 -0.632	 -0.062	  0.258	 30.400	 99.504	  0.280
16536	  0.204	  0.252	  0.919	 -1.382	  0.230	 -7.346	  0.095	 -0.237	  0.793	 30.400	 99.516	 -0.827
16586	  0.245	  0.244	  0.929	 -2.391	 -0.236	 -9.146	  0.436	 -0.009	  0.176	 30.400	 99.496	  1.018
16636	  0.265	  0.253	  0.951	 -4.163	 -0.917	 -10.508	 -0.017	  0.486	 -0.436	 30.300	 99.504	  0.280
16687	  0.286	  0.256	  0.946	 -1.123	  1.121	 -13.717	  0.102	  0.307	 -0.250	 30.300	 99.516	 -0.827
16737	  0.317	  0.250	  0.865	 -0.200	 -0.295	 -16.755	  0.486	 -0.045	  0.508	 30.300	 99.516	 -0.827
16787	  0.318	  0.240	  0.735	  3.893	 -2.192	 -16.529	  0.018	 -1.166	  0.452	 30.300	 99.504	  0.280
16837	  0.338	  0.221	  0.581	  1.233	 -0.217	 -9.510	  0.200	 -2.097	  0.493	 30.400	 99.508	 -0.090
16887	  0.366	  0.200	  0.454	 -0.422	  1.153	 -2.369	  0.175	 -2.284	  0.866	 30.400	 99.516	 -0.827
16936	  0.397	  0.186	  0.391	 -1.647	  1.082	  3.516	  0.664	 -1.160	  0.989	 30.300	 99.504	  0.280
16987	  0.412	  0.190	  0.379	 -0.244	  0.226	  3.059	  1.057	  0.807	  0.660	 30.300	 99.504	  0.280
17037	  0.419	  0.212	  0.448	  1.221	 -1.254	 -2.585	  0.295	  1.967	 -0.861	 30.400	 99.504	  0.280
17087	  0.383	  0.298	  0.604	 -2.421	 -2.010	 -12.481	  0.785	  3.422	 -2.040	 30.400	 99.521	 -1.289
17137	  0.338	  0.397	  0.768	 -1.198	 -4.006	 -24.239	  0.360	  1.550	 -0.857	 30.400	 99.508	 -0.090
17187	  0.319	  0.395	  0.802	 -0.726	 -4.338	 -24.107	 -0.403	  0.043	  0.313	 30.300	 99.516	 -0.827
17237	  0.316	  0.327	  0.691	  0.760	 -3.178	 -17.900	 -0.585	 -1.692	  0.965	 30.400	 99.521	 -1.289
17287	  0.335	  0.260	  0.546	  1.367	 -1.444	 -9.572	 -0.800	 -2.359	  0.975	 30.400	 99.508	 -0.090
17337	  0.358	  0.210	  0.445	  1.251	  0.664	 -2.143	 -1.084	 -2.200	  1.216	 30.400	 99.508	 -0.090
17387	  0.387	  0.130	  0.383	  1.153	  1.433	  4.718	 -0.808	 -1.222	  1.048	 30.400	 99.492	  1.387
17437	  0.408	  0.115	  0.368	  1.875	  1.107	  7.763	  0.291	 -0.516	 -0.191	 30.400	 99.508	 -0.090
17487	  0.422	  0.164	  0.441	 -4.106	  0.278	 -3.042	  1.039	  2.990	 -0.978	 30.400	 99.508	 -0.090
17537	  0.383	  0.234	  0.616	 -3.776	 -1.046	 -17.580	  0.489	  3.136	 -0.897	 30.400	 99.508	 -0.090
17587	  0.360	  0.250	  0.737	 -2.816	 -1.416	 -23.832	  0.126	  1.629	  0.276	 30.400	 99.521	 -1.289
17637	  0.347	  0.218	  0.733	  2.552	 -3.580	 -22.865	 -0.282	 -0.072	  0.924	 30.400	 99.504	  0.280
17687	  0.349	  0.171	  0.641	  1.680	 -2.029	 -14.758	 -0.750	 -2.052	  0.779	 30.400	 99.521	 -1.289
17737	  0.372	  0.127	  0.508	  2.058	 -0.638	 -4.805	 -0.736	 -2.465	  0.601	 30.400	 99.516	 -0.827
17787	  0.399	  0.108	  0.433	 -0.459	  1.376	  1.015	 -0.419	 -1.739	 -0.059	 30.400	 99.496	  1.018
17837	  0.420	  0.112	  0.397	 -1.908	  1.826	  4.286	  0.132	 -0.456	 -0.240	 30.400	 99.504	  0.280
17887	  0.425	  0.126	  0.443	 -2.232	  0.415	 -0.062	  0.302	  2.018	 -0.275	 30.400	 99.504	  0.280
17937	  0.403	  0.154	  0.578	 -2.981	 -1.876	 -12.942	  0.294	  3.053	 -0.592	 30.300	 99.504	  0.280
17987	  0.369	  0.194	  0.694	 -2.677	 -0.291	 -24.367	  0.509	  1.554	 -0.078	 30.400	 99.508	 -0.090
18037	  0.359	  0.199	  0.676	  0.901	 -1.058	 -23.689	  0.056	 -0.479	  0.810	 30.300	 99.504	  0.280
18087	  0.366	  0.159	  0.576	  2.563	 -1.418	 -15.930	 -0.760	 -2.248	  1.143	 30.400	 99.504	  0.280
18137	  0.387	  0.091	  0.458	  3.059	  0.158	 -4.207	 -0.961	 -2.427	  0.788	 30.300	 99.504	  0.280
18187	  0.407	  0.053	  0.382	  0.819	  1.526	  5.614	 -0.511	 -1.515	  0.239	 30.400	 99.496	  1.018
18237	  0.419	  0.056	  0.379	 -1.238	  0.564	  6.214	  0.457	  0.667	 -0.416	 30.400	 99.496	  1.018
18287	  0.411	  0.109	  0.459	 -3.569	  0.914	 -3.100	  0.995	  2.531	 -0.563	 30.400	 99.508	 -0.090
18337	  0.382	  0.152	  0.599	 -4.986	  0.659	 -21.262	  1.078	  3.381	 -0.800	 30.400	 99.508	 -0.090
18387	  0.337	  0.189	  0.660	  2.713	 -3.341	 -29.923	  0.189	  0.400	  0.305	 30.400	 99.521	 -1.289
18437	  0.345	  0.150	  0.588	  3.196	 -2.250	 -16.321	 -0.983	 -2.530	  0.286	 30.300	 99.504	  0.280
18487	  0.379	  0.112	  0.471	  1.491	  0.688	  2.016	 -0.715	 -2.328	  0.017	 30.400	 99.508	 -0.090
18537	  0.402	  0.105	  0.430	  2.331	  0.479	  6.391	  0.214	 -0.644	  0.023	 30.400	 99.484	  2.124
18587	  0.419	  0.159	  0.468	 -2.467	 -0.699	 -1.162	  1.378	  1.682	 -0.799	 30.400	 99.508	 -0.090
18637	  0.392	  0.237	  0.597	 -4.653	 -0.395	 -16.624	  1.279	  2.789	 -0.495	 30.400	 99.508	 -0.090
18687	  0.344	  0.279	  0.689	 -4.491	 -3.812	 -26.748	  0.282	  1.482	 -0.216	 30.400	 99.496	  1.018
18737	  0.330	  0.232	  0.636	  2.417	 -4.744	 -23.348	 -1.041	 -1.824	  1.229	 30.400	 99.521	 -1.289
18787	  0.362	  0.135	  0.504	  4.348	 -1.437	 -8.511	 -1.730	 -2.872	  1.090	 30.400	 99.521	 -1.289
18837	  0.392	  0.076	  0.394	  3.238	  0.602	  2.531	 -1.134	 -2.367	  0.036	 30.400	 99.504	  0.280
18887	  0.412	  0.061	  0.360	  0.858	  2.156	  9.014	  0.075	 -0.368	  0.233	 30.400	 99.521	 -1.289
18937	  0.412	  0.075	  0.412	 -2.825	  0.911	  3.800	  1.024	  2.004	  0.029	 30.300	 99.504	  0.280
18987	  0.397	  0.141	  0.537	 -6.410	  0.179	 -14.619	  1.684	  3.622	 -1.480	 30.400	 99.496	  1.018
19037	  0.329	  0.217	  0.676	  1.126	 -4.199	 -30.499	  0.642	  2.503	 -0.136	 30.400	 99.508	 -0.090
19087	  0.309	  0.187	  0.667	  6.037	 -4.225	 -23.443	 -0.975	 -1.287	  0.407	 30.400	 99.521	 -1.289
19137	  0.341	  0.136	  0.546	  2.544	 -1.342	 -9.064	 -0.943	 -3.187	  0.355	 30.400	 99.508	 -0.090
19187	  0.377	  0.101	  0.443	  0.529	  1.079	  1.330	 -0.804	 -2.275	 -0.008	 30.300	 99.516	 -0.827
19237	  0.405	  0.093	  0.402	 -1.521	  1.190	  6.360	 -0.111	 -0.539	  0.138	 30.400	 99.508	 -0.090
19287	  0.412	  0.090	  0.434	 -1.947	  0.468	  3.150	  0.392	  1.306	  0.871	 30.300	 99.492	  1.387
19337	  0.400	  0.112	  0.555	 -1.926	  0.374	 -13.850	  0.971	  3.698	 -1.799	 30.300	 99.504	  0.280
19387	  0.329	  0.179	  0.690	 -1.794	 -1.338	 -30.910	  0.428	  1.859	 -0.303	 30.400	 99.521	 -1.289
19437	  0.310	  0.166	  0.651	  2.266	 -3.537	 -25.361	 -0.731	 -1.793	  0.036	 30.400	 99.508	 -0.090
19487	  0.344	  0.127	  0.509	  2.089	 -1.760	 -10.088	 -0.973	 -3.354	  0.059	 30.300	 99.504	  0.280
19537	  0.383	  0.097	  0.395	  1.085	  1.053	  1.064	 -1.437	 -2.765	  0.478	 30.300	 99.504	  0.280
19587	  0.403	  0.039	  0.335	  1.664	  0.244	  9.953	 -0.827	 -0.733	  0.710	 30.300	 99.504	  0.280
19637	  0.410	  0.015	  0.360	 -1.959	  1.312	  7.850	  0.710	  1.588	  0.549	 30.400	 99.508	 -0.090
19687	  0.398	  0.059	  0.489	 -3.047	  2.338	 -8.969	  1.886	  3.479	 -1.265	 30.400	 99.508	 -0.090
19737	  0.350	  0.150	  0.639	 -0.547	 -1.294	 -30.824	  1.681	  3.167	 -0.782	 30.400	 99.508	 -0.090
19787	  0.322	  0.163	  0.658	  2.786	 -5.708	 -30.625	 -0.571	 -0.892	  0.321	 30.400	 99.508	 -0.090
19837	  0.345	  0.134	  0.540	  1.549	 -2.038	 -13.488	 -0.923	 -3.400	  0.362	 30.300	 99.504	  0.280
19887	  0.382	  0.093	  0.411	  1.597	  0.650	 -0.983	 -1.211	 -2.626	  0.189	 30.400	 99.508	 -0.090
19937	  0.398	  0.059	  0.345	  2.408	  1.634	 10.127	 -0.550	 -1.406	  0.936	 30.400	 99.508	 -0.090
19987	  0.415	  0.026	  0.356	 -0.249	  0.315	 10.651	  0.568	  1.419	  0.987	 30.300	 99.492	  1.387
20037	  0.409	  0.052	  0.479	 -0.609	  1.040	 -6.792	  2.053	  3.732	 -1.430	 30.400	 99.521	 -1.289
20087	  0.351	  0.186	  0.660	  0.771	 -3.497	 -35.610	  1.706	  3.326	 -1.734	 30.400	 99.504	  0.280
20137	  0.336	  0.210	  0.660	 -0.664	 -5.457	 -32.593	 -0.857	 -1.903	  0.490	 30.300	 99.504	  0.280
20187	  0.367	  0.132	  0.505	  2.079	 -2.369	 -11.587	 -1.691	 -3.503	  0.813	 30.400	 99.508	 -0.090
20237	  0.398	  0.081	  0.384	  3.650	  2.236	  3.973	 -1.124	 -2.804	  0.053	 30.400	 99.508	 -0.090
20287	  0.425	  0.067	  0.324	  0.384	  3.245	 10.498	  0.004	 -0.956	  0.339	 30.400	 99.496	  1.018
20337	  0.431	  0.090	  0.357	 -2.313	  1.002	  7.400	  1.213	  1.946	  0.210	 30.400	 99.508	 -0.090
20387	  0.413	  0.126	  0.483	 -3.419	  1.334	 -11.452	  1.794	  3.882	 -0.652	 30.400	 99.521	 -1.289
20437	  0.345	  0.196	  0.649	  1.854	 -5.366	 -32.602	  0.801	  3.056	 -0.744	 30.400	 99.508	 -0.090
20487	  0.320	  0.181	  0.650	  1.651	 -4.760	 -29.076	 -0.629	 -1.607	  0.373	 30.300	 99.504	  0.280
20537	  0.352	  0.128	  0.510	  1.656	 -1.029	 -12.166	 -1.388	 -3.386	  0.707	 30.400	 99.508	 -0.090
20587	  0.384	  0.096	  0.392	  3.902	  0.212	  1.661	 -0.963	 -3.092	  0.213	 30.400	 99.504	  0.280
20637	  0.426	  0.077	  0.304	  6.237	  0.278	  9.647	  0.244	 -2.007	 -0.030	 30.400	 99.508	 -0.090
20686	  0.450	  0.099	  0.319	 -4.397	  1.688	  6.015	  0.632	  1.271	 -0.299	 30.300	 99.504	  0.280
20736	  0.428	  0.147	  0.455	 -11.172	  4.420	 -4.587	  0.984	  3.635	 -0.989	 30.400	 99.508	 -0.090
20786	  0.371	  0.229	  0.626	 -1.686	 -2.087	 -27.985	  1.498	  3.786	 -0.784	 30.400	 99.521	 -1.289
20836	  0.333	  0.242	  0.666	  3.783	 -8.293	 -32.586	 -0.627	 -0.640	  0.016	 30.400	 99.521	 -1.289
20886	  0.355	  0.177	  0.516	  2.328	 -2.606	 -15.973	 -1.174	 -3.614	  0.866	 30.400	 99.504	  0.280
20936	  0.389	  0.124	  0.388	  1.483	 -0.991	 -3.272	 -1.620	 -2.995	  0.910	 30.400	 99.508	 -0.090
20986	  0.406	  0.073	  0.308	  1.667	  2.762	 10.058	 -0.876	 -1.965	  0.583	 30.400	 99.496	  1.018
21036	  0.428	  0.052	  0.285	 -2.179	  2.218	 12.503	  0.947	  0.787	  0.432	 30.400	 99.492	  1.387
21086	  0.417	  0.087	  0.392	 -5.200	  2.301	  3.452	  1.635	  3.356	 -0.508	 30.400	 99.508	 -0.090
21136	  0.375	  0.163	  0.571	  1.541	 -2.192	 -24.468	  2.123	  5.097	 -1.339	 30.300	 99.504	  0.280
21186	  0.294	  0.241	  0.687	  5.887	 -9.353	 -37.234	  0.015	  0.575	 -1.023	 30.400	 99.508	 -0.090
21236	  0.306	  0.216	  0.597	  0.447	 -2.448	 -20.131	 -0.915	 -3.360	  0.214	 30.400	 99.508	 -0.090
21286	  0.368	  0.166	  0.429	  0.103	  0.923	 -3.046	 -1.232	 -3.421	  0.674	 30.400	 99.504	  0.280
21336	  0.397	  0.124	  0.345	  1.414	  2.210	  8.767	 -0.467	 -2.016	  0.276	 30.300	 99.492	  1.387
21386	  0.418	  0.124	  0.327	  0.001	  1.445	 11.160	  0.839	  0.705	  0.133	 30.400	 99.496	  1.018
21436	  0.414	  0.160	  0.411	 -1.717	 -1.610	 -1.942	  0.685	  3.143	 -0.560	 30.400	 99.492	  1.387
21486	  0.352	  0.211	  0.614	 -3.955	 -1.784	 -27.739	  0.267	  4.734	 -1.364	 30.400	 99.516	 -0.827
21536	  0.286	  0.215	  0.689	 -0.515	 -3.260	 -36.068	 -0.418	  0.082	  0.754	 30.400	 99.521	 -1.289
21586	  0.314	  0.149	  0.562	  3.386	 -3.697	 -21.110	 -0.775	 -3.568	  1.143	 30.400	 99.508	 -0.090
21636	  0.375	  0.104	  0.396	  4.269	 -0.613	 -0.649	 -1.126	 -4.215	  0.669	 30.400	 99.508	 -0.090
21686	  0.418	  0.083	  0.275	  4.249	  0.523	 10.984	  0.123	 -2.115	 -0.028	 30.400	 99.508	 -0.090
21736	  0.438	  0.097	  0.277	  0.729	  2.370	 11.569	  0.487	  0.933	 -0.315	 30.400	 99.496	  1.018
21786	  0.426	  0.142	  0.382	 -4.961	  2.571	 -1.352	  1.388	  3.849	 -0.242	 30.300	 99.492	  1.387
21836	  0.368	  0.206	  0.577	 -2.109	 -3.842	 -26.860	  0.908	  4.870	 -0.975	 30.400	 99.508	 -0.090
21886	  0.309	  0.237	  0.668	  0.542	 -5.691	 -35.827	  0.391	  0.117	 -0.356	 30.400	 99.508	 -0.090
21936	  0.332	  0.206	  0.544	  0.909	 -4.438	 -23.772	 -0.904	 -3.608	  0.623	 30.400	 99.521	 -1.289
21986	  0.380	  0.143	  0.386	  2.221	 -0.461	 -4.087	 -1.444	 -4.125	  0.792	 30.400	 99.508	 -0.090
22036	  0.409	  0.101	  0.266	  3.193	  2.376	  8.516	 -0.715	 -2.489	  0.567	 30.400	 99.508	 -0.090
22087	  0.435	  0.089	  0.227	  2.183	  1.955	 14.202	  0.907	 -0.111	 -0.283	 30.400	 99.492	  1.387
22136	  0.439	  0.138	  0.304	 -1.252	  0.312	  3.325	  0.996	  3.091	 -0.917	 30.400	 99.508	 -0.090
22187	  0.403	  0.204	  0.469	 -4.818	 -1.070	 -15.110	  0.989	  5.494	 -1.215	 30.400	 99.508	 -0.090
22236	  0.318	  0.261	  0.660	  2.655	 -6.796	 -37.293	  0.769	  2.632	  0.083	 30.400	 99.521	 -1.289
22287	  0.297	  0.226	  0.630	  2.920	 -6.563	 -30.943	 -1.291	 -2.251	  0.363	 30.400	 99.513	 -0.550
22336	  0.349	  0.154	  0.472	  1.038	 -0.898	 -11.203	 -1.682	 -4.098	  0.990	 30.400	 99.508	 -0.090
22387	  0.390	  0.106	  0.323	  2.133	  0.205	 -0.631	 -0.905	 -3.343	  0.165	 30.400	 99.508	 -0.090
22437	  0.418	  0.093	  0.237	  2.047	  1.664	  9.166	 -0.472	 -2.661	 -0.109	 30.400	 99.508	 -0.090
22487	  0.445	  0.115	  0.203	  2.892	  1.423	 12.450	  1.507	  0.606	 -0.437	 30.400	 99.508	 -0.090
22537	  0.451	  0.169	  0.282	 -0.371	 -0.889	  1.462	  1.187	  3.162	 -1.928	 30.400	 99.496	  1.018
22587	  0.414	  0.272	  0.465	 -7.472	 -0.881	 -18.992	  1.035	  4.993	 -1.439	 30.400	 99.516	 -0.827
22637	  0.352	  0.324	  0.640	  0.778	 -10.223	 -38.325	  0.135	  2.266	 -0.163	 30.400	 99.516	 -0.827
22687	  0.336	  0.287	  0.585	  0.204	 -6.008	 -26.045	 -0.898	 -2.692	  0.539	 30.300	 99.504	  0.280
22737	  0.380	  0.232	  0.427	  1.172	 -0.469	 -7.373	 -1.198	 -3.704	  0.941	 30.300	 99.504	  0.280
22787	  0.408	  0.168	  0.316	  3.710	  1.793	  8.034	 -0.773	 -2.288	  0.533	 30.400	 99.492	  1.387
22837	  0.433	  0.168	  0.282	  1.250	  2.309	 12.446	  0.797	 -0.051	 -0.391	 30.400	 99.496	  1.018
22887	  0.427	  0.218	  0.360	 -3.526	  1.046	  2.782	  0.833	  3.122	 -1.274	 30.400	 99.504	  0.280
22937	  0.392	  0.304	  0.536	 -5.195	 -2.891	 -19.492	  0.540	  4.444	 -1.371	 30.400	 99.508	 -0.090
22987	  0.345	  0.340	  0.663	  2.896	 -7.947	 -34.651	  0.320	  1.246	  0.246	 30.400	 99.504	  0.280
23037	  0.347	  0.291	  0.600	  3.146	 -6.522	 -23.653	 -1.095	 -2.333	  0.697	 30.400	 99.508	 -0.090
23087	  0.370	  0.236	  0.460	  2.543	 -1.343	 -8.189	 -0.971	 -3.637	  0.702	 30.400	 99.504	  0.280
23137	  0.400	  0.192	  0.333	 -0.779	  1.193	  5.200	 -1.361	 -2.493	  0.183	 30.400	 99.496	  1.018
23187	  0.419	  0.167	  0.304	 -1.389	  2.916	 11.343	  0.360	 -0.070	  0.787	 30.400	 99.508	 -0.090
23237	  0.433	  0.167	  0.364	 -2.822	 -0.278	 -0.871	  0.810	  2.050	 -0.403	 30.400	 99.496	  1.018
23287	  0.404	  0.231	  0.488	 -4.253	 -1.518	 -16.934	  0.387	  3.268	 -1.213	 30.400	 99.508	 -0.090
23337	  0.378	  0.249	  0.587	 -2.375	 -2.956	 -19.556	  0.054	  0.790	  0.104	 30.400	 99.492	  1.387
23387	  0.386	  0.235	  0.598	 -1.529	 -2.344	 -13.960	 -0.307	 -0.052	  0.394	 30.400	 99.521	 -1.289
23437	  0.383	  0.221	  0.581	 -1.594	 -1.797	 -11.406	 -0.381	 -0.304	  0.189	 30.400	 99.504	  0.280
23487	  0.386	  0.205	  0.542	 -1.836	  0.606	 -8.816	 -0.260	 -0.523	  0.320	 30.400	 99.521	 -1.289
23537	  0.391	  0.199	  0.517	 -0.938	 -0.050	 -8.069	 -0.106	 -0.430	  0.198	 30.400	 99.508	 -0.090
23587	  0.393	  0.193	  0.488	 -0.874	  0.443	 -7.314	 -0.124	 -0.170	 -0.017	 30.400	 99.496	  1.018
23637	  0.391	  0.198	  0.491	 -1.084	  0.513	 -6.930	 -0.034	  0.013	 -0.033	 30.400	 99.508	 -0.090
23687	  0.396	  0.196	  0.497	 -2.115	  0.164	 -7.934	  0.073	  0.179	  0.083	 30.400	 99.508	 -0.090
23737	  0.398	  0.192	  0.501	 -2.275	  0.083	 -8.195	 -0.079	  0.283	  0.075	 30.400	 99.508	 -0.090
23787	  0.404	  0.191	  0.535	 -1.762	 -0.193	 -8.991	 -0.110	  0.380	 -0.122	 30.400	 99.504	  0.280
23837	  0.412	  0.200	  0.562	 -1.918	  0.495	 -9.285	 -0.091	  0.265	 -0.271	 30.400	 99.508	 -0.090
23887	  0.422	  0.201	  0.584	 -2.029	  0.430	 -9.799	 -0.127	  0.331	 -0.254	 30.400	 99.504	  0.280
23937	  0.430	  0.226	  0.605	 -1.968	  0.344	 -9.831	 -0.159	  0.198	 -0.279	 30.400	 99.508	 -0.090
23987	  0.444	  0.199	  0.613	 -1.814	  0.102	 -10.109	  0.064	  0.104	  0.082	 30.400	 99.508	 -0.090
24037	  0.470	  0.208	  0.606	 -1.817	 -0.141	 -9.948	  0.153	 -0.077	  0.252	 30.400	 99.508	 -0.090
24087	  0.487	  0.189	  0.606	 -1.619	 -0.352	 -9.289	  0.262	  0.252	  0.410	 30.400	 99.504	  0.280
24137	  0.497	  0.170	  0.594	 -0.189	  0.276	 -8.759	  0.285	  0.269	  0.458	 30.400	 99.504	  0.280
24187	  0.503	  0.170	  0.600	  0.830	 -0.644	 -9.205	  0.630	  0.411	  0.282	 30.400	 99.508	 -0.090
24237	  0.527	  0.180	  0.598	  0.469	 -1.885	 -10.200	  0.051	  0.321	 -0.041	 30.400	 99.508	 -0.090
24287	  0.497	  0.154	  0.630	  3.751	  1.349	 -6.895	 -0.648	  0.573	  0.156	 30.400	 99.508	 -0.090
24337	  0.518	  0.136	  0.613	 -1.165	 -0.488	 -9.727	 -0.117	 -0.824	  0.436	 30.400	 99.504	  0.280
24387	  0.517	  0.126	  0.615	 -1.489	 -0.042	 -9.145	 -0.241	  0.980	  0.011	 30.400	 99.508	 -0.090
24437	  0.496	  0.119	  0.638	  2.088	 -0.831	 -9.917	 -0.092	 -0.142	  0.181	 30.400	 99.508	 -0.090
24486	  0.503	  0.117	  0.628	 -1.235	  0.426	 -9.234	 -0.091	 -0.124	 -0.065	 30.400	 99.496	  1.018
24536	  0.501	  0.112	  0.631	 -0.781	 -0.136	 -9.552	  0.090	  0.075	  0.392	 30.400	 99.508	 -0.090
24586	  0.505	  0.111	  0.629	 -0.349	  0.565	 -9.487	 -0.007	 -0.107	  0.018	 30.400	 99.521	 -1.289
24636	  0.504	  0.107	  0.628	 -0.586	 -0.024	 -9.368	  0.050	  0.149	  0.158	 30.300	 99.504	  0.280
24686	  0.496	  0.107	  0.631	 -0.130	 -0.120	 -9.533	  0.180	  0.298	  0.097	 30.300	 99.504	  0.280
24736	  0.490	  0.113	  0.640	  0.614	  0.149	 -9.377	  0.117	  0.065	 -0.099	 30.400	 99.521	 -1.289
24786	  0.481	  0.119	  0.645	  0.241	 -0.414	 -9.819	  0.224	  0.391	 -0.053	 30.400	 99.504	  0.280
24836	  0.481	  0.130	  0.644	  0.685	 -0.817	 -9.954	  0.229	 -0.328	 -0.162	 30.400	 99.504	  0.280
24886	  0.471	  0.164	  0.646	 -2.799	 -0.231	 -12.583	 -0.364	  0.476	 -0.644	 30.400	 99.508	 -0.090
24936	  0.432	  0.176	  0.643	 -0.669	 -0.287	 -18.702	  0.016	  0.356	 -0.059	 30.300	 99.504	  0.280
24986	  0.344	  0.154	  0.603	  2.610	  1.530	 -21.063	  0.053	  0.353	  0.308	 30.400	 99.504	  0.280
25036	  0.303	  0.146	  0.527	  1.165	  0.240	 -13.731	 -0.110	 -1.862	 -0.015	 30.400	 99.508	 -0.090
25086	  0.299	  0.170	  0.432	  3.572	 -1.757	 -3.574	  0.148	 -2.075	  0.193	 30.400	 99.516	 -0.827
25136	  0.334	  0.134	  0.357	 -0.432	  2.767	 18.763	 -0.415	 -2.478	  1.115	 30.400	 99.508	 -0.090
25186	  0.345	  0.153	  0.368	  3.005	 -1.955	  9.070	  2.031	  2.432	 -0.769	 30.400	 99.508	 -0.090
25236	  0.310	  0.226	  0.476	 -1.059	  2.283	 -2.437	  1.308	  2.671	 -1.148	 30.400	 99.508	 -0.090
25286	  0.255	  0.291	  0.632	 -1.638	 -6.207	 -32.646	  0.498	  3.949	 -0.130	 30.400	 99.521	 -1.289
25336	  0.218	  0.262	  0.678	  3.941	 -5.229	 -42.101	 -0.055	 -0.358	  0.325	 30.400	 99.508	 -0.090
25386	  0.247	  0.228	  0.539	  3.643	 -3.201	 -17.861	 -1.087	 -3.919	 -0.022	 30.400	 99.508	 -0.090
25436	  0.302	  0.183	  0.382	  6.846	 -0.041	  5.804	 -0.839	 -3.835	  0.802	 30.400	 99.496	  1.018
25486	  0.349	  0.160	  0.318	  6.972	 -2.739	 19.505	  0.323	 -1.367	  0.407	 30.400	 99.496	  1.018
25536	  0.347	  0.185	  0.354	  0.341	  1.530	 15.049	  1.004	  3.159	 -0.748	 30.400	 99.496	  1.018
25586	  0.285	  0.243	  0.511	 -1.023	 -4.642	 -19.468	  0.909	  5.080	 -0.529	 30.400	 99.504	  0.280
25636	  0.176	  0.258	  0.651	  4.243	 -6.357	 -54.005	 -1.204	  2.924	 -0.403	 30.400	 99.516	 -0.827
25686	  0.187	  0.205	  0.576	  5.267	  1.373	 -23.085	 -0.903	 -4.325	  0.222	 30.400	 99.521	 -1.289
25736	  0.274	  0.148	  0.425	  3.546	 -1.919	  3.461	 -0.862	 -3.676	  0.943	 30.400	 99.516	 -0.827
25786	  0.312	  0.126	  0.355	  3.211	 -3.887	 14.427	 -0.358	 -1.502	  0.400	 30.300	 99.504	  0.280
25836	  0.332	  0.125	  0.359	  4.583	 -1.645	 15.956	  1.650	  1.793	  0.024	 30.400	 99.496	  1.018
25887	  0.259	  0.191	  0.481	  4.704	 -2.672	 -19.182	  0.495	  4.427	 -1.964	 30.400	 99.504	  0.280
25937	  0.191	  0.224	  0.585	 -3.878	  0.254	 -37.870	  0.177	  1.811	  0.042	 30.400	 99.508	 -0.090
25987	  0.180	  0.198	  0.553	  2.351	 -1.120	 -28.607	 -0.793	 -2.617	  0.479	 30.300	 99.516	 -0.827
26037	  0.255	  0.162	  0.443	  5.217	 -1.437	 -6.741	 -0.925	 -4.160	  0.658	 30.400	 99.508	 -0.090
26087	  0.326	  0.122	  0.329	  5.202	 -4.482	 15.477	 -1.398	 -2.961	  0.367	 30.300	 99.492	  1.387
26137	  0.335	  0.112	  0.337	  2.281	 -1.587	 16.653	  1.030	  2.208	 -0.214	 30.400	 99.508	 -0.090
26187	  0.281	  0.175	  0.423	  0.884	 -2.373	 -13.131	  1.592	  3.634	 -1.092	 30.400	 99.508	 -0.090
26237	  0.240	  0.203	  0.520	 -0.774	 -1.056	 -21.833	 -0.391	  1.952	 -0.227	 30.400	 99.508	 -0.090
26287	  0.232	  0.206	  0.570	  2.966	  0.492	 -16.111	  0.329	 -0.127	  0.081	 30.400	 99.508	 -0.090
26337	  0.252	  0.217	  0.568	 -1.076	 -2.294	 -14.514	  0.449	 -0.516	 -0.168	 30.400	 99.504	  0.280
26387	  0.265	  0.227	  0.563	  0.057	 -0.925	 -10.894	 -0.298	 -0.255	 -0.181	 30.400	 99.521	 -1.289
26437	  0.257	  0.218	  0.555	  0.941	 -0.331	 -9.260	 -0.008	  0.079	  0.012	 30.400	 99.508	 -0.090
26487	  0.252	  0.223	  0.541	  1.867	 -1.207	 -9.339	  0.068	 -0.218	 -0.145	 30.400	 99.521	 -1.289
26537	  0.257	  0.216	  0.535	  0.637	 -1.565	 -9.157	 -0.098	 -0.241	 -0.089	 30.300	 99.504	  0.280
26587	  0.254	  0.221	  0.526	  0.902	 -1.090	 -9.167	 -0.251	 -0.182	 -0.054	 30.300	 99.504	  0.280
26637	  0.253	  0.223	  0.522	  0.072	 -0.849	 -8.872	 -0.473	 -0.144	  0.125	 30.400	 99.521	 -1.289
26687	  0.254	  0.183	  0.523	  0.045	 -0.432	 -8.493	 -0.357	  0.032	  0.257	 30.400	 99.508	 -0.090
26737	  0.252	  0.186	  0.527	  0.636	 -0.579	 -8.426	 -0.187	  0.000	  0.236	 30.400	 99.508	 -0.090
26787	  0.254	  0.161	  0.534	  0.226	 -0.488	 -7.993	 -0.013	 -0.159	  0.144	 30.400	 99.521	 -1.289
26837	  0.261	  0.160	  0.527	 -0.228	 -0.705	 -8.739	  0.099	  0.124	  0.126	 30.400	 99.508	 -0.090
26886	  0.257	  0.165	  0.553	  0.238	 -1.003	 -9.183	  0.103	  0.287	  0.146	 30.400	 99.504	  0.280
26936	  0.254	  0.161	  0.565	  0.109	 -0.711	 -9.412	  0.045	  0.433	  0.227	 30.400	 99.504	  0.280
26986	  0.246	  0.171	  0.585	  0.736	 -0.793	 -9.664	  0.113	  0.362	  0.192	 30.400	 99.521	 -1.289
27036	  0.244	  0.153	  0.606	  0.705	 -0.648	 -10.055	 -0.052	  0.568	  0.307	 30.400	 99.508	 -0.090
27086	  0.232	  0.156	  0.623	  1.172	 -1.009	 -10.053	  0.084	  0.279	  0.187	 30.400	 99.521	 -1.289
27136	  0.226	  0.158	  0.632	  1.149	 -0.787	 -9.837	 -0.067	  0.263	 -0.027	 30.400	 99.508	 -0.090
27186	  0.222	  0.155	  0.640	  0.793	 -0.195	 -9.000	 -0.097	  0.282	  0.008	 30.400	 99.508	 -0.090
27236	  0.220	  0.168	  0.652	  1.552	 -0.311	 -8.320	  0.009	 -0.062	  0.204	 30.300	 99.504	  0.280
27286	  0.238	  0.143	  0.654	  1.165	 -1.570	 -8.297	 -0.187	 -0.369	  0.463	 30.400	 99.496	  1.018
27337	  0.265	  0.111	  0.669	  1.648	 -1.705	 -9.149	 -0.626	 -0.509	  0.296	 30.400	 99.504	  0.280
27387	  0.295	  0.078	  0.672	  1.475	 -0.064	 -9.459	 -0.676	 -0.702	  0.173	 30.400	 99.508	 -0.090
27436	  0.332	  0.058	  0.685	  0.430	  0.021	 -8.782	 -0.509	 -0.724	  0.081	 30.400	 99.516	 -0.827
27486	  0.380	  0.043	  0.695	 -0.397	  0.588	 -10.867	 -0.043	 -0.543	  0.251	 30.400	 99.521	 -1.289
27536	  0.399	  0.041	  0.702	 -0.788	  0.310	 -11.294	  0.180	 -0.029	  0.841	 30.400	 99.508	 -0.090
27586	  0.399	  0.037	  0.724	  1.503	 -0.142	 -11.300	  0.319	  0.436	  0.608	 30.400	 99.516	 -0.827
27636	  0.382	  0.050	  0.739	 -0.361	  0.342	 -10.282	  0.167	  0.044	  0.079	 30.300	 99.504	  0.280
27687	  0.375	  0.065	  0.738	  0.181	  0.011	 -10.268	  0.389	  0.088	  0.076	 30.400	 99.508	 -0.090
27736	  0.359	  0.086	  0.739	 -0.153	 -0.021	 -9.734	  0.120	  0.286	 -0.170	 30.400	 99.508	 -0.090
27787	  0.328	  0.104	  0.740	  0.376	  0.593	 -8.419	 -0.202	  0.405	 -0.861	 30.400	 99.521	 -1.289
27836	  0.311	  0.112	  0.744	  1.705	 -0.145	 -9.390	 -0.282	  0.080	 -0.151	 30.300	 99.516	 -0.827
27887	  0.313	  0.095	  0.739	  0.486	 -0.101	 -8.992	 -0.625	 -0.437	 -0.040	 30.300	 99.504	  0.280
27937	  0.323	  0.062	  0.725	 -0.216	 -0.158	 -8.272	 -0.794	 -0.631	 -0.164	 30.400	 99.516	 -0.827
27987	  0.331	  0.044	  0.726	 -0.537	  2.343	 -8.056	 -0.358	 -0.144	 -0.188	 30.400	 99.521	 -1.289
28037	  0.327	  0.048	  0.735	 -0.971	  1.944	 -7.464	  0.273	  0.321	  0.078	 30.400	 99.508	 -0.090
28087	  0.332	  0.046	  0.759	  0.344	  0.349	 -8.016	  0.563	 -0.129	  0.744	 30.400	 99.508	 -0.090
28137	  0.369	  0.040	  0.773	  0.185	 -0.749	 -9.892	  0.191	 -0.398	  0.714	 30.300	 99.492	  1.387
28187	  0.406	  0.017	  0.795	  0.081	 -0.526	 -10.367	  0.109	 -0.408	  0.609	 30.400	 99.508	 -0.090
28237	  0.443	 -0.000	  0.807	 -0.384	 -0.629	 -9.792	 -0.312	 -0.484	  0.270	 30.400	 99.504	  0.280
28287	  0.481	 -0.028	  0.816	 -0.406	  0.792	 -10.453	 -0.430	 -0.723	  0.005	 30.300	 99.492	  1.387
28337	  0.524	 -0.038	  0.822	 -0.528	  1.718	 -8.503	 -0.520	 -0.761	  0.188	 30.400	 99.504	  0.280
28387	  0.592	 -0.062	  0.818	 -4.855	  1.608	 -15.114	 -0.242	 -1.163	 -0.063	 30.400	 99.508	 -0.090
28437	  0.611	 -0.067	  0.808	 -2.212	  1.401	 -8.021	  0.024	  0.132	 -0.263	 30.400	 99.508	 -0.090
28487	  0.607	 -0.052	  0.813	 -1.226	  0.452	 -9.618	 -0.046	  0.144	 -0.068	 30.400	 99.521	 -1.289
28537	  0.611	 -0.073	  0.798	 -2.384	  1.353	 -8.953	 -0.159	  0.132	  0.242	 30.300	 99.504	  0.280
28587	  0.600	 -0.085	  0.799	 -0.069	  0.842	 -7.751	  0.381	  0.463	 -0.126	 30.300	 99.492	  1.387
28637	  0.587	 -0.072	  0.822	 -1.191	 -0.330	 -10.956	  0.719	  0.678	  0.012	 30.400	 99.504	  0.280
28687	  0.559	 -0.073	  0.845	  0.018	  0.171	 -10.781	 -0.114	  0.766	 -0.079	 30.300	 99.516	 -0.827
28737	  0.549	 -0.071	  0.853	 -0.610	  1.017	 -9.181	  0.002	  0.079	 -0.185	 30.400	 99.508	 -0.090
28787	  0.550	 -0.072	  0.846	 -0.697	  0.792	 -9.385	 -0.014	  0.017	  0.043	 30.400	 99.496	  1.018
28837	  0.546	 -0.063	  0.856	 -0.294	  1.091	 -9.170	  0.011	  0.044	 -0.029	 30.400	 99.508	 -0.090
28887	  0.548	 -0.068	  0.857	 -0.902	 -0.243	 -10.423	  0.164	  0.022	 -0.042	 30.400	 99.504	  0.280
28937	  0.545	 -0.068	  0.864	 -0.613	  0.684	 -9.353	  0.128	  0.193	 -0.026	 30.400	 99.516	 -0.827
28987	  0.530	 -0.053	  0.880	 -0.747	  1.311	 -5.917	  1.072	  0.980	 -0.234	 30.400	 99.504	  0.280
29037	  0.551	  0.018	  0.920	 -0.766	 -5.253	 -13.306	  0.482	  0.150	 -0.045	 30.300	 99.504	  0.280
29087	  0.553	  0.012	  0.911	 -0.211	  1.947	 -7.047	 -0.215	 -0.065	 -0.037	 30.300	 99.516	 -0.827
29137	  0.551	  0.021	  0.917	  0.326	 -2.202	 -10.068	  0.027	  0.009	  0.016	 30.400	 99.504	  0.280
29187	  0.551	  0.022	  0.916	 -0.457	  1.876	 -8.186	  0.197	  0.049	  0.013	 30.400	 99.508	 -0.090
29237	  0.550	  0.017	  0.912	  0.272	 -1.416	 -10.339	  0.057	 -0.007	  0.017	 30.400	 99.516	 -0.827
29287	  0.552	  0.013	  0.919	 -0.352	 -0.148	 -9.590	  0.008	  0.001	  0.017	 30.300	 99.504	  0.280
29337	  0.554	  0.013	  0.915	 -0.269	 -0.078	 -9.519	  0.000	 -0.002	  0.018	 30.400	 99.508	 -0.090
29387	  0.552	  0.015	  0.915	 -0.340	 -0.069	 -9.491	  0.004	 -0.002	  0.018	 30.400	 99.508	 -0.090
29437	  0.550	  0.023	  0.911	 -0.233	 -0.060	 -9.476	  0.002	 -0.002	  0.017	 30.300	 99.504	  0.280
29487	  0.550	  0.015	  0.918	 -0.332	 -0.081	 -9.476	  0.003	 -0.002	  0.017	 30.300	 99.516	 -0.827
29537	  0.552	  0.013	  0.914	 -0.271	 -0.083	 -9.500	  0.003	 -0.001	  0.018	 30.300	 99.516	 -0.827
29587	  0.552	  0.011	  0.910	 -0.306	 -0.036	 -9.487	  0.003	 -0.000	  0.018	 30.400	 99.508	 -0.090
29637	  0.550	  0.015	  0.916	 -0.282	 -0.106	 -9.457	  0.003	  0.001	  0.018	 30.400	 99.508	 -0.090
29687	  0.547	  0.016	  0.917	 -0.280	 -0.070	 -9.489	  0.001	 -0.001	  0.017	 30.300	 99.516	 -0.827
29737	  0.552	  0.016	  0.915	 -0.301	 -0.085	 -9.484	  0.005	 -0.001	  0.017	 30.300	 99.504	  0.280
29787	  0.550	  0.012	  0.916	 -0.270	 -0.107	 -9.503	  0.003	 -0.001	  0.017	 30.400	 99.521	 -1.289
29837	  0.553	  0.015	  0.915	 -0.337	 -0.067	 -9.478	  0.002	 -0.002	  0.018	 30.400	 99.492	  1.387
29887	  0.551	  0.020	  0.917	 -0.238	 -0.077	 -9.507	  0.006	 -0.000	  0.019	 30.400	 99.529	 -2.026
29937	  0.550	  0.017	  0.919	 -0.397	 -0.137	 -9.528	  0.012	 -0.001	  0.019	 30.300	 99.504	  0.280
29987	  0.550	  0.013	  0.911	 -0.161	 -0.199	 -9.532	  0.033	 -0.002	  0.020	 30.400	 99.508	 -0.090
30037	  0.552	  0.012	  0.919	 -0.364	 -0.023	 -9.497	 -0.005	 -0.002	  0.018	 30.400	 99.516	 -0.827
30087	  0.550	  0.013	  0.912	 -0.275	 -0.063	 -9.472	  0.005	  0.000	  0.018	 30.300	 99.504	  0.280
30137	  0.548	  0.018	  0.917	 -0.258	  0.263	 -9.373	  0.031	 -0.000	  0.018	 30.300	 99.504	  0.280
30187	  0.549	  0.016	  0.917	 -0.167	 -0.737	 -9.730	  0.028	  0.005	  0.014	 30.300	 99.504	  0.280
30237	  0.549	  0.017	  0.916	 -0.260	  0.024	 -9.434	  0.007	  0.000	  0.017	 30.300	 99.504	  0.280
30287	  0.547	  0.020	  0.916	 -0.369	  0.003	 -9.463	  0.104	  0.026	  0.022	 30.400	 99.504	  0.280
30337	  0.549	  0.026	  0.920	 -0.168	 -0.242	 -9.469	  0.057	  0.018	  0.013	 30.300	 99.504	  0.280
30387	  0.550	  0.025	  0.917	 -0.104	 -0.709	 -9.603	 -0.004	 -0.005	  0.021	 30.300	 99.504	  0.280
30437	  0.550	  0.021	  0.916	 -0.272	 -0.152	 -9.472	 -0.048	 -0.021	  0.019	 30.400	 99.504	  0.280
30487	  0.555	  0.020	  0.920	 -1.115	 -5.329	 -12.858	 -0.693	 -0.113	  0.055	 30.300	 99.504	  0.280
30537	  0.559	 -0.006	  0.917	 -0.133	  2.788	 -6.681	 -0.207	  0.030	  0.027	 30.300	 99.504	  0.280
30587	  0.562	 -0.007	  0.920	 -0.213	  0.807	 -8.954	  0.188	 -0.018	 -0.089	 30.400	 99.504	  0.280
30637	  0.565	  0.010	  0.928	 -1.045	  0.547	 -9.450	  0.287	  0.074	 -0.006	 30.300	 99.504	  0.280
30687	  0.565	  0.013	  0.932	  0.014	 -0.281	 -10.179	 -0.257	 -0.007	  0.028	 30.300	 99.504	  0.280
30737	  0.568	  0.012	  0.925	 -1.285	  2.125	 -8.089	  0.039	  0.008	  0.018	 30.400	 99.508	 -0.090
30786	  0.567	  0.016	  0.926	 -0.267	 -0.136	 -9.486	  0.118	 -0.002	  0.016	 30.300	 99.504	  0.280
30837	  0.567	  0.019	  0.926	 -0.345	 -0.376	 -9.598	 -0.073	  0.000	  0.019	 30.400	 99.504	  0.280
30887	  0.562	  0.008	  0.926	 -0.387	 -1.233	 -10.025	 -0.072	  0.001	  0.019	 30.400	 99.508	 -0.090
30937	  0.565	  0.007	  0.929	 -0.412	  0.500	 -9.184	  0.006	 -0.000	  0.020	 30.300	 99.504	  0.280
30986	  0.563	  0.016	  0.930	 -0.269	 -0.056	 -9.474	  0.000	 -0.000	  0.017	 30.300	 99.516	 -0.827
31036	  0.563	  0.011	  0.929	 -0.270	 -0.088	 -9.482	  0.001	 -0.002	  0.019	 30.300	 99.516	 -0.827
31086	  0.561	  0.022	  0.930	 -0.345	 -0.031	 -9.469	  0.003	 -0.000	  0.017	 30.400	 99.504	  0.280
31136	  0.563	  0.025	  0.931	 -0.229	 -0.067	 -9.443	  0.002	 -0.002	  0.017	 30.300	 99.516	 -0.827
31186	  0.567	  0.013	  0.921	 -0.343	 -0.042	 -9.482	  0.002	  0.000	  0.019	 30.300	 99.516	 -0.827
31236	  0.561	  0.012	  0.926	 -0.237	 -0.084	 -9.510	  0.001	 -0.001	  0.018	 30.300	 99.516	 -0.827
31286	  0.565	  0.016	  0.922	 -0.328	 -0.053	 -9.482	  0.002	 -0.001	  0.019	 30.300	 99.504	  0.280
31336	  0.561	  0.008	  0.932	 -0.273	 -0.089	 -9.474	  0.003	 -0.001	  0.018	 30.300	 99.516	 -0.827
31386	  0.566	  0.008	  0.926	 -0.292	 -0.076	 -9.470	  0.002	 -0.001	  0.019	 30.300	 99.504	  0.280
31436	  0.565	  0.013	  0.928	 -0.305	 -0.064	 -9.496	  0.003	 -0.002	  0.018	 30.300	 99.516	 -0.827
31486	  0.563	  0.015	  0.927	 -0.255	 -0.091	 -9.463	  0.003	 -0.001	  0.016	 30.300	 99.504	  0.280
31536	  0.566	  0.008	  0.926	 -0.329	 -0.057	 -9.523	 -0.000	 -0.001	  0.019	 30.300	 99.504	  0.280
31586	  0.562	  0.017	  0.926	 -0.271	 -0.125	 -9.481	  0.005	 -0.001	  0.018	 30.400	 99.508	 -0.090
31636	  0.561	  0.012	  0.929	 -0.310	 -0.081	 -9.496	  0.001	 -0.002	  0.018	 30.300	 99.504	  0.280
31686	  0.566	  0.010	  0.929	 -0.271	 -0.042	 -9.542	 -0.002	 -0.001	  0.018	 30.400	 99.508	 -0.090
31736	  0.563	  0.020	  0.930	 -0.329	  0.032	 -9.530	 -0.002	  0.000	  0.019	 30.300	 99.516	 -0.827
31786	  0.565	  0.013	  0.932	 -0.269	 -0.053	 -9.476	  0.002	 -0.001	  0.016	 30.400	 99.504	  0.280
31836	  0.561	  0.006	  0.930	 -0.248	 -0.091	 -9.523	  0.002	 -0.002	  0.016	 30.400	 99.504	  0.280
31886	  0.564	  0.010	  0.929	 -0.320	 -0.036	 -9.472	  0.002	  0.000	  0.015	 30.400	 99.521	 -1.289
31936	  0.560	  0.007	  0.926	 -0.241	 -0.058	 -9.522	  0.005	  0.000	  0.017	 30.400	 99.504	  0.280
31986	  0.565	  0.012	  0.926	 -0.350	  0.006	 -9.498	  0.001	 -0.000	  0.021	 30.300	 99.516	 -0.827
32036	  0.564	  0.010	  0.928	 -0.242	 -0.062	 -9.482	  0.005	 -0.002	  0.016	 30.300	 99.492	  1.387
32086	  0.561	  0.015	  0.925	 -0.295	 -0.043	 -9.460	 -0.001	 -0.002	  0.019	 30.300	 99.492	  1.387
32136	  0.563	  0.012	  0.927	 -0.309	 -0.087	 -9.491	  0.002	  0.002	  0.016	 30.300	 99.504	  0.280
32186	  0.566	  0.011	  0.924	 -0.284	 -0.064	 -9.502	  0.003	 -0.002	  0.020	 30.400	 99.504	  0.280
32236	  0.562	  0.011	  0.927	 -0.297	 -0.043	 -9.445	  0.003	  0.002	  0.015	 30.400	 99.508	 -0.090
32286	  0.561	  0.008	  0.932	 -0.283	 -0.065	 -9.507	 -0.001	  0.001	  0.017	 30.300	 99.504	  0.280
32336	  0.565	  0.017	  0.927	 -0.329	 -0.039	 -9.535	  0.000	  0.000	  0.017	 30.300	 99.516	 -0.827
32386	  0.565	  0.021	  0.925	 -0.087	 -0.262	 -9.483	 -0.004	 -0.004	 -0.207	 30.300	 99.504	  0.280
32436	  0.566	  0.034	  0.937	 -0.375	 -0.065	 -9.471	 -0.014	  0.002	 -0.284	 30.300	 99.492	  1.387
32486	  0.562	  0.045	  0.928	  0.001	 -0.472	 -9.464	 -0.011	 -0.003	 -0.468	 30.300	 99.504	  0.280
32536	  0.562	  0.063	  0.948	 -0.686	  0.249	 -9.573	 -0.020	 -0.007	 -0.328	 30.300	 99.504	  0.280
32586	  0.557	  0.067	  0.945	 -0.314	  0.300	 -9.169	  0.024	 -0.006	 -0.061	 30.300	 99.504	  0.280
32636	  0.558	  0.074	  0.947	 -0.234	 -0.130	 -9.542	  0.001	 -0.001	  0.021	 30.300	 99.500	  0.649
32686	  0.559	  0.076	  0.949	 -0.354	 -0.049	 -9.486	  0.002	  0.001	  0.015	 30.400	 99.508	 -0.090
32736	  0.559	  0.071	  0.948	 -0.206	 -0.068	 -9.455	  0.004	 -0.003	  0.017	 30.300	 99.504	  0.280
32786	  0.561	  0.068	  0.949	  0.048	  0.509	 -9.325	  0.100	 -0.017	  0.361	 30.400	 99.504	  0.280
32836	  0.561	  0.048	  0.947	  0.048	 -0.734	 -9.698	 -0.089	  0.009	  0.838	 30.300	 99.504	  0.280
32886	  0.560	  0.029	  0.953	 -0.607	  0.246	 -9.357	  0.007	  0.014	  0.006	 30.300	 99.516	 -0.827
32936	  0.560	  0.029	  0.951	 -0.323	  0.000	 -9.459	  0.003	  0.003	  0.016	 30.300	 99.504	  0.280
32986	  0.561	  0.032	  0.951	 -0.264	 -0.103	 -9.472	 -0.001	  0.000	  0.018	 30.300	 99.504	  0.280
33036	  0.560	  0.032	  0.955	 -0.008	 -2.152	 -10.524	 -0.008	 -0.000	  0.017	 30.300	 99.504	  0.280
33086	  0.559	  0.035	  0.952	 -0.268	 -0.399	 -9.689	  0.001	 -0.001	  0.019	 30.400	 99.521	 -1.289
33136	  0.561	  0.035	  0.952	 -0.392	 -0.078	 -9.519	  0.013	  0.001	  0.019	 30.300	 99.516	 -0.827
33186	  0.562	  0.031	  0.953	 -0.277	  0.119	 -9.401	  0.005	 -0.001	  0.018	 30.300	 99.516	 -0.827
33237	  0.561	  0.041	  0.948	 -0.342	 -0.002	 -9.476	  0.002	 -0.000	  0.018	 30.400	 99.492	  1.387
