Time	 MagX	 MagY	 MagZ	 AccelX	 AccelY	 AccelZ	 Yaw	 Pitch	 Roll	 Temperature	 Pressure	 Altitude
2240	  0.191	 -0.111	  0.170	  0.068	  0.161	 -9.473	  0.002	 -0.001	  0.009	 30.000	 99.513	 -99999.000
2287	  0.191	 -0.109	  0.168	 -0.039	  0.168	 -9.519	  0.002	 -0.000	  0.010	 30.000	 99.513	 -99999.000
2336	  0.192	 -0.109	  0.167	 -0.015	  0.159	 -9.535	  0.002	 -0.000	  0.010	 30.000	 99.513	 -99999.000
2386	  0.191	 -0.111	  0.166	  0.096	  0.189	 -9.476	  0.003	 -0.002	  0.011	 30.000	 99.501	 -99999.000
2436	  0.191	 -0.108	  0.171	  0.007	  0.163	 -9.479	  0.003	  0.002	  0.011	 30.000	 99.513	 -99999.000
2486	  0.189	 -0.113	  0.166	  0.077	  0.171	 -9.503	  0.003	 -0.000	  0.012	 30.000	 99.501	 -99999.000
2536	  0.191	 -0.106	  0.174	 -0.007	  0.158	 -9.496	  0.003	 -0.001	  0.011	 30.000	 99.509	 -99999.000
2586	  0.192	 -0.096	  0.171	  0.096	  0.173	 -9.468	  0.002	 -0.000	  0.011	 30.000	 99.521	 -99999.000
2636	  0.192	 -0.101	  0.175	  0.014	  0.181	 -9.441	  0.002	  0.000	  0.010	 30.000	 99.509	 -99999.000
2686	  0.194	 -0.098	  0.171	  0.092	  0.160	 -9.478	  0.002	 -0.001	  0.010	 30.000	 99.509	 -99999.000
2736	  0.194	 -0.107	  0.164	 -0.010	  0.179	 -9.469	  0.003	 -0.000	  0.011	 30.000	 99.521	 -99999.000
2786	  0.189	 -0.107	  0.163	  0.081	  0.176	 -9.494	  0.002	  0.001	  0.011	 30.000	 99.501	 -99999.000
2836	  0.186	 -0.111	  0.167	 -0.015	  0.191	 -9.502	  0.002	 -0.001	  0.011	 30.000	 99.501	 -99999.000
2886	  0.192	 -0.106	  0.168	  0.096	  0.163	 -9.462	  0.003	 -0.002	  0.011	 30.000	 99.513	 -99999.000
2936	  0.190	 -0.108	  0.171	 -0.002	  0.173	 -9.530	  0.003	 -0.001	  0.011	 30.000	 99.513	 -99999.000
2986	  0.190	 -0.103	  0.169	  0.097	  0.173	 -9.450	  0.003	 -0.003	  0.011	 30.000	 99.513	 -99999.000
3036	  0.192	 -0.111	  0.164	  0.005	  0.186	 -9.507	  0.002	 -0.001	  0.010	 30.000	 99.509	 -99999.000
3086	  0.191	 -0.111	  0.168	  0.110	  0.169	 -9.491	  0.003	  0.001	  0.010	 30.000	 99.501	 -99999.000
3136	  0.194	 -0.096	  0.169	  0.022	  0.202	 -9.507	  0.003	 -0.000	  0.010	 30.000	 99.513	 -99999.000
3186	  0.186	 -0.111	  0.175	  0.085	  0.166	 -9.483	  0.004	 -0.002	  0.010	 30.000	 99.497	 -99999.000
3237	  0.191	 -0.108	  0.159	  0.028	  0.172	 -9.465	  0.003	 -0.000	  0.010	 30.000	 99.513	 -99999.000
3286	  0.190	 -0.113	  0.171	  0.054	  0.174	 -9.500	  0.003	 -0.000	  0.010	 30.000	 99.509	 -99999.000
3337	  0.191	 -0.115	  0.171	 -0.016	  0.188	 -9.433	  0.003	  0.000	  0.011	 30.000	 99.513	 -99999.000
3386	  0.189	 -0.107	  0.172	  0.055	  0.166	 -9.489	  0.003	 -0.001	  0.011	 30.000	 99.513	 -99999.000
3437	  0.190	 -0.111	  0.171	  0.016	  0.238	 -9.488	  0.003	 -0.001	  0.011	 30.000	 99.526	 -99999.000
5088	  0.190	 -0.109	  0.168	  0.065	  0.180	 -9.526	  0.003	  0.000	  0.011	 30.000	 99.509	  0.121
5137	  0.191	 -0.113	  0.172	 -0.005	  0.161	 -9.496	  0.002	 -0.001	  0.011	 30.000	 99.513	 -0.247
5187	  0.190	 -0.115	  0.167	  0.088	  0.146	 -9.464	  0.002	 -0.003	  0.012	 30.000	 99.501	  0.859
5237	  0.193	 -0.113	  0.174	  0.065	  0.163	 -9.488	  0.003	 -0.002	  0.012	 30.000	 99.513	 -0.247
5287	  0.191	 -0.109	  0.167	  0.105	  0.156	 -9.513	  0.001	 -0.001	  0.010	 30.000	 99.513	 -0.247
5337	  0.194	 -0.109	  0.171	  0.024	  0.159	 -9.506	  0.002	 -0.001	  0.011	 30.000	 99.513	 -0.247
5387	  0.192	 -0.109	  0.170	  0.078	  0.183	 -9.499	  0.002	 -0.001	  0.011	 30.000	 99.526	 -1.445
5437	  0.190	 -0.103	  0.168	  0.082	  0.196	 -9.464	  0.002	 -0.002	  0.011	 30.000	 99.513	 -0.247
5487	  0.190	 -0.112	  0.168	  0.054	  0.186	 -9.457	  0.003	 -0.001	  0.011	 30.000	 99.513	 -0.247
5537	  0.193	 -0.112	  0.174	  0.043	  0.198	 -9.469	  0.004	 -0.000	  0.011	 30.000	 99.513	 -0.247
5587	  0.191	 -0.108	  0.171	  0.052	  0.175	 -9.468	  0.002	  0.000	  0.011	 30.000	 99.513	 -0.247
5637	  0.195	 -0.098	  0.175	  0.007	  0.170	 -9.509	  0.002	  0.000	  0.011	 30.000	 99.501	  0.859
5687	  0.192	 -0.107	  0.164	  0.095	  0.157	 -9.465	  0.004	 -0.001	  0.009	 30.000	 99.497	  1.227
5737	  0.195	 -0.109	  0.168	  0.006	  0.173	 -9.507	  0.001	 -0.001	  0.011	 30.000	 99.501	  0.859
5787	  0.190	 -0.115	  0.171	  0.060	  0.173	 -9.510	  0.003	  0.001	  0.012	 30.000	 99.513	 -0.247
5837	  0.190	 -0.112	  0.170	  0.002	  0.170	 -9.464	  0.002	  0.001	  0.012	 30.000	 99.513	 -0.247
5887	  0.193	 -0.118	  0.174	  0.075	  0.164	 -9.471	  0.003	 -0.000	  0.011	 30.000	 99.513	 -0.247
5937	  0.190	 -0.107	  0.171	 -0.006	  0.156	 -9.494	  0.003	  0.000	  0.010	 30.000	 99.513	 -0.247
5987	  0.191	 -0.113	  0.174	  0.077	  0.156	 -9.482	  0.003	  0.000	  0.010	 30.000	 99.501	  0.859
6037	  0.194	 -0.113	  0.174	 -0.019	  0.166	 -9.507	  0.002	 -0.003	  0.010	 30.000	 99.501	  0.859
6087	  0.195	 -0.117	  0.166	  0.074	  0.176	 -9.477	  0.001	 -0.000	  0.012	 30.000	 99.513	 -0.247
6137	  0.191	 -0.112	  0.170	 -0.019	  0.180	 -9.488	  0.003	 -0.001	  0.011	 30.000	 99.513	 -0.247
6187	  0.193	 -0.118	  0.175	  0.090	  0.161	 -9.540	  0.003	 -0.001	  0.013	 30.000	 99.509	  0.121
6237	  0.190	 -0.112	  0.168	  0.000	  0.195	 -9.510	  0.003	 -0.002	  0.011	 30.000	 99.513	 -0.247
6287	  0.191	 -0.113	  0.175	  0.072	  0.184	 -9.508	  0.003	 -0.002	  0.011	 30.000	 99.513	 -0.247
6337	  0.193	 -0.117	  0.169	  0.010	  0.185	 -9.462	  0.003	  0.000	  0.010	 30.000	 99.513	 -0.247
6387	  0.196	 -0.112	  0.174	  0.115	  0.154	 -9.482	  0.003	 -0.001	  0.010	 30.000	 99.513	 -0.247
6437	  0.192	 -0.101	  0.184	  0.038	  0.177	 -9.487	  0.002	 -0.002	  0.011	 30.000	 99.513	 -0.247
6487	  0.191	 -0.112	  0.172	  0.087	  0.164	 -9.463	  0.003	 -0.001	  0.010	 30.000	 99.501	  0.859
6537	  0.191	 -0.120	  0.175	  0.023	  0.165	 -9.519	  0.003	 -0.000	  0.010	 30.000	 99.513	 -0.247
6587	  0.191	 -0.113	  0.174	  0.106	  0.170	 -9.465	  0.003	 -0.001	  0.010	 30.000	 99.501	  0.859
6637	  0.191	 -0.111	  0.170	  0.024	  0.185	 -9.459	  0.002	 -0.000	  0.011	 30.000	 99.501	  0.859
6687	  0.192	 -0.108	  0.174	  0.085	  0.176	 -9.468	  0.003	  0.000	  0.010	 30.000	 99.513	 -0.247
6737	  0.191	 -0.117	  0.174	  0.017	  0.192	 -9.460	  0.003	 -0.002	  0.011	 30.000	 99.513	 -0.247
6787	  0.195	 -0.111	  0.171	  0.056	  0.149	 -9.502	  0.003	 -0.001	  0.012	 30.000	 99.513	 -0.247
6837	  0.190	 -0.122	  0.170	  0.007	  0.172	 -9.484	  0.003	  0.000	  0.011	 30.000	 99.513	 -0.247
6887	  0.191	 -0.118	  0.167	  0.072	  0.165	 -9.488	  0.003	 -0.001	  0.011	 30.000	 99.501	  0.859
6937	  0.193	 -0.122	  0.170	  0.012	  0.174	 -9.468	  0.003	 -0.001	  0.011	 30.000	 99.513	 -0.247
6987	  0.193	 -0.115	  0.166	  0.070	  0.172	 -9.493	  0.002	 -0.000	  0.012	 30.000	 99.513	 -0.247
7037	  0.189	 -0.116	  0.171	 -0.015	  0.151	 -9.474	  0.003	 -0.001	  0.011	 30.000	 99.513	 -0.247
7087	  0.194	 -0.104	  0.178	  0.087	  0.176	 -9.471	  0.003	 -0.000	  0.010	 30.000	 99.513	 -0.247
7137	  0.191	 -0.117	  0.171	 -0.004	  0.188	 -9.470	  0.002	 -0.002	  0.010	 30.000	 99.513	 -0.247
7187	  0.193	 -0.115	  0.178	  0.087	  0.159	 -9.468	  0.002	  0.001	  0.012	 30.000	 99.513	 -0.247
7237	  0.189	 -0.116	  0.167	 -0.013	  0.160	 -9.490	  0.003	 -0.002	  0.011	 30.000	 99.526	 -1.445
7287	  0.188	 -0.118	  0.167	  0.127	  0.177	 -9.488	  0.003	 -0.001	  0.010	 30.000	 99.513	 -0.247
7337	  0.190	 -0.122	  0.171	  0.013	  0.176	 -9.507	  0.002	 -0.001	  0.010	 30.000	 99.501	  0.859
7387	  0.193	 -0.118	  0.175	  0.060	  0.156	 -9.476	  0.003	  0.001	  0.011	 30.000	 99.513	 -0.247
7437	  0.190	 -0.117	  0.164	 -0.028	  0.211	 -9.485	  0.003	 -0.004	  0.011	 30.000	 99.513	 -0.247
7487	  0.191	 -0.120	  0.178	  0.045	  0.145	 -9.496	  0.003	  0.000	  0.011	 30.000	 99.518	 -0.708
7537	  0.193	 -0.112	  0.174	  0.005	  0.200	 -9.505	  0.004	 -0.001	  0.011	 30.000	 99.513	 -0.247
7587	  0.193	 -0.121	  0.175	  0.091	  0.182	 -9.478	  0.004	 -0.002	  0.011	 30.000	 99.518	 -0.708
7637	  0.194	 -0.120	  0.175	 -0.011	  0.215	 -9.477	  0.004	  0.002	  0.011	 30.000	 99.513	 -0.247
7687	  0.194	 -0.116	  0.172	 -0.022	  0.149	 -9.492	  0.002	  0.003	  0.010	 30.000	 99.501	  0.859
7737	  0.191	 -0.121	  0.170	 -0.034	  0.180	 -9.517	  0.001	 -0.001	  0.010	 30.000	 99.513	 -0.247
7787	  0.191	 -0.118	  0.166	  0.124	  0.176	 -9.465	  0.003	 -0.001	  0.010	 30.000	 99.513	 -0.247
7837	  0.191	 -0.116	  0.178	  0.001	  0.173	 -9.471	  0.002	 -0.000	  0.011	 30.000	 99.513	 -0.247
7887	  0.191	 -0.112	  0.164	  0.104	  0.172	 -9.445	  0.003	 -0.001	  0.011	 30.000	 99.501	  0.859
7937	  0.193	 -0.118	  0.178	 -0.018	  0.184	 -9.481	  0.002	 -0.001	  0.011	 30.000	 99.513	 -0.247
7987	  0.193	 -0.113	  0.176	  0.097	  0.173	 -9.456	  0.002	 -0.000	  0.011	 30.000	 99.513	 -0.247
8037	  0.191	 -0.112	  0.174	  0.032	  0.191	 -9.508	  0.003	 -0.008	  0.010	 30.000	 99.501	  0.859
8087	  0.193	 -0.116	  0.167	 -0.113	  0.170	 -9.481	  0.002	  0.007	  0.013	 30.000	 99.513	 -0.247
8137	  0.191	 -0.117	  0.170	 -0.205	  0.147	 -9.521	  0.002	 -0.007	  0.011	 30.000	 99.501	  0.859
8187	  0.191	 -0.112	  0.168	  0.211	  0.163	 -9.465	  0.002	 -0.002	  0.010	 30.000	 99.513	 -0.247
8237	  0.194	 -0.118	  0.177	  0.006	  0.186	 -9.495	  0.004	 -0.000	  0.010	 30.000	 99.513	 -0.247
8287	  0.195	 -0.117	  0.177	  0.109	  0.134	 -9.517	  0.002	  0.000	  0.009	 30.000	 99.501	  0.859
8337	  0.190	 -0.111	  0.179	 -0.002	  0.209	 -9.483	  0.004	  0.000	  0.011	 30.000	 99.526	 -1.445
8387	  0.194	 -0.121	  0.170	  0.113	  0.147	 -9.472	  0.003	 -0.002	  0.011	 30.000	 99.526	 -1.445
8438	  0.191	 -0.117	  0.175	 -0.261	  0.432	 -9.538	  0.003	 -0.001	 -0.003	 30.000	 99.501	  0.859
8487	  0.193	 -0.113	  0.175	  0.151	  0.104	 -9.475	  0.004	 -0.001	 -0.025	 30.000	 99.513	 -0.247
8538	  0.191	 -0.112	  0.174	 -0.041	  0.162	 -9.531	  0.002	  0.001	 -0.084	 30.000	 99.513	 -0.247
8587	  0.194	 -0.113	  0.176	  0.076	  0.204	 -9.492	  0.001	 -0.002	 -0.026	 30.000	 99.518	 -0.708
8637	  0.194	 -0.108	  0.172	 -0.000	  0.191	 -9.515	  0.003	 -0.010	  0.006	 30.000	 99.526	 -1.445
8687	  0.194	 -0.108	  0.164	  0.019	  0.173	 -9.538	  0.004	  0.005	 -0.008	 30.000	 99.513	 -0.247
8738	  0.192	 -0.108	  0.176	  0.040	  0.242	 -9.446	  0.002	 -0.008	 -0.005	 30.000	 99.513	 -0.247
8787	  0.194	 -0.113	  0.171	  0.192	  0.135	 -9.501	  0.001	 -0.027	  0.003	 30.000	 99.513	 -0.247
8837	  0.195	 -0.111	  0.175	  0.021	  0.186	 -9.496	  0.003	  0.007	 -0.005	 30.000	 99.513	 -0.247
8887	  0.195	 -0.112	  0.176	  0.066	  0.157	 -9.465	  0.003	 -0.002	 -0.033	 30.000	 99.526	 -1.445
8938	  0.197	 -0.101	  0.175	 -0.040	  0.194	 -9.482	  0.003	  0.001	 -0.005	 30.000	 99.513	 -0.247
8988	  0.191	 -0.093	  0.175	  0.040	  0.029	 -9.544	  0.003	 -0.009	 -0.028	 30.000	 99.513	 -0.247
9038	  0.195	 -0.105	  0.170	 -0.124	  0.215	 -9.503	  0.001	  0.002	 -0.045	 30.000	 99.513	 -0.247
9088	  0.192	 -0.105	  0.171	  0.064	  0.288	 -9.413	  0.004	 -0.002	  0.004	 30.000	 99.513	 -0.247
9137	  0.194	 -0.106	  0.174	 -0.036	  0.187	 -9.469	  0.002	 -0.002	 -0.029	 30.000	 99.513	 -0.247
9188	  0.194	 -0.103	  0.172	  0.049	  0.148	 -9.499	  0.002	  0.004	  0.011	 30.000	 99.501	  0.859
9238	  0.194	 -0.099	  0.167	 -0.018	  0.192	 -9.472	  0.003	  0.004	  0.011	 30.000	 99.501	  0.859
9288	  0.196	 -0.102	  0.174	  0.156	  0.166	 -9.472	  0.002	  0.006	  0.011	 30.000	 99.513	 -0.247
9338	  0.195	 -0.106	  0.171	  0.079	  0.180	 -9.456	  0.004	  0.008	 -0.003	 30.000	 99.513	 -0.247
9388	  0.197	 -0.099	  0.174	  0.128	  0.165	 -9.457	  0.003	  0.015	 -0.036	 30.000	 99.513	 -0.247
9438	  0.197	 -0.101	  0.175	  0.022	  0.240	 -9.522	  0.002	 -0.000	  0.002	 30.000	 99.513	 -0.247
9488	  0.195	 -0.099	  0.171	  0.084	  0.222	 -9.477	  0.002	  0.004	 -0.013	 30.000	 99.518	 -0.708
9538	  0.194	 -0.094	  0.176	 -0.101	  0.161	 -9.448	  0.003	  0.008	 -0.006	 30.000	 99.513	 -0.247
9587	  0.199	 -0.099	  0.172	 -0.109	 -0.062	 -9.464	  0.002	 -0.004	  0.025	 30.000	 99.501	  0.859
9637	  0.195	 -0.093	  0.175	  0.084	  0.190	 -9.491	  0.001	 -0.012	  0.011	 30.000	 99.501	  0.859
9687	  0.197	 -0.101	  0.175	 -0.005	  0.178	 -9.502	  0.002	 -0.015	  0.009	 30.000	 99.513	 -0.247
9737	  0.195	 -0.087	  0.172	  0.008	  0.190	 -9.487	  0.003	 -0.004	 -0.003	 30.000	 99.530	 -1.813
9787	  0.195	 -0.093	  0.175	  0.307	  0.158	 -9.478	  0.003	 -0.017	 -0.175	 30.000	 99.513	 -0.247
9837	  0.197	 -0.083	  0.169	  0.088	  0.177	 -9.439	  0.002	 -0.003	 -0.300	 30.000	 99.513	 -0.247
9887	  0.199	 -0.080	  0.172	 -0.141	  0.192	 -9.463	  0.000	  0.005	 -0.073	 30.000	 99.501	  0.859
9937	  0.200	 -0.083	  0.167	 -0.031	  0.183	 -9.526	  0.009	 -0.029	  0.010	 30.000	 99.513	 -0.247
9987	  0.198	 -0.089	  0.169	 -0.049	  0.139	 -9.456	  0.003	  0.002	  0.023	 30.000	 99.513	 -0.247
10037	  0.201	 -0.084	  0.169	  0.093	  0.186	 -9.444	 -0.001	  0.014	  0.073	 30.000	 99.513	 -0.247
10087	  0.196	 -0.089	  0.176	 -0.051	  0.115	 -9.509	 -0.000	  0.010	  0.016	 30.000	 99.513	 -0.247
10137	  0.198	 -0.082	  0.164	 -0.063	  0.180	 -9.486	  0.001	  0.004	  0.010	 30.000	 99.513	 -0.247
10187	  0.198	 -0.073	  0.178	  0.102	  0.156	 -9.490	 -0.004	  0.029	  0.038	 30.000	 99.513	 -0.247
10237	  0.200	 -0.084	  0.173	 -0.089	  0.187	 -9.504	  0.001	  0.004	  0.012	 30.000	 99.513	 -0.247
10287	  0.196	 -0.082	  0.168	  0.528	  0.245	 -9.043	  0.000	 -0.003	  0.032	 30.000	 99.513	 -0.247
10337	  0.197	 -0.085	  0.180	  0.186	  0.504	 -9.432	  0.003	 -0.019	  0.097	 30.000	 99.509	  0.121
10387	  0.198	 -0.088	  0.176	  0.101	  0.147	 -9.459	  0.003	  0.006	  0.012	 30.000	 99.513	 -0.247
10437	  0.202	 -0.079	  0.184	 -0.034	  0.188	 -9.496	  0.001	 -0.015	  0.011	 30.000	 99.513	 -0.247
10487	  0.197	 -0.084	  0.179	  0.109	  0.207	 -9.417	  0.003	  0.001	  0.011	 30.000	 99.505	  0.490
10537	  0.197	 -0.089	  0.179	 -0.029	  0.195	 -9.496	  0.001	 -0.004	  0.010	 30.000	 99.513	 -0.247
10587	  0.200	 -0.089	  0.178	  0.110	  0.129	 -9.528	  0.005	 -0.003	  0.010	 30.000	 99.501	  0.859
10637	  0.200	 -0.093	  0.179	  0.008	  0.198	 -9.477	  0.005	 -0.001	  0.010	 30.000	 99.513	 -0.247
10687	  0.200	 -0.084	  0.179	  0.108	  0.198	 -9.498	  0.004	  0.001	 -0.025	 30.000	 99.501	  0.859
10737	  0.198	 -0.094	  0.175	 -0.005	  0.312	 -9.519	  0.004	  0.025	 -0.010	 30.000	 99.513	 -0.247
10787	  0.198	 -0.088	  0.179	 -0.243	  0.387	 -9.567	  0.000	 -0.003	  0.061	 30.000	 99.501	  0.859
10837	  0.196	 -0.098	  0.178	  0.231	  0.331	 -9.384	  0.002	 -0.022	 -0.092	 30.000	 99.505	  0.490
10887	  0.213	 -0.095	  0.186	 -0.760	 -1.139	 -9.679	 -0.015	  0.078	  0.052	 30.000	 99.513	 -0.247
10937	  0.212	 -0.121	  0.165	 -0.606	  0.531	 -9.563	  0.008	  0.063	  0.275	 30.000	 99.513	 -0.247
10987	  0.196	 -0.130	  0.154	 -0.013	  0.653	 -9.508	  0.005	  0.006	  0.345	 30.000	 99.513	 -0.247
11037	  0.189	 -0.132	  0.148	  0.210	  0.078	 -9.482	  0.002	 -0.003	  0.084	 30.000	 99.513	 -0.247
11087	  0.193	 -0.141	  0.155	  0.112	  0.209	 -9.510	  0.003	 -0.000	  0.051	 30.000	 99.513	 -0.247
11137	  0.187	 -0.131	  0.146	  0.029	  0.188	 -9.455	  0.003	 -0.000	  0.046	 30.000	 99.518	 -0.708
11187	  0.190	 -0.134	  0.148	  0.118	  0.141	 -9.468	  0.004	  0.000	  0.016	 30.000	 99.513	 -0.247
11237	  0.191	 -0.134	  0.150	 -0.045	  0.243	 -9.463	  0.002	 -0.001	  0.015	 30.000	 99.501	  0.859
11287	  0.192	 -0.141	  0.143	  0.149	  0.115	 -9.478	  0.002	 -0.001	 -0.010	 30.000	 99.526	 -1.445
11337	  0.191	 -0.135	  0.145	  0.063	  0.151	 -9.502	  0.003	 -0.000	 -0.039	 30.000	 99.526	 -1.445
11387	  0.190	 -0.135	  0.147	  0.088	  0.151	 -9.518	  0.003	  0.000	 -0.018	 30.000	 99.518	 -0.708
11437	  0.193	 -0.129	  0.146	 -0.041	  0.151	 -9.454	  0.002	 -0.000	  0.010	 30.000	 99.518	 -0.708
11487	  0.190	 -0.120	  0.144	  0.095	  0.161	 -9.490	  0.003	 -0.001	  0.010	 30.000	 99.518	 -0.708
11537	  0.189	 -0.131	  0.144	 -0.029	  0.198	 -9.499	  0.002	 -0.001	 -0.002	 30.000	 99.513	 -0.247
11587	  0.190	 -0.127	  0.138	  0.106	  0.126	 -9.483	  0.002	  0.000	 -0.024	 30.000	 99.526	 -1.445
11637	  0.189	 -0.130	  0.143	  0.000	  0.193	 -9.493	  0.001	  0.000	 -0.032	 30.000	 99.513	 -0.247
11687	  0.191	 -0.126	  0.144	  0.098	  0.177	 -9.492	  0.002	 -0.001	 -0.027	 30.000	 99.513	 -0.247
11737	  0.193	 -0.125	  0.146	 -0.007	  0.189	 -9.505	  0.002	 -0.001	  0.008	 30.000	 99.513	 -0.247
11787	  0.188	 -0.127	  0.142	  0.094	  0.157	 -9.484	  0.001	  0.001	  0.007	 30.000	 99.513	 -0.247
11837	  0.190	 -0.132	  0.146	  0.011	  0.142	 -9.477	  0.002	 -0.001	 -0.023	 30.000	 99.518	 -0.708
11887	  0.194	 -0.119	  0.150	  0.069	  0.199	 -9.447	  0.003	  0.002	 -0.081	 30.000	 99.513	 -0.247
11937	  0.189	 -0.120	  0.147	  0.087	 -0.083	 -9.497	  0.002	  0.005	 -0.205	 30.000	 99.501	  0.859
11987	  0.190	 -0.113	  0.143	  0.145	  0.255	 -9.420	  0.001	  0.004	 -0.297	 30.000	 99.501	  0.859
12037	  0.194	 -0.103	  0.144	 -0.040	  0.304	 -9.542	  0.001	  0.001	 -0.123	 30.000	 99.518	 -0.708
12087	  0.194	 -0.103	  0.144	  0.099	  0.042	 -9.501	  0.001	  0.002	 -0.175	 30.000	 99.513	 -0.247
12137	  0.197	 -0.100	  0.143	 -0.122	  0.398	 -9.506	  0.001	  0.001	 -0.128	 30.000	 99.501	  0.859
12187	  0.194	 -0.092	  0.146	  0.095	  0.107	 -9.459	  0.004	  0.002	 -0.010	 30.000	 99.513	 -0.247
12237	  0.194	 -0.091	  0.142	 -0.009	  0.256	 -9.501	  0.004	  0.001	 -0.049	 30.000	 99.501	  0.859
12287	  0.197	 -0.093	  0.153	 -0.091	  0.290	 -9.473	 -0.001	 -0.004	 -0.100	 30.000	 99.513	 -0.247
12337	  0.196	 -0.084	  0.144	  0.116	  0.076	 -9.493	 -0.001	 -0.003	 -0.119	 30.000	 99.526	 -1.445
12387	  0.196	 -0.077	  0.150	  0.221	  0.134	 -9.495	  0.000	 -0.005	 -0.208	 30.000	 99.505	  0.490
12437	  0.197	 -0.078	  0.137	 -0.097	  0.567	 -9.493	 -0.003	  0.004	 -0.238	 30.000	 99.501	  0.859
12487	  0.203	 -0.065	  0.144	  0.479	  0.178	 -9.598	 -0.010	  0.036	 -0.356	 30.000	 99.513	 -0.247
12537	  0.195	 -0.063	  0.154	 -0.366	 -0.179	 -13.820	 -0.693	  0.472	 -0.304	 30.000	 99.505	  0.490
12587	  0.172	 -0.062	  0.165	  1.105	  2.388	 -15.098	 -1.073	  0.960	 -0.614	 30.000	 99.501	  0.859
12637	  0.131	 -0.052	  0.172	  2.825	  2.834	 -9.234	  0.102	  0.012	 -0.951	 30.000	 99.513	 -0.247
12687	  0.131	 -0.020	  0.148	 -0.312	  1.138	 -3.875	  1.600	 -2.152	 -0.430	 30.000	 99.518	 -0.708
12737	  0.154	  0.022	  0.094	 -1.536	 -1.268	 -3.884	  1.798	 -2.570	 -0.134	 30.000	 99.501	  0.859
12787	  0.178	  0.042	  0.049	 -1.465	 -2.354	 -6.236	  0.341	 -0.734	  0.042	 30.000	 99.501	  0.859
12837	  0.178	  0.047	  0.062	 -2.433	 -0.970	 -7.866	 -0.544	  1.520	 -0.348	 30.000	 99.513	 -0.247
12887	  0.161	  0.042	  0.112	 -1.361	 -0.461	 -8.738	 -0.794	  2.224	 -0.045	 30.000	 99.505	  0.490
12937	  0.148	  0.023	  0.161	  1.067	  0.011	 -9.724	 -0.597	  1.106	 -0.072	 30.000	 99.518	 -0.708
12987	  0.153	  0.021	  0.166	  1.077	  0.677	 -10.335	 -0.028	 -0.176	 -0.102	 30.000	 99.513	 -0.247
13037	  0.170	  0.022	  0.162	 -0.125	  0.370	 -10.645	  0.527	 -0.526	  0.199	 30.000	 99.501	  0.859
13087	  0.183	  0.033	  0.150	 -0.366	 -0.591	 -10.306	  0.468	 -0.268	  0.289	 30.000	 99.518	 -0.708
13137	  0.193	  0.031	  0.149	 -0.390	 -0.499	 -10.069	 -0.033	  0.234	  0.135	 30.000	 99.513	 -0.247
13187	  0.190	  0.030	  0.151	  0.662	 -0.021	 -9.955	 -0.254	  0.350	  0.054	 30.000	 99.513	 -0.247
13237	  0.193	  0.021	  0.167	  0.509	  0.313	 -9.567	 -0.094	  0.100	  0.082	 30.000	 99.513	 -0.247
13287	  0.195	  0.011	  0.161	 -0.088	 -0.318	 -9.600	  0.017	 -0.202	  0.111	 30.000	 99.501	  0.859
13337	  0.201	  0.007	  0.155	  0.058	 -0.336	 -9.315	 -0.143	 -0.206	  0.115	 30.000	 99.526	 -1.445
13387	  0.201	  0.011	  0.146	 -0.146	 -0.233	 -9.537	 -0.345	  0.148	 -0.081	 30.000	 99.513	 -0.247
13437	  0.203	  0.008	  0.154	 -0.579	 -0.078	 -9.765	  0.004	  0.018	 -0.162	 30.000	 99.518	 -0.708
13487	  0.196	  0.008	  0.155	  0.185	  0.208	 -9.406	  0.007	  0.005	  0.011	 30.000	 99.526	 -1.445
13537	  0.199	  0.018	  0.151	  0.076	  0.207	 -9.508	 -0.000	 -0.001	 -0.003	 30.000	 99.501	  0.859
13587	  0.201	  0.011	  0.154	  0.010	  0.199	 -9.503	  0.002	  0.002	 -0.127	 30.000	 99.513	 -0.247
13637	  0.198	  0.011	  0.146	  0.079	  0.208	 -9.507	  0.001	 -0.002	  0.007	 30.000	 99.513	 -0.247
13687	  0.201	  0.007	  0.155	  0.027	  0.195	 -9.490	  0.003	 -0.004	  0.010	 30.000	 99.501	  0.859
13737	  0.201	  0.023	  0.154	  0.047	  0.190	 -9.512	  0.003	 -0.014	  0.009	 30.000	 99.513	 -0.247
13787	  0.198	  0.013	  0.148	 -0.053	  0.195	 -9.456	  0.004	 -0.013	  0.011	 30.000	 99.513	 -0.247
13837	  0.200	  0.027	  0.151	 -0.003	  0.183	 -9.475	  0.003	  0.025	  0.012	 30.000	 99.513	 -0.247
13887	  0.200	  0.014	  0.150	 -0.017	  0.196	 -9.451	  0.002	  0.012	  0.010	 30.000	 99.493	  1.596
13937	  0.201	  0.013	  0.153	  0.104	  0.183	 -9.464	  0.003	 -0.004	  0.013	 30.000	 99.513	 -0.247
13987	  0.201	  0.008	  0.155	 -0.040	  0.209	 -9.461	  0.002	 -0.034	  0.032	 30.000	 99.518	 -0.708
14037	  0.201	  0.017	  0.147	  0.026	  0.176	 -9.488	  0.003	  0.000	  0.031	 30.000	 99.513	 -0.247
14087	  0.199	  0.006	  0.154	 -0.133	  0.185	 -9.494	  0.005	  0.028	  0.011	 30.000	 99.513	 -0.247
14137	  0.200	  0.008	  0.150	  0.054	  0.162	 -9.527	  0.003	 -0.014	  0.014	 30.000	 99.513	 -0.247
14186	  0.200	  0.011	  0.146	  0.095	  0.176	 -9.478	  0.003	  0.000	  0.015	 30.000	 99.501	  0.859
14237	  0.201	  0.011	  0.151	  0.049	  0.204	 -9.461	  0.004	 -0.000	  0.018	 30.000	 99.501	  0.859
14287	  0.200	  0.009	  0.153	 -0.020	  0.201	 -9.458	  0.002	 -0.000	  0.012	 30.000	 99.513	 -0.247
14337	  0.201	  0.006	  0.154	  0.019	  0.177	 -9.498	  0.001	 -0.007	  0.014	 30.000	 99.513	 -0.247
14387	  0.198	  0.014	  0.151	  0.085	  0.205	 -9.463	  0.003	 -0.003	  0.012	 30.000	 99.513	 -0.247
14437	  0.199	  0.009	  0.153	  0.039	  0.213	 -9.471	  0.002	  0.002	  0.011	 30.000	 99.518	 -0.708
14487	  0.199	  0.011	  0.150	 -0.004	  0.222	 -9.504	  0.003	 -0.000	  0.010	 30.000	 99.518	 -0.708
14537	  0.200	  0.008	  0.149	  0.059	  0.202	 -9.490	  0.003	 -0.002	  0.009	 30.000	 99.513	 -0.247
14587	  0.198	  0.012	  0.145	 -0.033	  0.196	 -9.500	  0.004	  0.000	 -0.008	 30.000	 99.518	 -0.708
14637	  0.199	  0.009	  0.155	  0.014	  0.246	 -9.469	  0.005	 -0.003	  0.018	 30.000	 99.513	 -0.247
14688	  0.201	  0.009	  0.143	 -0.001	  0.243	 -9.432	  0.003	 -0.004	 -0.013	 30.000	 99.526	 -1.445
14738	  0.204	  0.008	  0.154	 -0.204	  0.303	 -9.461	  0.002	  0.002	 -0.038	 30.000	 99.505	  0.490
14787	  0.204	  0.020	  0.150	  0.442	 -0.107	 -9.519	  0.002	 -0.007	 -0.048	 30.000	 99.505	  0.490
14838	  0.200	  0.016	  0.150	  0.052	  0.222	 -9.491	  0.001	 -0.001	  0.011	 30.000	 99.505	  0.490
14888	  0.205	  0.016	  0.151	  0.030	  0.209	 -9.503	  0.002	 -0.001	  0.011	 30.000	 99.513	 -0.247
14938	  0.201	  0.013	  0.147	  0.012	  0.220	 -9.490	  0.002	 -0.001	  0.011	 30.000	 99.518	 -0.708
14988	  0.202	  0.011	  0.149	  0.050	  0.219	 -9.467	  0.003	 -0.001	  0.012	 30.000	 99.513	 -0.247
15038	  0.202	  0.023	  0.150	 -0.009	  0.214	 -9.486	  0.003	 -0.003	  0.033	 30.000	 99.518	 -0.708
15088	  0.204	  0.013	  0.145	  0.049	  0.158	 -9.467	  0.004	 -0.002	  0.093	 30.000	 99.505	  0.490
15138	  0.204	  0.006	  0.147	  0.011	  0.220	 -9.463	  0.003	 -0.001	  0.013	 30.000	 99.513	 -0.247
15188	  0.204	  0.008	  0.145	  0.038	  0.192	 -9.483	  0.003	 -0.001	  0.010	 30.000	 99.505	  0.490
15238	  0.202	  0.025	  0.144	  0.004	  0.209	 -9.484	  0.004	 -0.001	  0.011	 30.000	 99.513	 -0.247
15288	  0.201	  0.020	  0.151	  0.061	  0.187	 -9.469	  0.004	 -0.001	  0.010	 30.000	 99.501	  0.859
15338	  0.201	  0.012	  0.147	  0.006	  0.200	 -9.486	  0.003	 -0.000	  0.011	 30.000	 99.501	  0.859
15388	  0.205	  0.011	  0.143	  0.062	  0.174	 -9.447	  0.004	 -0.007	  0.012	 30.000	 99.505	  0.490
15438	  0.205	  0.012	  0.147	 -0.124	  0.220	 -9.509	  0.002	 -0.022	  0.067	 30.000	 99.518	 -0.708
15488	  0.202	  0.009	  0.145	 -0.085	  0.189	 -9.501	  0.006	  0.044	  0.113	 30.000	 99.505	  0.490
15538	  0.203	  0.004	  0.145	  0.064	  0.176	 -9.506	  0.003	 -0.005	  0.013	 30.000	 99.513	 -0.247
15588	  0.200	  0.011	  0.145	  0.048	  0.196	 -9.448	  0.002	 -0.001	  0.010	 30.000	 99.513	 -0.247
15638	  0.201	  0.004	  0.150	  0.019	  0.238	 -9.498	  0.003	 -0.001	  0.029	 30.000	 99.518	 -0.708
15688	  0.200	  0.004	  0.138	  0.029	  0.200	 -9.479	  0.003	 -0.005	  0.101	 30.000	 99.513	 -0.247
15738	  0.200	  0.002	  0.147	  0.061	  0.167	 -9.466	  0.003	 -0.001	  0.079	 30.000	 99.513	 -0.247
15788	  0.201	  0.002	  0.147	  0.060	  0.176	 -9.466	  0.002	  0.001	  0.011	 30.000	 99.518	 -0.708
15838	  0.206	  0.013	  0.146	  0.011	  0.201	 -9.512	  0.003	  0.001	  0.010	 30.000	 99.501	  0.859
15888	  0.200	  0.001	  0.143	  0.076	  0.188	 -9.483	  0.002	 -0.002	  0.011	 30.000	 99.513	 -0.247
15938	  0.203	  0.007	  0.153	  0.026	  0.210	 -9.450	  0.003	 -0.001	  0.010	 30.000	 99.513	 -0.247
15988	  0.204	  0.003	  0.145	  0.064	  0.180	 -9.506	  0.003	 -0.001	  0.011	 30.000	 99.518	 -0.708
16037	  0.204	  0.008	  0.147	  0.074	  0.226	 -9.493	  0.003	 -0.007	  0.011	 30.000	 99.513	 -0.247
16088	  0.203	 -0.001	  0.144	  0.034	  0.172	 -9.498	  0.001	 -0.025	  0.010	 30.000	 99.513	 -0.247
16138	  0.203	  0.004	  0.146	 -0.019	  0.195	 -9.533	  0.002	 -0.013	  0.011	 30.000	 99.526	 -1.445
16188	  0.203	 -0.001	  0.146	  0.034	  0.179	 -9.480	  0.002	  0.000	  0.011	 30.000	 99.513	 -0.247
16238	  0.201	  0.014	  0.143	  0.006	  0.194	 -9.512	  0.002	 -0.002	  0.010	 30.000	 99.501	  0.859
16288	  0.203	 -0.003	  0.148	  0.042	  0.177	 -9.494	  0.002	  0.000	  0.009	 30.000	 99.513	 -0.247
16338	  0.203	  0.007	  0.142	  0.022	  0.212	 -9.498	  0.003	 -0.000	  0.012	 30.000	 99.501	  0.859
16388	  0.204	  0.004	  0.147	  0.019	  0.198	 -9.476	  0.002	 -0.001	  0.012	 30.000	 99.513	 -0.247
16438	  0.204	  0.003	  0.145	 -0.029	  0.217	 -9.498	  0.004	 -0.000	  0.011	 30.000	 99.501	  0.859
16488	  0.201	  0.001	  0.142	  0.000	  0.211	 -9.457	  0.002	 -0.001	  0.010	 30.000	 99.505	  0.490
16538	  0.201	  0.011	  0.147	  0.015	  0.236	 -9.463	  0.003	 -0.003	  0.011	 30.000	 99.518	 -0.708
16588	  0.203	  0.005	  0.138	  0.007	  0.177	 -9.502	  0.002	 -0.001	  0.010	 30.000	 99.518	 -0.708
16638	  0.200	  0.005	  0.139	  0.014	  0.188	 -9.484	  0.003	  0.001	  0.010	 30.000	 99.501	  0.859
16688	  0.201	  0.002	  0.145	  0.033	  0.193	 -9.489	  0.003	 -0.001	  0.010	 30.000	 99.505	  0.490
16738	  0.204	  0.002	  0.142	  0.006	  0.215	 -9.487	  0.001	  0.000	  0.010	 30.000	 99.505	  0.490
16787	  0.205	  0.014	  0.145	  0.017	  0.196	 -9.495	  0.003	  0.000	  0.011	 30.000	 99.518	 -0.708
16837	  0.203	  0.001	  0.148	  0.011	  0.225	 -9.503	  0.002	  0.001	  0.011	 30.000	 99.518	 -0.708
16887	  0.200	  0.004	  0.142	  0.119	  0.189	 -9.498	  0.001	 -0.009	  0.010	 30.000	 99.518	 -0.708
16937	  0.199	  0.013	  0.148	 -0.017	  0.198	 -9.465	  0.001	  0.000	  0.011	 30.000	 99.518	 -0.708
16987	  0.199	  0.004	  0.134	  0.384	  0.131	 -9.524	 -0.000	  0.004	 -0.056	 30.000	 99.501	  0.859
17037	  0.199	  0.002	  0.143	 -0.236	  0.276	 -9.483	  0.004	 -0.006	 -0.023	 30.000	 99.513	 -0.247
17087	  0.203	  0.006	  0.147	 -0.103	  0.202	 -9.494	  0.004	  0.021	  0.010	 30.000	 99.505	  0.490
17137	  0.203	  0.002	  0.144	 -0.191	  0.072	 -9.483	  0.001	  0.068	 -0.056	 30.000	 99.518	 -0.708
17187	  0.204	  0.004	  0.142	 -3.182	  0.760	 -9.472	  0.214	 -0.253	  0.581	 30.000	 99.501	  0.859
17237	  0.199	 -0.021	  0.145	  0.143	  0.615	 -9.022	 -0.179	  0.630	  0.608	 30.000	 99.505	  0.490
17287	  0.203	 -0.020	  0.144	  0.414	 -0.267	 -9.427	  0.003	 -0.019	 -0.346	 30.000	 99.505	  0.490
17337	  0.198	 -0.011	  0.146	 -0.187	  0.220	 -9.457	  0.001	  0.013	 -0.259	 30.000	 99.530	 -1.813
17387	  0.199	  0.009	  0.149	  0.379	  0.285	 -9.450	  0.002	 -0.017	 -0.090	 30.000	 99.530	 -1.813
17437	  0.200	 -0.007	  0.146	 -0.299	  0.283	 -9.741	  0.009	  0.015	  0.016	 30.000	 99.518	 -0.708
17487	  0.199	 -0.004	  0.149	 -0.077	  0.161	 -9.491	  0.003	  0.001	 -0.025	 30.000	 99.505	  0.490
17537	  0.199	 -0.006	  0.146	  0.044	  0.180	 -9.506	  0.001	 -0.001	 -0.058	 30.000	 99.518	 -0.708
17587	  0.201	 -0.004	  0.149	  0.097	  0.122	 -9.425	  0.003	  0.002	 -0.109	 30.000	 99.501	  0.859
17637	  0.204	  0.013	  0.138	  0.101	  0.173	 -9.452	  0.002	  0.003	 -0.230	 30.000	 99.513	 -0.247
17687	  0.201	  0.014	  0.138	  0.000	  0.307	 -9.467	  0.000	  0.007	 -0.204	 30.000	 99.513	 -0.247
17737	  0.201	  0.017	  0.143	  0.067	  0.324	 -9.514	  0.003	  0.002	 -0.041	 30.000	 99.518	 -0.708
17787	  0.200	  0.009	  0.147	  0.083	  0.181	 -9.478	  0.002	 -0.019	  0.011	 30.000	 99.513	 -0.247
17837	  0.200	  0.016	  0.146	 -0.208	  0.352	 -9.670	  0.003	 -0.028	 -0.005	 30.000	 99.513	 -0.247
17887	  0.198	  0.023	  0.147	 -0.005	  0.152	 -9.518	  0.003	 -0.002	 -0.027	 30.000	 99.505	  0.490
17937	  0.202	  0.016	  0.145	  0.120	  0.099	 -9.527	  0.005	  0.003	 -0.143	 30.000	 99.513	 -0.247
17987	  0.198	  0.023	  0.147	 -0.000	  0.140	 -9.492	 -0.003	 -0.000	  0.012	 30.000	 99.518	 -0.708
18037	  0.200	  0.024	  0.143	  0.088	  0.201	 -9.503	  0.004	 -0.003	  0.016	 30.000	 99.505	  0.490
18087	  0.198	  0.027	  0.141	  0.301	  0.169	 -9.421	 -0.001	 -0.082	  0.012	 30.000	 99.518	 -0.708
18137	  0.194	  0.013	  0.140	 -0.120	  0.253	 -9.542	  0.008	 -0.025	  0.337	 30.000	 99.518	 -0.708
18187	  0.198	  0.016	  0.143	  0.321	  0.127	 -9.485	  0.008	 -0.016	  0.589	 30.000	 99.518	 -0.708
18237	  0.199	 -0.008	  0.148	  0.188	 -0.062	 -9.546	 -0.000	  0.031	  0.466	 30.000	 99.513	 -0.247
18287	  0.198	 -0.017	  0.137	  0.571	  0.224	 -9.383	  0.008	 -0.024	  0.081	 30.000	 99.518	 -0.708
18337	  0.193	 -0.021	  0.142	 -0.395	 -0.199	 -9.857	  0.027	 -0.058	  0.278	 30.000	 99.513	 -0.247
18387	  0.190	 -0.034	  0.150	  0.367	 -0.189	 -9.651	  0.022	 -0.048	  0.471	 30.000	 99.518	 -0.708
18437	  0.188	 -0.035	  0.159	  0.031	  0.723	 -9.366	 -0.001	 -0.105	  0.161	 30.000	 99.513	 -0.247
18487	  0.184	 -0.048	  0.157	  0.565	  0.214	 -9.506	 -0.007	  0.074	  0.209	 30.000	 99.501	  0.859
18537	  0.179	 -0.060	  0.171	  1.002	 -0.050	 -9.647	 -0.003	  0.011	  0.371	 30.000	 99.501	  0.859
18587	  0.172	 -0.058	  0.175	  0.667	  0.433	 -9.572	  0.009	 -0.064	  0.159	 30.000	 99.505	  0.490
18637	  0.168	 -0.043	  0.182	  0.670	  0.206	 -9.565	  0.244	 -0.060	 -0.058	 30.000	 99.518	 -0.708
18687	  0.158	 -0.053	  0.189	  1.141	 -0.794	 -10.629	  0.440	 -0.078	  0.152	 30.000	 99.518	 -0.708
18737	  0.151	 -0.035	  0.191	  0.952	 -1.254	 -10.916	  0.109	 -0.245	 -0.140	 30.000	 99.501	  0.859
18787	  0.141	 -0.039	  0.200	  0.800	 -1.321	 -10.935	 -0.285	 -0.061	 -0.194	 30.000	 99.518	 -0.708
18837	  0.126	 -0.044	  0.205	  0.410	 -0.672	 -9.937	 -0.685	  0.023	 -0.281	 30.000	 99.501	  0.859
18887	  0.100	 -0.058	  0.218	 -0.164	 -0.805	 -9.414	 -0.806	  0.314	  0.038	 30.000	 99.501	  0.859
18937	  0.082	 -0.074	  0.223	 -0.613	 -0.480	 -8.963	 -0.697	  0.197	  0.156	 30.000	 99.505	  0.490
18987	  0.061	 -0.084	  0.232	 -0.284	  0.487	 -8.171	 -0.061	 -0.198	  0.140	 30.000	 99.505	  0.490
19037	  0.058	 -0.083	  0.232	 -0.145	  0.077	 -8.686	  0.642	 -0.499	  0.150	 30.000	 99.518	 -0.708
19087	  0.058	 -0.069	  0.227	 -1.336	  0.210	 -10.166	  0.638	 -0.541	  0.136	 30.000	 99.505	  0.490
19137	  0.060	 -0.060	  0.225	 -1.068	  0.223	 -10.021	  0.310	 -0.251	  0.340	 30.000	 99.501	  0.859
19187	  0.049	 -0.064	  0.236	 -0.810	  0.247	 -9.670	  0.162	  0.175	  0.395	 30.000	 99.505	  0.490
19237	  0.037	 -0.062	  0.234	 -1.271	  0.156	 -9.166	 -0.047	  0.069	  0.348	 30.000	 99.518	 -0.708
19287	  0.029	 -0.060	  0.238	 -1.035	  0.195	 -9.643	 -0.017	 -0.141	  0.283	 30.000	 99.513	 -0.247
19337	  0.030	 -0.066	  0.233	 -1.348	  0.076	 -10.061	 -0.132	 -0.268	  0.398	 30.000	 99.505	  0.490
19387	  0.026	 -0.087	  0.236	 -0.860	  0.047	 -10.419	 -0.162	 -0.263	  0.703	 30.000	 99.518	 -0.708
19437	  0.019	 -0.112	  0.232	 -0.746	 -0.425	 -10.613	 -0.122	 -0.369	  0.775	 30.000	 99.513	 -0.247
19487	  0.016	 -0.109	  0.232	  0.106	 -0.298	 -9.824	  0.143	 -0.114	  0.878	 30.000	 99.518	 -0.708
19537	  0.005	 -0.138	  0.235	 -1.180	  0.096	 -10.828	  0.165	 -0.043	  0.776	 30.000	 99.505	  0.490
19587	 -0.010	 -0.147	  0.237	 -0.724	 -0.061	 -10.497	 -0.052	  0.142	  1.006	 30.000	 99.518	 -0.708
19637	 -0.027	 -0.157	  0.248	  0.481	  0.169	 -10.453	 -0.024	  0.177	  0.806	 30.000	 99.518	 -0.708
19687	 -0.046	 -0.168	  0.252	 -0.692	 -0.251	 -10.555	 -0.203	  0.388	  0.994	 30.000	 99.505	  0.490
19737	 -0.069	 -0.185	  0.260	  0.549	  0.269	 -10.056	  0.068	  0.529	  0.802	 30.000	 99.505	  0.490
19787	 -0.096	 -0.185	  0.271	 -0.209	 -0.297	 -9.778	 -0.004	  0.093	  1.098	 30.000	 99.493	  1.596
19837	 -0.108	 -0.185	  0.279	  0.481	  0.566	 -8.746	  0.450	 -0.143	  1.240	 30.000	 99.518	 -0.708
19887	 -0.117	 -0.184	  0.284	 -0.233	  0.304	 -9.482	  0.606	 -0.268	  1.218	 30.000	 99.518	 -0.708
19937	 -0.129	 -0.178	  0.294	 -0.435	  1.273	 -8.611	  0.609	  0.162	  1.186	 30.000	 99.493	  1.596
19987	 -0.146	 -0.167	  0.297	 -1.151	  0.468	 -8.834	  0.461	  0.416	  1.157	 30.000	 99.501	  0.859
20037	 -0.173	 -0.152	  0.310	 -0.631	  0.398	 -8.445	 -0.041	  0.488	  1.072	 30.000	 99.505	  0.490
20087	 -0.193	 -0.176	  0.313	 -1.149	  0.677	 -7.833	 -0.213	  0.358	  0.978	 30.000	 99.513	 -0.247
20138	 -0.216	 -0.188	  0.317	 -1.178	  0.811	 -7.500	 -0.035	  0.241	  1.077	 30.000	 99.505	  0.490
20187	 -0.227	 -0.188	  0.319	 -1.159	  0.714	 -7.673	  0.348	 -0.004	  1.067	 30.000	 99.518	 -0.708
20238	 -0.236	 -0.166	  0.321	 -1.110	  0.038	 -7.941	  0.449	 -0.159	  1.238	 30.000	 99.505	  0.490
20287	 -0.239	 -0.171	  0.325	 -1.153	  0.119	 -8.674	  0.563	 -0.194	  0.903	 30.000	 99.505	  0.490
20337	 -0.249	 -0.157	  0.320	 -1.335	  0.181	 -8.508	  0.648	  0.063	  0.868	 30.000	 99.518	 -0.708
20387	 -0.254	 -0.140	  0.328	 -0.766	 -0.297	 -9.149	  0.830	  0.311	  0.855	 30.000	 99.505	  0.490
20438	 -0.272	 -0.118	  0.332	 -0.093	 -1.232	 -9.956	  0.564	  0.339	  0.835	 30.000	 99.505	  0.490
20488	 -0.282	 -0.102	  0.338	  0.145	 -1.580	 -10.047	  0.158	  0.296	  0.713	 30.000	 99.505	  0.490
20538	 -0.295	 -0.113	  0.331	  0.389	 -2.228	 -9.951	 -0.162	  0.319	  0.706	 30.000	 99.513	 -0.247
20588	 -0.312	 -0.115	  0.332	  1.133	 -2.029	 -9.379	 -0.128	  0.521	  0.674	 30.000	 99.505	  0.490
20638	 -0.333	 -0.116	  0.322	  0.978	 -2.219	 -8.959	  0.207	  0.924	  0.612	 30.000	 99.493	  1.596
20688	 -0.368	 -0.094	  0.326	  1.868	 -2.295	 -8.072	  0.813	  1.130	  0.563	 30.000	 99.505	  0.490
20737	 -0.391	 -0.069	  0.319	  1.667	 -3.484	 -8.906	  0.873	  0.604	  0.190	 30.000	 99.505	  0.490
20788	 -0.396	 -0.054	  0.312	  1.578	 -3.587	 -9.351	  0.172	 -0.167	 -0.033	 30.000	 99.493	  1.596
20838	 -0.385	 -0.058	  0.316	  1.134	 -3.571	 -8.655	 -0.175	 -0.476	  0.027	 30.000	 99.505	  0.490
20888	 -0.373	 -0.076	  0.310	  0.405	 -2.977	 -8.531	 -0.422	 -0.423	  0.084	 30.000	 99.505	  0.490
20938	 -0.370	 -0.081	  0.304	  0.368	 -2.948	 -8.599	 -0.495	 -0.267	 -0.010	 30.000	 99.501	  0.859
20988	 -0.362	 -0.091	  0.303	 -0.067	 -2.892	 -8.924	 -0.598	 -0.279	 -0.203	 30.000	 99.505	  0.490
21038	 -0.353	 -0.103	  0.297	 -0.124	 -2.326	 -8.918	 -0.522	 -0.273	 -0.366	 30.000	 99.505	  0.490
21088	 -0.349	 -0.115	  0.286	 -0.326	 -1.892	 -9.287	 -0.299	 -0.304	 -0.491	 30.000	 99.501	  0.859
21138	 -0.338	 -0.120	  0.285	  0.142	 -1.795	 -10.112	 -0.145	 -0.340	 -0.413	 30.000	 99.501	  0.859
21188	 -0.328	 -0.126	  0.276	  0.202	 -1.614	 -11.269	 -0.143	 -0.401	 -0.485	 30.000	 99.505	  0.490
21238	 -0.318	 -0.114	  0.273	  0.631	 -1.491	 -11.247	 -0.271	 -0.359	 -0.604	 30.000	 99.518	 -0.708
21288	 -0.308	 -0.122	  0.265	  0.700	 -0.996	 -11.340	 -0.220	 -0.510	 -0.687	 30.000	 99.505	  0.490
21338	 -0.296	 -0.132	  0.259	  0.884	  0.009	 -10.809	 -0.150	 -0.570	 -0.950	 30.000	 99.518	 -0.708
21388	 -0.283	 -0.129	  0.254	 -0.259	  0.539	 -9.218	  0.033	 -0.357	 -1.166	 30.000	 99.513	 -0.247
21438	 -0.271	 -0.122	  0.241	 -0.849	  0.086	 -8.888	  0.110	 -0.297	 -0.874	 30.000	 99.505	  0.490
21488	 -0.267	 -0.122	  0.248	 -0.856	 -0.029	 -8.639	 -0.191	 -0.097	 -0.422	 30.000	 99.505	  0.490
21538	 -0.271	 -0.122	  0.241	 -0.879	  0.132	 -7.956	 -0.368	  0.253	  0.018	 30.000	 99.505	  0.490
21588	 -0.283	 -0.120	  0.239	  0.443	 -0.080	 -7.817	 -0.298	  0.537	  0.059	 30.000	 99.505	  0.490
21638	 -0.291	 -0.121	  0.233	  1.248	 -0.616	 -9.404	  0.367	  0.195	 -0.329	 30.000	 99.493	  1.596
21688	 -0.292	 -0.121	  0.230	 -0.456	 -0.810	 -10.283	  0.380	 -0.199	 -0.431	 30.000	 99.505	  0.490
21738	 -0.290	 -0.120	  0.229	  0.561	 -0.585	 -11.001	 -0.104	  0.139	 -0.123	 30.000	 99.505	  0.490
21788	 -0.296	 -0.128	  0.227	  1.608	 -0.725	 -10.656	 -0.578	  0.329	 -0.019	 30.000	 99.493	  1.596
21838	 -0.298	 -0.143	  0.212	  1.366	 -0.327	 -9.930	 -0.423	 -0.078	 -0.389	 30.000	 99.518	 -0.708
21888	 -0.296	 -0.143	  0.213	 -0.058	 -0.180	 -8.720	  0.099	 -0.119	 -0.289	 30.000	 99.505	  0.490
21938	 -0.291	 -0.138	  0.216	  1.106	 -0.988	 -9.017	  0.312	 -0.189	 -0.535	 30.000	 99.505	  0.490
21988	 -0.279	 -0.129	  0.212	 -0.004	 -0.954	 -9.229	 -0.169	 -0.331	 -0.761	 30.000	 99.505	  0.490
22038	 -0.272	 -0.148	  0.206	 -0.684	 -0.352	 -8.144	 -0.407	 -0.263	 -0.871	 30.000	 99.518	 -0.708
22088	 -0.262	 -0.149	  0.192	 -0.248	  0.569	 -7.342	  0.022	 -0.074	 -0.816	 30.000	 99.501	  0.859
22138	 -0.255	 -0.139	  0.204	 -0.411	  0.143	 -8.306	  0.591	 -0.126	 -1.037	 30.000	 99.501	  0.859
22188	 -0.243	 -0.123	  0.193	  0.581	 -0.410	 -9.673	  0.509	 -0.249	 -0.961	 30.000	 99.513	 -0.247
22238	 -0.236	 -0.117	  0.195	  0.039	 -0.452	 -10.448	 -0.159	 -0.154	 -1.234	 30.000	 99.505	  0.490
22288	 -0.235	 -0.114	  0.189	 -0.700	  0.842	 -9.798	 -0.314	  0.316	 -1.184	 30.000	 99.505	  0.490
22338	 -0.238	 -0.115	  0.184	  0.158	  1.212	 -9.054	  0.487	  0.524	 -0.824	 30.000	 99.505	  0.490
22388	 -0.249	 -0.092	  0.184	  1.041	  0.132	 -9.973	  1.015	  0.492	 -0.779	 30.000	 99.518	 -0.708
22438	 -0.259	 -0.081	  0.188	  1.220	 -0.877	 -10.913	  0.605	  0.205	 -0.884	 30.000	 99.493	  1.596
22488	 -0.259	 -0.076	  0.181	  0.490	 -1.011	 -10.169	 -0.165	 -0.080	 -1.013	 30.000	 99.501	  0.859
22538	 -0.263	 -0.078	  0.176	 -0.508	 -0.088	 -9.046	 -0.520	 -0.118	 -0.738	 30.000	 99.505	  0.490
22588	 -0.260	 -0.097	  0.167	  0.144	  0.473	 -7.872	 -0.117	 -0.126	 -0.528	 30.000	 99.501	  0.859
22638	 -0.262	 -0.105	  0.163	 -0.687	  0.029	 -8.828	  0.368	 -0.264	 -0.503	 30.000	 99.518	 -0.708
22688	 -0.256	 -0.114	  0.160	 -0.263	 -0.574	 -9.715	  0.350	 -0.203	 -0.304	 30.000	 99.518	 -0.708
22738	 -0.251	 -0.129	  0.159	 -0.059	 -0.972	 -10.192	  0.041	 -0.154	 -0.347	 30.000	 99.518	 -0.708
22788	 -0.248	 -0.149	  0.155	 -0.735	 -0.843	 -9.861	 -0.147	 -0.153	 -0.344	 30.000	 99.505	  0.490
22838	 -0.240	 -0.157	  0.143	  0.206	 -0.944	 -9.874	 -0.105	 -0.227	 -0.167	 30.000	 99.505	  0.490
22888	 -0.234	 -0.185	  0.142	 -0.114	 -0.814	 -10.321	  0.029	 -0.150	 -0.312	 30.000	 99.501	  0.859
22938	 -0.217	 -0.202	  0.143	  0.561	 -1.265	 -10.585	 -0.049	  0.105	 -0.145	 30.000	 99.505	  0.490
22988	 -0.210	 -0.216	  0.142	  1.045	 -1.104	 -10.305	 -0.204	  0.264	 -0.053	 30.000	 99.505	  0.490
23038	 -0.192	 -0.226	  0.145	  1.587	 -1.326	 -9.550	  0.069	 -0.153	 -0.457	 30.000	 99.505	  0.490
23088	 -0.170	 -0.217	  0.144	 -0.062	 -1.114	 -9.347	  0.089	 -0.125	 -0.102	 30.000	 99.493	  1.596
23138	 -0.148	 -0.207	  0.139	  1.893	 -0.985	 -8.840	  0.070	  0.021	 -0.252	 30.000	 99.505	  0.490
23196	 -0.123	 -0.196	  0.152	 -0.068	 -0.839	 -8.454	 -0.225	 -0.183	 -0.461	 30.000	 99.493	  1.596
23237	 -0.102	 -0.188	  0.150	  0.207	 -0.808	 -8.633	 -0.387	 -0.247	 -0.216	 30.000	 99.505	  0.490
23287	 -0.079	 -0.176	  0.150	 -0.321	 -0.885	 -8.362	 -0.418	 -0.188	 -0.306	 30.000	 99.501	  0.859
23337	 -0.067	 -0.164	  0.155	 -0.553	 -0.548	 -9.223	 -0.544	 -0.042	 -0.279	 30.000	 99.518	 -0.708
23387	 -0.055	 -0.147	  0.151	 -0.405	 -0.118	 -9.314	 -0.504	 -0.009	 -0.352	 30.000	 99.518	 -0.708
23437	 -0.049	 -0.135	  0.166	 -0.379	 -0.189	 -9.857	 -0.328	 -0.183	 -0.405	 30.000	 99.501	  0.859
23487	 -0.040	 -0.114	  0.164	  0.944	 -0.028	 -10.809	 -0.015	 -0.335	 -0.526	 30.000	 99.505	  0.490
23537	 -0.035	 -0.097	  0.175	  0.106	  0.913	 -10.068	 -0.173	 -0.378	 -0.668	 30.000	 99.493	  1.596
23587	 -0.032	 -0.065	  0.173	 -0.246	  0.676	 -10.323	  0.120	 -0.131	 -0.921	 30.000	 99.518	 -0.708
23637	 -0.032	 -0.042	  0.179	  0.110	  1.350	 -10.007	  0.352	 -0.081	 -0.727	 30.000	 99.513	 -0.247
23687	 -0.039	 -0.019	  0.185	  0.928	  1.164	 -10.191	  0.261	  0.067	 -0.900	 30.000	 99.505	  0.490
23737	 -0.049	  0.016	  0.203	  1.297	  0.098	 -9.602	 -0.064	  0.061	 -0.895	 30.000	 99.505	  0.490
23787	 -0.052	  0.036	  0.204	 -0.452	  0.902	 -7.989	  0.201	 -0.309	 -0.878	 30.000	 99.518	 -0.708
23837	 -0.051	  0.040	  0.198	 -0.956	 -0.143	 -7.715	  0.274	 -0.408	 -0.563	 30.000	 99.505	  0.490
23887	 -0.052	  0.052	  0.202	 -1.821	 -0.839	 -8.138	  0.281	 -0.147	 -0.456	 30.000	 99.505	  0.490
23937	 -0.063	  0.068	  0.207	 -1.657	 -1.095	 -8.579	  0.459	  0.444	 -0.076	 30.000	 99.505	  0.490
23987	 -0.076	  0.081	  0.221	  0.105	 -0.780	 -9.127	  0.351	  0.422	  0.225	 30.000	 99.493	  1.596
24037	 -0.087	  0.079	  0.222	  0.357	 -0.716	 -9.646	  0.449	 -0.006	  0.270	 30.000	 99.513	 -0.247
24087	 -0.087	  0.092	  0.223	 -0.889	 -1.519	 -10.357	  0.690	  0.099	  0.147	 30.000	 99.513	 -0.247
24137	 -0.096	  0.115	  0.231	  1.192	 -2.103	 -10.507	  0.563	  0.525	 -0.268	 30.000	 99.513	 -0.247
24187	 -0.114	  0.134	  0.245	  0.439	 -1.978	 -10.706	  0.112	  0.831	  0.033	 30.000	 99.505	  0.490
24237	 -0.131	  0.120	  0.257	  1.792	 -2.487	 -10.804	 -0.343	  0.394	 -0.180	 30.000	 99.518	 -0.708
24287	 -0.132	  0.110	  0.259	  0.888	 -0.949	 -9.972	 -0.579	 -0.262	 -0.104	 30.000	 99.505	  0.490
24337	 -0.122	  0.102	  0.268	  0.056	 -0.299	 -8.938	 -0.543	 -0.136	  0.011	 30.000	 99.505	  0.490
24387	 -0.123	  0.080	  0.277	  0.925	 -0.750	 -8.608	 -0.624	  0.107	  0.268	 30.000	 99.505	  0.490
24437	 -0.118	  0.064	  0.276	  0.085	 -0.653	 -7.777	 -0.409	 -0.175	  0.070	 30.000	 99.518	 -0.708
24487	 -0.109	  0.060	  0.280	 -0.278	 -0.881	 -7.687	  0.008	 -0.370	 -0.255	 30.000	 99.513	 -0.247
24537	 -0.098	  0.071	  0.275	 -0.466	 -0.446	 -8.676	  0.001	 -0.203	 -0.504	 30.000	 99.505	  0.490
24587	 -0.095	  0.077	  0.275	 -0.750	 -0.864	 -9.839	 -0.137	 -0.242	 -0.445	 30.000	 99.518	 -0.708
24637	 -0.082	  0.084	  0.274	 -1.267	 -0.969	 -9.796	 -0.036	 -0.277	 -0.430	 30.000	 99.505	  0.490
24687	 -0.077	  0.076	  0.269	 -0.979	 -1.340	 -10.754	 -0.243	 -0.233	 -0.336	 30.000	 99.501	  0.859
24737	 -0.071	  0.062	  0.272	  0.316	 -0.056	 -10.678	 -0.423	 -0.099	 -0.292	 30.000	 99.493	  1.596
24787	 -0.069	  0.058	  0.254	  0.032	  0.245	 -11.308	 -0.127	 -0.022	 -0.629	 30.000	 99.505	  0.490
24837	 -0.065	  0.062	  0.262	  0.245	  1.520	 -10.165	  0.088	 -0.112	 -0.808	 30.000	 99.505	  0.490
24887	 -0.066	  0.081	  0.251	  0.694	  1.302	 -9.831	  0.596	 -0.272	 -0.856	 30.000	 99.518	 -0.708
24937	 -0.064	  0.094	  0.244	 -0.013	  0.886	 -10.295	  0.174	 -0.239	 -0.937	 30.000	 99.505	  0.490
24987	 -0.067	  0.115	  0.239	 -0.406	  0.403	 -8.328	  0.126	 -0.172	 -0.738	 30.000	 99.505	  0.490
25037	 -0.069	  0.113	  0.236	 -0.461	 -0.146	 -8.077	  0.187	 -0.056	 -0.658	 30.000	 99.505	  0.490
25087	 -0.075	  0.128	  0.228	 -1.021	 -0.332	 -7.333	  0.298	 -0.027	 -0.653	 30.000	 99.505	  0.490
25137	 -0.087	  0.126	  0.225	 -1.378	 -0.229	 -8.672	  0.205	  0.192	 -0.478	 30.000	 99.518	 -0.708
25187	 -0.098	  0.124	  0.226	 -0.328	 -0.709	 -8.743	  0.189	  0.139	 -0.318	 30.000	 99.505	  0.490
25237	 -0.105	  0.129	  0.216	 -0.834	 -1.249	 -9.874	  0.264	 -0.098	 -0.261	 30.000	 99.505	  0.490
25287	 -0.114	  0.130	  0.216	 -0.148	 -1.212	 -10.169	  0.242	 -0.002	 -0.331	 30.000	 99.505	  0.490
25337	 -0.125	  0.138	  0.219	 -0.761	 -0.992	 -10.424	  0.303	  0.471	 -0.329	 30.000	 99.505	  0.490
25387	 -0.145	  0.135	  0.225	  1.298	 -1.111	 -10.418	  0.162	  0.595	  0.052	 30.000	 99.505	  0.490
25437	 -0.164	  0.139	  0.227	  1.493	 -0.963	 -10.662	  0.216	  0.135	 -0.355	 30.000	 99.493	  1.596
25487	 -0.176	  0.151	  0.226	  0.474	 -0.727	 -10.598	  0.059	  0.072	 -0.305	 30.000	 99.518	 -0.708
25537	 -0.184	  0.156	  0.235	  1.199	 -0.773	 -10.013	 -0.175	 -0.007	 -0.336	 30.000	 99.505	  0.490
25587	 -0.189	  0.148	  0.237	  1.027	 -0.556	 -8.903	 -0.376	 -0.265	 -0.736	 30.000	 99.493	  1.596
25637	 -0.192	  0.148	  0.242	 -0.559	  0.069	 -8.065	 -0.416	 -0.410	 -0.832	 30.000	 99.493	  1.596
25687	 -0.193	  0.144	  0.248	  0.095	  0.150	 -7.431	 -0.075	 -0.265	 -0.851	 30.000	 99.505	  0.490
25737	 -0.203	  0.163	  0.243	 -0.441	 -0.172	 -8.096	  0.274	 -0.236	 -0.920	 30.000	 99.518	 -0.708
25787	 -0.206	  0.173	  0.244	 -0.189	 -0.696	 -8.862	  0.179	 -0.347	 -0.979	 30.000	 99.518	 -0.708
25837	 -0.212	  0.182	  0.246	 -0.446	 -0.769	 -9.167	 -0.047	 -0.401	 -1.039	 30.000	 99.505	  0.490
25887	 -0.215	  0.183	  0.236	 -0.506	 -0.511	 -9.788	 -0.187	 -0.212	 -0.920	 30.000	 99.505	  0.490
25937	 -0.224	  0.187	  0.245	 -0.292	 -0.576	 -10.519	 -0.208	 -0.035	 -0.967	 30.000	 99.493	  1.596
25988	 -0.233	  0.187	  0.252	 -0.174	  0.223	 -11.248	 -0.207	  0.113	 -0.810	 30.000	 99.505	  0.490
26037	 -0.249	  0.184	  0.259	  0.220	  0.111	 -10.850	 -0.080	  0.066	 -0.751	 30.000	 99.505	  0.490
26088	 -0.257	  0.191	  0.264	  0.065	  0.414	 -10.160	  0.012	 -0.139	 -0.774	 30.000	 99.505	  0.490
26137	 -0.259	  0.197	  0.263	 -0.186	  0.235	 -8.988	 -0.080	 -0.435	 -0.627	 30.000	 99.493	  1.596
26188	 -0.255	  0.197	  0.262	  0.214	  0.272	 -8.400	 -0.130	 -0.531	 -0.561	 30.000	 99.501	  0.859
26238	 -0.256	  0.193	  0.263	 -0.283	  0.130	 -9.002	 -0.051	  0.102	 -0.593	 30.000	 99.505	  0.490
26288	 -0.271	  0.198	  0.265	 -0.192	  0.087	 -9.170	 -0.108	  0.013	 -0.482	 30.000	 99.505	  0.490
26338	 -0.269	  0.201	  0.272	 -0.331	  0.051	 -9.384	 -0.174	 -0.477	 -0.451	 30.000	 99.505	  0.490
26388	 -0.266	  0.191	  0.273	 -1.756	  0.130	 -9.556	 -0.165	 -0.168	 -0.107	 30.000	 99.505	  0.490
26438	 -0.268	  0.194	  0.271	 -0.699	  0.216	 -9.638	 -0.038	  0.216	  0.421	 30.000	 99.493	  1.596
26488	 -0.272	  0.201	  0.274	  0.578	 -0.230	 -10.135	  0.142	  0.114	  0.392	 30.000	 99.501	  0.859
26538	 -0.277	  0.203	  0.273	 -0.680	 -0.680	 -10.807	  0.171	  0.190	  0.147	 30.000	 99.493	  1.596
26588	 -0.286	  0.204	  0.274	  0.486	 -1.267	 -10.788	 -0.054	  0.642	  0.649	 30.100	 99.510	  0.029
26638	 -0.294	  0.216	  0.276	  1.482	 -1.267	 -10.340	 -0.156	  0.182	  0.150	 30.000	 99.505	  0.490
26688	 -0.296	  0.208	  0.291	  1.050	 -0.996	 -9.764	 -0.178	  0.042	  0.175	 30.000	 99.505	  0.490
26738	 -0.295	  0.216	  0.284	  0.510	 -0.944	 -8.896	  0.051	  0.142	  0.200	 30.000	 99.505	  0.490
26788	 -0.295	  0.221	  0.289	  0.813	 -1.157	 -8.265	  0.089	 -0.101	  0.232	 30.100	 99.510	  0.029
26838	 -0.284	  0.230	  0.285	  0.174	 -1.042	 -7.966	 -0.098	 -0.519	 -0.101	 30.000	 99.505	  0.490
26888	 -0.272	  0.222	  0.294	 -0.589	 -0.679	 -8.065	 -0.033	 -0.143	 -0.165	 30.000	 99.493	  1.596
26938	 -0.277	  0.234	  0.296	 -0.208	 -0.711	 -8.210	  0.227	  0.301	 -0.102	 30.000	 99.505	  0.490
26988	 -0.281	  0.242	  0.295	  0.382	 -0.984	 -8.865	  0.228	  0.003	 -0.360	 30.000	 99.505	  0.490
27038	 -0.280	  0.245	  0.283	 -0.218	 -1.136	 -9.272	 -0.044	 -0.442	 -0.406	 30.000	 99.505	  0.490
27088	 -0.271	  0.241	  0.291	 -0.226	 -0.833	 -9.283	 -0.239	 -0.020	 -0.067	 30.000	 99.505	  0.490
27138	 -0.271	  0.237	  0.289	  0.539	 -0.854	 -9.565	  0.220	  0.195	 -0.262	 30.000	 99.493	  1.596
27188	 -0.274	  0.264	  0.288	  0.290	 -0.417	 -10.859	  0.277	 -0.011	  0.056	 30.000	 99.505	  0.490
27238	 -0.269	  0.251	  0.284	  1.603	 -1.138	 -11.308	  0.147	 -0.123	 -0.265	 30.000	 99.510	  0.029
27288	 -0.276	  0.265	  0.281	  0.856	 -1.181	 -11.507	  0.003	  0.402	 -0.545	 30.000	 99.505	  0.490
27338	 -0.293	  0.251	  0.278	  0.372	 -1.338	 -10.844	 -0.001	  0.408	 -0.211	 30.000	 99.518	 -0.708
27388	 -0.290	  0.255	  0.273	  0.928	 -1.547	 -9.793	 -0.325	 -0.425	 -0.254	 30.000	 99.505	  0.490
27438	 -0.281	  0.241	  0.284	 -0.845	 -1.336	 -9.007	 -0.453	 -0.463	 -0.085	 30.000	 99.518	 -0.708
27487	 -0.279	  0.226	  0.282	 -0.686	 -0.749	 -8.144	 -0.212	 -0.028	  0.133	 30.000	 99.493	  1.596
27537	 -0.278	  0.226	  0.280	  0.017	 -0.960	 -7.971	  0.395	 -0.194	  0.123	 30.000	 99.505	  0.490
27587	 -0.271	  0.245	  0.271	 -0.885	 -1.763	 -8.966	  0.549	 -0.287	  0.082	 30.000	 99.505	  0.490
27637	 -0.266	  0.263	  0.269	 -0.634	 -2.334	 -9.342	  0.129	 -0.080	  0.279	 30.000	 99.493	  1.596
27687	 -0.265	  0.246	  0.270	 -0.600	 -2.049	 -9.251	 -0.180	  0.237	  0.281	 30.000	 99.505	  0.490
27737	 -0.270	  0.236	  0.271	  0.181	 -1.591	 -8.814	 -0.249	  0.110	  0.322	 30.100	 99.518	 -0.708
27787	 -0.271	  0.238	  0.270	 -0.944	 -1.326	 -9.311	  0.183	  0.185	  0.024	 30.000	 99.505	  0.490
27837	 -0.279	  0.240	  0.261	 -0.166	 -1.689	 -10.405	  0.401	  0.554	  0.277	 30.000	 99.505	  0.490
27887	 -0.290	  0.252	  0.266	  1.276	 -1.827	 -10.369	  0.383	  0.445	  0.678	 30.000	 99.505	  0.490
27937	 -0.287	  0.260	  0.273	  2.107	 -2.753	 -10.573	  0.063	  0.047	  0.319	 30.000	 99.505	  0.490
27987	 -0.284	  0.244	  0.278	  0.696	 -2.369	 -9.724	 -0.489	 -0.192	  0.005	 30.000	 99.505	  0.490
28037	 -0.280	  0.230	  0.292	 -0.029	 -1.401	 -8.180	 -0.592	  0.084	  0.309	 30.000	 99.505	  0.490
28088	 -0.278	  0.215	  0.304	  0.382	 -0.867	 -7.296	 -0.158	  0.014	 -0.002	 30.000	 99.505	  0.490
28137	 -0.274	  0.221	  0.312	  0.197	 -0.861	 -7.813	  0.358	 -0.170	 -0.216	 30.000	 99.510	  0.029
28187	 -0.277	  0.227	  0.318	  0.252	 -1.333	 -9.318	  0.366	 -0.348	 -0.365	 30.000	 99.505	  0.490
28237	 -0.273	  0.235	  0.327	  0.400	 -1.418	 -9.807	  0.113	 -0.300	 -0.575	 30.000	 99.518	 -0.708
28287	 -0.278	  0.245	  0.338	 -0.212	 -0.918	 -10.166	  0.122	 -0.075	 -0.782	 30.000	 99.505	  0.490
28338	 -0.278	  0.229	  0.350	 -0.569	 -0.677	 -11.224	  0.361	 -0.105	 -0.965	 30.000	 99.505	  0.490
28388	 -0.281	  0.242	  0.373	  0.607	 -0.937	 -11.332	  0.023	 -0.326	 -0.544	 30.000	 99.493	  1.596
28438	 -0.260	  0.227	  0.390	 -0.305	 -0.337	 -10.039	 -0.514	 -0.641	 -1.309	 30.000	 99.505	  0.490
28488	 -0.243	  0.215	  0.406	 -0.739	  0.760	 -8.434	 -0.197	 -0.454	 -1.246	 30.000	 99.518	 -0.708
28538	 -0.232	  0.222	  0.425	 -0.797	  0.826	 -8.692	  0.460	 -0.142	 -1.139	 30.000	 99.518	 -0.708
28588	 -0.208	  0.246	  0.449	 -0.166	  0.068	 -8.927	  0.498	 -0.271	 -0.957	 30.000	 99.505	  0.490
28638	 -0.181	  0.261	  0.460	 -0.569	 -1.060	 -9.118	  0.084	 -0.646	 -0.917	 30.000	 99.505	  0.490
28688	 -0.135	  0.269	  0.483	 -0.691	 -0.691	 -8.626	 -0.217	 -0.420	 -0.858	 30.000	 99.505	  0.490
28738	 -0.094	  0.272	  0.507	 -1.007	 -0.919	 -8.700	 -0.400	 -0.366	 -0.581	 30.000	 99.493	  1.596
28788	 -0.044	  0.275	  0.530	  0.049	  0.451	 -7.566	 -0.202	 -0.558	 -0.578	 30.000	 99.493	  1.596
28838	  0.003	  0.297	  0.545	 -1.147	  0.789	 -7.919	  0.247	 -0.450	 -0.807	 30.000	 99.493	  1.596
28888	  0.035	  0.332	  0.570	 -0.369	  0.183	 -9.183	  0.594	  0.091	  0.006	 30.000	 99.505	  0.490
28938	  0.056	  0.362	  0.595	 -0.128	 -0.494	 -9.457	  0.362	  0.139	 -0.099	 30.000	 99.505	  0.490
28988	  0.054	  0.376	  0.619	  0.272	 -0.620	 -9.885	  0.164	  0.496	 -0.012	 30.000	 99.505	  0.490
29038	  0.038	  0.386	  0.640	  0.157	 -1.246	 -9.968	 -0.145	  0.557	 -0.298	 30.000	 99.493	  1.596
29088	  0.010	  0.385	  0.667	 -0.118	 -1.250	 -10.051	 -0.640	  0.671	 -0.463	 30.000	 99.501	  0.859
29138	 -0.027	  0.363	  0.700	  0.345	 -0.244	 -9.645	 -0.785	  0.734	 -0.258	 30.000	 99.493	  1.596
29188	 -0.060	  0.343	  0.725	  0.670	 -0.467	 -9.477	 -0.490	  0.507	 -0.312	 30.000	 99.505	  0.490
29238	 -0.084	  0.338	  0.742	  0.809	 -0.387	 -9.638	 -0.076	  0.283	 -0.285	 30.000	 99.505	  0.490
29288	 -0.091	  0.348	  0.752	  1.190	 -0.625	 -9.705	  0.207	  0.107	 -0.337	 30.000	 99.518	 -0.708
29338	 -0.098	  0.370	  0.758	  0.688	 -1.640	 -9.546	 -0.045	 -0.097	 -0.314	 30.000	 99.505	  0.490
29388	 -0.090	  0.356	  0.772	  0.069	 -1.632	 -10.114	 -0.377	 -0.161	 -0.235	 30.000	 99.518	 -0.708
29438	 -0.105	  0.343	  0.799	 -0.810	 -2.274	 -11.118	 -0.582	  0.721	 -0.550	 30.000	 99.505	  0.490
29488	 -0.146	  0.311	  0.821	  0.555	 -0.793	 -9.353	 -0.872	  0.723	 -0.303	 30.000	 99.501	  0.859
29538	 -0.172	  0.287	  0.836	  0.372	 -0.065	 -9.341	 -0.295	  0.398	 -0.221	 30.000	 99.505	  0.490
29588	 -0.188	  0.290	  0.847	  1.502	  0.147	 -8.516	  0.117	  0.342	  0.084	 30.000	 99.505	  0.490
29638	 -0.178	  0.320	  0.848	  2.262	  0.476	 -8.605	  0.675	 -0.216	 -0.134	 30.000	 99.505	  0.490
29688	 -0.144	  0.367	  0.847	  1.191	 -0.868	 -8.931	  0.838	 -1.009	 -0.340	 30.000	 99.493	  1.596
29738	 -0.071	  0.432	  0.830	  0.793	 -1.751	 -10.807	  0.830	 -1.035	  0.066	 30.000	 99.505	  0.490
29788	 -0.013	  0.490	  0.815	  0.398	 -2.257	 -10.244	  0.658	 -0.714	 -0.267	 30.000	 99.493	  1.596
29837	  0.013	  0.521	  0.809	 -0.117	 -2.217	 -9.516	  0.238	 -0.384	 -0.231	 30.000	 99.505	  0.490
29888	  0.028	  0.526	  0.802	 -0.449	 -2.066	 -9.646	 -0.072	  0.108	 -0.140	 30.000	 99.505	  0.490
29937	  0.017	  0.536	  0.822	  0.048	 -1.201	 -9.071	 -0.169	  0.444	 -0.062	 30.000	 99.518	 -0.708
29987	  0.000	  0.534	  0.824	  0.964	 -1.957	 -9.864	 -0.132	  0.152	 -0.316	 30.000	 99.505	  0.490
30037	  0.004	  0.529	  0.843	 -0.153	 -1.545	 -9.549	 -0.252	 -0.236	 -0.297	 30.000	 99.518	 -0.708
30087	  0.017	  0.538	  0.846	 -0.654	 -0.820	 -9.610	  0.005	 -0.040	 -0.092	 30.000	 99.518	 -0.708
30137	  0.017	  0.532	  0.842	  0.170	 -1.045	 -9.238	  0.135	 -0.058	  0.028	 30.000	 99.493	  1.596
30187	  0.022	  0.546	  0.848	  0.346	 -1.984	 -9.800	 -0.026	 -0.024	  0.026	 30.000	 99.505	  0.490
30237	  0.027	  0.531	  0.858	  0.310	 -1.699	 -9.399	 -0.353	 -0.110	 -0.040	 30.000	 99.505	  0.490
30287	  0.021	  0.512	  0.863	 -0.191	 -0.868	 -9.699	 -0.381	  0.119	 -0.132	 30.000	 99.505	  0.490
30337	  0.015	  0.489	  0.874	 -0.091	 -0.499	 -9.185	 -0.414	  0.056	  0.025	 30.000	 99.505	  0.490
30387	  0.024	  0.472	  0.880	 -0.043	 -0.467	 -9.013	 -0.384	 -0.255	  0.188	 30.000	 99.505	  0.490
30437	  0.055	  0.437	  0.886	 -0.194	 -0.286	 -9.064	 -0.396	 -0.556	  0.385	 30.000	 99.518	 -0.708
30487	  0.086	  0.404	  0.895	 -1.409	 -0.532	 -11.048	 -0.475	  0.025	  0.517	 30.000	 99.505	  0.490
30537	  0.063	  0.368	  0.902	  0.498	 -0.508	 -9.320	 -0.316	  0.665	  0.252	 30.000	 99.505	  0.490
30587	  0.043	  0.351	  0.914	  0.221	 -0.643	 -8.893	 -0.394	  0.031	 -0.403	 30.000	 99.518	 -0.708
30637	  0.046	  0.348	  0.909	 -1.154	  0.926	 -9.520	 -0.066	 -0.267	  0.041	 30.000	 99.518	 -0.708
30687	  0.063	  0.358	  0.914	 -0.401	  0.486	 -9.601	  0.172	 -0.197	  0.019	 30.000	 99.518	 -0.708
30737	  0.074	  0.361	  0.910	 -0.675	 -0.195	 -10.096	 -0.023	 -0.026	  0.169	 30.000	 99.505	  0.490
30787	  0.079	  0.347	  0.913	 -0.080	  0.738	 -9.210	 -0.127	 -0.135	  0.259	 30.000	 99.518	 -0.708
30837	  0.087	  0.329	  0.919	 -0.155	 -0.320	 -9.613	 -0.023	  0.045	 -0.060	 30.000	 99.505	  0.490
30887	  0.085	  0.334	  0.926	  0.119	 -0.134	 -9.140	  0.003	  0.205	 -0.221	 30.000	 99.505	  0.490
30937	  0.072	  0.348	  0.933	 -0.374	  0.566	 -8.305	  0.247	  0.559	 -0.293	 30.000	 99.505	  0.490
30987	  0.040	  0.367	  0.966	 -0.725	  1.883	 -4.944	 -0.236	  0.517	 -0.067	 30.000	 99.505	  0.490
31037	  0.025	  0.358	  0.967	  2.949	  0.614	 -8.042	 -0.130	  0.128	  0.163	 30.000	 99.518	 -0.708
31087	  0.026	  0.360	  0.966	  1.158	 -0.235	 -9.335	 -0.091	 -0.188	  0.005	 30.000	 99.501	  0.859
31137	  0.051	  0.364	  0.976	  0.397	  0.260	 -9.504	 -0.117	 -0.449	  0.005	 30.000	 99.505	  0.490
31188	  0.083	  0.352	  0.974	 -0.040	 -0.499	 -9.883	  0.109	 -0.373	  0.011	 30.000	 99.505	  0.490
31237	  0.115	  0.357	  0.979	 -5.140	  1.217	 -10.268	  0.168	 -0.376	  0.019	 30.000	 99.505	  0.490
31287	  0.108	  0.355	  0.972	  3.409	  1.122	 -8.066	 -0.050	  0.091	  0.008	 30.000	 99.518	 -0.708
31337	  0.110	  0.361	  0.968	  0.927	  0.099	 -9.565	  0.001	 -0.094	  0.011	 30.000	 99.505	  0.490
31387	  0.115	  0.352	  0.973	 -0.868	  0.194	 -9.605	  0.003	 -0.007	  0.012	 30.000	 99.505	  0.490
31437	  0.115	  0.356	  0.969	 -0.272	  0.130	 -9.571	  0.004	 -0.006	  0.011	 30.000	 99.505	  0.490
31487	  0.111	  0.356	  0.979	 -0.063	  0.128	 -9.497	  0.001	 -0.001	  0.011	 30.000	 99.505	  0.490
31537	  0.111	  0.354	  0.977	 -0.079	  0.194	 -9.520	  0.003	  0.000	  0.011	 30.000	 99.505	  0.490
31587	  0.111	  0.360	  0.973	  0.007	  0.155	 -9.487	  0.003	 -0.001	  0.011	 30.000	 99.505	  0.490
31637	  0.112	  0.359	  0.976	 -0.053	  0.179	 -9.506	  0.001	 -0.001	  0.011	 30.000	 99.505	  0.490
31687	  0.111	  0.363	  0.974	  0.035	  0.178	 -9.513	  0.003	  0.000	  0.011	 30.000	 99.501	  0.859
31737	  0.114	  0.360	  0.972	 -0.081	  0.225	 -9.511	  0.004	 -0.001	  0.011	 30.000	 99.505	  0.490
31787	  0.112	  0.361	  0.977	  0.009	  0.143	 -9.514	  0.002	 -0.001	  0.010	 30.000	 99.493	  1.596
31838	  0.114	  0.355	  0.975	 -0.066	  0.192	 -9.504	  0.002	  0.001	  0.011	 30.000	 99.505	  0.490
31887	  0.111	  0.355	  0.972	  0.026	  0.136	 -9.468	  0.003	  0.000	  0.011	 30.000	 99.518	 -0.708
31938	  0.114	  0.368	  0.970	 -0.076	  0.167	 -9.481	  0.002	 -0.001	  0.011	 30.000	 99.505	  0.490
31988	  0.112	  0.375	  0.977	 -0.019	  0.144	 -9.453	  0.003	 -0.000	  0.010	 30.000	 99.505	  0.490
32038	  0.112	  0.370	  0.976	 -0.046	  0.180	 -9.479	  0.002	 -0.000	  0.010	 30.000	 99.505	  0.490
32088	  0.111	  0.354	  0.975	  0.027	  0.149	 -9.514	  0.004	 -0.002	  0.011	 30.000	 99.518	 -0.708
32138	  0.110	  0.357	  0.973	 -0.060	  0.194	 -9.479	  0.003	  0.000	  0.011	 30.000	 99.505	  0.490
32188	  0.109	  0.359	  0.978	  0.019	  0.169	 -9.480	  0.003	 -0.001	  0.010	 30.000	 99.505	  0.490
32238	  0.112	  0.359	  0.973	 -0.009	  0.195	 -9.443	  0.005	 -0.000	  0.009	 30.000	 99.505	  0.490
32288	  0.115	  0.361	  0.979	  0.050	  0.169	 -9.457	  0.002	  0.000	  0.011	 30.000	 99.505	  0.490
32338	  0.114	  0.361	  0.977	 -0.044	  0.207	 -9.519	  0.001	 -0.002	  0.010	 30.100	 99.510	  0.029
32388	  0.116	  0.360	  0.976	  0.019	  0.169	 -9.486	  0.005	  0.002	  0.010	 30.000	 99.505	  0.490
32438	  0.114	  0.360	  0.976	  0.027	  0.269	 -9.492	  0.000	 -0.000	  0.009	 30.000	 99.518	 -0.708
32488	  0.113	  0.354	  0.972	  0.017	  0.174	 -9.479	  0.003	  0.002	  0.011	 30.000	 99.505	  0.490
32538	  0.114	  0.359	  0.977	 -0.061	  0.188	 -9.462	 -0.003	 -0.010	  0.011	 30.000	 99.518	 -0.708
32588	  0.116	  0.357	  0.969	  0.540	 -0.267	 -9.727	 -0.035	 -0.058	  0.010	 30.000	 99.518	 -0.708
32638	  0.125	  0.357	  0.976	 -1.142	  1.215	 -7.453	  0.060	 -0.263	  0.006	 30.000	 99.505	  0.490
32688	  0.142	  0.370	  0.977	 -0.818	 -1.362	 -10.189	  0.008	 -0.055	  0.129	 30.000	 99.505	  0.490
32738	  0.133	  0.361	  0.979	 -0.336	  0.485	 -9.197	 -0.011	  0.162	  0.081	 30.000	 99.505	  0.490
32788	  0.122	  0.360	  0.979	  0.519	  0.213	 -9.399	 -0.030	  0.079	  0.009	 30.000	 99.505	  0.490
32838	  0.126	  0.359	  0.979	 -0.629	  0.135	 -9.490	 -0.006	 -0.145	  0.350	 30.000	 99.505	  0.490
32888	  0.141	  0.356	  0.969	  1.214	  0.061	 -9.743	  0.069	 -0.091	  0.176	 30.000	 99.505	  0.490
32938	  0.147	  0.352	  0.968	 -0.306	 -0.425	 -9.586	 -0.001	 -0.008	  0.055	 30.000	 99.505	  0.490
32988	  0.139	  0.355	  0.970	 -0.057	  0.109	 -9.348	 -0.092	  0.123	  0.124	 30.000	 99.518	 -0.708
33038	  0.147	  0.365	  0.973	 -0.505	 -0.176	 -9.379	 -0.020	 -0.108	  0.428	 30.000	 99.493	  1.596
33088	  0.155	  0.355	  0.975	  0.212	  1.724	 -9.397	 -0.037	 -0.044	  0.216	 30.000	 99.505	  0.490
