Time	 MagX	 MagY	 MagZ	 AccelX	 AccelY	 AccelZ	 Yaw	 Pitch	 Roll	 Temperature	 Pressure	 Altitude
13264	 -0.334	 -0.098	  0.129	  0.094	  0.040	 -9.895	 -0.002	  0.001	  0.000	 34.500	 99.435	 -99999.000
13314	 -0.334	 -0.091	  0.130	  0.115	  0.025	 -9.887	 -0.003	  0.002	 -0.000	 34.500	 99.424	 -99999.000
13364	 -0.335	 -0.100	  0.129	  0.102	  0.020	 -9.865	 -0.002	  0.001	  0.001	 34.500	 99.424	 -99999.000
13414	 -0.338	 -0.097	  0.128	  0.105	  0.056	 -9.883	 -0.002	  0.002	 -0.001	 34.500	 99.424	 -99999.000
13464	 -0.337	 -0.098	  0.122	  0.116	  0.038	 -9.897	 -0.002	  0.001	  0.000	 34.500	 99.424	 -99999.000
13514	 -0.335	 -0.098	  0.121	  0.100	  0.028	 -9.883	 -0.003	 -0.000	  0.001	 34.500	 99.424	 -99999.000
13564	 -0.334	 -0.098	  0.122	  0.085	  0.033	 -9.865	 -0.002	  0.001	  0.001	 34.500	 99.435	 -99999.000
13614	 -0.337	 -0.099	  0.126	  0.113	  0.025	 -9.863	 -0.001	  0.002	 -0.000	 34.500	 99.424	 -99999.000
13664	 -0.337	 -0.095	  0.127	  0.118	  0.036	 -9.893	 -0.003	  0.002	 -0.001	 34.500	 99.435	 -99999.000
13714	 -0.334	 -0.097	  0.121	  0.100	  0.032	 -9.874	 -0.001	  0.001	  0.001	 34.500	 99.435	 -99999.000
13764	 -0.337	 -0.097	  0.125	  0.129	  0.023	 -9.851	 -0.002	  0.002	  0.002	 34.500	 99.424	 -99999.000
13814	 -0.336	 -0.097	  0.127	  0.110	  0.042	 -9.854	 -0.003	  0.001	  0.000	 34.500	 99.424	 -99999.000
13864	 -0.336	 -0.101	  0.121	  0.078	  0.056	 -9.883	 -0.001	  0.001	 -0.001	 34.500	 99.424	 -99999.000
13914	 -0.336	 -0.103	  0.124	  0.107	  0.028	 -9.895	 -0.003	  0.001	  0.001	 34.500	 99.424	 -99999.000
13964	 -0.337	 -0.093	  0.125	  0.085	  0.043	 -9.851	 -0.001	  0.000	  0.000	 34.600	 99.439	 -99999.000
14014	 -0.336	 -0.098	  0.126	  0.087	  0.030	 -9.870	 -0.003	  0.001	  0.001	 34.500	 99.424	 -99999.000
14064	 -0.338	 -0.095	  0.126	  0.107	  0.013	 -9.874	 -0.004	  0.001	  0.000	 34.500	 99.435	 -99999.000
14114	 -0.333	 -0.099	  0.124	  0.103	  0.025	 -9.863	 -0.001	  0.001	 -0.000	 34.500	 99.424	 -99999.000
14164	 -0.337	 -0.100	  0.125	  0.111	  0.038	 -9.877	 -0.002	  0.002	  0.000	 34.600	 99.412	 -99999.000
14214	 -0.335	 -0.100	  0.129	  0.113	  0.015	 -9.879	 -0.002	  0.001	  0.001	 34.500	 99.435	 -99999.000
14264	 -0.335	 -0.097	  0.125	  0.112	  0.022	 -9.881	 -0.002	  0.001	 -0.000	 34.500	 99.424	 -99999.000
14314	 -0.338	 -0.097	  0.128	  0.096	  0.030	 -9.871	 -0.002	  0.001	  0.002	 34.500	 99.435	 -99999.000
14364	 -0.335	 -0.100	  0.130	  0.114	  0.034	 -9.895	 -0.003	  0.001	  0.001	 34.600	 99.428	 -99999.000
14414	 -0.339	 -0.097	  0.125	  0.109	  0.024	 -9.868	 -0.002	  0.002	  0.001	 34.500	 99.435	 -99999.000
14464	 -0.336	 -0.097	  0.124	  0.080	  0.013	 -9.875	 -0.002	  0.001	 -0.000	 34.500	 99.435	 -99999.000
14514	 -0.336	 -0.090	  0.126	  0.109	  0.017	 -9.882	 -0.001	  0.001	  0.001	 34.500	 99.435	 -99999.000
14564	 -0.335	 -0.102	  0.127	  0.116	  0.025	 -9.894	 -0.003	  0.002	 -0.000	 34.500	 99.424	 -99999.000
14614	 -0.337	 -0.099	  0.127	  0.107	  0.054	 -9.841	 -0.002	 -0.000	  0.001	 34.500	 99.424	 -99999.000
14664	 -0.337	 -0.099	  0.126	  0.095	  0.013	 -9.881	 -0.002	  0.002	 -0.000	 34.500	 99.435	 -99999.000
14714	 -0.335	 -0.091	  0.125	  0.099	  0.024	 -9.865	 -0.002	  0.002	  0.001	 34.500	 99.420	 -99999.000
14764	 -0.338	 -0.101	  0.124	  0.093	 -0.001	 -9.878	 -0.002	  0.002	  0.001	 34.500	 99.431	 -99999.000
14814	 -0.336	 -0.094	  0.123	  0.102	  0.036	 -9.896	 -0.002	  0.001	 -0.001	 34.500	 99.435	 -99999.000
14864	 -0.336	 -0.099	  0.122	  0.105	  0.024	 -9.880	 -0.003	  0.002	  0.001	 34.500	 99.435	 -99999.000
14914	 -0.338	 -0.094	  0.127	  0.125	  0.039	 -9.878	 -0.002	  0.002	 -0.000	 34.500	 99.424	 -99999.000
14964	 -0.335	 -0.095	  0.126	  0.095	  0.028	 -9.850	 -0.003	  0.000	  0.001	 34.500	 99.435	 -99999.000
15014	 -0.335	 -0.100	  0.125	  0.093	  0.039	 -9.902	 -0.002	  0.002	 -0.000	 34.500	 99.435	 -99999.000
15064	 -0.336	 -0.094	  0.123	  0.103	  0.044	 -9.859	 -0.002	  0.000	  0.000	 34.500	 99.435	 -99999.000
15115	 -0.334	 -0.095	  0.129	  0.118	  0.015	 -9.889	 -0.003	  0.001	  0.000	 34.500	 99.424	 -99999.000
15164	 -0.339	 -0.097	  0.127	  0.098	  0.032	 -9.889	 -0.001	  0.002	 -0.000	 34.500	 99.431	 -99999.000
15215	 -0.336	 -0.094	  0.127	  0.109	  0.037	 -9.864	 -0.002	  0.001	  0.001	 34.500	 99.424	 -99999.000
15265	 -0.337	 -0.087	  0.125	  0.089	  0.033	 -9.876	 -0.002	  0.002	  0.001	 34.500	 99.424	 -99999.000
15315	 -0.336	 -0.099	  0.124	  0.107	  0.020	 -9.883	 -0.002	  0.003	  0.001	 34.500	 99.435	 -99999.000
15365	 -0.335	 -0.097	  0.125	  0.098	  0.019	 -9.870	 -0.003	  0.002	 -0.000	 34.500	 99.435	 -99999.000
15415	 -0.337	 -0.091	  0.127	  0.087	  0.029	 -9.915	 -0.004	  0.001	 -0.000	 34.500	 99.435	 -99999.000
15465	 -0.334	 -0.093	  0.126	  0.087	  0.004	 -9.885	 -0.002	  0.002	  0.000	 34.500	 99.424	 -99999.000
15515	 -0.337	 -0.097	  0.124	  0.081	  0.037	 -9.878	 -0.002	  0.002	 -0.000	 34.500	 99.424	 -99999.000
15565	 -0.335	 -0.094	  0.129	  0.075	  0.028	 -9.890	 -0.003	  0.001	 -0.000	 34.500	 99.435	 -99999.000
15615	 -0.336	 -0.095	  0.128	  0.108	  0.039	 -9.902	 -0.002	  0.002	 -0.001	 34.500	 99.435	 -99999.000
15665	 -0.335	 -0.097	  0.127	  0.099	  0.046	 -9.890	 -0.002	  0.001	 -0.000	 34.500	 99.435	 -99999.000
15715	 -0.336	 -0.095	  0.126	  0.104	 -0.002	 -9.851	 -0.003	  0.001	 -0.001	 34.500	 99.424	 -99999.000
15765	 -0.335	 -0.094	  0.117	  0.104	  0.023	 -9.905	 -0.002	  0.001	  0.000	 34.500	 99.424	 -99999.000
15815	 -0.336	 -0.100	  0.130	  0.109	  0.020	 -9.854	 -0.002	  0.002	  0.001	 34.500	 99.435	 -99999.000
15865	 -0.338	 -0.097	  0.123	  0.090	  0.043	 -9.876	 -0.002	  0.001	  0.001	 34.500	 99.435	 -99999.000
15915	 -0.336	 -0.098	  0.126	  0.086	  0.047	 -9.909	 -0.002	  0.002	  0.000	 34.500	 99.424	 -99999.000
15965	 -0.336	 -0.087	  0.128	  0.065	  0.032	 -9.831	 -0.003	  0.003	  0.002	 34.500	 99.431	 -99999.000
16015	 -0.337	 -0.098	  0.122	  0.108	  0.042	 -9.891	 -0.002	  0.003	  0.001	 34.500	 99.424	 -99999.000
16065	 -0.337	 -0.098	  0.130	  0.099	  0.025	 -9.895	 -0.003	  0.001	  0.001	 34.500	 99.424	 -99999.000
16115	 -0.336	 -0.095	  0.119	  0.094	  0.045	 -9.865	 -0.002	  0.002	  0.001	 34.500	 99.435	 -99999.000
16165	 -0.335	 -0.097	  0.125	  0.093	  0.047	 -9.886	 -0.003	  0.002	  0.000	 34.500	 99.424	 -99999.000
16215	 -0.336	 -0.100	  0.125	  0.105	  0.053	 -9.879	 -0.003	  0.002	 -0.000	 34.500	 99.420	 -99999.000
16265	 -0.336	 -0.089	  0.125	  0.096	  0.046	 -9.867	 -0.003	  0.001	 -0.000	 34.500	 99.435	 -99999.000
16315	 -0.337	 -0.088	  0.128	  0.088	  0.047	 -9.878	 -0.002	  0.001	  0.001	 34.500	 99.424	 -99999.000
16365	 -0.335	 -0.092	  0.125	  0.113	  0.018	 -9.886	 -0.001	  0.002	 -0.001	 34.500	 99.431	 -99999.000
16415	 -0.337	 -0.095	  0.123	  0.108	  0.030	 -9.875	 -0.002	  0.001	  0.001	 34.500	 99.435	 -99999.000
16465	 -0.335	 -0.097	  0.126	  0.096	  0.003	 -9.866	 -0.001	  0.002	 -0.000	 34.500	 99.431	 -99999.000
16515	 -0.336	 -0.094	  0.126	  0.103	  0.028	 -9.876	 -0.003	  0.001	  0.001	 34.500	 99.424	 -99999.000
16565	 -0.334	 -0.098	  0.123	  0.093	  0.021	 -9.866	 -0.001	  0.002	 -0.000	 34.500	 99.435	 -99999.000
16615	 -0.335	 -0.088	  0.126	  0.093	  0.020	 -9.868	 -0.003	  0.001	 -0.000	 34.500	 99.424	 -99999.000
16665	 -0.336	 -0.099	  0.127	  0.088	  0.043	 -9.881	 -0.004	  0.001	  0.001	 34.500	 99.424	 -99999.000
16715	 -0.338	 -0.099	  0.122	  0.110	  0.034	 -9.859	 -0.003	  0.001	  0.000	 34.500	 99.424	 -99999.000
16765	 -0.334	 -0.099	  0.129	  0.103	  0.046	 -9.891	 -0.003	  0.001	  0.000	 34.500	 99.420	 -99999.000
16815	 -0.334	 -0.097	  0.124	  0.091	  0.049	 -9.879	 -0.000	  0.003	  0.001	 34.500	 99.424	 -99999.000
16865	 -0.336	 -0.091	  0.119	  0.087	  0.038	 -9.851	 -0.003	  0.001	  0.000	 34.600	 99.428	 -99999.000
16915	 -0.336	 -0.095	  0.123	  0.084	  0.035	 -9.879	 -0.002	  0.000	  0.001	 34.500	 99.424	 -99999.000
16965	 -0.336	 -0.097	  0.125	  0.111	  0.044	 -9.836	 -0.002	  0.000	  0.001	 34.500	 99.424	 -99999.000
17015	 -0.334	 -0.094	  0.125	  0.097	  0.024	 -9.852	 -0.002	  0.001	 -0.000	 34.500	 99.424	 -99999.000
17065	 -0.336	 -0.105	  0.129	  0.094	  0.023	 -9.878	 -0.001	  0.001	  0.001	 34.500	 99.424	 -99999.000
17115	 -0.336	 -0.097	  0.125	  0.084	  0.026	 -9.866	 -0.003	  0.003	  0.001	 34.500	 99.442	 -99999.000
17165	 -0.335	 -0.094	  0.131	  0.094	  0.013	 -9.884	 -0.001	  0.002	  0.000	 34.500	 99.424	 -99999.000
17215	 -0.334	 -0.100	  0.124	  0.098	  0.026	 -9.875	 -0.001	  0.002	  0.000	 34.500	 99.424	 -99999.000
17265	 -0.337	 -0.093	  0.125	  0.122	  0.036	 -9.881	 -0.003	  0.001	  0.001	 34.500	 99.435	 -99999.000
17315	 -0.337	 -0.097	  0.126	  0.116	  0.030	 -9.868	 -0.002	  0.002	  0.000	 34.500	 99.424	 -99999.000
17365	 -0.335	 -0.099	  0.121	  0.098	  0.034	 -9.871	 -0.002	  0.001	  0.001	 34.500	 99.435	 -99999.000
17415	 -0.337	 -0.099	  0.125	  0.106	  0.022	 -9.877	 -0.002	  0.001	  0.001	 34.500	 99.435	 -99999.000
17465	 -0.338	 -0.097	  0.126	  0.079	  0.027	 -9.920	 -0.002	  0.001	  0.001	 34.500	 99.424	 -99999.000
17515	 -0.338	 -0.102	  0.125	  0.095	  0.026	 -9.881	 -0.002	  0.001	 -0.001	 34.500	 99.424	 -99999.000
17565	 -0.335	 -0.095	  0.123	  0.135	  0.019	 -9.869	 -0.001	  0.002	 -0.001	 34.500	 99.435	 -99999.000
17615	 -0.337	 -0.091	  0.126	  0.112	  0.055	 -9.861	 -0.002	  0.001	  0.001	 34.500	 99.420	 -99999.000
17665	 -0.332	 -0.098	  0.125	  0.107	  0.020	 -9.893	 -0.002	  0.001	  0.001	 34.500	 99.424	 -99999.000
17715	 -0.336	 -0.098	  0.122	  0.104	  0.018	 -9.888	 -0.002	  0.001	  0.001	 34.500	 99.435	 -99999.000
17765	 -0.335	 -0.091	  0.130	  0.093	  0.028	 -9.869	 -0.002	  0.002	  0.001	 34.500	 99.420	 -99999.000
17815	 -0.337	 -0.095	  0.125	  0.118	  0.030	 -9.885	 -0.000	  0.000	 -0.001	 34.500	 99.435	 -99999.000
17865	 -0.336	 -0.097	  0.127	  0.094	  0.022	 -9.897	 -0.002	  0.002	 -0.000	 34.500	 99.435	 -99999.000
17915	 -0.335	 -0.097	  0.127	  0.093	  0.018	 -9.872	 -0.002	  0.001	  0.001	 34.500	 99.420	 -99999.000
17965	 -0.334	 -0.096	  0.124	  0.086	  0.041	 -9.890	 -0.002	  0.001	 -0.000	 34.500	 99.420	 -99999.000
18015	 -0.335	 -0.095	  0.127	  0.117	  0.049	 -9.854	 -0.004	  0.001	 -0.001	 34.500	 99.435	 -99999.000
18065	 -0.338	 -0.098	  0.130	  0.107	  0.029	 -9.899	 -0.002	  0.000	  0.001	 34.500	 99.420	 -99999.000
18115	 -0.335	 -0.099	  0.126	  0.096	  0.029	 -9.878	 -0.002	  0.002	  0.000	 34.500	 99.420	 -99999.000
18165	 -0.335	 -0.098	  0.127	  0.099	  0.026	 -9.910	 -0.002	  0.000	  0.000	 34.500	 99.424	 -99999.000
18215	 -0.335	 -0.092	  0.127	  0.105	  0.005	 -9.884	 -0.003	  0.002	  0.000	 34.500	 99.424	 -99999.000
18265	 -0.336	 -0.101	  0.127	  0.114	  0.032	 -9.892	 -0.003	  0.002	 -0.000	 34.500	 99.435	 -99999.000
18315	 -0.337	 -0.100	  0.127	  0.095	  0.041	 -9.852	 -0.002	  0.001	  0.000	 34.500	 99.424	 -99999.000
18365	 -0.335	 -0.097	  0.127	  0.106	  0.011	 -9.862	 -0.002	  0.002	  0.001	 34.500	 99.424	 -99999.000
18415	 -0.335	 -0.098	  0.127	  0.090	  0.040	 -9.847	 -0.002	  0.001	  0.000	 34.500	 99.424	 -99999.000
18465	 -0.335	 -0.084	  0.126	  0.086	  0.017	 -9.877	 -0.002	  0.002	  0.001	 34.500	 99.424	 -99999.000
18515	 -0.334	 -0.094	  0.129	  0.089	  0.026	 -9.922	 -0.002	  0.002	  0.000	 34.500	 99.435	 -99999.000
18565	 -0.336	 -0.097	  0.117	  0.106	  0.029	 -9.902	 -0.002	  0.001	 -0.001	 34.500	 99.420	 -99999.000
18615	 -0.337	 -0.095	  0.127	  0.072	  0.056	 -9.895	 -0.002	  0.000	 -0.001	 34.500	 99.420	 -99999.000
18665	 -0.335	 -0.100	  0.124	  0.095	  0.026	 -9.869	 -0.003	  0.001	  0.001	 34.500	 99.431	 -99999.000
18715	 -0.335	 -0.099	  0.123	  0.107	  0.050	 -9.911	 -0.002	  0.002	 -0.000	 34.500	 99.431	 -99999.000
18765	 -0.340	 -0.098	  0.127	  0.099	  0.052	 -9.872	 -0.004	  0.001	 -0.000	 34.600	 99.435	 -99999.000
18815	 -0.338	 -0.097	  0.130	  0.078	  0.031	 -9.870	 -0.003	  0.002	  0.001	 34.500	 99.420	 -99999.000
18865	 -0.337	 -0.095	  0.131	  0.110	  0.046	 -9.890	 -0.002	  0.001	 -0.001	 34.500	 99.420	 -99999.000
18915	 -0.336	 -0.100	  0.126	  0.093	  0.036	 -9.898	 -0.001	  0.001	 -0.001	 34.500	 99.424	 -99999.000
18965	 -0.336	 -0.098	  0.126	  0.078	  0.036	 -9.903	 -0.001	  0.001	 -0.000	 34.600	 99.424	 -99999.000
19015	 -0.337	 -0.101	  0.126	  0.097	  0.046	 -9.858	 -0.003	  0.001	  0.001	 34.500	 99.424	 -99999.000
19065	 -0.337	 -0.088	  0.124	  0.106	  0.022	 -9.905	 -0.002	  0.001	  0.001	 34.500	 99.435	 -99999.000
19115	 -0.337	 -0.095	  0.128	  0.137	  0.034	 -9.864	 -0.002	  0.002	  0.001	 34.500	 99.435	 -99999.000
19165	 -0.335	 -0.097	  0.122	  0.089	  0.038	 -9.869	 -0.003	  0.001	  0.001	 34.500	 99.431	 -99999.000
19215	 -0.335	 -0.095	  0.130	  0.101	  0.024	 -9.903	 -0.002	  0.000	  0.001	 34.500	 99.420	 -99999.000
44671	 -0.336	 -0.094	  0.123	  0.103	  0.048	 -9.879	 -0.002	  0.002	  0.001	 34.500	 99.434	 -0.622
44721	 -0.335	 -0.100	  0.127	  0.084	  0.031	 -9.865	 -0.002	  0.000	  0.000	 34.500	 99.423	  0.367
44771	 -0.336	 -0.097	  0.126	  0.095	  0.038	 -9.865	 -0.001	  0.001	  0.002	 34.500	 99.423	  0.367
44821	 -0.334	 -0.098	  0.127	  0.095	  0.023	 -9.876	 -0.002	  0.001	 -0.000	 34.500	 99.434	 -0.622
44871	 -0.333	 -0.095	  0.127	  0.096	  0.044	 -9.874	 -0.001	  0.001	  0.001	 34.500	 99.427	  0.007
44921	 -0.337	 -0.095	  0.124	  0.108	  0.043	 -9.922	 -0.004	  0.002	 -0.001	 34.500	 99.423	  0.367
44971	 -0.336	 -0.097	  0.124	  0.106	  0.051	 -9.870	 -0.001	  0.001	 -0.001	 34.500	 99.427	  0.007
45021	 -0.337	 -0.100	  0.130	  0.101	  0.041	 -9.890	 -0.002	  0.002	  0.001	 34.500	 99.423	  0.367
45071	 -0.337	 -0.095	  0.125	  0.112	  0.000	 -9.896	 -0.004	  0.001	  0.000	 34.500	 99.434	 -0.622
45121	 -0.336	 -0.098	  0.127	  0.101	  0.023	 -9.857	 -0.002	  0.002	  0.001	 34.500	 99.427	  0.007
45171	 -0.335	 -0.095	  0.124	  0.098	  0.066	 -9.886	 -0.002	  0.002	 -0.000	 34.500	 99.423	  0.367
45221	 -0.336	 -0.100	  0.130	  0.108	  0.033	 -9.898	 -0.003	  0.002	 -0.001	 34.500	 99.427	  0.007
45271	 -0.337	 -0.094	  0.127	  0.109	  0.034	 -9.876	 -0.002	  0.001	 -0.000	 34.500	 99.434	 -0.622
45321	 -0.335	 -0.097	  0.127	  0.134	  0.024	 -9.889	 -0.002	  0.001	  0.000	 34.500	 99.427	  0.007
45371	 -0.335	 -0.101	  0.124	  0.086	  0.022	 -9.886	 -0.002	  0.001	  0.001	 34.500	 99.423	  0.367
45421	 -0.338	 -0.094	  0.128	  0.103	  0.052	 -9.873	 -0.002	  0.002	 -0.001	 34.500	 99.434	 -0.622
45471	 -0.335	 -0.101	  0.126	  0.091	  0.047	 -9.871	 -0.003	  0.001	  0.001	 34.500	 99.427	  0.007
45521	 -0.336	 -0.099	  0.125	  0.099	  0.036	 -9.914	 -0.003	  0.003	  0.000	 34.500	 99.423	  0.367
45571	 -0.337	 -0.093	  0.130	  0.115	 -0.003	 -9.876	 -0.002	  0.002	 -0.000	 34.500	 99.423	  0.367
45621	 -0.338	 -0.094	  0.127	  0.104	  0.032	 -9.870	 -0.002	 -0.000	 -0.000	 34.500	 99.434	 -0.622
45671	 -0.337	 -0.101	  0.128	  0.103	  0.054	 -9.862	 -0.003	  0.002	 -0.000	 34.500	 99.434	 -0.622
45721	 -0.335	 -0.093	  0.128	  0.082	  0.052	 -9.890	 -0.002	  0.002	  0.001	 34.500	 99.434	 -0.622
45772	 -0.336	 -0.089	  0.125	  0.076	  0.047	 -9.894	 -0.001	  0.000	  0.000	 34.500	 99.434	 -0.622
45821	 -0.338	 -0.097	  0.127	  0.122	  0.039	 -9.873	 -0.002	  0.001	 -0.000	 34.500	 99.423	  0.367
45871	 -0.336	 -0.098	  0.127	  0.080	  0.061	 -9.889	 -0.002	  0.000	  0.000	 34.500	 99.434	 -0.622
45921	 -0.335	 -0.097	  0.126	  0.128	  0.026	 -9.894	 -0.003	  0.002	  0.000	 34.500	 99.423	  0.367
45971	 -0.336	 -0.093	  0.126	  0.080	  0.031	 -9.889	 -0.002	  0.001	  0.001	 34.500	 99.427	  0.007
46021	 -0.338	 -0.092	  0.124	  0.085	  0.027	 -9.890	 -0.001	  0.001	 -0.000	 34.500	 99.438	 -0.982
46071	 -0.336	 -0.097	  0.128	  0.095	  0.026	 -9.891	 -0.002	  0.001	  0.001	 34.500	 99.423	  0.367
46121	 -0.336	 -0.091	  0.125	  0.101	  0.038	 -9.883	 -0.002	  0.001	 -0.000	 34.500	 99.427	  0.007
46171	 -0.339	 -0.098	  0.128	  0.100	  0.030	 -9.894	 -0.001	  0.000	  0.000	 34.500	 99.411	  1.445
46221	 -0.334	 -0.099	  0.126	  0.079	  0.058	 -9.874	 -0.002	  0.000	  0.000	 34.500	 99.423	  0.367
46271	 -0.339	 -0.097	  0.120	  0.110	  0.047	 -9.877	 -0.002	 -0.000	  0.001	 34.500	 99.427	  0.007
46321	 -0.336	 -0.094	  0.124	  0.096	  0.037	 -9.925	 -0.003	  0.001	  0.000	 34.500	 99.423	  0.367
46371	 -0.336	 -0.097	  0.127	  0.098	  0.031	 -9.842	 -0.002	  0.003	  0.001	 34.500	 99.427	  0.007
46421	 -0.338	 -0.095	  0.127	  0.137	  0.020	 -9.908	 -0.003	  0.001	  0.001	 34.500	 99.423	  0.367
46471	 -0.334	 -0.100	  0.126	  0.111	  0.031	 -9.883	 -0.003	  0.001	  0.000	 34.500	 99.423	  0.367
46521	 -0.335	 -0.100	  0.126	  0.096	  0.046	 -9.903	 -0.002	  0.000	 -0.000	 34.500	 99.423	  0.367
46571	 -0.335	 -0.097	  0.130	  0.072	  0.019	 -9.896	 -0.003	  0.002	  0.001	 34.500	 99.423	  0.367
46621	 -0.338	 -0.096	  0.126	  0.102	  0.053	 -9.894	 -0.003	  0.002	  0.001	 34.500	 99.423	  0.367
46671	 -0.336	 -0.097	  0.125	  0.090	  0.027	 -9.872	 -0.001	  0.002	  0.000	 34.500	 99.423	  0.367
46721	 -0.336	 -0.098	  0.126	  0.099	  0.040	 -9.895	 -0.002	  0.001	  0.000	 34.500	 99.438	 -0.982
46771	 -0.336	 -0.091	  0.125	  0.085	  0.058	 -9.875	 -0.003	  0.000	  0.001	 34.500	 99.423	  0.367
46821	 -0.336	 -0.090	  0.131	  0.083	  0.022	 -9.848	 -0.001	  0.000	  0.000	 34.500	 99.434	 -0.622
46871	 -0.337	 -0.103	  0.125	  0.109	  0.025	 -9.884	 -0.002	  0.002	  0.001	 34.500	 99.434	 -0.622
46921	 -0.337	 -0.097	  0.125	  0.112	  0.018	 -9.871	 -0.002	  0.001	  0.001	 34.500	 99.423	  0.367
46971	 -0.337	 -0.098	  0.127	  0.101	  0.017	 -9.885	 -0.002	  0.001	  0.001	 34.500	 99.434	 -0.622
47021	 -0.337	 -0.088	  0.124	  0.094	  0.028	 -9.864	 -0.002	  0.002	  0.001	 34.500	 99.434	 -0.622
47071	 -0.338	 -0.098	  0.128	  0.105	  0.052	 -9.819	 -0.001	  0.002	  0.001	 34.500	 99.445	 -1.611
47121	 -0.335	 -0.095	  0.126	  0.080	  0.023	 -9.882	 -0.003	  0.001	  0.001	 34.500	 99.434	 -0.622
47171	 -0.336	 -0.102	  0.127	  0.109	  0.021	 -9.881	 -0.001	  0.001	  0.000	 34.500	 99.423	  0.367
47221	 -0.337	 -0.098	  0.127	  0.084	  0.037	 -9.850	 -0.002	  0.001	  0.000	 34.500	 99.427	  0.007
47271	 -0.335	 -0.092	  0.128	  0.121	  0.041	 -9.917	 -0.002	  0.000	 -0.001	 34.500	 99.434	 -0.622
47321	 -0.336	 -0.097	  0.124	  0.115	  0.013	 -9.876	 -0.003	  0.001	 -0.001	 34.500	 99.423	  0.367
47371	 -0.334	 -0.095	  0.123	  0.103	  0.044	 -9.872	 -0.002	  0.001	 -0.001	 34.500	 99.427	  0.007
47421	 -0.341	 -0.101	  0.126	  0.096	  0.032	 -9.861	 -0.002	  0.002	  0.000	 34.500	 99.434	 -0.622
47471	 -0.335	 -0.101	  0.124	  0.109	 -0.005	 -9.857	 -0.002	  0.002	  0.001	 34.500	 99.434	 -0.622
47521	 -0.335	 -0.097	  0.124	  0.114	  0.027	 -9.860	 -0.002	  0.001	  0.000	 34.500	 99.434	 -0.622
47571	 -0.336	 -0.097	  0.128	  0.108	  0.069	 -9.869	 -0.002	  0.001	  0.001	 34.500	 99.423	  0.367
47621	 -0.336	 -0.094	  0.130	  0.116	  0.018	 -9.871	 -0.002	  0.001	 -0.000	 34.500	 99.423	  0.367
47671	 -0.337	 -0.097	  0.127	  0.109	  0.036	 -9.910	 -0.003	  0.001	  0.000	 34.500	 99.423	  0.367
47722	 -0.337	 -0.095	  0.126	  0.121	  0.050	 -9.900	 -0.002	  0.002	  0.000	 34.500	 99.423	  0.367
47771	 -0.334	 -0.097	  0.124	  0.086	  0.033	 -9.860	 -0.001	  0.002	  0.000	 34.500	 99.434	 -0.622
47821	 -0.337	 -0.101	  0.130	  0.107	  0.041	 -9.880	 -0.002	  0.000	  0.001	 34.500	 99.423	  0.367
47871	 -0.337	 -0.093	  0.128	  0.092	  0.026	 -9.870	 -0.002	  0.002	  0.000	 34.500	 99.434	 -0.622
47921	 -0.336	 -0.095	  0.126	  0.097	  0.043	 -9.868	 -0.002	  0.003	  0.000	 34.500	 99.423	  0.367
47971	 -0.336	 -0.097	  0.127	  0.110	  0.029	 -9.870	 -0.002	  0.001	  0.001	 34.500	 99.411	  1.445
48021	 -0.337	 -0.097	  0.127	  0.087	  0.036	 -9.874	 -0.001	  0.002	  0.000	 34.500	 99.434	 -0.622
48071	 -0.335	 -0.099	  0.123	  0.088	  0.001	 -9.894	 -0.002	  0.000	  0.002	 34.500	 99.423	  0.367
48121	 -0.335	 -0.100	  0.125	  0.110	  0.028	 -9.858	 -0.002	  0.000	  0.001	 34.500	 99.445	 -1.611
48171	 -0.335	 -0.094	  0.125	  0.102	  0.037	 -9.902	 -0.002	  0.002	  0.000	 34.500	 99.434	 -0.622
48222	 -0.336	 -0.099	  0.124	  0.099	  0.058	 -9.853	 -0.003	  0.001	 -0.000	 34.500	 99.430	 -0.263
48271	 -0.339	 -0.100	  0.127	  0.100	  0.042	 -9.860	 -0.004	  0.001	 -0.000	 34.500	 99.423	  0.367
48321	 -0.335	 -0.101	  0.127	  0.114	  0.021	 -9.889	 -0.002	  0.001	  0.000	 34.500	 99.423	  0.367
48371	 -0.336	 -0.094	  0.123	  0.108	  0.016	 -9.906	 -0.002	  0.002	  0.000	 34.500	 99.434	 -0.622
48422	 -0.337	 -0.098	  0.124	  0.095	  0.025	 -9.866	 -0.001	  0.003	  0.000	 34.500	 99.427	  0.007
48471	 -0.336	 -0.101	  0.120	  0.117	  0.040	 -9.871	 -0.002	  0.001	  0.001	 34.500	 99.427	  0.007
48521	 -0.337	 -0.098	  0.128	  0.093	  0.033	 -9.905	 -0.002	  0.001	  0.001	 34.500	 99.423	  0.367
48572	 -0.336	 -0.095	  0.128	  0.101	  0.032	 -9.878	 -0.002	  0.001	 -0.000	 34.500	 99.434	 -0.622
48621	 -0.336	 -0.095	  0.125	  0.114	  0.038	 -9.880	 -0.003	  0.001	 -0.001	 34.500	 99.423	  0.367
48672	 -0.337	 -0.094	  0.131	  0.113	  0.028	 -9.878	 -0.004	  0.001	  0.001	 34.500	 99.430	 -0.263
48722	 -0.336	 -0.097	  0.128	  0.092	  0.015	 -9.874	 -0.002	  0.003	 -0.001	 34.500	 99.423	  0.367
48771	 -0.337	 -0.098	  0.127	  0.094	  0.035	 -9.865	 -0.002	  0.001	 -0.000	 34.500	 99.423	  0.367
48822	 -0.336	 -0.093	  0.127	  0.085	  0.032	 -9.889	 -0.000	  0.001	 -0.000	 34.500	 99.430	 -0.263
48872	 -0.336	 -0.097	  0.125	  0.083	  0.021	 -9.907	 -0.003	  0.001	 -0.000	 34.500	 99.438	 -0.982
48922	 -0.335	 -0.099	  0.129	  0.089	  0.037	 -9.888	 -0.001	  0.002	 -0.000	 34.500	 99.423	  0.367
48972	 -0.337	 -0.098	  0.128	  0.109	  0.028	 -9.873	 -0.001	  0.001	  0.002	 34.500	 99.434	 -0.622
49022	 -0.337	 -0.097	  0.125	  0.099	  0.020	 -9.893	 -0.002	  0.002	  0.001	 34.500	 99.423	  0.367
49072	 -0.338	 -0.098	  0.132	  0.108	  0.030	 -9.880	 -0.003	  0.002	  0.000	 34.500	 99.434	 -0.622
49122	 -0.334	 -0.098	  0.123	  0.094	  0.040	 -9.882	 -0.001	  0.002	  0.000	 34.500	 99.434	 -0.622
49172	 -0.334	 -0.103	  0.121	  0.101	  0.041	 -9.855	 -0.003	  0.001	  0.001	 34.500	 99.423	  0.367
49222	 -0.336	 -0.093	  0.128	  0.106	  0.039	 -9.891	 -0.002	  0.001	  0.001	 34.500	 99.438	 -0.982
49272	 -0.335	 -0.099	  0.121	  0.097	  0.032	 -9.921	 -0.004	  0.002	  0.001	 34.500	 99.423	  0.367
49322	 -0.336	 -0.097	  0.126	  0.104	  0.023	 -9.872	 -0.003	  0.001	  0.002	 34.500	 99.438	 -0.982
49372	 -0.335	 -0.097	  0.126	  0.100	  0.026	 -9.848	 -0.003	  0.002	 -0.000	 34.500	 99.423	  0.367
49422	 -0.336	 -0.097	  0.125	  0.092	  0.012	 -9.874	 -0.002	  0.001	  0.001	 34.500	 99.434	 -0.622
49472	 -0.336	 -0.095	  0.127	  0.141	  0.043	 -9.880	 -0.004	  0.002	 -0.000	 34.500	 99.423	  0.367
49522	 -0.335	 -0.093	  0.126	  0.109	  0.040	 -9.862	 -0.002	  0.001	  0.001	 34.500	 99.423	  0.367
49572	 -0.334	 -0.097	  0.126	  0.082	  0.059	 -9.869	 -0.001	  0.002	  0.001	 34.500	 99.423	  0.367
49622	 -0.336	 -0.095	  0.126	  0.113	  0.001	 -9.881	 -0.001	  0.002	  0.000	 34.500	 99.438	 -0.982
49672	 -0.334	 -0.098	  0.124	  0.090	  0.036	 -9.904	 -0.003	  0.002	 -0.001	 34.500	 99.445	 -1.611
49725	 -0.335	 -0.101	  0.123	  0.101	  0.021	 -9.888	 -0.002	  0.001	 -0.001	 34.500	 99.434	 -0.622
49773	 -0.334	 -0.097	  0.118	  0.099	  0.040	 -9.860	 -0.000	  0.001	  0.001	 34.500	 99.434	 -0.622
49823	 -0.334	 -0.093	  0.127	  0.098	  0.025	 -9.888	 -0.002	  0.000	  0.000	 34.500	 99.411	  1.445
49872	 -0.337	 -0.096	  0.128	  0.088	  0.045	 -9.863	 -0.003	  0.001	  0.001	 34.500	 99.434	 -0.622
49922	 -0.334	 -0.098	  0.126	  0.108	  0.021	 -9.870	 -0.002	  0.003	  0.001	 34.500	 99.430	 -0.263
49972	 -0.337	 -0.092	  0.126	  0.093	  0.022	 -9.884	 -0.001	  0.001	  0.002	 34.500	 99.434	 -0.622
50022	 -0.337	 -0.091	  0.127	  0.088	  0.024	 -9.876	 -0.003	  0.002	  0.001	 34.500	 99.434	 -0.622
50072	 -0.336	 -0.099	  0.124	  0.084	  0.033	 -9.850	 -0.002	  0.000	  0.001	 34.500	 99.423	  0.367
50122	 -0.334	 -0.099	  0.127	  0.096	  0.005	 -9.879	 -0.002	  0.002	  0.001	 34.500	 99.434	 -0.622
50172	 -0.336	 -0.097	  0.128	  0.105	  0.028	 -9.869	 -0.003	  0.001	  0.000	 34.500	 99.434	 -0.622
50222	 -0.336	 -0.098	  0.131	  0.096	  0.031	 -9.852	 -0.002	  0.001	  0.001	 34.500	 99.430	 -0.263
50272	 -0.337	 -0.098	  0.124	  0.105	  0.038	 -9.909	 -0.001	  0.001	 -0.001	 34.500	 99.430	 -0.263
50322	 -0.337	 -0.091	  0.126	  0.088	  0.038	 -9.872	 -0.001	  0.002	  0.000	 34.500	 99.423	  0.367
50372	 -0.338	 -0.097	  0.127	  0.094	  0.027	 -9.896	 -0.002	  0.001	  0.000	 34.500	 99.434	 -0.622
50422	 -0.337	 -0.091	  0.132	  0.092	  0.030	 -9.881	 -0.003	  0.000	 -0.001	 34.500	 99.434	 -0.622
50472	 -0.336	 -0.089	  0.127	  0.107	  0.037	 -9.871	 -0.001	  0.002	  0.001	 34.500	 99.434	 -0.622
50522	 -0.335	 -0.089	  0.128	  0.098	  0.017	 -9.885	 -0.004	  0.001	  0.000	 34.500	 99.434	 -0.622
50572	 -0.336	 -0.097	  0.123	  0.095	  0.022	 -9.876	 -0.002	  0.002	  0.000	 34.500	 99.434	 -0.622
50622	 -0.336	 -0.097	  0.124	  0.111	  0.067	 -9.884	 -0.002	  0.001	 -0.000	 34.500	 99.434	 -0.622
61902	 -0.336	 -0.094	  0.127	  0.074	  0.036	 -9.850	 -0.001	  0.001	  0.002	 34.500	 99.434	 -0.411
61949	 -0.338	 -0.093	  0.126	  0.090	  0.042	 -9.847	 -0.002	  0.002	  0.001	 34.500	 99.441	 -1.040
61999	 -0.335	 -0.097	  0.126	  0.122	  0.027	 -9.872	 -0.002	  0.002	  0.000	 34.500	 99.430	 -0.051
62049	 -0.336	 -0.095	  0.127	  0.117	  0.045	 -9.877	 -0.001	  0.003	  0.001	 34.500	 99.441	 -1.040
62099	 -0.337	 -0.097	  0.124	  0.115	  0.022	 -9.857	 -0.003	  0.000	 -0.000	 34.500	 99.430	 -0.051
62149	 -0.337	 -0.095	  0.126	  0.123	  0.022	 -9.864	 -0.002	 -0.000	  0.001	 34.500	 99.430	 -0.051
62199	 -0.337	 -0.094	  0.125	  0.105	  0.010	 -9.850	 -0.002	  0.001	  0.001	 34.500	 99.418	  1.027
62249	 -0.337	 -0.098	  0.127	  0.100	  0.018	 -9.901	 -0.002	  0.001	  0.001	 34.500	 99.430	 -0.051
62299	 -0.336	 -0.094	  0.124	  0.103	  0.022	 -9.858	 -0.001	  0.001	 -0.001	 34.500	 99.430	 -0.051
62349	 -0.337	 -0.086	  0.125	  0.086	  0.037	 -9.898	 -0.002	  0.002	  0.000	 34.500	 99.430	 -0.051
62399	 -0.336	 -0.097	  0.127	  0.102	  0.043	 -9.853	 -0.001	  0.001	  0.001	 34.500	 99.418	  1.027
62449	 -0.336	 -0.098	  0.126	  0.097	  0.042	 -9.870	 -0.002	  0.000	  0.001	 34.500	 99.441	 -1.040
62499	 -0.337	 -0.096	  0.127	  0.134	  0.019	 -9.863	 -0.002	  0.001	  0.000	 34.500	 99.434	 -0.411
62549	 -0.335	 -0.097	  0.125	  0.096	  0.045	 -9.878	 -0.003	  0.004	  0.000	 34.500	 99.430	 -0.051
62599	 -0.336	 -0.084	  0.125	  0.093	  0.007	 -9.890	 -0.003	  0.002	  0.001	 34.500	 99.430	 -0.051
62649	 -0.335	 -0.091	  0.125	  0.099	  0.027	 -9.863	 -0.003	  0.002	  0.000	 34.500	 99.441	 -1.040
62699	 -0.336	 -0.093	  0.126	  0.117	  0.026	 -9.882	 -0.001	  0.002	  0.001	 34.500	 99.430	 -0.051
62749	 -0.337	 -0.095	  0.128	  0.073	  0.024	 -9.854	 -0.001	  0.001	  0.000	 34.500	 99.430	 -0.051
62800	 -0.336	 -0.095	  0.124	  0.100	  0.022	 -9.904	 -0.004	  0.002	 -0.000	 34.500	 99.418	  1.027
62850	 -0.336	 -0.093	  0.124	  0.099	  0.038	 -9.852	 -0.002	  0.001	 -0.000	 34.500	 99.430	 -0.051
62900	 -0.335	 -0.089	  0.131	  0.078	  0.033	 -9.871	 -0.002	  0.002	 -0.001	 34.500	 99.430	 -0.051
62950	 -0.336	 -0.095	  0.126	  0.106	  0.052	 -9.882	 -0.001	  0.002	 -0.000	 34.500	 99.426	  0.308
63000	 -0.336	 -0.095	  0.127	  0.092	  0.026	 -9.884	 -0.002	  0.001	  0.001	 34.500	 99.430	 -0.051
63050	 -0.335	 -0.097	  0.119	  0.086	  0.021	 -9.856	 -0.003	  0.001	 -0.001	 34.500	 99.441	 -1.040
63100	 -0.334	 -0.095	  0.124	  0.085	  0.021	 -9.855	 -0.002	  0.003	  0.000	 34.500	 99.430	 -0.051
63150	 -0.335	 -0.099	  0.125	  0.114	  0.041	 -9.841	 -0.002	  0.001	 -0.000	 34.500	 99.441	 -1.040
63200	 -0.335	 -0.097	  0.124	  0.085	  0.032	 -9.903	 -0.002	  0.000	  0.001	 34.500	 99.430	 -0.051
63250	 -0.335	 -0.094	  0.125	  0.095	  0.040	 -9.872	 -0.001	  0.003	 -0.000	 34.500	 99.441	 -1.040
63300	 -0.335	 -0.094	  0.120	  0.109	  0.032	 -9.885	 -0.003	  0.002	  0.001	 34.500	 99.426	  0.308
63350	 -0.334	 -0.097	  0.127	  0.105	  0.027	 -9.900	 -0.002	  0.002	 -0.001	 34.500	 99.430	 -0.051
63400	 -0.335	 -0.095	  0.124	  0.136	  0.016	 -9.868	 -0.002	  0.000	 -0.000	 34.500	 99.434	 -0.411
63450	 -0.334	 -0.098	  0.121	  0.093	  0.032	 -9.884	 -0.003	  0.001	 -0.000	 34.500	 99.426	  0.308
63500	 -0.336	 -0.095	  0.125	  0.106	  0.045	 -9.895	 -0.002	  0.001	 -0.000	 34.500	 99.430	 -0.051
63550	 -0.337	 -0.091	  0.127	  0.089	  0.050	 -9.899	 -0.003	  0.002	  0.001	 34.500	 99.441	 -1.040
63599	 -0.337	 -0.098	  0.127	  0.088	  0.008	 -9.877	 -0.002	  0.001	  0.001	 34.500	 99.430	 -0.051
63649	 -0.334	 -0.100	  0.129	  0.090	  0.023	 -9.889	 -0.003	 -0.001	 -0.001	 34.500	 99.430	 -0.051
63699	 -0.336	 -0.090	  0.127	  0.114	  0.039	 -9.880	 -0.002	  0.002	 -0.000	 34.500	 99.430	 -0.051
63749	 -0.338	 -0.097	  0.128	  0.113	  0.032	 -9.868	 -0.002	 -0.001	  0.000	 34.500	 99.441	 -1.040
63799	 -0.335	 -0.100	  0.126	  0.097	  0.013	 -9.896	 -0.002	  0.002	 -0.001	 34.500	 99.430	 -0.051
63849	 -0.335	 -0.097	  0.128	  0.100	  0.026	 -9.878	 -0.002	  0.002	  0.000	 34.500	 99.430	 -0.051
63899	 -0.338	 -0.097	  0.128	  0.114	  0.035	 -9.877	 -0.003	  0.001	  0.001	 34.500	 99.430	 -0.051
63949	 -0.336	 -0.095	  0.125	  0.104	  0.052	 -9.880	 -0.002	  0.003	  0.001	 34.500	 99.441	 -1.040
63999	 -0.336	 -0.097	  0.126	  0.095	  0.038	 -9.896	 -0.004	  0.002	  0.000	 34.500	 99.430	 -0.051
64049	 -0.333	 -0.094	  0.122	  0.095	  0.021	 -9.902	 -0.002	  0.002	  0.001	 34.500	 99.437	 -0.681
64099	 -0.334	 -0.098	  0.124	  0.079	  0.022	 -9.894	 -0.003	  0.002	  0.000	 34.500	 99.430	 -0.051
64150	 -0.337	 -0.087	  0.127	  0.130	  0.047	 -9.890	 -0.002	  0.001	  0.001	 34.500	 99.430	 -0.051
64199	 -0.333	 -0.088	  0.122	  0.113	  0.030	 -9.855	 -0.003	  0.001	  0.001	 34.500	 99.430	 -0.051
64249	 -0.336	 -0.094	  0.125	  0.104	  0.043	 -9.875	 -0.004	  0.001	 -0.000	 34.500	 99.430	 -0.051
64299	 -0.336	 -0.093	  0.124	  0.112	  0.038	 -9.893	 -0.002	  0.002	  0.001	 34.500	 99.430	 -0.051
64349	 -0.336	 -0.095	  0.125	  0.112	  0.056	 -9.890	 -0.003	  0.002	  0.001	 34.500	 99.430	 -0.051
64400	 -0.334	 -0.098	  0.123	  0.111	  0.044	 -9.879	 -0.001	  0.003	  0.001	 34.500	 99.418	  1.027
64449	 -0.336	 -0.100	  0.124	  0.116	  0.021	 -9.868	 -0.002	  0.002	  0.001	 34.500	 99.430	 -0.051
64499	 -0.336	 -0.095	  0.130	  0.084	  0.022	 -9.891	 -0.002	  0.002	 -0.001	 34.500	 99.430	 -0.051
64549	 -0.339	 -0.103	  0.119	  0.112	  0.037	 -9.878	 -0.002	  0.001	  0.001	 34.500	 99.430	 -0.051
64600	 -0.336	 -0.092	  0.126	  0.092	  0.029	 -9.902	 -0.002	  0.001	 -0.000	 34.500	 99.414	  1.387
64650	 -0.339	 -0.087	  0.121	  0.112	  0.010	 -9.888	 -0.003	  0.001	  0.001	 34.500	 99.430	 -0.051
64700	 -0.335	 -0.092	  0.126	  0.119	  0.010	 -9.911	 -0.003	  0.002	  0.001	 34.500	 99.414	  1.387
64750	 -0.337	 -0.100	  0.125	  0.103	  0.042	 -9.860	 -0.002	  0.000	  0.000	 34.500	 99.441	 -1.040
64800	 -0.338	 -0.098	  0.127	  0.124	  0.033	 -9.881	 -0.003	  0.001	  0.001	 34.500	 99.426	  0.308
64850	 -0.335	 -0.087	  0.130	  0.093	  0.028	 -9.900	 -0.002	  0.002	  0.001	 34.500	 99.441	 -1.040
64900	 -0.337	 -0.098	  0.125	  0.101	  0.027	 -9.855	 -0.002	  0.000	  0.001	 34.500	 99.441	 -1.040
64950	 -0.333	 -0.099	  0.124	  0.111	  0.026	 -9.840	 -0.001	  0.002	  0.000	 34.500	 99.430	 -0.051
65000	 -0.335	 -0.093	  0.128	  0.110	  0.055	 -9.871	 -0.001	  0.002	  0.001	 34.500	 99.430	 -0.051
65050	 -0.336	 -0.094	  0.125	  0.056	  0.042	 -9.892	 -0.002	  0.002	 -0.000	 34.500	 99.418	  1.027
65100	 -0.335	 -0.095	  0.125	  0.094	  0.021	 -9.873	 -0.001	  0.002	  0.003	 34.500	 99.426	  0.308
65150	 -0.335	 -0.099	  0.124	  0.116	  0.027	 -9.906	 -0.002	  0.001	  0.001	 34.500	 99.453	 -2.119
65200	 -0.335	 -0.095	  0.124	  0.103	  0.046	 -9.873	 -0.002	  0.001	  0.001	 34.500	 99.441	 -1.040
65250	 -0.335	 -0.097	  0.124	  0.097	  0.036	 -9.861	 -0.002	  0.001	  0.001	 34.500	 99.430	 -0.051
65300	 -0.335	 -0.086	  0.128	  0.094	  0.047	 -9.879	 -0.002	  0.002	  0.001	 34.500	 99.426	  0.308
65350	 -0.336	 -0.097	  0.128	  0.104	  0.037	 -9.860	 -0.002	  0.001	  0.001	 34.500	 99.430	 -0.051
65400	 -0.336	 -0.092	  0.125	  0.091	  0.012	 -9.878	 -0.001	  0.002	  0.000	 34.500	 99.430	 -0.051
65450	 -0.338	 -0.096	  0.122	  0.090	  0.044	 -9.868	 -0.002	 -0.000	  0.002	 34.500	 99.426	  0.308
65500	 -0.339	 -0.095	  0.130	  0.111	  0.031	 -9.885	 -0.002	  0.001	  0.001	 34.500	 99.430	 -0.051
65550	 -0.337	 -0.095	  0.127	  0.108	  0.029	 -9.884	 -0.003	  0.002	  0.001	 34.500	 99.434	 -0.411
65601	 -0.335	 -0.092	  0.130	  0.113	  0.027	 -9.874	 -0.002	  0.002	  0.001	 34.500	 99.430	 -0.051
65650	 -0.337	 -0.095	  0.124	  0.115	  0.037	 -9.883	 -0.003	  0.001	  0.000	 34.500	 99.430	 -0.051
65700	 -0.336	 -0.091	  0.122	  0.091	  0.040	 -9.895	 -0.003	  0.001	  0.000	 34.500	 99.430	 -0.051
65751	 -0.334	 -0.102	  0.123	  0.083	  0.045	 -9.896	 -0.002	  0.002	  0.000	 34.500	 99.430	 -0.051
65801	 -0.335	 -0.093	  0.123	  0.102	  0.008	 -9.874	 -0.001	  0.001	  0.000	 34.500	 99.430	 -0.051
65850	 -0.335	 -0.089	  0.126	  0.117	  0.036	 -9.889	 -0.002	  0.002	 -0.000	 34.500	 99.430	 -0.051
65900	 -0.336	 -0.094	  0.125	  0.117	  0.035	 -9.868	 -0.002	  0.001	  0.001	 34.500	 99.418	  1.027
65950	 -0.336	 -0.092	  0.128	  0.096	  0.041	 -9.884	 -0.003	  0.001	  0.000	 34.500	 99.430	 -0.051
66000	 -0.337	 -0.094	  0.122	  0.100	  0.042	 -9.890	 -0.002	  0.001	  0.001	 34.500	 99.430	 -0.051
66050	 -0.335	 -0.088	  0.128	  0.083	  0.040	 -9.874	 -0.002	  0.002	  0.001	 34.500	 99.430	 -0.051
66100	 -0.337	 -0.093	  0.131	  0.117	  0.041	 -9.885	 -0.002	  0.002	  0.001	 34.500	 99.430	 -0.051
66150	 -0.336	 -0.095	  0.120	  0.107	  0.027	 -9.905	 -0.003	  0.001	  0.001	 34.500	 99.426	  0.308
66200	 -0.335	 -0.094	  0.131	  0.118	  0.026	 -9.866	 -0.002	  0.000	  0.001	 34.500	 99.426	  0.308
66250	 -0.336	 -0.092	  0.127	  0.113	  0.028	 -9.859	 -0.001	  0.003	  0.001	 34.500	 99.441	 -1.040
66301	 -0.334	 -0.094	  0.124	  0.109	  0.039	 -9.896	 -0.003	  0.001	  0.001	 34.500	 99.430	 -0.051
66350	 -0.337	 -0.098	  0.124	  0.110	  0.043	 -9.879	 -0.002	  0.003	  0.000	 34.500	 99.430	 -0.051
66400	 -0.335	 -0.097	  0.124	  0.095	  0.035	 -9.889	 -0.002	  0.001	  0.001	 34.500	 99.441	 -1.040
66450	 -0.336	 -0.099	  0.120	  0.075	  0.031	 -9.878	 -0.001	  0.001	  0.000	 34.500	 99.430	 -0.051
66501	 -0.338	 -0.094	  0.123	  0.110	  0.025	 -9.889	 -0.002	  0.002	 -0.000	 34.500	 99.430	 -0.051
66550	 -0.335	 -0.094	  0.128	  0.090	  0.025	 -9.883	 -0.003	  0.001	  0.000	 34.500	 99.430	 -0.051
66600	 -0.337	 -0.097	  0.125	  0.107	  0.027	 -9.905	 -0.001	  0.002	  0.001	 34.500	 99.430	 -0.051
66650	 -0.335	 -0.087	  0.127	  0.117	  0.026	 -9.846	 -0.002	  0.000	  0.000	 34.500	 99.441	 -1.040
66700	 -0.338	 -0.097	  0.126	  0.082	  0.041	 -9.875	 -0.004	  0.002	 -0.000	 34.500	 99.426	  0.308
66750	 -0.335	 -0.095	  0.123	  0.087	  0.049	 -9.874	 -0.003	  0.002	 -0.001	 34.500	 99.430	 -0.051
66801	 -0.333	 -0.095	  0.131	  0.098	  0.022	 -9.920	 -0.002	  0.001	  0.000	 34.500	 99.430	 -0.051
66850	 -0.335	 -0.094	  0.128	  0.103	  0.024	 -9.877	 -0.002	  0.003	  0.000	 34.500	 99.430	 -0.051
66901	 -0.336	 -0.098	  0.131	  0.098	  0.027	 -9.890	 -0.003	  0.001	  0.001	 34.500	 99.430	 -0.051
66950	 -0.337	 -0.092	  0.125	  0.111	  0.021	 -9.890	 -0.001	  0.002	  0.001	 34.500	 99.430	 -0.051
67001	 -0.336	 -0.097	  0.125	  0.081	  0.047	 -9.873	 -0.001	  0.000	 -0.000	 34.500	 99.441	 -1.040
67050	 -0.335	 -0.098	  0.118	  0.103	  0.022	 -9.864	 -0.001	  0.002	 -0.000	 34.500	 99.430	 -0.051
67101	 -0.337	 -0.086	  0.126	  0.080	  0.027	 -9.878	 -0.001	  0.002	 -0.000	 34.500	 99.430	 -0.051
67151	 -0.334	 -0.094	  0.121	  0.114	  0.019	 -9.890	 -0.003	  0.001	  0.001	 34.500	 99.441	 -1.040
67201	 -0.335	 -0.093	  0.128	  0.101	  0.024	 -9.889	 -0.002	  0.002	  0.001	 34.500	 99.426	  0.308
67251	 -0.336	 -0.097	  0.126	  0.103	  0.036	 -9.877	 -0.003	  0.001	  0.001	 34.500	 99.430	 -0.051
67301	 -0.338	 -0.102	  0.125	  0.092	  0.031	 -9.867	 -0.003	  0.001	  0.001	 34.500	 99.441	 -1.040
67351	 -0.337	 -0.093	  0.126	  0.099	  0.051	 -9.894	 -0.002	  0.002	  0.002	 34.500	 99.430	 -0.051
67401	 -0.337	 -0.095	  0.125	  0.100	  0.029	 -9.876	 -0.003	  0.001	  0.000	 34.500	 99.430	 -0.051
67451	 -0.338	 -0.095	  0.127	  0.114	  0.049	 -9.875	 -0.002	  0.002	  0.000	 34.500	 99.426	  0.308
67501	 -0.338	 -0.096	  0.130	  0.091	  0.043	 -9.882	 -0.001	  0.000	  0.001	 34.500	 99.441	 -1.040
67551	 -0.334	 -0.094	  0.129	  0.086	  0.028	 -9.867	 -0.001	  0.001	 -0.001	 34.500	 99.430	 -0.051
67601	 -0.339	 -0.100	  0.124	  0.091	  0.008	 -9.863	 -0.002	  0.001	 -0.000	 34.500	 99.426	  0.308
67651	 -0.335	 -0.088	  0.124	  0.113	  0.049	 -9.878	 -0.003	  0.002	 -0.001	 34.500	 99.430	 -0.051
67701	 -0.337	 -0.098	  0.128	  0.110	  0.037	 -9.870	 -0.003	  0.002	  0.000	 34.500	 99.441	 -1.040
67751	 -0.338	 -0.101	  0.128	  0.098	  0.032	 -9.876	 -0.002	  0.002	  0.001	 34.500	 99.418	  1.027
67801	 -0.338	 -0.100	  0.127	  0.126	  0.045	 -9.888	 -0.003	  0.001	  0.000	 34.500	 99.426	  0.308
67851	 -0.336	 -0.093	  0.120	  0.114	  0.042	 -9.875	 -0.002	  0.001	  0.000	 34.500	 99.430	 -0.051
67901	 -0.334	 -0.088	  0.125	  0.101	  0.029	 -9.882	 -0.002	  0.000	  0.000	 34.500	 99.430	 -0.051
67951	 -0.334	 -0.097	  0.129	  0.115	  0.021	 -9.886	 -0.002	  0.002	  0.001	 34.500	 99.430	 -0.051
68001	 -0.337	 -0.097	  0.124	  0.103	  0.024	 -9.865	 -0.003	  0.001	  0.001	 34.500	 99.430	 -0.051
68051	 -0.336	 -0.097	  0.127	  0.088	  0.017	 -9.842	 -0.002	  0.003	  0.001	 34.500	 99.441	 -1.040
68101	 -0.339	 -0.097	  0.123	  0.100	  0.026	 -9.859	 -0.003	  0.001	 -0.001	 34.500	 99.430	 -0.051
68151	 -0.336	 -0.095	  0.126	  0.089	  0.040	 -9.862	 -0.002	  0.002	  0.000	 34.500	 99.426	  0.308
68201	 -0.335	 -0.092	  0.127	  0.093	  0.033	 -9.871	 -0.002	  0.002	  0.000	 34.500	 99.430	 -0.051
68251	 -0.337	 -0.096	  0.126	  0.095	  0.051	 -9.860	 -0.003	  0.001	  0.000	 34.500	 99.426	  0.308
68301	 -0.336	 -0.097	  0.132	  0.081	  0.033	 -9.890	 -0.003	  0.002	 -0.000	 34.500	 99.430	 -0.051
68351	 -0.337	 -0.092	  0.128	  0.098	  0.036	 -9.883	 -0.004	  0.002	 -0.000	 34.500	 99.426	  0.308
68401	 -0.336	 -0.097	  0.127	  0.091	  0.023	 -9.846	 -0.002	  0.001	  0.000	 34.500	 99.430	 -0.051
68451	 -0.336	 -0.095	  0.126	  0.111	  0.030	 -9.864	 -0.002	  0.002	  0.000	 34.500	 99.418	  1.027
68501	 -0.337	 -0.100	  0.126	  0.104	  0.022	 -9.881	 -0.003	  0.002	  0.000	 34.500	 99.441	 -1.040
68550	 -0.337	 -0.098	  0.126	  0.108	  0.036	 -9.884	 -0.002	  0.002	  0.000	 34.500	 99.426	  0.308
68601	 -0.335	 -0.092	  0.126	  0.089	  0.052	 -9.885	 -0.001	  0.001	  0.000	 34.500	 99.441	 -1.040
68651	 -0.335	 -0.099	  0.122	  0.078	  0.029	 -9.899	 -0.003	  0.003	  0.000	 34.500	 99.418	  1.027
68701	 -0.336	 -0.097	  0.127	  0.106	  0.025	 -9.857	 -0.001	  0.002	  0.000	 34.500	 99.426	  0.308
68751	 -0.335	 -0.093	  0.125	  0.128	  0.024	 -9.846	 -0.002	  0.002	  0.000	 34.500	 99.430	 -0.051
68801	 -0.336	 -0.093	  0.127	  0.088	  0.016	 -9.894	 -0.001	  0.001	  0.000	 34.500	 99.418	  1.027
68851	 -0.339	 -0.096	  0.130	  0.096	  0.030	 -9.903	 -0.002	  0.001	  0.000	 34.500	 99.430	 -0.051
68901	 -0.338	 -0.092	  0.125	  0.108	  0.046	 -9.875	 -0.003	  0.001	  0.001	 34.500	 99.437	 -0.681
68951	 -0.336	 -0.097	  0.125	  0.118	  0.014	 -9.850	 -0.001	  0.003	  0.001	 34.500	 99.426	  0.308
69001	 -0.334	 -0.093	  0.129	  0.104	  0.025	 -9.863	 -0.002	  0.003	 -0.000	 34.500	 99.426	  0.308
69051	 -0.337	 -0.093	  0.128	  0.112	  0.053	 -9.872	 -0.003	  0.001	 -0.001	 34.500	 99.441	 -1.040
69101	 -0.336	 -0.097	  0.122	  0.074	  0.031	 -9.863	 -0.003	  0.001	  0.000	 34.500	 99.426	  0.308
69151	 -0.338	 -0.096	  0.125	  0.098	 -0.001	 -9.872	 -0.002	  0.002	  0.000	 34.500	 99.426	  0.308
69201	 -0.338	 -0.096	  0.126	  0.099	  0.038	 -9.880	 -0.002	  0.002	  0.000	 34.500	 99.414	  1.387
69251	 -0.334	 -0.100	  0.127	  0.114	  0.026	 -9.881	 -0.002	  0.002	  0.000	 34.500	 99.441	 -1.040
69301	 -0.335	 -0.087	  0.128	  0.093	  0.031	 -9.896	 -0.002	  0.001	  0.000	 34.500	 99.441	 -1.040
69351	 -0.335	 -0.094	  0.125	  0.109	  0.021	 -9.883	 -0.003	  0.004	  0.001	 34.500	 99.418	  1.027
69401	 -0.338	 -0.094	  0.128	  0.097	  0.026	 -9.918	 -0.002	  0.001	  0.000	 34.500	 99.426	  0.308
69451	 -0.336	 -0.087	  0.127	  0.114	  0.034	 -9.874	 -0.002	  0.001	  0.001	 34.500	 99.426	  0.308
69501	 -0.336	 -0.095	  0.122	  0.103	  0.009	 -9.876	 -0.002	  0.002	 -0.000	 34.500	 99.441	 -1.040
69551	 -0.336	 -0.094	  0.126	  0.091	  0.022	 -9.847	 -0.003	  0.003	  0.000	 34.500	 99.430	 -0.051
69601	 -0.336	 -0.084	  0.127	  0.088	  0.027	 -9.882	 -0.002	  0.002	  0.000	 34.500	 99.430	 -0.051
69651	 -0.336	 -0.095	  0.128	  0.097	  0.023	 -9.908	 -0.002	  0.003	  0.000	 34.500	 99.418	  1.027
69701	 -0.338	 -0.095	  0.127	  0.108	  0.029	 -9.884	 -0.001	  0.002	  0.001	 34.500	 99.426	  0.308
69752	 -0.336	 -0.093	  0.125	  0.137	  0.031	 -9.871	 -0.003	  0.002	  0.001	 34.500	 99.430	 -0.051
69801	 -0.335	 -0.089	  0.128	  0.115	  0.026	 -9.898	 -0.003	  0.002	  0.001	 34.500	 99.418	  1.027
69851	 -0.336	 -0.099	  0.118	  0.080	  0.035	 -9.864	 -0.002	  0.001	  0.001	 34.500	 99.426	  0.308
69901	 -0.336	 -0.087	  0.125	  0.103	  0.023	 -9.885	 -0.003	  0.002	  0.001	 34.500	 99.426	  0.308
69951	 -0.334	 -0.093	  0.127	  0.106	  0.032	 -9.856	 -0.002	  0.004	  0.000	 34.500	 99.426	  0.308
70001	 -0.334	 -0.094	  0.127	  0.090	  0.032	 -9.889	 -0.003	  0.003	  0.001	 34.500	 99.437	 -0.681
70051	 -0.337	 -0.092	  0.126	  0.107	  0.028	 -9.910	 -0.002	  0.000	  0.000	 34.500	 99.426	  0.308
70102	 -0.336	 -0.087	  0.125	  0.102	  0.024	 -9.875	 -0.002	  0.003	  0.001	 34.500	 99.426	  0.308
70151	 -0.337	 -0.095	  0.124	  0.083	  0.019	 -9.871	 -0.003	  0.002	  0.001	 34.500	 99.426	  0.308
70202	 -0.336	 -0.094	  0.124	  0.116	  0.032	 -9.883	 -0.003	  0.002	  0.001	 34.500	 99.426	  0.308
70252	 -0.334	 -0.092	  0.130	  0.093	  0.023	 -9.877	 -0.002	  0.002	  0.000	 34.500	 99.426	  0.308
70302	 -0.338	 -0.098	  0.126	  0.095	  0.024	 -9.873	 -0.002	  0.003	  0.000	 34.500	 99.426	  0.308
70352	 -0.337	 -0.094	  0.126	  0.089	  0.017	 -9.888	  0.000	  0.000	 -0.000	 34.500	 99.430	 -0.051
70402	 -0.339	 -0.095	  0.127	  0.087	  0.045	 -9.881	 -0.002	  0.001	 -0.001	 34.500	 99.430	 -0.051
70452	 -0.335	 -0.094	  0.123	  0.108	  0.042	 -9.880	 -0.003	  0.001	  0.001	 34.500	 99.430	 -0.051
70502	 -0.336	 -0.098	  0.128	  0.088	  0.016	 -9.882	 -0.000	  0.002	  0.001	 34.500	 99.426	  0.308
70552	 -0.338	 -0.096	  0.127	  0.124	  0.014	 -9.880	 -0.003	  0.002	  0.000	 34.500	 99.418	  1.027
70602	 -0.336	 -0.092	  0.130	  0.101	  0.020	 -9.917	 -0.003	  0.002	  0.000	 34.500	 99.430	 -0.051
70652	 -0.336	 -0.095	  0.125	  0.099	  0.014	 -9.856	 -0.002	  0.002	  0.000	 34.500	 99.430	 -0.051
70702	 -0.334	 -0.097	  0.129	  0.101	  0.040	 -9.879	 -0.002	  0.002	 -0.000	 34.500	 99.426	  0.308
70752	 -0.335	 -0.090	  0.127	  0.106	  0.023	 -9.872	 -0.003	  0.002	  0.000	 34.500	 99.426	  0.308
70802	 -0.336	 -0.086	  0.128	  0.116	  0.025	 -9.847	 -0.002	  0.001	 -0.000	 34.500	 99.414	  1.387
70852	 -0.336	 -0.083	  0.130	  0.114	  0.039	 -9.866	 -0.003	  0.001	  0.000	 34.500	 99.430	 -0.051
70902	 -0.336	 -0.084	  0.128	  0.087	  0.054	 -9.868	 -0.003	  0.002	  0.001	 34.500	 99.441	 -1.040
70952	 -0.339	 -0.096	  0.126	  0.082	  0.032	 -9.881	 -0.002	  0.001	  0.000	 34.500	 99.426	  0.308
71002	 -0.334	 -0.090	  0.126	  0.096	  0.042	 -9.887	 -0.002	  0.001	 -0.000	 34.500	 99.441	 -1.040
71052	 -0.337	 -0.092	  0.125	  0.109	  0.028	 -9.870	 -0.003	  0.002	  0.001	 34.500	 99.426	  0.308
71102	 -0.339	 -0.097	  0.126	  0.090	  0.036	 -9.854	 -0.002	  0.001	  0.001	 34.500	 99.426	  0.308
71152	 -0.337	 -0.097	  0.127	  0.092	  0.025	 -9.852	 -0.003	  0.001	  0.000	 34.500	 99.441	 -1.040
71202	 -0.336	 -0.087	  0.127	  0.101	  0.025	 -9.873	 -0.001	  0.001	  0.002	 34.500	 99.437	 -0.681
71252	 -0.337	 -0.095	  0.124	  0.103	  0.050	 -9.892	 -0.002	  0.002	  0.001	 34.500	 99.430	 -0.051
71302	 -0.336	 -0.094	  0.123	  0.092	  0.025	 -9.837	 -0.002	  0.001	  0.001	 34.500	 99.453	 -2.119
71352	 -0.335	 -0.100	  0.130	  0.100	  0.033	 -9.896	 -0.001	  0.001	  0.000	 34.500	 99.426	  0.308
71402	 -0.334	 -0.083	  0.127	  0.100	  0.039	 -9.835	 -0.001	  0.000	  0.000	 34.500	 99.441	 -1.040
71452	 -0.334	 -0.091	  0.123	  0.101	  0.036	 -9.838	 -0.002	  0.001	 -0.000	 34.500	 99.437	 -0.681
71502	 -0.336	 -0.095	  0.127	  0.109	  0.023	 -9.830	 -0.002	  0.001	  0.000	 34.500	 99.437	 -0.681
71552	 -0.336	 -0.097	  0.123	  0.087	  0.035	 -9.865	 -0.003	  0.002	 -0.000	 34.500	 99.426	  0.308
71602	 -0.338	 -0.096	  0.132	  0.098	  0.014	 -9.872	 -0.002	  0.001	 -0.001	 34.500	 99.437	 -0.681
71652	 -0.335	 -0.102	  0.126	  0.130	  0.022	 -9.875	 -0.003	  0.001	  0.002	 34.500	 99.426	  0.308
71702	 -0.336	 -0.092	  0.126	  0.104	  0.048	 -9.877	 -0.003	  0.002	  0.001	 34.500	 99.437	 -0.681
71752	 -0.337	 -0.097	  0.127	  0.093	  0.018	 -9.856	 -0.002	  0.001	 -0.000	 34.500	 99.426	  0.308
71802	 -0.337	 -0.085	  0.128	  0.093	  0.026	 -9.888	 -0.002	  0.002	  0.001	 34.500	 99.426	  0.308
71852	 -0.337	 -0.092	  0.127	  0.117	  0.023	 -9.872	 -0.002	  0.000	  0.001	 34.500	 99.441	 -1.040
71902	 -0.334	 -0.093	  0.125	  0.128	  0.043	 -9.889	 -0.002	 -0.000	  0.001	 34.500	 99.437	 -0.681
71952	 -0.336	 -0.097	  0.124	  0.123	  0.012	 -9.864	 -0.002	  0.002	  0.001	 34.500	 99.441	 -1.040
72002	 -0.334	 -0.095	  0.126	  0.101	  0.045	 -9.909	 -0.002	  0.002	  0.001	 34.500	 99.426	  0.308
72052	 -0.335	 -0.094	  0.128	  0.129	  0.027	 -9.879	 -0.003	  0.001	 -0.000	 34.500	 99.430	 -0.051
72102	 -0.337	 -0.097	  0.119	  0.115	  0.032	 -9.890	 -0.002	  0.002	  0.000	 34.500	 99.430	 -0.051
72152	 -0.335	 -0.092	  0.123	  0.128	  0.011	 -9.908	 -0.002	  0.002	 -0.001	 34.500	 99.426	  0.308
72202	 -0.337	 -0.095	  0.128	  0.102	  0.039	 -9.889	 -0.002	  0.001	  0.001	 34.500	 99.430	 -0.051
72252	 -0.335	 -0.097	  0.125	  0.088	  0.014	 -9.856	 -0.001	  0.001	  0.001	 34.500	 99.430	 -0.051
72302	 -0.336	 -0.095	  0.126	  0.097	  0.038	 -9.864	 -0.002	  0.001	  0.001	 34.500	 99.437	 -0.681
72352	 -0.334	 -0.097	  0.125	  0.114	  0.025	 -9.876	 -0.002	  0.002	  0.001	 34.500	 99.426	  0.308
72402	 -0.334	 -0.094	  0.126	  0.085	  0.035	 -9.878	 -0.002	  0.001	 -0.001	 34.500	 99.426	  0.308
72452	 -0.336	 -0.097	  0.126	  0.120	  0.036	 -9.864	 -0.002	  0.001	 -0.000	 34.500	 99.430	 -0.051
72502	 -0.335	 -0.094	  0.126	  0.115	  0.031	 -9.883	 -0.004	  0.002	 -0.000	 34.500	 99.437	 -0.681
72552	 -0.334	 -0.092	  0.127	  0.106	  0.052	 -9.894	 -0.003	  0.000	  0.001	 34.500	 99.426	  0.308
72602	 -0.335	 -0.095	  0.119	  0.108	  0.033	 -9.842	 -0.003	  0.001	 -0.000	 34.500	 99.430	 -0.051
72652	 -0.336	 -0.093	  0.126	  0.100	  0.023	 -9.902	 -0.003	  0.001	  0.000	 34.500	 99.426	  0.308
72702	 -0.337	 -0.095	  0.127	  0.106	  0.026	 -9.851	 -0.002	  0.002	  0.000	 34.500	 99.426	  0.308
72752	 -0.336	 -0.096	  0.131	  0.094	  0.022	 -9.881	 -0.001	  0.002	  0.002	 34.500	 99.430	 -0.051
72802	 -0.335	 -0.092	  0.127	  0.112	  0.024	 -9.874	 -0.001	  0.003	  0.002	 34.500	 99.426	  0.308
72852	 -0.337	 -0.096	  0.127	  0.094	  0.017	 -9.908	 -0.002	  0.002	  0.001	 34.500	 99.418	  1.027
72902	 -0.336	 -0.095	  0.128	  0.109	  0.032	 -9.889	 -0.003	  0.002	  0.001	 34.500	 99.426	  0.308
72952	 -0.333	 -0.095	  0.129	  0.111	  0.047	 -9.878	 -0.002	  0.001	  0.001	 34.500	 99.441	 -1.040
73002	 -0.337	 -0.095	  0.125	  0.116	  0.019	 -9.858	 -0.002	  0.001	  0.002	 34.500	 99.426	  0.308
73052	 -0.336	 -0.094	  0.127	  0.091	  0.022	 -9.924	 -0.002	  0.001	  0.000	 34.500	 99.426	  0.308
73102	 -0.334	 -0.097	  0.127	  0.091	  0.002	 -9.878	 -0.002	  0.003	 -0.000	 34.500	 99.437	 -0.681
73152	 -0.334	 -0.095	  0.131	  0.094	  0.054	 -9.903	 -0.002	  0.001	  0.000	 34.500	 99.437	 -0.681
73202	 -0.338	 -0.095	  0.122	  0.093	  0.006	 -9.903	 -0.003	  0.003	  0.001	 34.500	 99.426	  0.308
73252	 -0.334	 -0.093	  0.125	  0.104	  0.023	 -9.879	 -0.002	  0.002	 -0.000	 34.500	 99.426	  0.308
73302	 -0.334	 -0.094	  0.127	  0.101	  0.047	 -9.875	 -0.002	  0.002	  0.001	 34.500	 99.437	 -0.681
73352	 -0.335	 -0.094	  0.126	  0.096	  0.050	 -9.822	 -0.003	  0.002	  0.001	 34.500	 99.430	 -0.051
73402	 -0.334	 -0.094	  0.125	  0.083	  0.042	 -9.876	 -0.002	  0.001	 -0.001	 34.500	 99.437	 -0.681
73452	 -0.337	 -0.093	  0.125	  0.071	  0.050	 -9.890	 -0.003	  0.001	 -0.000	 34.500	 99.426	  0.308
73502	 -0.334	 -0.097	  0.127	  0.100	  0.035	 -9.893	 -0.001	  0.001	  0.000	 34.500	 99.426	  0.308
73552	 -0.335	 -0.092	  0.128	  0.075	  0.031	 -9.882	 -0.003	  0.002	  0.002	 34.500	 99.437	 -0.681
73602	 -0.336	 -0.097	  0.123	  0.082	  0.016	 -9.886	 -0.001	  0.002	  0.000	 34.500	 99.430	 -0.051
73652	 -0.336	 -0.093	  0.126	  0.090	  0.050	 -9.872	 -0.002	  0.003	  0.001	 34.500	 99.426	  0.308
73702	 -0.337	 -0.091	  0.125	  0.089	  0.022	 -9.857	 -0.001	  0.001	  0.000	 34.500	 99.426	  0.308
73752	 -0.337	 -0.097	  0.124	  0.099	  0.037	 -9.858	 -0.002	  0.002	  0.000	 34.500	 99.426	  0.308
73802	 -0.335	 -0.097	  0.125	  0.098	  0.037	 -9.901	 -0.002	  0.001	 -0.000	 34.500	 99.426	  0.308
73852	 -0.336	 -0.095	  0.127	  0.087	  0.015	 -9.892	 -0.002	  0.002	  0.000	 34.500	 99.437	 -0.681
73902	 -0.337	 -0.092	  0.130	  0.107	  0.035	 -9.863	 -0.003	  0.001	 -0.001	 34.500	 99.437	 -0.681
73952	 -0.336	 -0.098	  0.128	  0.091	  0.045	 -9.892	 -0.002	  0.001	 -0.002	 34.500	 99.437	 -0.681
74002	 -0.335	 -0.095	  0.122	  0.093	  0.058	 -9.888	 -0.003	  0.002	  0.001	 34.500	 99.437	 -0.681
74052	 -0.337	 -0.097	  0.123	  0.094	  0.033	 -9.872	 -0.002	  0.001	  0.001	 34.500	 99.437	 -0.681
74102	 -0.334	 -0.095	  0.127	  0.100	  0.037	 -9.889	 -0.003	  0.002	  0.001	 34.500	 99.437	 -0.681
74152	 -0.336	 -0.095	  0.123	  0.126	  0.039	 -9.877	 -0.003	  0.001	  0.000	 34.500	 99.430	 -0.051
74202	 -0.335	 -0.095	  0.125	  0.095	  0.009	 -9.878	 -0.003	  0.002	  0.001	 34.500	 99.430	 -0.051
74252	 -0.335	 -0.093	  0.125	  0.105	  0.024	 -9.903	 -0.003	  0.002	  0.000	 34.500	 99.426	  0.308
74302	 -0.335	 -0.094	  0.125	  0.099	  0.031	 -9.900	 -0.001	  0.001	  0.001	 34.500	 99.426	  0.308
74352	 -0.332	 -0.090	  0.125	  0.106	  0.017	 -9.861	 -0.003	  0.002	  0.001	 34.500	 99.426	  0.308
74402	 -0.337	 -0.094	  0.125	  0.096	  0.013	 -9.833	 -0.001	  0.001	 -0.000	 34.500	 99.437	 -0.681
74452	 -0.338	 -0.090	  0.127	  0.100	  0.032	 -9.880	 -0.002	  0.002	  0.001	 34.500	 99.426	  0.308
74502	 -0.336	 -0.089	  0.130	  0.089	  0.025	 -9.867	 -0.002	  0.002	  0.001	 34.500	 99.437	 -0.681
74552	 -0.335	 -0.097	  0.125	  0.105	  0.022	 -9.883	 -0.002	  0.001	 -0.001	 34.500	 99.426	  0.308
74602	 -0.334	 -0.092	  0.130	  0.092	  0.056	 -9.862	 -0.003	  0.002	 -0.001	 34.500	 99.426	  0.308
74652	 -0.336	 -0.094	  0.124	  0.079	  0.031	 -9.864	 -0.001	  0.002	 -0.000	 34.500	 99.437	 -0.681
74702	 -0.337	 -0.097	  0.119	  0.120	  0.036	 -9.899	 -0.003	  0.001	  0.001	 34.500	 99.437	 -0.681
74752	 -0.336	 -0.097	  0.124	  0.099	  0.035	 -9.909	 -0.003	  0.003	 -0.000	 34.500	 99.426	  0.308
74802	 -0.337	 -0.088	  0.127	  0.078	  0.042	 -9.901	 -0.001	  0.001	 -0.000	 34.500	 99.430	 -0.051
74852	 -0.337	 -0.097	  0.125	  0.094	  0.056	 -9.875	 -0.002	  0.002	  0.001	 34.500	 99.437	 -0.681
74902	 -0.336	 -0.090	  0.128	  0.079	  0.029	 -9.875	 -0.002	  0.001	 -0.001	 34.500	 99.426	  0.308
74952	 -0.334	 -0.091	  0.127	  0.099	  0.036	 -9.855	 -0.002	  0.001	  0.001	 34.500	 99.426	  0.308
75002	 -0.338	 -0.095	  0.128	  0.111	  0.019	 -9.865	 -0.002	  0.002	  0.002	 34.500	 99.426	  0.308
75052	 -0.336	 -0.093	  0.125	  0.103	  0.043	 -9.844	 -0.002	  0.001	 -0.000	 34.500	 99.430	 -0.051
75103	 -0.336	 -0.094	  0.128	  0.100	  0.031	 -9.869	 -0.001	  0.002	 -0.001	 34.500	 99.414	  1.387
75152	 -0.335	 -0.093	  0.126	  0.107	  0.016	 -9.877	 -0.001	  0.002	  0.001	 34.500	 99.426	  0.308
75202	 -0.338	 -0.094	  0.122	  0.108	  0.040	 -9.879	 -0.002	  0.002	 -0.000	 34.500	 99.430	 -0.051
75253	 -0.335	 -0.093	  0.125	  0.088	  0.020	 -9.874	 -0.003	 -0.001	  0.000	 34.500	 99.426	  0.308
75302	 -0.335	 -0.097	  0.126	  0.097	  0.028	 -9.872	 -0.002	  0.001	  0.000	 34.500	 99.426	  0.308
75353	 -0.335	 -0.090	  0.127	  0.097	  0.037	 -9.883	 -0.002	  0.002	  0.000	 34.500	 99.437	 -0.681
75402	 -0.338	 -0.101	  0.123	  0.104	  0.044	 -9.882	 -0.003	  0.003	 -0.000	 34.500	 99.426	  0.308
75452	 -0.335	 -0.095	  0.125	  0.070	  0.024	 -9.864	 -0.002	  0.002	 -0.000	 34.500	 99.426	  0.308
75502	 -0.335	 -0.095	  0.130	  0.100	  0.026	 -9.879	 -0.003	  0.002	  0.000	 34.500	 99.426	  0.308
75552	 -0.333	 -0.102	  0.126	  0.105	  0.009	 -9.901	 -0.003	  0.001	  0.000	 34.500	 99.437	 -0.681
75603	 -0.336	 -0.094	  0.126	  0.100	  0.041	 -9.861	 -0.002	  0.002	 -0.001	 34.500	 99.437	 -0.681
75652	 -0.336	 -0.093	  0.125	  0.090	  0.019	 -9.859	 -0.002	  0.003	 -0.000	 34.500	 99.426	  0.308
75703	 -0.334	 -0.098	  0.119	  0.133	  0.049	 -9.873	 -0.002	 -0.000	  0.001	 34.500	 99.426	  0.308
75753	 -0.337	 -0.096	  0.125	  0.107	  0.053	 -9.880	 -0.003	  0.002	  0.000	 34.500	 99.437	 -0.681
75803	 -0.336	 -0.094	  0.124	  0.103	  0.021	 -9.872	 -0.002	  0.000	  0.001	 34.500	 99.430	 -0.051
75853	 -0.334	 -0.093	  0.130	  0.087	  0.025	 -9.837	 -0.003	  0.003	  0.001	 34.500	 99.426	  0.308
75903	 -0.336	 -0.097	  0.122	  0.095	  0.024	 -9.907	 -0.002	  0.002	  0.000	 34.500	 99.437	 -0.681
75953	 -0.334	 -0.093	  0.126	  0.101	  0.014	 -9.885	 -0.002	  0.002	  0.001	 34.500	 99.437	 -0.681
76003	 -0.336	 -0.090	  0.124	  0.104	  0.040	 -9.907	 -0.002	  0.001	  0.001	 34.500	 99.426	  0.308
76053	 -0.337	 -0.081	  0.124	  0.102	  0.039	 -9.879	 -0.002	  0.000	  0.001	 34.500	 99.426	  0.308
76103	 -0.335	 -0.095	  0.126	  0.104	  0.035	 -9.881	 -0.002	  0.003	  0.001	 34.500	 99.437	 -0.681
76153	 -0.337	 -0.097	  0.127	  0.125	  0.031	 -9.878	 -0.003	  0.002	 -0.000	 34.500	 99.437	 -0.681
76203	 -0.336	 -0.095	  0.130	  0.082	  0.040	 -9.913	 -0.002	  0.000	  0.001	 34.500	 99.426	  0.308
76253	 -0.337	 -0.095	  0.126	  0.087	  0.030	 -9.875	 -0.001	  0.001	 -0.000	 34.500	 99.437	 -0.681
76303	 -0.337	 -0.098	  0.127	  0.103	  0.028	 -9.885	 -0.002	  0.002	  0.001	 34.500	 99.437	 -0.681
76353	 -0.336	 -0.093	  0.125	  0.099	  0.035	 -9.857	 -0.003	  0.001	 -0.000	 34.500	 99.441	 -1.040
76403	 -0.335	 -0.087	  0.126	  0.121	  0.032	 -9.881	 -0.001	  0.000	  0.000	 34.500	 99.437	 -0.681
76453	 -0.336	 -0.096	  0.128	  0.101	  0.031	 -9.859	 -0.003	  0.005	  0.002	 34.500	 99.437	 -0.681
76503	 -0.337	 -0.089	  0.125	  0.077	  0.028	 -9.882	 -0.002	  0.002	  0.000	 34.500	 99.421	  0.758
76553	 -0.335	 -0.101	  0.129	  0.105	  0.019	 -9.853	 -0.002	  0.002	  0.001	 34.500	 99.426	  0.308
76603	 -0.336	 -0.098	  0.128	  0.097	  0.034	 -9.862	 -0.003	  0.003	  0.002	 34.500	 99.437	 -0.681
76653	 -0.336	 -0.093	  0.126	  0.107	  0.037	 -9.900	 -0.002	  0.002	 -0.001	 34.500	 99.426	  0.308
76703	 -0.336	 -0.095	  0.125	  0.110	  0.031	 -9.873	 -0.001	  0.003	 -0.000	 34.500	 99.437	 -0.681
76753	 -0.335	 -0.094	  0.123	  0.075	  0.018	 -9.884	 -0.002	  0.001	  0.001	 34.500	 99.426	  0.308
76803	 -0.335	 -0.088	  0.126	  0.119	  0.058	 -9.876	 -0.002	  0.001	 -0.001	 34.500	 99.437	 -0.681
76853	 -0.336	 -0.092	  0.124	  0.106	  0.014	 -9.894	 -0.002	  0.003	  0.000	 34.500	 99.437	 -0.681
76903	 -0.336	 -0.095	  0.127	  0.089	  0.020	 -9.867	 -0.002	  0.001	 -0.000	 34.500	 99.426	  0.308
76953	 -0.335	 -0.093	  0.127	  0.087	  0.016	 -9.867	 -0.003	  0.002	  0.000	 34.500	 99.437	 -0.681
77003	 -0.335	 -0.100	  0.124	  0.078	  0.019	 -9.894	 -0.001	  0.001	  0.001	 34.500	 99.437	 -0.681
77053	 -0.337	 -0.093	  0.127	  0.100	  0.028	 -9.910	 -0.002	  0.002	 -0.000	 34.500	 99.448	 -1.669
77103	 -0.337	 -0.100	  0.125	  0.092	  0.043	 -9.901	 -0.002	 -0.000	  0.000	 34.500	 99.437	 -0.681
77153	 -0.336	 -0.089	  0.128	  0.111	  0.048	 -9.880	 -0.002	  0.001	  0.000	 34.500	 99.437	 -0.681
77203	 -0.335	 -0.088	  0.131	  0.121	  0.031	 -9.905	 -0.002	  0.001	  0.000	 34.500	 99.426	  0.308
77253	 -0.337	 -0.094	  0.131	  0.098	  0.026	 -9.849	 -0.002	  0.001	  0.001	 34.500	 99.414	  1.387
77303	 -0.337	 -0.097	  0.127	  0.079	  0.038	 -9.863	 -0.002	  0.000	 -0.000	 34.500	 99.426	  0.308
77353	 -0.336	 -0.090	  0.127	  0.103	  0.021	 -9.912	 -0.002	  0.001	  0.002	 34.500	 99.414	  1.387
77403	 -0.336	 -0.097	  0.122	  0.081	  0.052	 -9.879	 -0.003	  0.001	  0.000	 34.500	 99.426	  0.308
77453	 -0.335	 -0.095	  0.128	  0.106	  0.042	 -9.887	 -0.003	  0.000	  0.001	 34.500	 99.414	  1.387
77503	 -0.334	 -0.097	  0.125	  0.100	  0.034	 -9.852	 -0.001	 -0.000	  0.000	 34.500	 99.433	 -0.321
77553	 -0.337	 -0.096	  0.125	  0.093	  0.050	 -9.868	 -0.002	  0.001	  0.001	 34.500	 99.426	  0.308
77603	 -0.337	 -0.098	  0.120	  0.078	  0.045	 -9.898	 -0.002	  0.001	 -0.001	 34.500	 99.426	  0.308
77653	 -0.333	 -0.094	  0.127	  0.095	  0.033	 -9.879	 -0.002	  0.001	  0.001	 34.500	 99.426	  0.308
77703	 -0.335	 -0.097	  0.120	  0.080	  0.031	 -9.875	 -0.002	 -0.000	  0.001	 34.500	 99.421	  0.758
77753	 -0.335	 -0.092	  0.126	  0.108	  0.030	 -9.874	 -0.001	  0.001	  0.000	 34.500	 99.421	  0.758
77803	 -0.333	 -0.097	  0.131	  0.115	  0.031	 -9.882	 -0.001	  0.001	 -0.001	 34.500	 99.437	 -0.681
77853	 -0.334	 -0.092	  0.123	  0.110	  0.044	 -9.902	 -0.002	  0.000	 -0.000	 34.500	 99.426	  0.308
77903	 -0.336	 -0.101	  0.127	  0.110	  0.037	 -9.899	 -0.002	  0.003	  0.001	 34.500	 99.426	  0.308
77953	 -0.336	 -0.097	  0.126	  0.111	  0.033	 -9.879	 -0.002	  0.001	  0.001	 34.500	 99.426	  0.308
78003	 -0.336	 -0.097	  0.128	  0.108	  0.028	 -9.866	 -0.002	  0.001	 -0.000	 34.500	 99.437	 -0.681
78053	 -0.335	 -0.095	  0.130	  0.082	  0.026	 -9.889	 -0.003	  0.001	  0.001	 34.500	 99.437	 -0.681
78103	 -0.337	 -0.095	  0.125	  0.099	  0.021	 -9.855	 -0.003	  0.001	 -0.000	 34.500	 99.437	 -0.681
78153	 -0.336	 -0.102	  0.119	  0.088	  0.020	 -9.914	 -0.002	  0.002	  0.001	 34.500	 99.426	  0.308
78203	 -0.336	 -0.100	  0.127	  0.126	  0.020	 -9.869	 -0.001	 -0.000	 -0.000	 34.500	 99.437	 -0.681
78253	 -0.337	 -0.090	  0.126	  0.105	  0.047	 -9.842	 -0.002	  0.001	  0.001	 34.500	 99.426	  0.308
78303	 -0.333	 -0.097	  0.125	  0.089	  0.020	 -9.850	 -0.003	  0.001	  0.000	 34.500	 99.437	 -0.681
78353	 -0.337	 -0.093	  0.130	  0.092	  0.024	 -9.854	 -0.003	  0.002	  0.001	 34.500	 99.437	 -0.681
78403	 -0.333	 -0.100	  0.129	  0.104	  0.025	 -9.887	 -0.001	  0.001	  0.000	 34.500	 99.426	  0.308
78453	 -0.335	 -0.101	  0.124	  0.102	  0.026	 -9.883	 -0.003	  0.001	  0.001	 34.500	 99.437	 -0.681
78503	 -0.335	 -0.093	  0.127	  0.103	  0.040	 -9.879	 -0.003	  0.002	  0.001	 34.500	 99.437	 -0.681
78553	 -0.335	 -0.092	  0.127	  0.112	  0.024	 -9.869	 -0.002	  0.001	 -0.000	 34.500	 99.437	 -0.681
78603	 -0.337	 -0.095	  0.127	  0.119	  0.044	 -9.859	 -0.002	  0.000	  0.001	 34.500	 99.414	  1.387
78653	 -0.337	 -0.093	  0.128	  0.107	  0.023	 -9.867	 -0.002	  0.002	  0.000	 34.500	 99.426	  0.308
78703	 -0.337	 -0.096	  0.127	  0.073	  0.017	 -9.876	 -0.002	  0.001	 -0.000	 34.500	 99.437	 -0.681
78753	 -0.337	 -0.089	  0.127	  0.127	  0.044	 -9.899	 -0.003	  0.002	  0.000	 34.500	 99.437	 -0.681
78803	 -0.334	 -0.097	  0.126	  0.079	  0.032	 -9.878	 -0.001	  0.002	 -0.000	 34.500	 99.421	  0.758
78853	 -0.337	 -0.093	  0.127	  0.102	  0.051	 -9.900	 -0.002	  0.000	  0.000	 34.500	 99.426	  0.308
78903	 -0.337	 -0.087	  0.124	  0.079	  0.018	 -9.866	 -0.002	  0.001	 -0.000	 34.500	 99.437	 -0.681
78953	 -0.334	 -0.094	  0.118	  0.101	  0.021	 -9.850	 -0.003	  0.001	  0.001	 34.500	 99.426	  0.308
