Time	 MagX	 MagY	 MagZ	 AccelX	 AccelY	 AccelZ	 Yaw	 Pitch	 Roll	 Temperature	 Pressure	 Altitude
14327	 -0.171	 -0.086	  0.394	  0.204	  0.022	 -9.830	 -0.002	  0.003	  0.001	 33.300	 99.343	 -99999.000
14377	 -0.172	 -0.090	  0.395	  0.236	  0.044	 -9.845	 -0.004	  0.003	  0.001	 33.200	 99.339	 -99999.000
14427	 -0.171	 -0.092	  0.398	  0.232	  0.033	 -9.884	 -0.003	  0.002	  0.001	 33.200	 99.350	 -99999.000
14477	 -0.174	 -0.089	  0.391	  0.257	  0.035	 -9.868	 -0.003	  0.003	  0.001	 33.300	 99.350	 -99999.000
14527	 -0.175	 -0.078	  0.397	  0.222	  0.044	 -9.815	 -0.004	  0.005	  0.001	 33.300	 99.343	 -99999.000
14577	 -0.170	 -0.089	  0.397	  0.215	  0.019	 -9.833	 -0.003	  0.002	  0.002	 33.200	 99.339	 -99999.000
14627	 -0.172	 -0.093	  0.399	  0.258	  0.037	 -9.838	 -0.004	  0.001	  0.001	 33.200	 99.339	 -99999.000
14677	 -0.172	 -0.090	  0.397	  0.224	  0.029	 -9.860	 -0.003	  0.003	  0.003	 33.200	 99.339	 -99999.000
14727	 -0.169	 -0.090	  0.395	  0.207	  0.028	 -9.892	 -0.004	  0.002	  0.001	 33.200	 99.350	 -99999.000
14777	 -0.170	 -0.092	  0.398	  0.259	  0.032	 -9.817	 -0.003	  0.001	  0.001	 33.200	 99.339	 -99999.000
14827	 -0.172	 -0.086	  0.391	  0.236	  0.017	 -9.834	 -0.004	  0.003	  0.000	 33.200	 99.362	 -99999.000
14877	 -0.169	 -0.089	  0.395	  0.204	  0.049	 -9.827	 -0.002	  0.003	  0.001	 33.200	 99.350	 -99999.000
14927	 -0.172	 -0.090	  0.392	  0.239	  0.014	 -9.845	 -0.005	  0.002	  0.001	 33.200	 99.339	 -99999.000
14977	 -0.172	 -0.091	  0.397	  0.259	  0.042	 -9.863	 -0.002	  0.003	  0.002	 33.200	 99.339	 -99999.000
15027	 -0.174	 -0.095	  0.394	  0.200	  0.057	 -9.844	 -0.003	  0.003	  0.002	 33.200	 99.350	 -99999.000
15077	 -0.172	 -0.091	  0.396	  0.209	  0.019	 -9.863	 -0.004	  0.002	  0.002	 33.200	 99.343	 -99999.000
15127	 -0.172	 -0.092	  0.395	  0.267	  0.029	 -9.850	 -0.003	  0.003	  0.001	 33.200	 99.350	 -99999.000
15177	 -0.170	 -0.090	  0.390	  0.226	  0.044	 -9.847	 -0.003	  0.003	  0.001	 33.200	 99.339	 -99999.000
15227	 -0.172	 -0.089	  0.391	  0.190	  0.008	 -9.867	 -0.004	  0.003	  0.002	 33.200	 99.350	 -99999.000
15277	 -0.171	 -0.092	  0.390	  0.261	  0.041	 -9.866	 -0.003	  0.002	 -0.000	 33.200	 99.339	 -99999.000
15327	 -0.170	 -0.082	  0.398	  0.233	  0.034	 -9.848	 -0.005	  0.003	  0.001	 33.200	 99.339	 -99999.000
15377	 -0.172	 -0.093	  0.395	  0.226	  0.036	 -9.822	 -0.002	  0.001	  0.000	 33.200	 99.339	 -99999.000
15427	 -0.174	 -0.088	  0.394	  0.221	  0.038	 -9.887	 -0.004	  0.001	  0.001	 33.300	 99.343	 -99999.000
15477	 -0.173	 -0.090	  0.395	  0.249	  0.033	 -9.822	 -0.003	  0.001	  0.001	 33.200	 99.328	 -99999.000
15527	 -0.173	 -0.090	  0.394	  0.257	  0.030	 -9.824	 -0.005	  0.001	  0.000	 33.200	 99.339	 -99999.000
15577	 -0.173	 -0.088	  0.395	  0.207	  0.054	 -9.858	 -0.004	  0.002	  0.000	 33.200	 99.350	 -99999.000
15627	 -0.170	 -0.088	  0.391	  0.226	  0.059	 -9.844	 -0.002	  0.002	 -0.000	 33.300	 99.343	 -99999.000
15677	 -0.171	 -0.088	  0.391	  0.254	  0.027	 -9.847	 -0.004	  0.001	  0.001	 33.200	 99.343	 -99999.000
15727	 -0.171	 -0.090	  0.397	  0.246	  0.036	 -9.851	 -0.003	  0.003	  0.001	 33.200	 99.350	 -99999.000
15777	 -0.172	 -0.083	  0.398	  0.224	  0.045	 -9.851	 -0.003	  0.001	  0.001	 33.200	 99.339	 -99999.000
15826	 -0.172	 -0.088	  0.400	  0.205	  0.054	 -9.810	 -0.004	  0.002	  0.002	 33.200	 99.350	 -99999.000
15876	 -0.172	 -0.091	  0.391	  0.282	  0.045	 -9.841	 -0.004	  0.003	  0.001	 33.300	 99.343	 -99999.000
15926	 -0.171	 -0.090	  0.394	  0.220	  0.047	 -9.873	 -0.003	  0.003	  0.001	 33.200	 99.339	 -99999.000
15976	 -0.170	 -0.084	  0.392	  0.246	  0.046	 -9.856	 -0.002	  0.002	  0.000	 33.200	 99.343	 -99999.000
16026	 -0.171	 -0.082	  0.395	  0.221	  0.014	 -9.817	 -0.003	  0.001	  0.002	 33.200	 99.339	 -99999.000
16076	 -0.171	 -0.090	  0.397	  0.227	  0.015	 -9.849	 -0.004	  0.002	  0.002	 33.300	 99.339	 -99999.000
16126	 -0.170	 -0.083	  0.399	  0.244	  0.056	 -9.858	 -0.002	  0.002	  0.001	 33.200	 99.339	 -99999.000
16176	 -0.171	 -0.091	  0.396	  0.205	  0.045	 -9.834	 -0.003	  0.002	  0.001	 33.200	 99.355	 -99999.000
16226	 -0.172	 -0.083	  0.393	  0.237	  0.039	 -9.859	 -0.003	  0.001	  0.001	 33.200	 99.339	 -99999.000
16276	 -0.172	 -0.093	  0.397	  0.225	  0.020	 -9.829	 -0.002	  0.003	  0.002	 33.300	 99.339	 -99999.000
16326	 -0.172	 -0.085	  0.396	  0.219	  0.060	 -9.825	 -0.004	  0.002	  0.002	 33.200	 99.339	 -99999.000
16376	 -0.169	 -0.091	  0.395	  0.246	  0.039	 -9.828	 -0.004	  0.001	  0.001	 33.200	 99.350	 -99999.000
16426	 -0.173	 -0.089	  0.396	  0.244	  0.013	 -9.837	 -0.004	  0.002	  0.000	 33.200	 99.339	 -99999.000
16476	 -0.173	 -0.092	  0.397	  0.235	  0.033	 -9.863	 -0.004	  0.003	  0.002	 33.200	 99.339	 -99999.000
16526	 -0.172	 -0.084	  0.398	  0.219	  0.046	 -9.851	 -0.004	  0.001	  0.001	 33.300	 99.355	 -99999.000
16576	 -0.172	 -0.089	  0.395	  0.237	  0.051	 -9.836	 -0.003	  0.001	  0.001	 33.200	 99.339	 -99999.000
16626	 -0.171	 -0.091	  0.398	  0.221	  0.026	 -9.835	 -0.004	  0.002	  0.002	 33.200	 99.350	 -99999.000
16676	 -0.171	 -0.085	  0.395	  0.206	  0.012	 -9.846	 -0.004	  0.001	  0.001	 33.200	 99.339	 -99999.000
16726	 -0.172	 -0.085	  0.399	  0.245	  0.039	 -9.856	 -0.004	  0.001	  0.000	 33.300	 99.343	 -99999.000
16776	 -0.173	 -0.089	  0.396	  0.235	  0.026	 -9.832	 -0.003	  0.002	  0.000	 33.200	 99.339	 -99999.000
16826	 -0.171	 -0.082	  0.399	  0.205	  0.034	 -9.868	 -0.002	  0.002	  0.001	 33.300	 99.355	 -99999.000
16876	 -0.172	 -0.088	  0.395	  0.237	  0.042	 -9.849	 -0.002	  0.001	  0.001	 33.300	 99.355	 -99999.000
16926	 -0.172	 -0.087	  0.395	  0.256	  0.024	 -9.865	 -0.004	  0.001	  0.001	 33.200	 99.350	 -99999.000
16976	 -0.172	 -0.094	  0.394	  0.255	  0.045	 -9.842	 -0.004	  0.001	  0.002	 33.300	 99.350	 -99999.000
17026	 -0.172	 -0.089	  0.389	  0.164	  0.024	 -9.840	 -0.004	  0.003	  0.001	 33.200	 99.339	 -99999.000
17076	 -0.171	 -0.092	  0.398	  0.245	  0.044	 -9.839	 -0.003	  0.000	  0.001	 33.300	 99.339	 -99999.000
17126	 -0.172	 -0.090	  0.390	  0.248	  0.022	 -9.874	 -0.004	  0.003	  0.001	 33.300	 99.343	 -99999.000
17176	 -0.173	 -0.093	  0.397	  0.236	  0.009	 -9.813	 -0.004	  0.002	  0.001	 33.200	 99.339	 -99999.000
17226	 -0.173	 -0.084	  0.396	  0.258	  0.045	 -9.832	 -0.004	  0.001	  0.001	 33.200	 99.339	 -99999.000
17276	 -0.172	 -0.090	  0.396	  0.239	  0.060	 -9.838	 -0.004	  0.003	  0.001	 33.200	 99.339	 -99999.000
18326	 -0.171	 -0.088	  0.398	  0.231	  0.043	 -9.822	 -0.003	  0.001	  0.001	 33.200	 99.339	 -99999.000
18376	 -0.173	 -0.091	  0.396	  0.235	  0.031	 -9.814	 -0.004	  0.002	  0.002	 33.200	 99.339	 -99999.000
18426	 -0.171	 -0.090	  0.396	  0.212	  0.056	 -9.827	 -0.005	  0.002	  0.001	 33.300	 99.355	 -99999.000
18476	 -0.169	 -0.084	  0.396	  0.251	  0.033	 -9.821	 -0.005	  0.003	  0.000	 33.300	 99.328	 -99999.000
18526	 -0.172	 -0.090	  0.395	  0.242	  0.018	 -9.827	 -0.004	  0.002	  0.001	 33.300	 99.343	 -99999.000
18576	 -0.173	 -0.090	  0.399	  0.250	  0.037	 -9.831	 -0.003	  0.003	  0.001	 33.200	 99.328	 -99999.000
18626	 -0.170	 -0.090	  0.396	  0.221	  0.023	 -9.814	 -0.003	  0.001	  0.001	 33.200	 99.339	 -99999.000
18676	 -0.171	 -0.091	  0.391	  0.260	  0.032	 -9.832	 -0.002	  0.003	  0.001	 33.300	 99.343	 -99999.000
18726	 -0.173	 -0.094	  0.391	  0.254	  0.028	 -9.888	 -0.002	  0.003	  0.000	 33.200	 99.339	 -99999.000
18776	 -0.170	 -0.082	  0.399	  0.218	  0.033	 -9.859	 -0.003	  0.003	  0.001	 33.300	 99.339	 -99999.000
18826	 -0.171	 -0.090	  0.396	  0.246	  0.032	 -9.836	 -0.003	  0.002	  0.001	 33.200	 99.339	 -99999.000
18877	 -0.171	 -0.089	  0.395	  0.207	  0.030	 -9.857	 -0.004	  0.002	  0.001	 33.200	 99.343	 -99999.000
18926	 -0.170	 -0.092	  0.396	  0.236	  0.044	 -9.858	 -0.003	  0.002	  0.001	 33.300	 99.343	 -99999.000
18976	 -0.171	 -0.087	  0.388	  0.199	  0.042	 -9.861	 -0.004	  0.003	  0.002	 33.300	 99.343	 -99999.000
19026	 -0.171	 -0.092	  0.399	  0.236	  0.012	 -9.845	 -0.002	  0.001	  0.001	 33.300	 99.355	 -99999.000
19076	 -0.171	 -0.082	  0.396	  0.299	  0.038	 -9.806	 -0.003	  0.002	  0.001	 33.200	 99.343	 -99999.000
19127	 -0.173	 -0.089	  0.396	  0.199	  0.052	 -9.836	 -0.003	  0.002	 -0.000	 33.200	 99.339	 -99999.000
19176	 -0.171	 -0.090	  0.397	  0.205	  0.050	 -9.804	 -0.004	 -0.000	  0.002	 33.300	 99.339	 -99999.000
19227	 -0.171	 -0.086	  0.387	  0.247	  0.011	 -9.806	 -0.004	  0.001	  0.001	 33.300	 99.343	 -99999.000
19276	 -0.170	 -0.091	  0.399	  0.240	  0.010	 -9.834	 -0.004	  0.003	  0.001	 33.200	 99.343	 -99999.000
19326	 -0.175	 -0.089	  0.394	  0.198	  0.060	 -9.865	 -0.005	  0.003	  0.001	 33.300	 99.355	 -99999.000
19376	 -0.172	 -0.089	  0.396	  0.223	  0.016	 -9.838	 -0.004	  0.001	  0.001	 33.300	 99.339	 -99999.000
19426	 -0.171	 -0.091	  0.395	  0.261	  0.029	 -9.867	 -0.004	  0.003	  0.001	 33.300	 99.343	 -99999.000
19476	 -0.172	 -0.090	  0.395	  0.201	  0.029	 -9.860	 -0.004	  0.001	  0.003	 33.300	 99.332	 -99999.000
19526	 -0.172	 -0.090	  0.392	  0.237	  0.047	 -9.836	 -0.004	  0.001	  0.001	 33.200	 99.350	 -99999.000
19576	 -0.173	 -0.089	  0.395	  0.249	  0.043	 -9.843	 -0.003	  0.002	  0.001	 33.300	 99.343	 -99999.000
19626	 -0.170	 -0.092	  0.395	  0.195	  0.031	 -9.836	 -0.003	  0.002	  0.001	 33.200	 99.339	 -99999.000
19676	 -0.171	 -0.091	  0.391	  0.238	  0.044	 -9.858	 -0.002	  0.002	  0.001	 33.300	 99.355	 -99999.000
19726	 -0.171	 -0.089	  0.396	  0.239	 -0.002	 -9.878	 -0.005	  0.003	  0.001	 33.300	 99.343	 -99999.000
19776	 -0.170	 -0.091	  0.396	  0.224	  0.011	 -9.793	 -0.004	  0.001	  0.003	 33.300	 99.343	 -99999.000
19826	 -0.172	 -0.084	  0.388	  0.220	  0.042	 -9.839	 -0.002	  0.003	  0.001	 33.300	 99.343	 -99999.000
19876	 -0.173	 -0.090	  0.392	  0.233	  0.026	 -9.855	 -0.004	  0.003	  0.001	 33.300	 99.332	 -99999.000
19926	 -0.173	 -0.078	  0.394	  0.223	  0.046	 -9.872	 -0.004	  0.001	  0.000	 33.200	 99.339	 -99999.000
19976	 -0.171	 -0.082	  0.400	  0.235	  0.024	 -9.851	 -0.004	  0.002	  0.001	 33.300	 99.339	 -99999.000
20026	 -0.173	 -0.093	  0.391	  0.233	  0.050	 -9.844	 -0.004	  0.003	  0.001	 33.300	 99.343	 -99999.000
20076	 -0.172	 -0.092	  0.398	  0.224	  0.035	 -9.882	 -0.003	  0.000	  0.001	 33.200	 99.339	 -99999.000
20126	 -0.174	 -0.091	  0.397	  0.254	  0.013	 -9.907	 -0.001	  0.002	  0.002	 33.300	 99.343	 -99999.000
20176	 -0.170	 -0.088	  0.397	  0.230	  0.051	 -9.868	 -0.003	  0.002	  0.000	 33.300	 99.343	 -99999.000
20226	 -0.172	 -0.083	  0.394	  0.221	  0.030	 -9.861	 -0.003	  0.003	 -0.001	 33.200	 99.339	 -99999.000
20276	 -0.171	 -0.089	  0.391	  0.245	  0.010	 -9.834	 -0.004	  0.002	  0.000	 33.300	 99.332	 -99999.000
20326	 -0.171	 -0.089	  0.399	  0.230	  0.040	 -9.848	 -0.004	  0.002	  0.001	 33.300	 99.343	 -99999.000
20376	 -0.172	 -0.089	  0.392	  0.225	  0.020	 -9.831	 -0.003	  0.002	  0.000	 33.300	 99.355	 -99999.000
20426	 -0.170	 -0.091	  0.402	  0.208	  0.032	 -9.826	 -0.002	  0.003	  0.001	 33.300	 99.332	 -99999.000
20476	 -0.173	 -0.089	  0.394	  0.200	  0.044	 -9.868	 -0.004	  0.001	  0.002	 33.300	 99.343	 -99999.000
20526	 -0.173	 -0.087	  0.395	  0.220	  0.042	 -9.822	 -0.005	  0.000	  0.001	 33.200	 99.350	 -99999.000
20576	 -0.171	 -0.089	  0.397	  0.217	  0.029	 -9.835	 -0.003	  0.002	  0.001	 33.300	 99.355	 -99999.000
20626	 -0.171	 -0.089	  0.391	  0.233	  0.048	 -9.847	 -0.003	  0.002	  0.001	 33.200	 99.339	 -99999.000
20676	 -0.173	 -0.080	  0.397	  0.240	  0.024	 -9.847	 -0.002	  0.002	  0.001	 33.200	 99.343	 -99999.000
20726	 -0.173	 -0.090	  0.397	  0.231	  0.035	 -9.870	 -0.002	  0.002	  0.002	 33.300	 99.343	 -99999.000
20776	 -0.172	 -0.090	  0.398	  0.244	  0.045	 -9.842	 -0.002	  0.002	  0.001	 33.300	 99.343	 -99999.000
20826	 -0.172	 -0.086	  0.398	  0.216	  0.030	 -9.845	 -0.003	  0.001	  0.000	 33.300	 99.343	 -99999.000
20876	 -0.170	 -0.087	  0.391	  0.226	  0.008	 -9.844	 -0.003	  0.004	  0.001	 33.300	 99.343	 -99999.000
20926	 -0.171	 -0.094	  0.396	  0.245	  0.026	 -9.845	 -0.002	  0.002	  0.001	 33.200	 99.339	 -99999.000
20976	 -0.170	 -0.088	  0.397	  0.239	  0.032	 -9.863	 -0.003	  0.002	  0.001	 33.300	 99.355	 -99999.000
21026	 -0.169	 -0.090	  0.397	  0.237	  0.020	 -9.846	 -0.003	  0.000	  0.001	 33.300	 99.343	 -99999.000
21076	 -0.170	 -0.087	  0.394	  0.230	  0.022	 -9.841	 -0.004	  0.002	  0.001	 33.300	 99.355	 -99999.000
21126	 -0.171	 -0.088	  0.398	  0.226	  0.042	 -9.840	 -0.002	  0.003	  0.002	 33.300	 99.343	 -99999.000
21176	 -0.172	 -0.091	  0.392	  0.212	  0.041	 -9.853	 -0.004	  0.002	  0.000	 33.300	 99.355	 -99999.000
21226	 -0.171	 -0.082	  0.395	  0.247	  0.028	 -9.857	 -0.004	  0.002	  0.000	 33.300	 99.332	 -99999.000
21276	 -0.172	 -0.093	  0.396	  0.236	  0.037	 -9.859	 -0.003	  0.002	  0.002	 33.300	 99.343	 -99999.000
36149	 -0.172	 -0.093	  0.398	  0.219	  0.050	 -9.849	 -0.003	  0.002	  0.001	 33.300	 99.340	  0.228
36200	 -0.174	 -0.087	  0.398	  0.250	  0.041	 -9.881	 -0.003	  0.002	  0.000	 33.300	 99.347	 -0.402
36249	 -0.171	 -0.090	  0.396	  0.266	  0.074	 -9.847	 -0.005	  0.002	  0.000	 33.300	 99.347	 -0.402
36299	 -0.172	 -0.092	  0.394	  0.184	  0.045	 -9.833	 -0.002	  0.002	  0.001	 33.300	 99.336	  0.587
36349	 -0.173	 -0.086	  0.399	  0.226	  0.036	 -9.809	 -0.004	  0.001	  0.002	 33.300	 99.336	  0.587
36399	 -0.171	 -0.093	  0.395	  0.247	  0.017	 -9.875	 -0.004	  0.002	  0.001	 33.300	 99.336	  0.587
36449	 -0.172	 -0.090	  0.395	  0.194	  0.037	 -9.877	 -0.004	  0.003	  0.001	 33.300	 99.347	 -0.402
36499	 -0.171	 -0.088	  0.394	  0.260	  0.037	 -9.848	 -0.004	  0.001	  0.000	 33.300	 99.352	 -0.851
36550	 -0.174	 -0.084	  0.396	  0.242	  0.009	 -9.881	 -0.004	  0.001	  0.002	 33.300	 99.340	  0.228
36599	 -0.173	 -0.088	  0.396	  0.215	  0.057	 -9.834	 -0.003	  0.003	  0.001	 33.300	 99.347	 -0.402
36650	 -0.173	 -0.091	  0.391	  0.225	  0.044	 -9.826	 -0.004	  0.002	  0.000	 33.300	 99.336	  0.587
36699	 -0.171	 -0.092	  0.397	  0.201	 -0.005	 -9.843	 -0.003	  0.002	  0.000	 33.300	 99.336	  0.587
36749	 -0.170	 -0.093	  0.389	  0.236	  0.057	 -9.814	 -0.003	  0.002	  0.000	 33.300	 99.340	  0.228
36799	 -0.174	 -0.093	  0.397	  0.209	  0.037	 -9.842	 -0.002	  0.002	  0.001	 33.300	 99.325	  1.576
36849	 -0.174	 -0.093	  0.397	  0.261	  0.034	 -9.863	 -0.005	  0.001	  0.001	 33.300	 99.336	  0.587
36899	 -0.171	 -0.092	  0.397	  0.214	  0.037	 -9.871	 -0.004	  0.002	  0.001	 33.300	 99.340	  0.228
36949	 -0.171	 -0.093	  0.398	  0.219	  0.043	 -9.855	 -0.003	  0.002	  0.002	 33.300	 99.340	  0.228
37000	 -0.172	 -0.085	  0.398	  0.247	  0.055	 -9.807	 -0.003	  0.002	  0.001	 33.300	 99.336	  0.587
37050	 -0.171	 -0.095	  0.393	  0.191	  0.035	 -9.844	 -0.003	  0.001	  0.001	 33.300	 99.336	  0.587
37100	 -0.173	 -0.089	  0.395	  0.254	  0.039	 -9.818	 -0.002	  0.001	  0.000	 33.300	 99.340	  0.228
37150	 -0.174	 -0.095	  0.396	  0.211	  0.015	 -9.839	 -0.003	  0.002	 -0.000	 33.300	 99.347	 -0.402
37200	 -0.170	 -0.092	  0.395	  0.258	  0.022	 -9.876	 -0.004	  0.002	  0.001	 33.300	 99.340	  0.228
37250	 -0.170	 -0.091	  0.397	  0.264	  0.025	 -9.851	 -0.004	  0.002	  0.000	 33.300	 99.340	  0.228
37300	 -0.172	 -0.089	  0.396	  0.216	  0.019	 -9.847	 -0.003	  0.002	  0.001	 33.300	 99.352	 -0.851
37350	 -0.173	 -0.090	  0.395	  0.211	  0.032	 -9.834	 -0.004	  0.002	  0.000	 33.300	 99.340	  0.228
37400	 -0.173	 -0.092	  0.397	  0.231	  0.036	 -9.846	 -0.004	  0.001	  0.001	 33.300	 99.336	  0.587
37450	 -0.172	 -0.091	  0.397	  0.221	  0.057	 -9.861	 -0.002	  0.003	  0.000	 33.300	 99.336	  0.587
37500	 -0.174	 -0.096	  0.398	  0.224	  0.027	 -9.842	 -0.004	  0.002	  0.000	 33.300	 99.340	  0.228
37550	 -0.172	 -0.085	  0.397	  0.233	 -0.000	 -9.825	 -0.003	  0.002	  0.001	 33.300	 99.336	  0.587
37600	 -0.173	 -0.093	  0.396	  0.239	  0.033	 -9.845	 -0.003	  0.003	  0.001	 33.300	 99.340	  0.228
37650	 -0.173	 -0.086	  0.399	  0.196	  0.038	 -9.854	 -0.004	  0.003	  0.001	 33.300	 99.329	  1.216
37700	 -0.171	 -0.093	  0.394	  0.251	  0.037	 -9.850	 -0.004	  0.002	  0.002	 33.300	 99.340	  0.228
37750	 -0.170	 -0.091	  0.396	  0.230	  0.048	 -9.815	 -0.004	  0.002	  0.000	 33.300	 99.340	  0.228
37800	 -0.172	 -0.094	  0.400	  0.220	  0.027	 -9.841	 -0.004	  0.002	  0.000	 33.300	 99.340	  0.228
37850	 -0.170	 -0.096	  0.396	  0.233	  0.037	 -9.798	 -0.003	  0.001	  0.000	 33.300	 99.340	  0.228
37900	 -0.173	 -0.090	  0.396	  0.233	  0.013	 -9.856	 -0.003	  0.003	  0.001	 33.300	 99.352	 -0.851
37950	 -0.174	 -0.091	  0.396	  0.232	  0.052	 -9.851	 -0.003	  0.001	  0.000	 33.300	 99.340	  0.228
38000	 -0.173	 -0.091	  0.392	  0.213	  0.039	 -9.855	 -0.003	  0.001	  0.001	 33.300	 99.340	  0.228
38050	 -0.175	 -0.089	  0.394	  0.234	  0.047	 -9.832	 -0.003	  0.000	  0.001	 33.300	 99.336	  0.587
38100	 -0.172	 -0.095	  0.395	  0.250	  0.047	 -9.834	 -0.003	  0.002	  0.002	 33.300	 99.336	  0.587
38150	 -0.172	 -0.085	  0.398	  0.213	  0.021	 -9.821	 -0.003	  0.002	  0.001	 33.300	 99.340	  0.228
38200	 -0.171	 -0.098	  0.396	  0.250	  0.030	 -9.818	 -0.003	  0.001	  0.001	 33.300	 99.340	  0.228
38250	 -0.172	 -0.088	  0.397	  0.225	  0.024	 -9.812	 -0.002	  0.002	  0.001	 33.300	 99.347	 -0.402
38300	 -0.173	 -0.093	  0.394	  0.229	  0.013	 -9.828	 -0.003	  0.002	  0.001	 33.300	 99.352	 -0.851
38350	 -0.171	 -0.096	  0.399	  0.243	  0.017	 -9.827	 -0.003	  0.002	 -0.000	 33.300	 99.340	  0.228
38400	 -0.173	 -0.092	  0.398	  0.190	  0.030	 -9.872	 -0.004	  0.002	  0.000	 33.300	 99.336	  0.587
38450	 -0.170	 -0.090	  0.397	  0.240	  0.029	 -9.861	 -0.004	  0.003	  0.001	 33.300	 99.336	  0.587
38500	 -0.173	 -0.089	  0.391	  0.215	  0.028	 -9.826	 -0.003	  0.002	  0.002	 33.300	 99.340	  0.228
38550	 -0.174	 -0.092	  0.395	  0.257	 -0.016	 -9.823	 -0.004	  0.002	  0.002	 33.300	 99.340	  0.228
38600	 -0.171	 -0.087	  0.396	  0.202	  0.042	 -9.808	 -0.003	  0.003	  0.001	 33.300	 99.340	  0.228
38650	 -0.171	 -0.093	  0.398	  0.187	  0.023	 -9.840	 -0.005	  0.003	  0.001	 33.300	 99.352	 -0.851
38700	 -0.173	 -0.093	  0.398	  0.268	  0.037	 -9.840	 -0.005	  0.001	  0.001	 33.300	 99.340	  0.228
38750	 -0.174	 -0.085	  0.396	  0.230	  0.050	 -9.847	 -0.003	  0.002	  0.001	 33.300	 99.352	 -0.851
38800	 -0.173	 -0.086	  0.398	  0.198	  0.050	 -9.843	 -0.003	  0.002	  0.002	 33.300	 99.340	  0.228
38850	 -0.170	 -0.093	  0.395	  0.251	  0.018	 -9.833	 -0.002	  0.000	 -0.000	 33.300	 99.336	  0.587
38900	 -0.171	 -0.093	  0.395	  0.224	  0.037	 -9.859	 -0.004	  0.003	  0.001	 33.300	 99.329	  1.216
38950	 -0.172	 -0.092	  0.395	  0.232	  0.034	 -9.847	 -0.002	  0.002	  0.002	 33.300	 99.352	 -0.851
39000	 -0.172	 -0.094	  0.396	  0.218	  0.042	 -9.830	 -0.004	  0.002	 -0.001	 33.300	 99.340	  0.228
39050	 -0.174	 -0.095	  0.399	  0.277	  0.051	 -9.863	 -0.003	  0.002	  0.002	 33.300	 99.352	 -0.851
39100	 -0.172	 -0.094	  0.397	  0.254	  0.072	 -9.863	 -0.004	  0.002	  0.002	 33.300	 99.340	  0.228
40149	 -0.172	 -0.098	  0.390	  0.212	  0.037	 -9.806	 -0.003	  0.003	  0.001	 33.300	 99.340	  0.228
40199	 -0.174	 -0.089	  0.396	  0.245	  0.008	 -9.852	 -0.002	  0.002	  0.002	 33.300	 99.340	  0.228
40249	 -0.172	 -0.089	  0.396	  0.246	  0.023	 -9.868	 -0.004	  0.003	  0.001	 33.300	 99.340	  0.228
40299	 -0.174	 -0.093	  0.395	  0.216	  0.050	 -9.827	 -0.005	  0.001	  0.001	 33.300	 99.352	 -0.851
40349	 -0.174	 -0.092	  0.397	  0.222	  0.041	 -9.822	 -0.003	  0.003	  0.002	 33.300	 99.340	  0.228
40399	 -0.172	 -0.095	  0.395	  0.227	  0.027	 -9.849	 -0.003	  0.002	  0.001	 33.300	 99.347	 -0.402
40449	 -0.174	 -0.094	  0.399	  0.229	  0.017	 -9.851	 -0.004	  0.001	  0.002	 33.300	 99.352	 -0.851
40499	 -0.171	 -0.092	  0.393	  0.203	  0.037	 -9.858	 -0.005	  0.002	  0.002	 33.300	 99.340	  0.228
40549	 -0.173	 -0.092	  0.397	  0.259	  0.038	 -9.862	 -0.004	  0.000	  0.002	 33.300	 99.340	  0.228
40599	 -0.174	 -0.090	  0.400	  0.214	  0.033	 -9.852	 -0.003	  0.001	  0.001	 33.300	 99.352	 -0.851
40649	 -0.174	 -0.094	  0.398	  0.232	  0.046	 -9.859	 -0.003	  0.002	  0.001	 33.300	 99.336	  0.587
40699	 -0.171	 -0.091	  0.396	  0.241	  0.031	 -9.864	 -0.003	  0.002	  0.000	 33.300	 99.340	  0.228
40749	 -0.174	 -0.093	  0.396	  0.215	  0.015	 -9.812	 -0.003	  0.003	  0.001	 33.300	 99.352	 -0.851
40799	 -0.171	 -0.092	  0.396	  0.231	  0.053	 -9.818	 -0.003	  0.001	  0.002	 33.300	 99.352	 -0.851
40849	 -0.175	 -0.095	  0.399	  0.228	  0.022	 -9.824	 -0.003	  0.002	  0.001	 33.300	 99.352	 -0.851
40899	 -0.172	 -0.088	  0.397	  0.241	  0.042	 -9.850	 -0.002	  0.002	  0.001	 33.300	 99.329	  1.216
40949	 -0.174	 -0.096	  0.392	  0.216	  0.054	 -9.875	 -0.004	  0.002	  0.001	 33.300	 99.340	  0.228
40999	 -0.172	 -0.094	  0.398	  0.209	  0.027	 -9.865	 -0.003	  0.002	  0.001	 33.300	 99.340	  0.228
41049	 -0.169	 -0.091	  0.396	  0.244	  0.035	 -9.870	 -0.003	  0.001	  0.000	 33.300	 99.340	  0.228
41099	 -0.172	 -0.089	  0.397	  0.229	  0.054	 -9.844	 -0.005	  0.003	  0.002	 33.300	 99.340	  0.228
41149	 -0.172	 -0.091	  0.395	  0.207	  0.053	 -9.833	 -0.003	  0.002	  0.001	 33.300	 99.352	 -0.851
41199	 -0.171	 -0.092	  0.393	  0.212	  0.028	 -9.834	 -0.004	  0.001	  0.000	 33.300	 99.352	 -0.851
41249	 -0.174	 -0.094	  0.394	  0.257	  0.022	 -9.830	 -0.004	  0.003	  0.000	 33.300	 99.340	  0.228
41299	 -0.172	 -0.088	  0.397	  0.212	  0.027	 -9.881	 -0.002	  0.003	  0.001	 33.300	 99.340	  0.228
41349	 -0.171	 -0.094	  0.398	  0.223	  0.037	 -9.840	 -0.004	  0.000	  0.002	 33.300	 99.340	  0.228
41399	 -0.171	 -0.092	  0.397	  0.260	  0.027	 -9.828	 -0.003	  0.002	  0.001	 33.300	 99.356	 -1.211
41449	 -0.173	 -0.092	  0.397	  0.201	  0.041	 -9.868	 -0.003	  0.003	  0.000	 33.300	 99.352	 -0.851
41499	 -0.169	 -0.092	  0.395	  0.212	  0.051	 -9.837	 -0.002	  0.002	  0.001	 33.300	 99.352	 -0.851
41549	 -0.172	 -0.092	  0.396	  0.264	  0.029	 -9.810	 -0.004	  0.002	  0.000	 33.300	 99.340	  0.228
41599	 -0.171	 -0.092	  0.396	  0.207	  0.039	 -9.835	 -0.003	  0.003	  0.001	 33.300	 99.352	 -0.851
41649	 -0.174	 -0.094	  0.398	  0.221	  0.044	 -9.866	 -0.004	  0.002	  0.001	 33.300	 99.340	  0.228
41699	 -0.172	 -0.091	  0.390	  0.259	  0.004	 -9.864	 -0.004	  0.001	  0.001	 33.300	 99.352	 -0.851
41750	 -0.173	 -0.092	  0.395	  0.252	  0.031	 -9.867	 -0.003	  0.003	  0.002	 33.300	 99.340	  0.228
41799	 -0.173	 -0.091	  0.396	  0.190	  0.046	 -9.870	 -0.003	  0.002	  0.000	 33.300	 99.352	 -0.851
41849	 -0.174	 -0.094	  0.396	  0.199	  0.029	 -9.828	 -0.003	  0.001	  0.001	 33.300	 99.340	  0.228
41899	 -0.172	 -0.095	  0.395	  0.239	  0.032	 -9.859	 -0.001	  0.003	  0.002	 33.300	 99.340	  0.228
41949	 -0.172	 -0.093	  0.396	  0.182	  0.050	 -9.786	 -0.003	  0.004	  0.001	 33.300	 99.356	 -1.211
41999	 -0.171	 -0.095	  0.390	  0.261	  0.034	 -9.714	 -0.003	  0.001	  0.001	 33.300	 99.340	  0.228
42049	 -0.171	 -0.095	  0.399	  0.196	  0.066	 -9.839	 -0.002	  0.003	  0.001	 33.300	 99.352	 -0.851
42099	 -0.172	 -0.092	  0.397	  0.180	  0.072	 -9.922	 -0.003	  0.004	  0.001	 33.300	 99.340	  0.228
42149	 -0.171	 -0.090	  0.399	  0.262	  0.003	 -9.890	 -0.004	  0.002	  0.001	 33.300	 99.340	  0.228
42199	 -0.170	 -0.089	  0.399	  0.226	  0.003	 -9.788	 -0.002	  0.001	 -0.000	 33.300	 99.340	  0.228
42249	 -0.170	 -0.093	  0.390	  0.172	  0.061	 -9.780	 -0.003	  0.002	  0.001	 33.300	 99.340	  0.228
42299	 -0.171	 -0.086	  0.396	  0.180	  0.055	 -9.831	 -0.002	  0.003	  0.001	 33.300	 99.340	  0.228
42349	 -0.170	 -0.092	  0.396	  0.271	  0.038	 -9.825	 -0.002	  0.002	  0.001	 33.300	 99.329	  1.216
42399	 -0.174	 -0.093	  0.391	  0.259	  0.048	 -9.856	 -0.003	  0.001	  0.001	 33.300	 99.340	  0.228
42450	 -0.175	 -0.092	  0.397	  0.175	  0.046	 -9.821	 -0.005	  0.001	  0.002	 33.300	 99.340	  0.228
42499	 -0.171	 -0.092	  0.393	  0.229	  0.028	 -9.857	 -0.003	  0.003	  0.001	 33.300	 99.340	  0.228
42549	 -0.172	 -0.094	  0.394	  0.242	  0.030	 -9.857	 -0.004	  0.002	  0.003	 33.300	 99.340	  0.228
42599	 -0.174	 -0.093	  0.397	  0.243	  0.042	 -9.835	 -0.004	  0.002	  0.000	 33.300	 99.340	  0.228
42650	 -0.172	 -0.093	  0.398	  0.239	  0.025	 -9.862	 -0.003	  0.001	  0.001	 33.300	 99.340	  0.228
42700	 -0.171	 -0.093	  0.397	  0.234	  0.039	 -9.857	 -0.002	  0.002	  0.001	 33.300	 99.352	 -0.851
42750	 -0.174	 -0.092	  0.396	  0.238	  0.032	 -9.846	 -0.004	  0.001	  0.001	 33.300	 99.340	  0.228
42800	 -0.173	 -0.091	  0.395	  0.240	  0.021	 -9.864	 -0.003	  0.003	  0.001	 33.300	 99.352	 -0.851
42849	 -0.171	 -0.091	  0.393	  0.234	  0.046	 -9.855	 -0.003	  0.002	  0.001	 33.300	 99.340	  0.228
42899	 -0.169	 -0.092	  0.394	  0.192	  0.058	 -9.860	 -0.004	  0.003	  0.000	 33.300	 99.340	  0.228
42949	 -0.172	 -0.095	  0.389	  0.268	  0.035	 -9.834	 -0.003	  0.000	  0.001	 33.300	 99.340	  0.228
42999	 -0.172	 -0.096	  0.396	  0.251	  0.023	 -9.860	 -0.003	  0.001	  0.002	 33.300	 99.340	  0.228
43049	 -0.174	 -0.096	  0.399	  0.210	  0.078	 -9.840	 -0.003	  0.002	  0.003	 33.300	 99.340	  0.228
43099	 -0.174	 -0.095	  0.396	  0.239	 -0.000	 -9.876	 -0.003	  0.002	  0.000	 33.300	 99.329	  1.216
123268	 -0.114	 -0.123	  0.383	 -2.264	  0.027	 -9.876	 -0.043	 -0.040	 -0.073	 33.400	 99.351	 -0.698
123318	 -0.116	 -0.128	  0.384	 -1.429	 -0.272	 -9.813	 -0.056	  0.029	  0.106	 33.400	 99.347	 -0.340
123368	 -0.118	 -0.129	  0.382	 -0.501	 -0.021	 -9.868	 -0.080	  0.033	 -0.007	 33.400	 99.351	 -0.698
123418	 -0.116	 -0.126	  0.382	 -0.557	  0.215	 -9.877	 -0.082	  0.044	  0.006	 33.400	 99.347	 -0.340
123468	 -0.115	 -0.133	  0.374	 -0.806	  0.257	 -9.920	 -0.084	  0.087	  0.048	 33.400	 99.351	 -0.698
123518	 -0.113	 -0.136	  0.377	 -0.513	  0.457	 -9.799	 -0.080	  0.118	 -0.151	 33.400	 99.335	  0.740
123568	 -0.115	 -0.139	  0.371	 -0.560	  1.053	 -9.784	 -0.059	  0.121	  0.001	 33.400	 99.347	 -0.340
123618	 -0.118	 -0.128	  0.375	 -0.259	  0.921	 -9.768	 -0.027	  0.129	  0.063	 33.400	 99.339	  0.380
123668	 -0.119	 -0.134	  0.377	 -0.382	  0.957	 -9.735	  0.008	  0.145	  0.039	 33.400	 99.351	 -0.698
123718	 -0.116	 -0.134	  0.374	  0.210	  0.629	 -9.798	  0.034	  0.155	  0.005	 33.400	 99.351	 -0.698
123768	 -0.121	 -0.140	  0.373	  0.763	  0.467	 -9.842	  0.046	  0.128	 -0.007	 33.400	 99.339	  0.380
123818	 -0.120	 -0.138	  0.367	 -0.474	  0.413	 -9.913	  0.054	  0.127	  0.010	 33.400	 99.335	  0.740
123868	 -0.121	 -0.132	  0.373	  0.078	  0.034	 -9.846	  0.047	  0.154	  0.032	 33.400	 99.339	  0.380
123918	 -0.123	 -0.133	  0.363	  0.499	  0.185	 -9.791	  0.041	  0.149	 -0.001	 33.400	 99.351	 -0.698
123968	 -0.125	 -0.128	  0.371	  0.604	  0.379	 -9.699	  0.036	  0.137	  0.014	 33.400	 99.351	 -0.698
124018	 -0.126	 -0.130	  0.367	  0.339	 -0.001	 -9.723	  0.041	  0.138	 -0.004	 33.400	 99.351	 -0.698
124068	 -0.126	 -0.118	  0.366	  0.770	 -0.238	 -9.840	  0.018	  0.132	  0.013	 33.400	 99.347	 -0.340
124118	 -0.128	 -0.127	  0.366	  1.031	 -0.021	 -9.797	  0.003	  0.107	  0.013	 33.400	 99.339	  0.380
124168	 -0.129	 -0.124	  0.367	  0.831	 -0.086	 -9.857	 -0.011	  0.087	  0.014	 33.400	 99.351	 -0.698
124218	 -0.130	 -0.126	  0.363	  1.084	 -0.037	 -9.779	 -0.027	  0.068	  0.013	 33.400	 99.351	 -0.698
124268	 -0.131	 -0.125	  0.364	  1.084	  0.119	 -9.830	 -0.039	  0.042	  0.017	 33.400	 99.351	 -0.698
124318	 -0.132	 -0.117	  0.365	  0.994	  0.360	 -9.807	 -0.035	  0.022	 -0.000	 33.400	 99.339	  0.380
124368	 -0.133	 -0.127	  0.365	  0.960	  0.401	 -9.766	 -0.027	  0.004	 -0.004	 33.400	 99.339	  0.380
124418	 -0.132	 -0.127	  0.363	  0.959	  0.481	 -9.784	 -0.018	 -0.012	  0.020	 33.400	 99.351	 -0.698
124468	 -0.131	 -0.120	  0.364	  0.819	  0.344	 -9.770	 -0.010	 -0.021	  0.006	 33.400	 99.351	 -0.698
124518	 -0.133	 -0.126	  0.364	  0.556	  0.226	 -9.795	 -0.004	 -0.018	 -0.004	 33.400	 99.344	 -0.070
124568	 -0.132	 -0.127	  0.363	  0.511	  0.179	 -9.863	 -0.010	 -0.011	  0.000	 33.400	 99.351	 -0.698
124618	 -0.131	 -0.125	  0.363	  0.436	  0.184	 -9.860	 -0.015	 -0.003	  0.007	 33.400	 99.351	 -0.698
124668	 -0.131	 -0.127	  0.364	  0.502	  0.170	 -9.810	 -0.019	  0.008	 -0.005	 33.400	 99.351	 -0.698
124718	 -0.132	 -0.127	  0.365	  0.513	  0.168	 -9.836	 -0.027	  0.017	 -0.003	 33.400	 99.339	  0.380
124768	 -0.134	 -0.128	  0.363	  0.653	  0.306	 -9.834	 -0.030	  0.022	 -0.004	 33.400	 99.347	 -0.340
124818	 -0.134	 -0.119	  0.361	  0.802	  0.421	 -9.777	 -0.027	  0.018	  0.004	 33.400	 99.347	 -0.340
124868	 -0.132	 -0.128	  0.356	  0.855	  0.512	 -9.815	 -0.019	  0.011	 -0.004	 33.400	 99.351	 -0.698
124918	 -0.135	 -0.127	  0.360	  0.826	  0.497	 -9.782	 -0.009	  0.000	  0.004	 33.400	 99.351	 -0.698
124968	 -0.135	 -0.130	  0.362	  0.814	  0.451	 -9.785	  0.001	 -0.007	  0.001	 33.400	 99.339	  0.380
125018	 -0.134	 -0.128	  0.364	  0.680	  0.378	 -9.802	  0.004	 -0.011	  0.000	 33.400	 99.335	  0.740
125068	 -0.134	 -0.134	  0.364	  0.601	  0.267	 -9.837	  0.004	 -0.010	  0.005	 33.400	 99.335	  0.740
125118	 -0.135	 -0.128	  0.360	  0.528	  0.214	 -9.799	 -0.001	 -0.005	  0.007	 33.400	 99.339	  0.380
125168	 -0.135	 -0.128	  0.358	  0.568	  0.200	 -9.805	 -0.006	  0.004	  0.001	 33.400	 99.351	 -0.698
125218	 -0.134	 -0.131	  0.361	  0.651	  0.299	 -9.838	 -0.009	  0.008	 -0.002	 33.400	 99.351	 -0.698
125268	 -0.138	 -0.130	  0.365	  0.768	  0.360	 -9.800	 -0.008	  0.006	 -0.004	 33.400	 99.339	  0.380
125318	 -0.136	 -0.132	  0.363	  0.850	  0.495	 -9.778	 -0.002	 -0.005	  0.010	 33.400	 99.351	 -0.698
125367	 -0.133	 -0.132	  0.362	  0.918	  0.587	 -9.782	  0.014	 -0.016	 -0.005	 33.400	 99.339	  0.380
125417	 -0.136	 -0.132	  0.363	  0.787	  0.427	 -9.827	  0.023	 -0.027	 -0.009	 33.400	 99.351	 -0.698
125467	 -0.132	 -0.130	  0.361	  0.681	  0.259	 -9.817	  0.026	 -0.033	 -0.000	 33.400	 99.351	 -0.698
125517	 -0.134	 -0.131	  0.363	  0.668	  0.208	 -9.797	  0.023	 -0.036	 -0.005	 33.400	 99.351	 -0.698
125567	 -0.135	 -0.126	  0.358	  0.632	  0.324	 -9.808	  0.024	 -0.039	 -0.007	 33.400	 99.339	  0.380
125617	 -0.131	 -0.129	  0.367	  0.681	  0.292	 -9.791	  0.025	 -0.046	 -0.004	 33.400	 99.351	 -0.698
125667	 -0.131	 -0.128	  0.367	  0.616	  0.303	 -9.818	  0.029	 -0.051	 -0.001	 33.400	 99.339	  0.380
125717	 -0.132	 -0.125	  0.369	  0.450	  0.242	 -9.832	  0.033	 -0.052	  0.007	 33.400	 99.335	  0.740
125767	 -0.131	 -0.119	  0.370	  0.332	  0.117	 -9.824	  0.031	 -0.046	  0.004	 33.400	 99.347	 -0.340
125817	 -0.130	 -0.124	  0.368	  0.277	  0.043	 -9.849	  0.024	 -0.038	  0.017	 33.400	 99.351	 -0.698
125867	 -0.130	 -0.126	  0.369	  0.324	  0.010	 -9.832	  0.014	 -0.029	 -0.002	 33.400	 99.335	  0.740
125917	 -0.129	 -0.126	  0.368	  0.348	  0.040	 -9.845	  0.006	 -0.022	  0.002	 33.400	 99.351	 -0.698
125967	 -0.128	 -0.125	  0.366	  0.415	 -0.165	 -9.858	 -0.005	 -0.016	  0.015	 33.400	 99.347	 -0.340
126017	 -0.130	 -0.126	  0.373	  0.524	  0.195	 -9.851	 -0.012	 -0.018	 -0.009	 33.400	 99.339	  0.380
126067	 -0.131	 -0.123	  0.368	  0.495	  0.321	 -9.812	 -0.008	 -0.024	 -0.008	 33.400	 99.344	 -0.070
126117	 -0.129	 -0.125	  0.368	  0.492	  0.432	 -9.825	  0.007	 -0.027	 -0.007	 33.400	 99.351	 -0.698
126167	 -0.126	 -0.122	  0.366	  0.101	  0.231	 -9.821	  0.013	 -0.018	  0.019	 33.400	 99.339	  0.380
126217	 -0.126	 -0.122	  0.370	  0.414	  0.324	 -9.789	  0.020	 -0.010	  0.010	 33.400	 99.339	  0.380
127268	 -0.115	 -0.124	  0.374	  0.112	  0.073	 -9.834	 -0.005	 -0.015	 -0.051	 33.400	 99.351	 -0.698
127318	 -0.116	 -0.130	  0.373	 -0.137	  0.327	 -9.776	 -0.011	 -0.005	  0.039	 33.400	 99.339	  0.380
127368	 -0.114	 -0.128	  0.370	 -0.227	 -0.099	 -9.898	 -0.019	  0.019	  0.070	 33.400	 99.339	  0.380
127418	 -0.117	 -0.120	  0.375	  0.140	  0.189	 -9.910	 -0.031	  0.028	 -0.022	 33.400	 99.339	  0.380
127468	 -0.115	 -0.126	  0.371	  0.084	  0.134	 -9.860	 -0.036	  0.030	  0.001	 33.400	 99.351	 -0.698
127518	 -0.115	 -0.121	  0.375	  0.409	  0.303	 -9.880	 -0.041	  0.025	 -0.013	 33.400	 99.351	 -0.698
127568	 -0.117	 -0.126	  0.373	  0.468	  0.228	 -9.270	 -0.017	  0.029	 -0.581	 33.400	 99.339	  0.380
127618	 -0.116	 -0.130	  0.371	 -0.100	  0.243	 -9.964	 -0.023	 -0.021	  0.045	 33.400	 99.351	 -0.698
127668	 -0.116	 -0.132	  0.373	 -0.360	  0.022	 -9.923	 -0.029	  0.009	 -0.014	 33.400	 99.347	 -0.340
127718	 -0.115	 -0.130	  0.373	 -0.239	  0.505	 -9.855	 -0.033	  0.048	 -0.129	 33.400	 99.339	  0.380
127768	 -0.116	 -0.132	  0.367	  0.033	  0.653	 -9.830	 -0.014	  0.054	 -0.035	 33.400	 99.351	 -0.698
127818	 -0.116	 -0.132	  0.375	  0.568	  0.760	 -9.766	  0.005	  0.049	 -0.019	 33.400	 99.339	  0.380
127868	 -0.116	 -0.128	  0.375	  1.001	  0.664	 -9.764	  0.029	  0.008	  0.056	 33.400	 99.339	  0.380
127918	 -0.114	 -0.131	  0.373	  0.647	  0.405	 -9.859	  0.043	 -0.025	  0.047	 33.400	 99.351	 -0.698
127968	 -0.113	 -0.122	  0.371	  0.159	  0.125	 -9.844	  0.042	 -0.034	  0.046	 33.400	 99.347	 -0.340
128018	 -0.113	 -0.130	  0.373	 -0.113	  0.378	 -9.893	  0.038	 -0.038	  0.210	 33.400	 99.351	 -0.698
128068	 -0.114	 -0.125	  0.369	  0.195	  0.065	 -9.864	  0.036	 -0.030	  0.385	 33.400	 99.351	 -0.698
