Time	 MagX	 MagY	 MagZ	 AccelX	 AccelY	 AccelZ	 Yaw	 Pitch	 Roll	 Temperature	 Pressure	 Altitude
1251	 -0.588	  0.108	  0.582	 -0.105	 -0.075	 -9.542	  0.003	 -0.001	  0.019	 30.200	 99.393	 -99999.000
1299	 -0.590	  0.113	  0.577	 -0.118	 -0.082	 -9.524	  0.002	 -0.001	  0.020	 30.200	 99.405	 -99999.000
1349	 -0.589	  0.114	  0.587	 -0.155	 -0.070	 -9.502	  0.001	 -0.001	  0.018	 30.200	 99.393	 -99999.000
1399	 -0.589	  0.117	  0.583	 -0.158	 -0.045	 -9.504	  0.003	 -0.001	  0.019	 30.200	 99.405	 -99999.000
1449	 -0.588	  0.110	  0.584	 -0.177	 -0.044	 -9.508	  0.002	 -0.002	  0.021	 30.200	 99.417	 -99999.000
1499	 -0.589	  0.117	  0.580	 -0.143	 -0.061	 -9.505	  0.003	 -0.002	  0.018	 30.200	 99.409	 -99999.000
1549	 -0.586	  0.108	  0.576	 -0.204	 -0.051	 -9.536	  0.002	 -0.002	  0.018	 30.200	 99.405	 -99999.000
1599	 -0.588	  0.113	  0.581	 -0.142	 -0.064	 -9.508	  0.002	 -0.000	  0.019	 30.200	 99.405	 -99999.000
1649	 -0.591	  0.110	  0.579	 -0.202	 -0.048	 -9.523	  0.002	 -0.000	  0.019	 30.200	 99.393	 -99999.000
1699	 -0.589	  0.115	  0.584	 -0.126	 -0.090	 -9.510	  0.001	 -0.001	  0.019	 30.200	 99.393	 -99999.000
1749	 -0.589	  0.114	  0.587	 -0.191	 -0.057	 -9.514	  0.002	 -0.002	  0.019	 30.200	 99.405	 -99999.000
1799	 -0.593	  0.115	  0.587	 -0.126	 -0.064	 -9.517	  0.003	 -0.001	  0.020	 30.200	 99.405	 -99999.000
1850	 -0.588	  0.112	  0.583	 -0.184	 -0.057	 -9.489	  0.003	 -0.000	  0.019	 30.200	 99.397	 -99999.000
1899	 -0.590	  0.110	  0.579	 -0.138	 -0.052	 -9.529	  0.003	 -0.001	  0.019	 30.200	 99.409	 -99999.000
1949	 -0.589	  0.116	  0.585	 -0.154	 -0.070	 -9.508	  0.002	 -0.001	  0.021	 30.200	 99.405	 -99999.000
1999	 -0.588	  0.114	  0.588	 -0.187	 -0.059	 -9.539	  0.002	 -0.001	  0.019	 30.200	 99.405	 -99999.000
2049	 -0.589	  0.112	  0.584	 -0.136	 -0.075	 -9.498	  0.002	 -0.002	  0.019	 30.200	 99.417	 -99999.000
2099	 -0.589	  0.110	  0.581	 -0.195	 -0.060	 -9.519	  0.002	 -0.000	  0.018	 30.200	 99.393	 -99999.000
2149	 -0.589	  0.107	  0.583	 -0.125	 -0.105	 -9.480	  0.001	 -0.001	  0.018	 30.200	 99.393	 -99999.000
2199	 -0.591	  0.111	  0.583	 -0.236	 -0.037	 -9.520	  0.001	 -0.001	  0.018	 30.200	 99.405	 -99999.000
2249	 -0.590	  0.112	  0.584	 -0.101	 -0.074	 -9.492	  0.001	 -0.002	  0.017	 30.200	 99.405	 -99999.000
2299	 -0.585	  0.119	  0.587	 -0.211	 -0.047	 -9.506	  0.001	 -0.001	  0.020	 30.200	 99.393	 -99999.000
2349	 -0.589	  0.112	  0.580	 -0.125	 -0.086	 -9.479	  0.001	 -0.002	  0.021	 30.200	 99.405	 -99999.000
2399	 -0.589	  0.116	  0.577	 -0.189	 -0.054	 -9.465	  0.001	 -0.001	  0.018	 30.200	 99.401	 -99999.000
2449	 -0.590	  0.111	  0.583	 -0.154	 -0.062	 -9.507	  0.002	 -0.000	  0.020	 30.200	 99.393	 -99999.000
2499	 -0.590	  0.110	  0.576	 -0.145	 -0.061	 -9.475	  0.003	 -0.003	  0.017	 30.200	 99.405	 -99999.000
2549	 -0.591	  0.110	  0.584	 -0.198	 -0.036	 -9.517	  0.001	 -0.002	  0.018	 30.200	 99.405	 -99999.000
2599	 -0.591	  0.116	  0.576	 -0.144	 -0.103	 -9.505	  0.002	 -0.001	  0.019	 30.200	 99.405	 -99999.000
2649	 -0.588	  0.112	  0.586	 -0.214	 -0.050	 -9.498	  0.002	 -0.001	  0.020	 30.200	 99.393	 -99999.000
2699	 -0.586	  0.108	  0.582	 -0.105	 -0.092	 -9.518	  0.001	 -0.002	  0.019	 30.200	 99.405	 -99999.000
2749	 -0.588	  0.115	  0.581	 -0.213	 -0.057	 -9.512	  0.002	 -0.002	  0.020	 30.200	 99.409	 -99999.000
2799	 -0.591	  0.107	  0.584	 -0.131	 -0.069	 -9.494	  0.003	 -0.001	  0.019	 30.200	 99.405	 -99999.000
2849	 -0.588	  0.107	  0.587	 -0.228	 -0.086	 -9.487	  0.002	 -0.001	  0.022	 30.200	 99.405	 -99999.000
2899	 -0.593	  0.115	  0.579	 -0.128	 -0.083	 -9.507	  0.002	 -0.002	  0.020	 30.200	 99.405	 -99999.000
2949	 -0.590	  0.117	  0.585	 -0.165	 -0.084	 -9.487	  0.002	  0.000	  0.023	 30.200	 99.405	 -99999.000
2999	 -0.590	  0.116	  0.579	 -0.152	 -0.060	 -9.499	  0.000	 -0.001	  0.020	 30.200	 99.393	 -99999.000
3049	 -0.591	  0.110	  0.580	 -0.157	 -0.087	 -9.486	  0.002	 -0.001	  0.022	 30.200	 99.393	 -99999.000
3099	 -0.589	  0.119	  0.581	 -0.195	 -0.051	 -9.519	  0.002	 -0.002	  0.013	 30.200	 99.405	 -99999.000
3149	 -0.589	  0.115	  0.580	 -0.126	 -0.085	 -9.500	  0.003	 -0.002	  0.018	 30.200	 99.405	 -99999.000
3199	 -0.590	  0.108	  0.583	 -0.207	 -0.040	 -9.508	  0.003	 -0.002	  0.022	 30.200	 99.405	 -99999.000
3249	 -0.587	  0.119	  0.581	 -0.100	 -0.072	 -9.511	  0.002	 -0.002	  0.013	 30.200	 99.393	 -99999.000
3299	 -0.587	  0.115	  0.586	 -0.202	 -0.057	 -9.505	  0.003	 -0.001	  0.022	 30.200	 99.405	 -99999.000
3349	 -0.588	  0.113	  0.581	 -0.125	 -0.064	 -9.544	  0.002	 -0.001	  0.022	 30.200	 99.405	 -99999.000
3399	 -0.588	  0.108	  0.583	 -0.174	 -0.064	 -9.530	  0.002	 -0.001	  0.018	 30.200	 99.405	 -99999.000
3449	 -0.591	  0.113	  0.581	 -0.174	 -0.055	 -9.493	  0.001	 -0.001	  0.015	 30.200	 99.393	 -99999.000
3499	 -0.591	  0.119	  0.585	 -0.148	 -0.111	 -9.505	  0.004	 -0.001	  0.019	 30.200	 99.393	 -99999.000
3549	 -0.593	  0.112	  0.580	 -0.191	 -0.039	 -9.549	  0.001	 -0.002	  0.015	 30.200	 99.393	 -99999.000
3599	 -0.588	  0.110	  0.590	 -0.122	 -0.051	 -9.472	  0.001	 -0.001	  0.023	 30.200	 99.393	 -99999.000
3649	 -0.589	  0.111	  0.579	 -0.209	 -0.070	 -9.528	  0.003	 -0.001	  0.023	 30.200	 99.397	 -99999.000
3699	 -0.591	  0.106	  0.584	 -0.098	 -0.083	 -9.505	  0.001	 -0.002	  0.018	 30.200	 99.405	 -99999.000
3749	 -0.589	  0.111	  0.587	 -0.224	 -0.056	 -9.477	  0.003	 -0.001	  0.016	 30.200	 99.405	 -99999.000
3799	 -0.589	  0.112	  0.584	 -0.123	 -0.065	 -9.504	  0.003	  0.000	  0.020	 30.200	 99.405	 -99999.000
3849	 -0.589	  0.114	  0.586	 -0.204	 -0.070	 -9.523	  0.001	 -0.002	  0.017	 30.200	 99.393	 -99999.000
3899	 -0.590	  0.115	  0.583	 -0.118	 -0.058	 -9.531	  0.003	 -0.001	  0.024	 30.200	 99.393	 -99999.000
3949	 -0.590	  0.114	  0.587	 -0.170	 -0.081	 -9.492	  0.002	 -0.001	  0.022	 30.200	 99.409	 -99999.000
3998	 -0.593	  0.111	  0.580	 -0.168	 -0.058	 -9.490	  0.003	  0.001	  0.017	 30.200	 99.405	 -99999.000
4048	 -0.589	  0.112	  0.579	 -0.180	 -0.066	 -9.531	  0.002	 -0.002	  0.020	 30.200	 99.409	 -99999.000
4098	 -0.591	  0.111	  0.581	 -0.166	 -0.042	 -9.478	  0.002	 -0.003	  0.020	 30.200	 99.405	 -99999.000
4148	 -0.590	  0.113	  0.581	 -0.153	 -0.072	 -9.501	  0.001	 -0.001	  0.018	 30.200	 99.393	 -99999.000
4198	 -0.591	  0.111	  0.583	 -0.209	 -0.060	 -9.528	  0.003	 -0.001	  0.018	 30.200	 99.417	 -99999.000
5248	 -0.583	  0.112	  0.582	 -0.106	 -0.082	 -9.498	  0.000	 -0.001	  0.019	 30.200	 99.405	 -99999.000
5298	 -0.585	  0.111	  0.572	 -0.219	 -0.049	 -9.513	  0.003	 -0.002	  0.019	 30.200	 99.393	 -99999.000
5348	 -0.585	  0.107	  0.575	 -0.137	 -0.071	 -9.479	  0.002	 -0.002	  0.019	 30.200	 99.417	 -99999.000
5398	 -0.588	  0.112	  0.579	 -0.207	 -0.052	 -9.506	  0.002	 -0.001	  0.018	 30.200	 99.397	 -99999.000
5448	 -0.585	  0.108	  0.576	 -0.116	 -0.074	 -9.487	  0.002	 -0.001	  0.018	 30.200	 99.405	 -99999.000
5498	 -0.587	  0.119	  0.579	 -0.209	 -0.051	 -9.528	  0.002	 -0.001	  0.018	 30.200	 99.405	 -99999.000
5548	 -0.585	  0.110	  0.575	 -0.143	 -0.053	 -9.530	  0.003	 -0.001	  0.019	 30.200	 99.405	 -99999.000
5598	 -0.585	  0.106	  0.576	 -0.186	 -0.059	 -9.477	  0.003	 -0.002	  0.019	 30.200	 99.405	 -99999.000
5649	 -0.582	  0.107	  0.574	 -0.176	 -0.056	 -9.506	  0.003	 -0.001	  0.018	 30.200	 99.393	 -99999.000
5698	 -0.585	  0.110	  0.582	 -0.127	 -0.060	 -9.501	  0.003	 -0.001	  0.016	 30.200	 99.393	 -99999.000
5749	 -0.585	  0.110	  0.584	 -0.213	 -0.066	 -9.512	  0.003	 -0.001	  0.021	 30.200	 99.405	 -99999.000
5799	 -0.583	  0.110	  0.572	 -0.097	 -0.085	 -9.506	  0.002	 -0.002	  0.020	 30.200	 99.393	 -99999.000
5849	 -0.584	  0.117	  0.575	 -0.207	 -0.070	 -9.500	  0.002	 -0.001	  0.020	 30.200	 99.409	 -99999.000
5899	 -0.585	  0.107	  0.582	 -0.124	 -0.068	 -9.503	  0.002	  0.000	  0.017	 30.200	 99.409	 -99999.000
5949	 -0.584	  0.112	  0.571	 -0.178	 -0.046	 -9.446	  0.003	 -0.002	  0.019	 30.200	 99.405	 -99999.000
5999	 -0.586	  0.111	  0.582	 -0.150	 -0.048	 -9.499	  0.002	 -0.001	  0.020	 30.200	 99.393	 -99999.000
6049	 -0.587	  0.114	  0.584	 -0.136	 -0.070	 -9.563	  0.002	 -0.001	  0.019	 30.200	 99.393	 -99999.000
6099	 -0.585	  0.106	  0.576	 -0.209	 -0.059	 -9.495	  0.001	 -0.000	  0.022	 30.200	 99.409	 -99999.000
6149	 -0.584	  0.110	  0.580	 -0.100	 -0.088	 -9.498	  0.003	 -0.002	  0.019	 30.200	 99.393	 -99999.000
6199	 -0.584	  0.108	  0.571	 -0.187	 -0.074	 -9.476	  0.002	 -0.001	  0.018	 30.200	 99.405	 -99999.000
6249	 -0.584	  0.112	  0.580	 -0.114	 -0.077	 -9.546	  0.003	 -0.002	  0.020	 30.200	 99.405	 -99999.000
6299	 -0.588	  0.108	  0.575	 -0.224	 -0.043	 -9.500	  0.002	 -0.002	  0.017	 30.200	 99.405	 -99999.000
6349	 -0.584	  0.112	  0.578	 -0.117	 -0.100	 -9.514	  0.001	 -0.001	  0.019	 30.200	 99.397	 -99999.000
6399	 -0.588	  0.108	  0.579	 -0.179	 -0.089	 -9.507	  0.003	 -0.001	  0.018	 30.200	 99.393	 -99999.000
6449	 -0.587	  0.112	  0.577	 -0.148	 -0.074	 -9.470	  0.003	 -0.001	  0.019	 30.200	 99.405	 -99999.000
6499	 -0.585	  0.115	  0.572	 -0.148	 -0.067	 -9.516	  0.003	 -0.001	  0.020	 30.200	 99.393	 -99999.000
6549	 -0.584	  0.108	  0.579	 -0.188	 -0.030	 -9.519	  0.002	 -0.001	  0.017	 30.200	 99.405	 -99999.000
6599	 -0.586	  0.111	  0.577	 -0.125	 -0.066	 -9.491	  0.001	 -0.001	  0.020	 30.200	 99.405	 -99999.000
6649	 -0.586	  0.108	  0.578	 -0.199	 -0.043	 -9.473	  0.003	 -0.002	  0.019	 30.200	 99.405	 -99999.000
6699	 -0.587	  0.113	  0.575	 -0.127	 -0.082	 -9.498	  0.002	 -0.002	  0.020	 30.200	 99.393	 -99999.000
6749	 -0.586	  0.106	  0.579	 -0.221	 -0.030	 -9.528	  0.003	 -0.002	  0.017	 30.200	 99.409	 -99999.000
6799	 -0.587	  0.121	  0.580	 -0.132	 -0.080	 -9.509	  0.001	 -0.001	  0.018	 30.200	 99.405	 -99999.000
6849	 -0.583	  0.115	  0.572	 -0.201	 -0.064	 -9.506	  0.002	 -0.000	  0.018	 30.200	 99.393	 -99999.000
6899	 -0.587	  0.121	  0.580	 -0.149	 -0.071	 -9.505	  0.002	 -0.002	  0.020	 30.200	 99.405	 -99999.000
6949	 -0.589	  0.112	  0.577	 -0.164	 -0.092	 -9.468	  0.002	 -0.002	  0.019	 30.200	 99.405	 -99999.000
6999	 -0.589	  0.108	  0.579	 -0.176	 -0.049	 -9.495	  0.002	 -0.002	  0.020	 30.200	 99.393	 -99999.000
7049	 -0.585	  0.111	  0.564	 -0.142	 -0.094	 -9.519	  0.002	 -0.001	  0.020	 30.200	 99.405	 -99999.000
7099	 -0.584	  0.108	  0.575	 -0.192	 -0.049	 -9.513	  0.002	 -0.001	  0.018	 30.200	 99.405	 -99999.000
7149	 -0.588	  0.111	  0.572	 -0.128	 -0.080	 -9.470	  0.001	 -0.001	  0.019	 30.200	 99.393	 -99999.000
7199	 -0.585	  0.114	  0.582	 -0.204	 -0.058	 -9.545	  0.002	 -0.001	  0.020	 30.200	 99.405	 -99999.000
7249	 -0.587	  0.116	  0.573	 -0.111	 -0.069	 -9.506	  0.003	 -0.001	  0.019	 30.200	 99.405	 -99999.000
7299	 -0.585	  0.117	  0.579	 -0.187	 -0.051	 -9.502	  0.004	 -0.002	  0.019	 30.200	 99.405	 -99999.000
7349	 -0.587	  0.116	  0.579	 -0.119	 -0.061	 -9.470	  0.002	 -0.001	  0.020	 30.200	 99.405	 -99999.000
7399	 -0.585	  0.119	  0.580	 -0.181	 -0.089	 -9.502	  0.001	 -0.000	  0.017	 30.200	 99.405	 -99999.000
7449	 -0.585	  0.115	  0.582	 -0.174	 -0.058	 -9.510	  0.003	 -0.001	  0.019	 30.200	 99.405	 -99999.000
7499	 -0.583	  0.110	  0.580	 -0.144	 -0.079	 -9.486	  0.002	 -0.003	  0.019	 30.200	 99.405	 -99999.000
7549	 -0.584	  0.111	  0.575	 -0.200	 -0.056	 -9.538	  0.002	 -0.000	  0.020	 30.200	 99.405	 -99999.000
7599	 -0.584	  0.108	  0.578	 -0.133	 -0.087	 -9.490	  0.001	 -0.002	  0.020	 30.200	 99.421	 -99999.000
7649	 -0.587	  0.112	  0.582	 -0.204	 -0.052	 -9.510	  0.002	 -0.001	  0.019	 30.200	 99.397	 -99999.000
7699	 -0.587	  0.112	  0.580	 -0.115	 -0.062	 -9.506	  0.001	 -0.000	  0.018	 30.200	 99.405	 -99999.000
7749	 -0.589	  0.112	  0.579	 -0.229	 -0.026	 -9.500	  0.003	 -0.001	  0.020	 30.200	 99.393	 -99999.000
7799	 -0.587	  0.112	  0.573	 -0.127	 -0.075	 -9.491	  0.003	 -0.001	  0.019	 30.200	 99.393	 -99999.000
7849	 -0.584	  0.115	  0.580	 -0.191	 -0.039	 -9.541	  0.003	 -0.002	  0.019	 30.200	 99.393	 -99999.000
7899	 -0.584	  0.110	  0.578	 -0.148	 -0.042	 -9.517	  0.002	 -0.001	  0.018	 30.200	 99.393	 -99999.000
7949	 -0.584	  0.108	  0.576	 -0.174	 -0.087	 -9.502	  0.003	 -0.001	  0.018	 30.200	 99.405	 -99999.000
7999	 -0.585	  0.107	  0.578	 -0.159	 -0.047	 -9.492	  0.002	 -0.001	  0.019	 30.200	 99.405	 -99999.000
8049	 -0.589	  0.110	  0.580	 -0.149	 -0.102	 -9.524	  0.002	 -0.000	  0.019	 30.200	 99.405	 -99999.000
8099	 -0.587	  0.113	  0.579	 -0.212	 -0.059	 -9.493	  0.002	 -0.002	  0.020	 30.200	 99.393	 -99999.000
8149	 -0.587	  0.112	  0.582	 -0.135	 -0.078	 -9.471	  0.003	 -0.002	  0.020	 30.200	 99.405	 -99999.000
8199	 -0.585	  0.110	  0.578	 -0.206	 -0.037	 -9.532	  0.001	 -0.002	  0.019	 30.200	 99.405	 -99999.000
29377	 -0.585	  0.108	  0.583	 -0.213	 -0.070	 -9.507	  0.002	 -0.001	  0.018	 30.200	 99.405	 -0.304
29424	 -0.585	  0.108	  0.579	 -0.118	 -0.093	 -9.534	  0.002	 -0.002	  0.019	 30.200	 99.397	  0.433
29474	 -0.588	  0.107	  0.579	 -0.156	 -0.066	 -9.463	  0.002	 -0.001	  0.018	 30.200	 99.393	  0.802
29524	 -0.590	  0.108	  0.580	 -0.163	 -0.080	 -9.501	  0.003	 -0.001	  0.020	 30.200	 99.405	 -0.304
29574	 -0.588	  0.112	  0.577	 -0.177	 -0.052	 -9.515	  0.002	 -0.002	  0.018	 30.200	 99.405	 -0.304
29624	 -0.587	  0.115	  0.576	 -0.132	 -0.076	 -9.494	  0.003	 -0.001	  0.019	 30.200	 99.397	  0.433
29674	 -0.586	  0.110	  0.583	 -0.225	 -0.043	 -9.521	  0.003	 -0.001	  0.018	 30.200	 99.405	 -0.304
29724	 -0.588	  0.108	  0.578	 -0.141	 -0.093	 -9.526	  0.002	 -0.001	  0.020	 30.200	 99.393	  0.802
29774	 -0.590	  0.115	  0.579	 -0.214	 -0.049	 -9.497	  0.003	 -0.002	  0.018	 30.200	 99.409	 -0.673
29824	 -0.588	  0.112	  0.576	 -0.122	 -0.076	 -9.547	  0.003	 -0.001	  0.018	 30.200	 99.393	  0.802
29874	 -0.588	  0.112	  0.576	 -0.198	 -0.057	 -9.488	  0.002	 -0.002	  0.019	 30.200	 99.405	 -0.304
29924	 -0.588	  0.112	  0.580	 -0.132	 -0.045	 -9.486	  0.002	 -0.001	  0.019	 30.200	 99.405	 -0.304
29974	 -0.588	  0.117	  0.581	 -0.173	 -0.070	 -9.497	  0.002	 -0.001	  0.020	 30.200	 99.405	 -0.304
30024	 -0.588	  0.116	  0.586	 -0.175	 -0.053	 -9.525	  0.002	  0.000	  0.018	 30.200	 99.393	  0.802
30074	 -0.584	  0.110	  0.583	 -0.157	 -0.088	 -9.496	  0.002	 -0.002	  0.021	 30.200	 99.405	 -0.304
30124	 -0.588	  0.108	  0.579	 -0.195	 -0.037	 -9.488	  0.003	 -0.001	  0.017	 30.200	 99.393	  0.802
30174	 -0.589	  0.111	  0.586	 -0.109	 -0.075	 -9.502	  0.001	 -0.001	  0.018	 30.200	 99.397	  0.433
30224	 -0.589	  0.115	  0.579	 -0.194	 -0.052	 -9.505	  0.002	 -0.001	  0.022	 30.200	 99.393	  0.802
30274	 -0.588	  0.119	  0.580	 -0.136	 -0.066	 -9.542	  0.002	 -0.000	  0.019	 30.200	 99.397	  0.433
30324	 -0.589	  0.115	  0.580	 -0.197	 -0.060	 -9.510	  0.001	 -0.001	  0.018	 30.200	 99.405	 -0.304
30374	 -0.586	  0.108	  0.579	 -0.096	 -0.084	 -9.502	  0.003	 -0.000	  0.019	 30.200	 99.405	 -0.304
30424	 -0.593	  0.116	  0.579	 -0.190	 -0.063	 -9.508	  0.003	 -0.001	  0.019	 30.200	 99.405	 -0.304
30474	 -0.589	  0.112	  0.579	 -0.157	 -0.068	 -9.530	  0.002	 -0.002	  0.019	 30.200	 99.405	 -0.304
30524	 -0.589	  0.110	  0.581	 -0.169	 -0.077	 -9.482	  0.002	 -0.000	  0.019	 30.200	 99.405	 -0.304
30574	 -0.589	  0.113	  0.581	 -0.179	 -0.060	 -9.526	  0.002	 -0.001	  0.019	 30.200	 99.405	 -0.304
30624	 -0.588	  0.120	  0.581	 -0.144	 -0.088	 -9.508	  0.001	 -0.002	  0.019	 30.200	 99.393	  0.802
30674	 -0.588	  0.124	  0.573	 -0.202	 -0.050	 -9.534	  0.003	 -0.001	  0.020	 30.200	 99.397	  0.433
30724	 -0.588	  0.112	  0.581	 -0.100	 -0.104	 -9.490	  0.002	  0.000	  0.020	 30.200	 99.393	  0.802
30774	 -0.589	  0.112	  0.581	 -0.214	 -0.052	 -9.503	  0.002	 -0.002	  0.020	 30.200	 99.405	 -0.304
30824	 -0.590	  0.108	  0.583	 -0.114	 -0.081	 -9.488	  0.002	 -0.002	  0.020	 30.200	 99.417	 -1.410
30873	 -0.589	  0.108	  0.579	 -0.215	 -0.054	 -9.467	  0.002	 -0.002	  0.020	 30.200	 99.405	 -0.304
30923	 -0.591	  0.115	  0.581	 -0.086	 -0.082	 -9.512	  0.002	 -0.001	  0.018	 30.200	 99.393	  0.802
30973	 -0.589	  0.110	  0.580	 -0.204	 -0.032	 -9.512	  0.002	 -0.001	  0.019	 30.200	 99.417	 -1.410
31023	 -0.589	  0.108	  0.580	 -0.104	 -0.073	 -9.498	  0.001	 -0.000	  0.020	 30.200	 99.393	  0.802
31073	 -0.588	  0.110	  0.575	 -0.177	 -0.060	 -9.484	  0.001	 -0.001	  0.019	 30.200	 99.405	 -0.304
31123	 -0.590	  0.120	  0.575	 -0.166	 -0.064	 -9.478	  0.001	 -0.001	  0.018	 30.200	 99.405	 -0.304
31173	 -0.588	  0.111	  0.579	 -0.164	 -0.057	 -9.470	  0.001	 -0.002	  0.019	 30.200	 99.405	 -0.304
31223	 -0.587	  0.115	  0.584	 -0.171	 -0.037	 -9.521	  0.002	 -0.001	  0.020	 30.200	 99.405	 -0.304
31274	 -0.587	  0.114	  0.583	 -0.107	 -0.078	 -9.496	  0.002	 -0.003	  0.020	 30.200	 99.393	  0.802
31323	 -0.588	  0.108	  0.573	 -0.193	 -0.048	 -9.519	  0.002	 -0.001	  0.020	 30.200	 99.393	  0.802
31373	 -0.588	  0.110	  0.583	 -0.107	 -0.082	 -9.465	  0.002	 -0.001	  0.019	 30.200	 99.380	  2.001
31423	 -0.588	  0.112	  0.572	 -0.207	 -0.042	 -9.495	  0.002	 -0.002	  0.018	 30.200	 99.405	 -0.304
31473	 -0.588	  0.108	  0.584	 -0.116	 -0.066	 -9.498	  0.003	 -0.002	  0.018	 30.200	 99.405	 -0.304
31523	 -0.589	  0.113	  0.576	 -0.214	 -0.051	 -9.541	  0.002	 -0.001	  0.020	 30.200	 99.405	 -0.304
31573	 -0.587	  0.121	  0.583	 -0.132	 -0.057	 -9.509	  0.002	 -0.002	  0.020	 30.200	 99.393	  0.802
31623	 -0.588	  0.105	  0.579	 -0.172	 -0.073	 -9.520	  0.002	 -0.001	  0.020	 30.200	 99.397	  0.433
31673	 -0.591	  0.115	  0.580	 -0.158	 -0.055	 -9.515	  0.002	 -0.001	  0.020	 30.200	 99.393	  0.802
31723	 -0.590	  0.116	  0.579	 -0.148	 -0.075	 -9.481	  0.001	 -0.001	  0.017	 30.200	 99.417	 -1.410
31773	 -0.591	  0.111	  0.572	 -1.810	 -1.644	 -10.890	 -0.462	 -0.167	 -1.156	 30.200	 99.405	 -0.304
31823	 -0.599	  0.093	  0.564	 -2.462	  2.979	 -7.954	  0.419	  0.100	  0.002	 30.200	 99.405	 -0.304
31873	 -0.599	  0.108	  0.562	  1.430	 -2.920	 -10.387	  0.133	  0.032	  0.023	 30.200	 99.393	  0.802
31923	 -0.599	  0.111	  0.565	  0.013	  0.189	 -9.123	  0.021	 -0.002	  0.017	 30.200	 99.393	  0.802
31973	 -0.601	  0.107	  0.561	 -0.233	  0.052	 -9.421	  0.004	 -0.002	  0.020	 30.200	 99.393	  0.802
32023	 -0.600	  0.103	  0.565	 -0.154	 -0.062	 -9.457	  0.003	 -0.002	  0.019	 30.200	 99.409	 -0.673
32073	 -0.600	  0.108	  0.561	 -0.209	 -0.038	 -9.515	  0.003	 -0.000	  0.019	 30.200	 99.397	  0.433
32123	 -0.600	  0.106	  0.564	 -0.131	 -0.034	 -9.474	  0.003	 -0.002	  0.019	 30.200	 99.405	 -0.304
32173	 -0.602	  0.106	  0.566	 -0.184	 -0.085	 -9.509	  0.002	 -0.001	  0.019	 30.200	 99.393	  0.802
32223	 -0.599	  0.115	  0.562	 -0.183	 -0.077	 -9.526	  0.003	 -0.002	  0.020	 30.200	 99.405	 -0.304
32273	 -0.599	  0.116	  0.561	 -0.117	 -0.075	 -9.486	  0.002	 -0.001	  0.019	 30.200	 99.393	  0.802
32323	 -0.600	  0.106	  0.561	 -0.224	 -0.047	 -9.526	  0.003	 -0.002	  0.018	 30.200	 99.397	  0.433
32373	 -0.600	  0.103	  0.568	 -0.185	 -0.127	 -9.471	  0.008	 -0.000	  0.028	 30.200	 99.409	 -0.673
32423	 -0.597	  0.111	  0.565	  0.023	  0.460	 -9.460	  0.003	  0.001	  0.139	 30.200	 99.380	  2.001
32473	 -0.602	  0.113	  0.561	 -0.157	  0.001	 -9.473	  0.007	  0.001	  0.019	 30.200	 99.405	 -0.304
32524	 -0.599	  0.116	  0.561	 -1.358	  2.494	 -9.078	  0.515	  0.190	  0.351	 30.200	 99.397	  0.433
32574	 -0.603	  0.144	  0.556	  0.345	 -1.479	 -9.740	  0.408	  0.313	  0.584	 30.200	 99.393	  0.802
32624	 -0.606	  0.153	  0.556	  1.178	 -2.621	 -10.122	 -0.234	 -0.357	 -0.015	 30.200	 99.409	 -0.673
32675	 -0.595	  0.127	  0.561	  0.361	 -0.152	 -9.825	 -0.670	 -0.228	 -0.491	 30.200	 99.397	  0.433
32725	 -0.599	  0.108	  0.561	  0.974	 -0.067	 -9.412	  0.000	 -0.023	 -1.013	 30.200	 99.405	 -0.304
32774	 -0.602	  0.091	  0.560	 -2.977	  0.761	 -9.498	  0.223	  0.074	 -0.791	 30.200	 99.393	  0.802
32824	 -0.607	  0.096	  0.554	  0.078	 -0.555	 -9.421	  0.247	  0.168	  0.012	 30.200	 99.393	  0.802
32874	 -0.611	  0.111	  0.554	  0.155	 -0.628	 -9.510	  0.097	  0.072	  0.021	 30.200	 99.397	  0.433
32924	 -0.609	  0.109	  0.550	  0.314	 -0.782	 -9.475	 -0.051	 -0.040	  0.019	 30.200	 99.409	 -0.673
32974	 -0.607	  0.087	  0.558	  0.668	 -1.439	 -9.459	 -0.441	 -0.323	  0.032	 30.200	 99.405	 -0.304
33024	 -0.601	  0.082	  0.557	 -2.346	 -1.129	 -11.864	  0.284	  0.022	 -0.063	 30.200	 99.409	 -0.673
33074	 -0.602	  0.088	  0.557	  0.043	  1.116	 -9.216	 -0.091	  0.003	  0.020	 30.200	 99.393	  0.802
33125	 -0.600	  0.084	  0.560	 -0.232	 -0.221	 -9.633	 -0.011	 -0.000	  0.021	 30.200	 99.409	 -0.673
33175	 -0.606	  0.084	  0.559	 -0.138	 -0.290	 -9.637	 -0.011	 -0.000	  0.018	 30.200	 99.409	 -0.673
33225	 -0.601	  0.092	  0.553	 -0.236	  0.181	 -9.312	  0.007	  0.000	  0.020	 30.200	 99.409	 -0.673
33274	 -0.602	  0.087	  0.557	 -0.096	 -0.249	 -9.630	  0.000	 -0.000	  0.016	 30.200	 99.409	 -0.673
33324	 -0.606	  0.088	  0.549	  0.766	 -0.495	 -9.489	 -0.001	 -0.004	 -0.222	 30.200	 99.417	 -1.410
33374	 -0.602	  0.075	  0.552	 -2.216	  1.739	 -9.292	 -0.001	 -0.003	 -0.164	 30.200	 99.405	 -0.304
33424	 -0.604	  0.068	  0.559	 -0.158	 -0.016	 -9.459	  0.012	 -0.003	  0.021	 30.200	 99.409	 -0.673
33474	 -0.603	  0.070	  0.553	 -0.166	  0.019	 -9.467	  0.005	 -0.002	  0.020	 30.200	 99.393	  0.802
33524	 -0.605	  0.072	  0.556	 -0.160	 -0.027	 -9.518	  0.002	 -0.002	  0.022	 30.200	 99.405	 -0.304
33574	 -0.604	  0.072	  0.553	 -0.184	 -0.048	 -9.489	  0.001	 -0.001	  0.015	 30.200	 99.405	 -0.304
33624	 -0.607	  0.068	  0.551	 -0.153	 -0.099	 -9.506	  0.001	 -0.002	  0.021	 30.200	 99.405	 -0.304
33674	 -0.604	  0.069	  0.556	 -0.197	 -0.058	 -9.497	  0.003	 -0.002	  0.021	 30.200	 99.405	 -0.304
33724	 -0.605	  0.069	  0.559	 -0.120	 -0.079	 -9.514	  0.002	 -0.000	  0.015	 30.200	 99.405	 -0.304
33774	 -0.604	  0.072	  0.556	 -0.198	 -0.059	 -9.535	  0.002	 -0.001	  0.018	 30.200	 99.405	 -0.304
33824	 -0.605	  0.072	  0.558	 -0.124	 -0.087	 -9.511	  0.001	 -0.001	  0.024	 30.200	 99.393	  0.802
33874	 -0.603	  0.077	  0.549	 -0.230	 -0.050	 -9.513	  0.003	 -0.001	  0.017	 30.200	 99.405	 -0.304
33924	 -0.602	  0.083	  0.553	 -0.148	 -0.069	 -9.502	  0.002	 -0.001	  0.018	 30.200	 99.397	  0.433
33974	 -0.604	  0.080	  0.557	 -0.170	 -0.044	 -9.463	  0.001	 -0.001	  0.021	 30.200	 99.405	 -0.304
34024	 -0.603	  0.082	  0.549	 -0.169	 -0.043	 -9.523	  0.003	 -0.001	  0.023	 30.200	 99.409	 -0.673
34074	 -0.604	  0.067	  0.552	 -0.156	 -0.086	 -9.502	  0.001	 -0.001	  0.018	 30.200	 99.405	 -0.304
34124	 -0.604	  0.086	  0.552	 -0.189	 -0.050	 -9.511	  0.002	 -0.001	  0.021	 30.200	 99.393	  0.802
34174	 -0.602	  0.073	  0.555	 -0.126	 -0.078	 -9.509	  0.001	 -0.001	  0.016	 30.200	 99.405	 -0.304
34224	 -0.603	  0.075	  0.555	 -0.245	 -0.028	 -9.504	  0.003	 -0.001	  0.019	 30.200	 99.397	  0.433
34274	 -0.605	  0.072	  0.552	 -0.100	 -0.090	 -9.526	  0.002	 -0.001	  0.023	 30.200	 99.393	  0.802
34324	 -0.604	  0.069	  0.555	 -0.227	 -0.042	 -9.503	  0.003	 -0.001	  0.018	 30.200	 99.409	 -0.673
34374	 -0.605	  0.072	  0.555	 -0.134	 -0.066	 -9.522	  0.002	 -0.002	  0.019	 30.200	 99.405	 -0.304
34424	 -0.606	  0.074	  0.552	 -0.208	 -0.044	 -9.505	  0.003	 -0.001	  0.019	 30.200	 99.393	  0.802
34474	 -0.602	  0.070	  0.549	 -0.174	 -0.062	 -9.522	  0.003	 -0.001	  0.023	 30.200	 99.409	 -0.673
34524	 -0.601	  0.072	  0.556	 -0.163	 -0.062	 -9.447	  0.001	 -0.002	  0.022	 30.200	 99.393	  0.802
34574	 -0.604	  0.072	  0.552	 -0.179	 -0.034	 -9.495	  0.002	 -0.000	  0.019	 30.200	 99.393	  0.802
34624	 -0.604	  0.069	  0.555	 -0.126	 -0.059	 -9.483	  0.001	 -0.001	  0.020	 30.200	 99.405	 -0.304
34674	 -0.602	  0.068	  0.546	 -0.216	 -0.024	 -9.482	  0.003	 -0.001	  0.022	 30.200	 99.393	  0.802
34724	 -0.605	  0.067	  0.556	 -0.109	 -0.076	 -9.506	  0.002	 -0.001	  0.023	 30.200	 99.393	  0.802
34774	 -0.604	  0.073	  0.549	 -0.206	 -0.040	 -9.512	  0.003	 -0.001	  0.021	 30.200	 99.393	  0.802
34824	 -0.605	  0.072	  0.552	 -0.125	 -0.079	 -9.500	  0.001	 -0.002	  0.022	 30.200	 99.405	 -0.304
34874	 -0.604	  0.070	  0.555	 -0.226	 -0.058	 -9.524	  0.003	 -0.002	  0.017	 30.200	 99.393	  0.802
34924	 -0.605	  0.069	  0.552	 -0.156	 -0.069	 -9.464	  0.002	 -0.000	  0.015	 30.200	 99.405	 -0.304
34974	 -0.603	  0.079	  0.553	 -0.162	 -0.100	 -9.487	  0.001	 -0.002	  0.016	 30.200	 99.393	  0.802
35024	 -0.603	  0.077	  0.551	 -0.181	 -0.056	 -9.505	  0.002	 -0.001	  0.016	 30.200	 99.405	 -0.304
35074	 -0.603	  0.070	  0.558	 -0.130	 -0.076	 -9.475	  0.002	 -0.002	  0.017	 30.200	 99.409	 -0.673
35124	 -0.602	  0.074	  0.549	 -0.213	 -0.061	 -9.529	  0.003	 -0.001	  0.020	 30.200	 99.393	  0.802
35174	 -0.598	  0.077	  0.551	 -0.118	 -0.081	 -9.468	  0.002	 -0.002	  0.024	 30.200	 99.393	  0.802
35224	 -0.601	  0.077	  0.552	 -0.201	 -0.054	 -9.509	  0.002	 -0.003	  0.017	 30.200	 99.397	  0.433
35274	 -0.603	  0.070	  0.553	 -0.122	 -0.082	 -9.470	  0.002	 -0.003	  0.018	 30.200	 99.405	 -0.304
35324	 -0.603	  0.074	  0.553	 -0.224	 -0.050	 -9.521	  0.002	 -0.002	  0.020	 30.200	 99.397	  0.433
35374	 -0.605	  0.070	  0.558	 -0.137	 -0.050	 -9.491	  0.001	 -0.001	  0.022	 30.200	 99.393	  0.802
35424	 -0.603	  0.072	  0.551	 -0.189	 -0.050	 -9.474	  0.003	 -0.001	  0.020	 30.200	 99.405	 -0.304
35474	 -0.603	  0.075	  0.553	 -0.150	 -0.044	 -9.521	  0.003	 -0.001	  0.015	 30.200	 99.405	 -0.304
35524	 -0.603	  0.072	  0.549	 -0.178	 -0.061	 -9.476	  0.002	 -0.002	  0.017	 30.200	 99.393	  0.802
35574	 -0.603	  0.073	  0.553	 -0.184	 -0.040	 -9.501	  0.003	 -0.003	  0.017	 30.200	 99.417	 -1.410
35624	 -0.605	  0.072	  0.553	 -0.147	 -0.078	 -9.511	  0.002	 -0.001	  0.016	 30.200	 99.397	  0.433
35674	 -0.604	  0.073	  0.555	 -0.207	 -0.042	 -9.530	  0.002	 -0.002	  0.022	 30.200	 99.409	 -0.673
35724	 -0.602	  0.070	  0.556	 -0.128	 -0.104	 -9.505	  0.002	 -0.001	  0.025	 30.200	 99.397	  0.433
35774	 -0.604	  0.072	  0.555	 -0.203	 -0.057	 -9.539	  0.002	 -0.001	  0.017	 30.200	 99.393	  0.802
35824	 -0.603	  0.072	  0.547	 -0.131	 -0.066	 -9.507	  0.003	 -0.001	  0.018	 30.200	 99.405	 -0.304
35874	 -0.598	  0.069	  0.551	 -0.207	 -0.062	 -9.489	  0.003	 -0.002	  0.022	 30.200	 99.409	 -0.673
35924	 -0.600	  0.068	  0.556	 -0.149	 -0.063	 -9.509	  0.003	 -0.002	  0.022	 30.200	 99.397	  0.433
35974	 -0.603	  0.080	  0.552	 -0.164	 -0.068	 -9.484	  0.001	 -0.002	  0.017	 30.200	 99.397	  0.433
36024	 -0.601	  0.067	  0.559	 -0.173	 -0.064	 -9.495	  0.003	 -0.002	  0.018	 30.200	 99.393	  0.802
36074	 -0.601	  0.075	  0.551	 -0.144	 -0.102	 -9.517	  0.003	 -0.002	  0.024	 30.200	 99.393	  0.802
36124	 -0.603	  0.082	  0.553	 -0.209	 -0.039	 -9.456	  0.002	 -0.001	  0.017	 30.200	 99.393	  0.802
36174	 -0.602	  0.074	  0.553	 -0.119	 -0.059	 -9.478	  0.002	 -0.001	  0.022	 30.200	 99.409	 -0.673
36224	 -0.604	  0.075	  0.553	 -0.188	 -0.045	 -9.492	  0.003	 -0.002	  0.017	 30.200	 99.405	 -0.304
36274	 -0.603	  0.070	  0.551	 -0.132	 -0.068	 -9.487	  0.003	 -0.001	  0.016	 30.200	 99.405	 -0.304
36324	 -0.604	  0.074	  0.545	 -0.198	 -0.046	 -9.535	  0.003	 -0.001	  0.017	 30.200	 99.405	 -0.304
36374	 -0.601	  0.075	  0.547	 -0.116	 -0.078	 -9.462	  0.001	 -0.002	  0.020	 30.200	 99.397	  0.433
36424	 -0.604	  0.083	  0.550	 -0.204	 -0.059	 -9.480	  0.003	 -0.001	  0.023	 30.200	 99.393	  0.802
36474	 -0.601	  0.074	  0.553	 -0.173	 -0.044	 -9.494	  0.002	 -0.000	  0.022	 30.200	 99.405	 -0.304
36524	 -0.602	  0.083	  0.552	 -0.150	 -0.059	 -9.493	  0.002	 -0.002	  0.024	 30.200	 99.405	 -0.304
36574	 -0.601	  0.070	  0.555	 -0.179	 -0.054	 -9.514	  0.004	 -0.001	  0.020	 30.200	 99.405	 -0.304
36624	 -0.600	  0.077	  0.549	 -0.118	 -0.074	 -9.506	  0.002	 -0.001	  0.020	 30.200	 99.409	 -0.673
36674	 -0.603	  0.072	  0.558	 -0.218	 -0.039	 -9.518	  0.003	 -0.001	  0.021	 30.200	 99.405	 -0.304
36724	 -0.602	  0.073	  0.548	 -0.131	 -0.091	 -9.525	  0.001	 -0.001	  0.020	 30.200	 99.397	  0.433
36774	 -0.603	  0.070	  0.553	 -0.215	 -0.058	 -9.441	  0.001	 -0.002	  0.022	 30.200	 99.409	 -0.673
36824	 -0.602	  0.073	  0.551	 -0.149	 -0.083	 -9.500	  0.002	 -0.002	  0.020	 30.200	 99.393	  0.802
36874	 -0.605	  0.067	  0.552	 -0.212	 -0.044	 -9.511	  0.001	 -0.001	  0.021	 30.200	 99.397	  0.433
36924	 -0.603	  0.073	  0.551	 -0.150	 -0.070	 -9.524	  0.001	 -0.002	  0.019	 30.200	 99.405	 -0.304
36974	 -0.603	  0.074	  0.556	 -0.183	 -0.086	 -9.516	  0.002	 -0.001	  0.018	 30.200	 99.405	 -0.304
37024	 -0.602	  0.070	  0.555	 -0.180	 -0.066	 -9.496	  0.002	 -0.001	  0.021	 30.200	 99.393	  0.802
37074	 -0.601	  0.080	  0.559	 -0.163	 -0.085	 -9.524	  0.002	 -0.003	  0.013	 30.200	 99.409	 -0.673
37124	 -0.600	  0.073	  0.558	 -0.220	 -0.061	 -9.510	  0.003	 -0.001	  0.020	 30.200	 99.405	 -0.304
37174	 -0.601	  0.082	  0.551	 -0.144	 -0.081	 -9.507	  0.002	 -0.001	  0.019	 30.200	 99.409	 -0.673
37224	 -0.601	  0.073	  0.555	 -0.207	 -0.035	 -9.451	  0.003	 -0.001	  0.021	 30.200	 99.405	 -0.304
37274	 -0.602	  0.069	  0.548	 -0.136	 -0.070	 -9.469	  0.003	 -0.001	  0.016	 30.200	 99.405	 -0.304
37324	 -0.602	  0.068	  0.551	 -0.237	 -0.029	 -9.502	  0.002	 -0.001	  0.021	 30.200	 99.405	 -0.304
37374	 -0.602	  0.084	  0.549	 -0.129	 -0.061	 -9.498	  0.002	 -0.002	  0.021	 30.200	 99.409	 -0.673
37424	 -0.602	  0.075	  0.551	 -0.192	 -0.052	 -9.542	  0.002	 -0.002	  0.022	 30.200	 99.397	  0.433
37474	 -0.601	  0.069	  0.551	 -0.138	 -0.055	 -9.515	  0.002	 -0.001	  0.019	 30.200	 99.397	  0.433
37524	 -0.600	  0.082	  0.553	 -0.164	 -0.069	 -9.538	  0.003	 -0.002	  0.020	 30.200	 99.409	 -0.673
37574	 -0.604	  0.072	  0.552	 -0.168	 -0.047	 -9.488	  0.003	 -0.002	  0.015	 30.200	 99.397	  0.433
37624	 -0.603	  0.075	  0.556	 -0.126	 -0.070	 -9.548	  0.002	 -0.001	  0.015	 30.200	 99.405	 -0.304
37674	 -0.602	  0.075	  0.553	 -0.218	 -0.044	 -9.520	  0.002	 -0.001	  0.019	 30.200	 99.397	  0.433
37724	 -0.602	  0.079	  0.548	 -0.135	 -0.082	 -9.501	  0.002	 -0.002	  0.018	 30.200	 99.397	  0.433
37774	 -0.600	  0.073	  0.556	 -0.231	 -0.039	 -9.507	  0.003	 -0.001	  0.022	 30.200	 99.393	  0.802
37824	 -0.598	  0.078	  0.549	 -0.125	 -0.084	 -9.487	  0.002	 -0.000	  0.022	 30.200	 99.409	 -0.673
37874	 -0.601	  0.070	  0.558	 -0.224	 -0.054	 -9.476	  0.002	 -0.002	  0.023	 30.200	 99.405	 -0.304
37925	 -0.603	  0.080	  0.547	 -0.147	 -0.059	 -9.510	  0.001	 -0.002	  0.019	 30.200	 99.405	 -0.304
37975	 -0.601	  0.072	  0.558	 -0.181	 -0.075	 -9.509	  0.002	 -0.003	  0.023	 30.200	 99.417	 -1.410
38025	 -0.602	  0.075	  0.549	 -0.182	 -0.044	 -9.483	  0.002	 -0.000	  0.022	 30.200	 99.409	 -0.673
38075	 -0.606	  0.078	  0.556	 -0.131	 -0.065	 -9.518	  0.001	 -0.002	  0.020	 30.200	 99.393	  0.802
38125	 -0.600	  0.086	  0.549	 -0.204	 -0.054	 -9.533	  0.002	 -0.002	  0.023	 30.200	 99.393	  0.802
38175	 -0.601	  0.075	  0.551	 -0.131	 -0.076	 -9.493	  0.002	 -0.002	  0.019	 30.200	 99.401	  0.064
38225	 -0.602	  0.075	  0.552	 -0.222	 -0.063	 -9.481	  0.001	 -0.002	  0.024	 30.200	 99.393	  0.802
38275	 -0.603	  0.075	  0.553	 -0.110	 -0.079	 -9.481	  0.001	 -0.001	  0.017	 30.200	 99.421	 -1.777
38325	 -0.603	  0.074	  0.556	 -0.226	 -0.043	 -9.488	  0.003	 -0.001	  0.021	 30.200	 99.397	  0.433
38375	 -0.603	  0.079	  0.555	 -0.143	 -0.078	 -9.496	  0.001	 -0.001	  0.018	 30.200	 99.397	  0.433
38425	 -0.601	  0.088	  0.555	 -0.221	 -0.055	 -9.531	  0.001	 -0.001	  0.021	 30.200	 99.397	  0.433
38475	 -0.602	  0.080	  0.553	 -0.152	 -0.064	 -9.542	  0.002	 -0.002	  0.018	 30.200	 99.405	 -0.304
38525	 -0.602	  0.072	  0.559	 -0.186	 -0.061	 -9.496	  0.002	  0.000	  0.018	 30.200	 99.393	  0.802
38575	 -0.601	  0.072	  0.552	 -0.157	 -0.059	 -9.521	  0.002	 -0.001	  0.021	 30.200	 99.405	 -0.304
38625	 -0.603	  0.083	  0.553	 -0.143	 -0.070	 -9.550	  0.003	 -0.002	  0.020	 30.200	 99.393	  0.802
38675	 -0.601	  0.077	  0.551	 -0.214	 -0.037	 -9.501	  0.001	 -0.001	  0.016	 30.200	 99.405	 -0.304
38725	 -0.602	  0.078	  0.553	 -0.107	 -0.073	 -9.494	  0.002	 -0.001	  0.020	 30.200	 99.405	 -0.304
38775	 -0.601	  0.075	  0.551	 -0.228	 -0.055	 -9.503	  0.002	 -0.001	  0.019	 30.200	 99.405	 -0.304
38825	 -0.603	  0.073	  0.551	 -0.115	 -0.070	 -9.493	  0.002	 -0.000	  0.017	 30.200	 99.393	  0.802
38874	 -0.600	  0.083	  0.553	 -0.215	 -0.067	 -9.493	  0.002	 -0.001	  0.019	 30.200	 99.397	  0.433
38924	 -0.603	  0.073	  0.555	 -0.122	 -0.072	 -9.499	  0.001	 -0.002	  0.021	 30.200	 99.405	 -0.304
38974	 -0.598	  0.077	  0.552	 -0.192	 -0.078	 -9.451	  0.002	 -0.002	  0.019	 30.200	 99.405	 -0.304
39024	 -0.603	  0.073	  0.556	 -0.166	 -0.059	 -9.474	  0.002	 -0.001	  0.019	 30.200	 99.405	 -0.304
39074	 -0.600	  0.078	  0.555	 -0.167	 -0.094	 -9.484	  0.001	 -0.002	  0.017	 30.200	 99.393	  0.802
39124	 -0.601	  0.074	  0.552	 -0.202	 -0.056	 -9.521	  0.001	 -0.003	  0.019	 30.200	 99.409	 -0.673
39174	 -0.603	  0.072	  0.556	 -0.115	 -0.085	 -9.503	  0.001	 -0.001	  0.020	 30.200	 99.405	 -0.304
39224	 -0.601	  0.075	  0.549	 -0.225	 -0.041	 -9.503	  0.003	 -0.001	  0.019	 30.200	 99.393	  0.802
39274	 -0.604	  0.073	  0.555	 -0.071	 -0.067	 -9.420	  0.003	 -0.001	  0.020	 30.200	 99.393	  0.802
39324	 -0.601	  0.077	  0.552	 -0.212	 -0.113	 -9.522	  0.002	 -0.001	  0.019	 30.200	 99.405	 -0.304
39374	 -0.602	  0.089	  0.552	 -0.129	 -0.072	 -9.502	  0.002	 -0.001	  0.019	 30.200	 99.397	  0.433
39424	 -0.603	  0.083	  0.552	 -0.207	 -0.062	 -9.467	  0.003	 -0.001	  0.019	 30.200	 99.405	 -0.304
39474	 -0.601	  0.083	  0.552	 -0.153	 -0.076	 -9.516	  0.003	 -0.003	  0.019	 30.200	 99.405	 -0.304
39524	 -0.600	  0.078	  0.555	 -0.190	 -0.086	 -9.514	  0.001	 -0.001	  0.019	 30.200	 99.397	  0.433
39574	 -0.598	  0.084	  0.558	 -0.143	 -0.058	 -9.474	  0.002	  0.000	  0.019	 30.200	 99.405	 -0.304
39624	 -0.601	  0.075	  0.553	 -0.179	 -0.069	 -9.507	  0.001	 -0.001	  0.020	 30.200	 99.409	 -0.673
39674	 -0.600	  0.072	  0.554	 -0.203	 -0.033	 -9.536	  0.002	 -0.001	  0.019	 30.200	 99.393	  0.802
39724	 -0.598	  0.077	  0.554	 -0.131	 -0.086	 -9.513	  0.002	 -0.002	  0.019	 30.200	 99.405	 -0.304
39774	 -0.602	  0.075	  0.552	 -0.211	 -0.031	 -9.516	  0.002	 -0.001	  0.019	 30.200	 99.393	  0.802
39824	 -0.602	  0.072	  0.549	 -0.119	 -0.052	 -9.515	  0.001	 -0.002	  0.019	 30.200	 99.405	 -0.304
39874	 -0.600	  0.074	  0.552	 -0.196	 -0.059	 -9.489	  0.002	  0.000	  0.019	 30.200	 99.405	 -0.304
39924	 -0.600	  0.077	  0.560	 -0.125	 -0.061	 -9.483	  0.002	 -0.001	  0.018	 30.200	 99.397	  0.433
39974	 -0.602	  0.078	  0.552	 -0.211	 -0.037	 -9.483	  0.002	 -0.003	  0.019	 30.200	 99.409	 -0.673
40024	 -0.602	  0.074	  0.553	 -0.169	 -0.069	 -9.498	  0.002	 -0.000	  0.019	 30.200	 99.405	 -0.304
40074	 -0.598	  0.077	  0.545	 -0.175	 -0.079	 -9.486	  0.002	 -0.001	  0.020	 30.200	 99.397	  0.433
40124	 -0.602	  0.074	  0.552	 -0.204	 -0.050	 -9.481	  0.003	 -0.001	  0.021	 30.200	 99.393	  0.802
40174	 -0.601	  0.074	  0.555	 -0.122	 -0.089	 -9.527	  0.003	 -0.001	  0.018	 30.200	 99.393	  0.802
40224	 -0.601	  0.079	  0.555	 -0.211	 -0.045	 -9.515	  0.002	 -0.002	  0.018	 30.200	 99.405	 -0.304
40274	 -0.600	  0.077	  0.553	 -0.136	 -0.052	 -9.494	  0.003	 -0.001	  0.019	 30.200	 99.393	  0.802
40324	 -0.601	  0.086	  0.553	 -0.233	 -0.040	 -9.498	  0.003	  0.000	  0.019	 30.200	 99.393	  0.802
40374	 -0.601	  0.087	  0.552	 -0.122	 -0.075	 -9.521	  0.001	 -0.001	  0.019	 30.200	 99.393	  0.802
40424	 -0.600	  0.079	  0.553	 -0.194	 -0.056	 -9.509	  0.001	 -0.002	  0.018	 30.200	 99.397	  0.433
40474	 -0.603	  0.072	  0.552	 -0.155	 -0.045	 -9.506	  0.003	 -0.001	  0.019	 30.200	 99.405	 -0.304
40524	 -0.600	  0.073	  0.550	 -0.172	 -0.077	 -9.548	  0.002	 -0.001	  0.019	 30.200	 99.409	 -0.673
40574	 -0.601	  0.083	  0.555	 -0.176	 -0.055	 -9.486	  0.003	 -0.001	  0.019	 30.200	 99.393	  0.802
40624	 -0.602	  0.072	  0.551	 -0.133	 -0.042	 -9.500	  0.003	 -0.001	  0.019	 30.200	 99.409	 -0.673
40674	 -0.602	  0.075	  0.556	 -0.204	 -0.043	 -9.496	  0.002	 -0.001	  0.020	 30.200	 99.397	  0.433
40724	 -0.601	  0.083	  0.555	 -0.127	 -0.079	 -9.508	  0.001	 -0.002	  0.018	 30.200	 99.405	 -0.304
40774	 -0.604	  0.074	  0.553	 -0.218	 -0.030	 -9.471	  0.002	 -0.001	  0.020	 30.200	 99.397	  0.433
40824	 -0.603	  0.074	  0.552	 -0.123	 -0.100	 -9.530	  0.002	 -0.002	  0.019	 30.200	 99.397	  0.433
40874	 -0.601	  0.084	  0.552	 -0.220	 -0.068	 -9.498	  0.002	 -0.000	  0.018	 30.200	 99.405	 -0.304
40924	 -0.601	  0.075	  0.555	 -0.149	 -0.062	 -9.495	  0.002	 -0.001	  0.019	 30.200	 99.405	 -0.304
40974	 -0.600	  0.077	  0.558	 -0.215	 -0.060	 -9.494	  0.002	 -0.001	  0.019	 30.200	 99.409	 -0.673
41024	 -0.600	  0.079	  0.549	 -0.176	 -0.052	 -9.493	  0.002	 -0.001	  0.020	 30.200	 99.409	 -0.673
41074	 -0.602	  0.077	  0.552	 -0.143	 -0.059	 -9.520	  0.001	 -0.002	  0.019	 30.200	 99.393	  0.802
41124	 -0.601	  0.078	  0.560	 -0.192	 -0.048	 -9.510	  0.003	 -0.001	  0.020	 30.200	 99.409	 -0.673
41174	 -0.600	  0.072	  0.552	 -0.122	 -0.062	 -9.475	  0.003	 -0.001	  0.017	 30.200	 99.393	  0.802
41224	 -0.601	  0.074	  0.559	 -0.211	 -0.034	 -9.483	  0.002	 -0.001	  0.019	 30.200	 99.393	  0.802
41274	 -0.598	  0.070	  0.552	 -0.136	 -0.073	 -9.514	  0.001	 -0.001	  0.020	 30.200	 99.409	 -0.673
41324	 -0.600	  0.078	  0.556	 -0.216	 -0.035	 -9.503	  0.002	 -0.002	  0.020	 30.200	 99.393	  0.802
41374	 -0.601	  0.074	  0.556	 -0.122	 -0.072	 -9.526	  0.002	 -0.001	  0.022	 30.200	 99.417	 -1.410
41424	 -0.600	  0.079	  0.552	 -0.205	 -0.053	 -9.493	  0.003	 -0.003	  0.019	 30.200	 99.405	 -0.304
41474	 -0.602	  0.073	  0.553	 -0.128	 -0.083	 -9.516	  0.002	 -0.002	  0.019	 30.200	 99.409	 -0.673
41524	 -0.601	  0.075	  0.555	 -0.184	 -0.071	 -9.477	  0.002	 -0.000	  0.020	 30.200	 99.409	 -0.673
41574	 -0.600	  0.077	  0.552	 -0.165	 -0.036	 -9.495	  0.002	 -0.001	  0.020	 30.200	 99.405	 -0.304
41624	 -0.602	  0.074	  0.555	 -0.155	 -0.102	 -9.509	  0.003	 -0.003	  0.019	 30.200	 99.409	 -0.673
41674	 -0.596	  0.072	  0.557	 -0.231	 -0.052	 -9.516	  0.002	 -0.002	  0.020	 30.200	 99.409	 -0.673
41724	 -0.600	  0.073	  0.548	 -0.135	 -0.067	 -9.521	  0.002	 -0.001	  0.018	 30.200	 99.397	  0.433
41774	 -0.601	  0.070	  0.552	 -0.208	 -0.049	 -9.524	  0.002	 -0.001	  0.019	 30.200	 99.397	  0.433
41824	 -0.604	  0.073	  0.548	 -0.115	 -0.077	 -9.485	  0.003	 -0.001	  0.020	 30.200	 99.405	 -0.304
41874	 -0.601	  0.073	  0.558	 -0.196	 -0.078	 -9.524	  0.004	 -0.001	  0.020	 30.200	 99.409	 -0.673
41924	 -0.601	  0.075	  0.551	 -0.147	 -0.054	 -9.508	  0.004	 -0.001	  0.021	 30.200	 99.397	  0.433
41974	 -0.602	  0.077	  0.555	 -0.205	 -0.055	 -9.504	  0.003	 -0.001	  0.019	 30.200	 99.393	  0.802
42024	 -0.604	  0.093	  0.552	 -0.163	 -0.081	 -9.505	  0.003	 -0.000	  0.019	 30.200	 99.393	  0.802
42074	 -0.598	  0.070	  0.551	 -0.169	 -0.069	 -9.486	  0.002	 -0.000	  0.019	 30.200	 99.393	  0.802
42123	 -0.601	  0.077	  0.545	 -0.126	 -0.072	 -9.530	  0.002	 -0.001	  0.020	 30.200	 99.409	 -0.673
42174	 -0.602	  0.075	  0.556	 -0.194	 -0.056	 -9.516	  0.003	 -0.002	  0.019	 30.200	 99.405	 -0.304
42224	 -0.601	  0.070	  0.552	 -0.199	 -0.046	 -9.504	  0.001	 -0.002	  0.018	 30.200	 99.405	 -0.304
42274	 -0.602	  0.074	  0.556	 -0.107	 -0.072	 -9.532	  0.002	 -0.001	  0.018	 30.200	 99.393	  0.802
42323	 -0.601	  0.078	  0.555	 -0.198	 -0.045	 -9.531	  0.002	 -0.002	  0.019	 30.200	 99.397	  0.433
42373	 -0.603	  0.087	  0.550	 -0.136	 -0.075	 -9.507	  0.002	 -0.001	  0.018	 30.200	 99.409	 -0.673
42423	 -0.600	  0.077	  0.556	 -0.235	 -0.033	 -9.527	  0.003	 -0.001	  0.020	 30.200	 99.397	  0.433
42473	 -0.600	  0.075	  0.555	 -0.127	 -0.127	 -9.443	  0.010	 -0.003	  0.018	 30.200	 99.409	 -0.673
42523	 -0.601	  0.079	  0.556	 -0.083	 -1.058	 -9.868	 -0.036	 -0.011	  0.019	 30.200	 99.397	  0.433
42573	 -0.602	  0.075	  0.558	 -0.280	  0.593	 -9.306	  0.105	  0.021	  0.016	 30.200	 99.405	 -0.304
42623	 -0.602	  0.087	  0.551	 -0.428	  0.358	 -9.391	  0.378	  0.146	  0.009	 30.200	 99.405	 -0.304
42673	 -0.606	  0.097	  0.550	 -0.032	 -0.356	 -9.513	  0.253	  0.185	  0.012	 30.200	 99.409	 -0.673
42723	 -0.609	  0.096	  0.547	  0.297	 -0.625	 -9.439	  0.025	  0.025	  0.018	 30.200	 99.397	  0.433
42773	 -0.604	  0.115	  0.544	 -0.243	 -0.194	 -9.553	 -0.047	 -0.048	  0.022	 30.200	 99.405	 -0.304
42823	 -0.609	  0.103	  0.549	  0.094	 -0.488	 -9.514	  0.005	  0.002	  0.019	 30.200	 99.405	 -0.304
42873	 -0.606	  0.096	  0.545	 -0.079	 -0.352	 -9.531	  0.017	  0.012	  0.018	 30.200	 99.397	  0.433
42923	 -0.608	  0.094	  0.549	  2.638	 -2.698	 -8.699	 -0.190	 -0.202	  0.029	 30.200	 99.409	 -0.673
42973	 -0.586	  0.058	  0.565	  0.910	  6.339	 -3.573	 -0.909	  0.065	 -0.086	 30.200	 99.405	 -0.304
43023	 -0.584	  0.064	  0.569	  0.397	  3.414	 -6.761	  1.406	  0.355	 -0.022	 30.200	 99.405	 -0.304
43073	 -0.581	  0.074	  0.570	 -0.209	 -1.146	 -9.819	 -0.332	 -0.143	  0.044	 30.200	 99.405	 -0.304
43124	 -0.581	  0.062	  0.567	 -0.221	  1.613	 -8.818	  0.021	 -0.002	  0.015	 30.200	 99.393	  0.802
43174	 -0.585	  0.069	  0.566	 -0.080	  1.962	 -8.391	  0.114	 -0.012	  0.023	 30.200	 99.405	 -0.304
43224	 -0.589	  0.060	  0.566	 -0.118	 -0.861	 -9.884	 -0.059	 -0.002	  0.020	 30.200	 99.409	 -0.673
43273	 -0.591	  0.058	  0.562	 -0.198	  0.600	 -9.193	 -0.003	  0.001	  0.019	 30.200	 99.405	 -0.304
43323	 -0.591	  0.056	  0.564	 -0.167	 -0.024	 -9.457	  0.003	 -0.001	  0.019	 30.200	 99.405	 -0.304
43373	 -0.589	  0.060	  0.564	 -0.164	 -0.038	 -9.502	  0.003	 -0.003	  0.019	 30.200	 99.393	  0.802
43423	 -0.589	  0.059	  0.553	 -0.138	 -0.220	 -9.633	 -0.002	  0.000	  0.018	 30.200	 99.409	 -0.673
43473	 -0.591	  0.059	  0.565	 -0.116	 -0.102	 -9.494	  0.000	 -0.001	  0.019	 30.200	 99.405	 -0.304
43523	 -0.591	  0.060	  0.568	 -0.218	 -0.037	 -9.504	  0.001	 -0.002	  0.020	 30.200	 99.405	 -0.304
43573	 -0.593	  0.059	  0.566	 -0.113	 -0.072	 -9.504	  0.003	 -0.002	  0.021	 30.200	 99.421	 -1.777
43624	 -0.592	  0.073	  0.567	 -0.205	 -0.036	 -9.503	  0.003	 -0.001	  0.018	 30.200	 99.397	  0.433
43674	 -0.590	  0.065	  0.572	 -0.212	 -0.041	 -9.522	  0.001	 -0.001	  0.019	 30.200	 99.409	 -0.673
43723	 -0.592	  0.058	  0.577	 -0.118	 -0.132	 -9.524	  0.002	 -0.001	  0.021	 30.200	 99.405	 -0.304
43774	 -0.596	  0.056	  0.574	 -0.205	 -0.066	 -9.509	  0.001	 -0.002	  0.020	 30.200	 99.409	 -0.673
43824	 -0.596	  0.049	  0.578	 -0.116	 -0.172	 -9.552	  0.001	 -0.002	  0.019	 30.200	 99.405	 -0.304
43874	 -0.597	  0.073	  0.568	 -0.226	 -0.028	 -9.528	  0.002	 -0.002	  0.019	 30.200	 99.405	 -0.304
43924	 -0.598	  0.054	  0.578	 -0.122	 -0.032	 -9.489	  0.002	 -0.001	  0.018	 30.200	 99.405	 -0.304
43974	 -0.595	  0.046	  0.573	 -0.196	 -0.059	 -9.481	  0.001	 -0.001	  0.020	 30.200	 99.393	  0.802
44024	 -0.592	  0.051	  0.576	 -0.147	 -0.032	 -9.475	  0.003	 -0.001	  0.019	 30.200	 99.409	 -0.673
44074	 -0.595	  0.056	  0.576	 -0.173	 -0.211	 -9.607	  0.009	 -0.001	  0.019	 30.200	 99.397	  0.433
44124	 -0.593	  0.062	  0.574	 -0.177	 -0.138	 -9.603	 -0.010	 -0.000	  0.017	 30.200	 99.417	 -1.410
44174	 -0.592	  0.058	  0.573	 -0.146	 -0.027	 -9.545	 -0.004	 -0.001	  0.019	 30.200	 99.409	 -0.673
44224	 -0.596	  0.058	  0.574	 -0.229	  0.002	 -9.477	 -0.001	 -0.001	  0.021	 30.200	 99.405	 -0.304
44274	 -0.590	  0.080	  0.569	 -0.114	 -0.145	 -9.576	 -0.000	  0.000	  0.019	 30.200	 99.405	 -0.304
44325	 -0.591	  0.062	  0.572	 -0.116	 -0.262	 -9.659	 -0.004	  0.001	  0.017	 30.200	 99.409	 -0.673
44375	 -0.589	  0.058	  0.575	 -0.095	 -0.052	 -9.481	  0.002	 -0.002	  0.017	 30.200	 99.393	  0.802
44425	 -0.595	  0.056	  0.569	 -0.013	 -0.263	 -9.504	  0.000	 -0.001	 -0.088	 30.200	 99.405	 -0.304
44475	 -0.591	  0.059	  0.568	 -0.228	  0.007	 -9.530	  0.001	 -0.002	 -0.151	 30.200	 99.409	 -0.673
44525	 -0.595	  0.050	  0.569	 -0.257	  0.202	 -9.407	  0.000	 -0.002	 -0.030	 30.200	 99.405	 -0.304
44575	 -0.593	  0.048	  0.571	 -0.100	 -0.080	 -9.557	  0.000	 -0.001	  0.021	 30.200	 99.393	  0.802
44625	 -0.593	  0.053	  0.566	 -0.160	 -0.057	 -9.513	  0.002	 -0.001	  0.020	 30.200	 99.405	 -0.304
44675	 -0.592	  0.046	  0.561	 -0.182	 -0.043	 -9.499	  0.004	 -0.001	  0.021	 30.200	 99.405	 -0.304
44724	 -0.591	  0.045	  0.571	 -0.118	 -0.085	 -9.484	  0.002	 -0.001	  0.019	 30.200	 99.397	  0.433
44774	 -0.593	  0.051	  0.570	 -0.214	 -0.047	 -9.491	  0.002	 -0.002	  0.020	 30.200	 99.405	 -0.304
44824	 -0.592	  0.055	  0.573	 -0.117	 -0.077	 -9.495	  0.004	 -0.002	  0.019	 30.200	 99.397	  0.433
44874	 -0.592	  0.045	  0.569	 -0.194	 -0.023	 -9.511	  0.002	 -0.002	  0.020	 30.200	 99.393	  0.802
44924	 -0.587	  0.055	  0.572	 -0.107	 -0.061	 -9.512	  0.003	 -0.001	  0.019	 30.200	 99.413	 -1.042
44974	 -0.593	  0.056	  0.568	 -0.160	 -0.075	 -9.498	  0.001	  0.001	  0.019	 30.200	 99.405	 -0.304
45024	 -0.591	  0.046	  0.573	 -0.184	 -0.034	 -9.516	  0.002	 -0.001	  0.020	 30.200	 99.393	  0.802
45074	 -0.592	  0.056	  0.565	 -0.169	 -0.039	 -9.461	  0.004	 -0.001	  0.019	 30.200	 99.409	 -0.673
45124	 -0.591	  0.049	  0.573	 -0.330	 -0.286	 -9.756	 -0.005	 -0.004	  0.028	 30.200	 99.409	 -0.673
45174	 -0.592	  0.050	  0.568	 -0.144	 -0.088	 -9.461	  0.003	 -0.002	  0.019	 30.200	 99.409	 -0.673
45224	 -0.596	  0.049	  0.565	 -0.238	  0.125	 -9.439	 -0.000	  0.001	  0.017	 30.200	 99.393	  0.802
45274	 -0.592	  0.060	  0.566	 -0.109	  0.004	 -9.496	  0.005	 -0.005	  0.019	 30.200	 99.421	 -1.777
45324	 -0.592	  0.060	  0.569	 -0.194	  0.037	 -9.486	  0.004	 -0.001	  0.020	 30.200	 99.405	 -0.304
45374	 -0.591	  0.051	  0.567	 -0.122	 -0.110	 -9.526	  0.002	 -0.002	  0.020	 30.200	 99.409	 -0.673
45424	 -0.589	  0.050	  0.575	 -0.218	 -0.192	 -9.603	  0.003	 -0.001	  0.020	 30.200	 99.409	 -0.673
45474	 -0.591	  0.051	  0.560	 -0.150	 -0.070	 -9.502	 -0.001	 -0.000	  0.018	 30.200	 99.405	 -0.304
45524	 -0.591	  0.049	  0.565	 -0.182	 -0.053	 -9.496	  0.003	 -0.002	  0.018	 30.200	 99.397	  0.433
45574	 -0.591	  0.053	  0.565	 -0.156	 -0.033	 -9.505	  0.006	 -0.003	  0.016	 30.200	 99.405	 -0.304
45624	 -0.591	  0.050	  0.568	 -0.118	 -0.033	 -9.469	  0.004	 -0.008	  0.017	 30.200	 99.397	  0.433
45674	 -0.589	  0.049	  0.569	 -0.280	  0.127	 -9.410	  0.039	 -0.002	  0.015	 30.200	 99.405	 -0.304
45724	 -0.591	  0.059	  0.569	 -0.158	  0.396	 -9.271	  0.003	 -0.002	  0.018	 30.200	 99.405	 -0.304
45774	 -0.593	  0.051	  0.572	 -0.207	 -0.174	 -9.534	  0.007	 -0.000	 -0.005	 30.200	 99.409	 -0.673
45824	 -0.591	  0.046	  0.567	  0.139	 -0.732	 -9.605	 -0.011	 -0.006	 -0.322	 30.200	 99.397	  0.433
45874	 -0.593	  0.044	  0.568	 -0.302	  0.111	 -9.433	  0.008	 -0.001	 -0.287	 30.200	 99.405	 -0.304
45924	 -0.593	  0.038	  0.568	 -0.224	  0.038	 -9.533	 -0.012	 -0.001	 -0.063	 30.200	 99.393	  0.802
45974	 -0.592	  0.036	  0.563	 -0.442	  0.246	 -9.534	 -0.058	 -0.003	 -0.085	 30.200	 99.409	 -0.673
46024	 -0.597	  0.027	  0.563	 -0.177	  0.222	 -9.406	  0.017	  0.001	  0.015	 30.200	 99.409	 -0.673
46074	 -0.596	  0.031	  0.567	  0.429	 -0.816	 -9.452	  0.150	  0.030	 -0.275	 30.200	 99.409	 -0.673
46124	 -0.594	  0.030	  0.560	 -0.206	 -0.002	 -9.499	  0.048	  0.011	  0.025	 30.200	 99.409	 -0.673
46174	 -0.593	  0.031	  0.567	 -0.066	 -0.420	 -9.554	 -0.155	 -0.062	  0.023	 30.200	 99.393	  0.802
46224	 -0.592	  0.020	  0.562	 -0.183	 -0.031	 -9.407	  0.005	 -0.002	 -0.127	 30.200	 99.397	  0.433
46274	 -0.594	  0.021	  0.553	  0.116	 -0.629	 -9.909	 -0.002	 -0.001	  0.018	 30.200	 99.405	 -0.304
46324	 -0.598	  0.018	  0.566	 -0.221	 -0.046	 -9.522	  0.005	 -0.005	  0.019	 30.200	 99.421	 -1.777
46374	 -0.597	  0.017	  0.562	 -0.125	 -0.054	 -9.477	  0.007	 -0.001	  0.018	 30.200	 99.405	 -0.304
46424	 -0.593	  0.021	  0.563	 -0.361	  0.157	 -9.515	  0.012	 -0.005	 -0.139	 30.200	 99.393	  0.802
46474	 -0.592	  0.022	  0.563	  0.445	 -1.388	 -9.813	 -0.054	 -0.008	  0.005	 30.200	 99.405	 -0.304
46524	 -0.594	  0.030	  0.563	 -0.319	 -0.101	 -9.478	 -0.052	 -0.005	  0.020	 30.200	 99.405	 -0.304
46574	 -0.590	  0.019	  0.561	 -0.197	 -0.053	 -9.501	  0.018	  0.001	  0.016	 30.200	 99.393	  0.802
46624	 -0.593	  0.016	  0.567	 -0.185	 -0.173	 -9.496	  0.000	  0.002	  0.018	 30.200	 99.405	 -0.304
46674	 -0.591	  0.013	  0.559	 -0.218	 -0.128	 -9.534	 -0.026	 -0.005	  0.019	 30.200	 99.397	  0.433
46724	 -0.592	  0.013	  0.565	 -0.194	  0.106	 -9.375	  0.015	  0.001	  0.018	 30.200	 99.405	 -0.304
46774	 -0.592	  0.018	  0.559	 -0.256	 -0.303	 -9.532	 -0.004	  0.001	  0.016	 30.200	 99.397	  0.433
46824	 -0.588	  0.017	  0.561	 -0.120	  0.169	 -9.318	  0.031	  0.000	  0.018	 30.200	 99.393	  0.802
46874	 -0.592	  0.017	  0.564	 -0.254	 -0.412	 -9.656	  0.024	  0.000	  0.019	 30.200	 99.393	  0.802
46924	 -0.593	  0.016	  0.564	 -0.707	  3.593	 -7.265	  0.029	 -0.001	  0.015	 30.200	 99.397	  0.433
46974	 -0.592	  0.017	  0.571	 -0.307	  0.168	 -9.369	 -0.007	 -0.002	  0.020	 30.200	 99.405	 -0.304
47024	 -0.592	  0.015	  0.562	 -0.212	  0.034	 -9.456	  0.002	 -0.002	  0.018	 30.200	 99.405	 -0.304
47074	 -0.588	  0.012	  0.567	 -0.193	 -0.068	 -9.499	  0.003	 -0.000	  0.020	 30.200	 99.405	 -0.304
47124	 -0.590	  0.017	  0.557	 -0.223	 -0.059	 -9.522	  0.002	 -0.001	  0.020	 30.200	 99.385	  1.539
47174	 -0.593	  0.018	  0.559	 -0.188	 -0.077	 -9.455	  0.002	 -0.001	  0.019	 30.200	 99.397	  0.433
47224	 -0.593	  0.013	  0.564	 -0.234	 -0.050	 -9.507	  0.002	 -0.002	  0.020	 30.200	 99.409	 -0.673
47274	 -0.591	  0.023	  0.562	 -0.166	 -0.079	 -9.490	  0.002	 -0.001	  0.020	 30.200	 99.393	  0.802
47324	 -0.590	  0.020	  0.563	 -0.254	 -0.059	 -9.517	  0.003	  0.001	  0.018	 30.200	 99.393	  0.802
47374	 -0.592	  0.019	  0.568	 -0.157	 -0.053	 -9.484	  0.002	 -0.001	  0.018	 30.200	 99.397	  0.433
47424	 -0.593	  0.013	  0.562	 -0.228	 -0.056	 -9.511	  0.001	 -0.003	  0.020	 30.200	 99.409	 -0.673
47474	 -0.591	  0.015	  0.569	 -0.174	 -0.084	 -9.492	  0.003	 -0.000	  0.019	 30.200	 99.409	 -0.673
47524	 -0.588	  0.017	  0.567	 -0.230	 -0.083	 -9.511	  0.002	 -0.002	  0.020	 30.200	 99.397	  0.433
47574	 -0.594	  0.020	  0.563	 -0.204	 -0.052	 -9.520	  0.000	 -0.003	  0.019	 30.200	 99.409	 -0.673
47624	 -0.593	  0.016	  0.568	 -0.202	 -0.067	 -9.493	  0.002	 -0.001	  0.020	 30.200	 99.409	 -0.673
47674	 -0.592	  0.029	  0.559	 -0.550	  0.461	 -9.503	  0.002	 -0.000	  0.074	 30.200	 99.393	  0.802
47724	 -0.592	  0.023	  0.567	 -0.936	  1.120	 -9.407	  0.039	  0.003	  0.872	 30.200	 99.405	 -0.304
47774	 -0.589	  0.060	  0.568	 -0.646	  1.424	 -9.045	 -0.003	  0.007	  1.283	 30.200	 99.409	 -0.673
47824	 -0.584	  0.076	  0.581	  0.175	  0.280	 -9.813	 -0.021	  0.003	  0.814	 30.200	 99.409	 -0.673
47874	 -0.573	  0.096	  0.585	  0.335	  0.287	 -9.559	  0.021	  0.000	  0.708	 30.200	 99.409	 -0.673
47924	 -0.563	  0.091	  0.596	  0.305	 -0.012	 -9.338	  0.038	  0.001	  0.303	 30.200	 99.393	  0.802
47974	 -0.557	  0.077	  0.600	 -0.105	  0.270	 -9.290	  0.011	  0.000	  0.059	 30.200	 99.409	 -0.673
48024	 -0.549	  0.066	  0.613	  0.183	 -0.713	 -9.715	  0.029	  0.001	 -0.214	 30.200	 99.409	 -0.673
48074	 -0.540	  0.051	  0.622	 -0.087	 -0.551	 -9.610	 -0.002	 -0.002	 -0.236	 30.200	 99.405	 -0.304
48124	 -0.534	  0.033	  0.623	 -1.085	 -0.373	 -9.574	  0.023	  0.005	 -0.058	 30.200	 99.409	 -0.673
48174	 -0.530	  0.030	  0.624	  0.238	 -2.706	 -9.486	  0.001	 -0.001	 -0.060	 30.200	 99.409	 -0.673
48224	 -0.529	  0.024	  0.619	 -0.731	  3.189	 -7.571	  0.013	 -0.007	  0.021	 30.200	 99.405	 -0.304
48274	 -0.530	  0.020	  0.626	 -0.184	  0.388	 -9.217	  0.001	 -0.002	  0.018	 30.200	 99.405	 -0.304
48324	 -0.528	  0.018	  0.623	 -0.249	  0.061	 -9.452	  0.002	 -0.001	  0.018	 30.200	 99.397	  0.433
48374	 -0.530	  0.020	  0.622	 -0.156	 -0.063	 -9.506	  0.003	 -0.001	  0.019	 30.200	 99.405	 -0.304
48424	 -0.527	  0.019	  0.613	 -0.265	 -0.055	 -9.493	  0.003	 -0.003	  0.017	 30.200	 99.393	  0.802
48474	 -0.527	  0.034	  0.626	 -0.149	 -0.101	 -9.522	  0.001	 -0.002	  0.019	 30.200	 99.409	 -0.673
48524	 -0.526	  0.018	  0.623	 -0.216	 -0.099	 -9.487	  0.002	 -0.002	  0.021	 30.200	 99.409	 -0.673
48574	 -0.528	  0.020	  0.622	 -0.196	 -0.052	 -9.504	  0.001	 -0.002	  0.020	 30.200	 99.409	 -0.673
48624	 -0.526	  0.020	  0.626	 -0.181	 -0.074	 -9.528	  0.002	 -0.001	  0.020	 30.200	 99.397	  0.433
48674	 -0.530	  0.024	  0.627	 -0.253	 -0.035	 -9.495	  0.003	 -0.001	  0.019	 30.200	 99.397	  0.433
48724	 -0.527	  0.022	  0.618	 -0.159	 -0.099	 -9.500	  0.003	 -0.001	  0.020	 30.200	 99.409	 -0.673
48774	 -0.529	  0.032	  0.623	 -0.246	 -0.038	 -9.494	  0.002	 -0.003	  0.019	 30.200	 99.397	  0.433
48824	 -0.527	  0.019	  0.622	 -0.142	 -0.053	 -9.509	  0.002	 -0.001	  0.018	 30.200	 99.397	  0.433
48874	 -0.524	  0.020	  0.623	 -0.251	 -0.036	 -9.500	  0.003	 -0.002	  0.019	 30.200	 99.393	  0.802
48924	 -0.524	  0.013	  0.622	 -0.160	 -0.260	 -9.600	 -0.000	 -0.002	  0.019	 30.200	 99.405	 -0.304
48975	 -0.529	  0.015	  0.615	 -0.239	 -0.144	 -9.558	  0.002	 -0.001	  0.019	 30.200	 99.405	 -0.304
49024	 -0.527	  0.018	  0.625	 -0.201	 -0.086	 -9.536	  0.001	 -0.001	  0.018	 30.200	 99.405	 -0.304
49075	 -0.527	  0.019	  0.619	 -0.180	 -0.080	 -9.499	  0.002	 -0.001	  0.015	 30.200	 99.409	 -0.673
49124	 -0.526	  0.030	  0.621	  0.107	  0.377	 -9.495	 -0.000	 -0.002	 -0.175	 30.200	 99.421	 -1.777
49174	 -0.527	  0.016	  0.622	  0.288	  0.160	 -9.767	 -0.010	 -0.005	 -0.602	 30.200	 99.393	  0.802
49224	 -0.521	 -0.011	  0.618	 -0.291	  0.397	 -9.476	 -0.004	 -0.005	 -0.798	 30.200	 99.397	  0.433
49274	 -0.514	 -0.032	  0.626	 -0.308	 -0.002	 -9.351	  0.006	 -0.005	 -0.571	 30.200	 99.409	 -0.673
49324	 -0.512	 -0.047	  0.631	 -0.270	 -0.326	 -9.288	  0.060	 -0.006	 -0.384	 30.200	 99.409	 -0.673
49375	 -0.508	 -0.047	  0.624	 -0.767	 -0.843	 -9.192	 -0.017	 -0.002	 -0.002	 30.200	 99.409	 -0.673
49425	 -0.509	 -0.052	  0.627	 -0.274	 -0.148	 -9.536	 -0.024	 -0.001	  0.019	 30.200	 99.409	 -0.673
49475	 -0.508	 -0.056	  0.628	 -0.169	  0.279	 -9.338	  0.080	 -0.003	  0.017	 30.200	 99.409	 -0.673
49525	 -0.508	 -0.051	  0.631	  0.021	  0.047	 -9.113	  0.013	 -0.002	 -0.009	 30.200	 99.405	 -0.304
49575	 -0.507	 -0.058	  0.630	 -0.070	  0.255	 -9.343	 -0.005	 -0.002	 -0.124	 30.200	 99.409	 -0.673
49625	 -0.513	 -0.058	  0.628	 -0.641	  0.293	 -9.439	  0.098	  0.021	  0.032	 30.200	 99.409	 -0.673
49675	 -0.511	 -0.054	  0.632	 -1.038	  0.943	 -9.449	  0.119	  0.047	  0.297	 30.200	 99.397	  0.433
49725	 -0.506	 -0.033	  0.627	 -0.275	 -0.786	 -10.371	  0.092	  0.077	  0.514	 30.200	 99.405	 -0.304
49775	 -0.507	 -0.044	  0.628	 -0.270	  0.201	 -9.232	  0.042	  0.017	  0.409	 30.200	 99.393	  0.802
49825	 -0.502	 -0.044	  0.626	  0.884	  0.131	 -9.265	 -0.197	 -0.069	  0.276	 30.200	 99.393	  0.802
49875	 -0.497	 -0.066	  0.621	 -1.068	  1.788	 -9.228	 -0.208	 -0.042	  0.188	 30.200	 99.409	 -0.673
49925	 -0.494	 -0.072	  0.618	  0.145	 -0.003	 -9.599	 -0.016	 -0.004	  0.247	 30.200	 99.409	 -0.673
49975	 -0.489	 -0.073	  0.606	  0.458	  0.070	 -9.316	  0.030	 -0.002	 -0.171	 30.200	 99.393	  0.802
50025	 -0.486	 -0.108	  0.600	  0.427	 -1.086	 -9.475	 -0.021	 -0.005	 -0.305	 30.200	 99.393	  0.802
50075	 -0.479	 -0.116	  0.593	 -0.215	 -1.383	 -9.497	 -0.014	 -0.003	 -0.287	 30.200	 99.405	 -0.304
50125	 -0.479	 -0.116	  0.598	  0.146	 -0.843	 -9.499	  0.105	  0.023	  0.069	 30.200	 99.409	 -0.673
50175	 -0.480	 -0.122	  0.592	  0.338	  1.018	 -9.864	  0.061	 -0.000	  0.085	 30.200	 99.409	 -0.673
50225	 -0.480	 -0.119	  0.591	 -1.274	  1.422	 -9.103	 -0.001	  0.004	  0.547	 30.200	 99.405	 -0.304
50275	 -0.487	 -0.106	  0.588	 -0.442	 -0.423	 -9.605	  0.015	  0.004	  0.641	 30.200	 99.397	  0.433
50325	 -0.486	 -0.096	  0.590	 -1.240	  0.413	 -9.439	  0.015	  0.005	  0.885	 30.200	 99.393	  0.802
50375	 -0.492	 -0.077	  0.579	  0.280	 -0.029	 -9.450	  0.014	  0.000	  0.816	 30.200	 99.405	 -0.304
50425	 -0.494	 -0.081	  0.578	 -0.244	 -0.026	 -9.844	 -0.281	 -0.073	  0.336	 30.200	 99.409	 -0.673
50475	 -0.490	 -0.090	  0.569	 -0.016	  0.646	 -9.376	 -0.284	  0.025	 -0.064	 30.200	 99.409	 -0.673
50525	 -0.486	 -0.101	  0.560	  0.328	  0.751	 -8.711	 -0.078	  0.029	 -0.312	 30.200	 99.397	  0.433
50574	 -0.484	 -0.108	  0.551	  0.249	 -0.807	 -10.436	 -0.091	  0.033	 -0.518	 30.200	 99.405	 -0.304
50624	 -0.480	 -0.119	  0.550	 -0.084	  0.022	 -9.670	 -0.031	  0.006	 -0.062	 30.200	 99.393	  0.802
50674	 -0.482	 -0.128	  0.530	 -0.263	  0.289	 -9.556	 -0.225	  0.105	  0.037	 30.200	 99.397	  0.433
50724	 -0.484	 -0.131	  0.528	  0.235	  0.767	 -9.422	 -0.084	  0.044	  0.004	 30.200	 99.405	 -0.304
50774	 -0.479	 -0.131	  0.527	  0.493	  0.595	 -9.316	 -0.101	 -0.046	 -0.094	 30.200	 99.405	 -0.304
50824	 -0.475	 -0.142	  0.524	  0.602	  0.467	 -9.095	  0.111	 -0.139	 -0.179	 30.200	 99.397	  0.433
50874	 -0.476	 -0.136	  0.526	  0.028	  0.596	 -9.404	  0.325	 -0.004	 -0.119	 30.200	 99.405	 -0.304
50924	 -0.476	 -0.131	  0.519	  0.303	  0.494	 -9.684	  0.329	  0.052	 -0.212	 30.200	 99.409	 -0.673
50974	 -0.476	 -0.135	  0.514	  0.140	  0.189	 -9.893	  0.180	  0.032	 -0.153	 30.200	 99.409	 -0.673
51024	 -0.479	 -0.127	  0.497	  0.213	  0.641	 -10.174	  0.256	 -0.058	 -0.133	 30.200	 99.397	  0.433
51074	 -0.477	 -0.118	  0.503	  0.476	  0.898	 -9.820	  0.527	 -0.141	 -0.309	 30.200	 99.397	  0.433
51124	 -0.479	 -0.099	  0.495	 -0.015	 -0.007	 -10.482	  0.700	  0.029	 -0.550	 30.200	 99.397	  0.433
51174	 -0.486	 -0.088	  0.475	  0.325	 -0.108	 -9.993	  0.433	  0.576	 -0.280	 30.200	 99.421	 -1.777
51224	 -0.501	 -0.063	  0.445	  1.305	 -0.032	 -9.495	  0.299	  0.412	  0.036	 30.200	 99.409	 -0.673
51274	 -0.507	 -0.027	  0.422	  1.683	  0.200	 -9.476	  0.430	  0.015	 -0.055	 30.200	 99.397	  0.433
51324	 -0.507	  0.012	  0.398	  0.044	 -0.720	 -10.532	  0.436	 -0.355	  0.215	 30.200	 99.397	  0.433
51374	 -0.495	  0.031	  0.380	 -0.723	 -0.431	 -10.411	  0.159	  0.036	  0.528	 30.200	 99.409	 -0.673
51424	 -0.490	  0.067	  0.357	 -0.193	 -1.194	 -10.080	  0.002	  0.242	  0.650	 30.200	 99.397	  0.433
51474	 -0.472	  0.101	  0.343	  0.119	 -1.699	 -10.253	 -0.300	  0.102	  0.697	 30.200	 99.405	 -0.304
51524	 -0.453	  0.108	  0.337	  0.256	 -1.330	 -10.540	 -0.373	 -0.036	  0.784	 30.200	 99.409	 -0.673
51574	 -0.424	  0.129	  0.338	 -0.619	  0.029	 -10.283	 -0.631	 -0.622	  0.849	 30.200	 99.409	 -0.673
51624	 -0.391	  0.133	  0.358	 -1.087	 -0.433	 -10.355	  0.070	 -0.357	  0.635	 30.200	 99.409	 -0.673
51674	 -0.361	  0.144	  0.363	 -0.916	 -2.111	 -11.308	 -0.323	 -0.295	  0.720	 30.200	 99.393	  0.802
51724	 -0.341	  0.136	  0.373	 -0.668	 -1.055	 -9.482	 -0.576	  0.007	  0.606	 30.200	 99.405	 -0.304
51774	 -0.328	  0.130	  0.387	 -0.843	 -1.142	 -9.761	 -0.765	 -0.194	  0.570	 30.200	 99.397	  0.433
51824	 -0.316	  0.111	  0.392	 -0.532	 -1.203	 -8.766	 -0.083	 -0.110	  0.339	 30.200	 99.405	 -0.304
51874	 -0.305	  0.106	  0.398	 -1.176	 -1.672	 -9.073	 -0.172	 -0.064	  0.430	 30.200	 99.409	 -0.673
51924	 -0.301	  0.108	  0.405	 -0.516	 -1.200	 -8.118	  0.114	 -0.005	  0.319	 30.200	 99.393	  0.802
51974	 -0.289	  0.111	  0.405	 -0.529	 -1.349	 -8.469	  0.200	 -0.290	  0.400	 30.200	 99.409	 -0.673
52024	 -0.276	  0.120	  0.411	 -0.877	 -1.239	 -8.361	  0.455	 -0.313	  0.236	 30.200	 99.393	  0.802
52074	 -0.263	  0.134	  0.407	 -0.455	 -1.856	 -8.524	  0.440	 -0.308	  0.342	 30.200	 99.397	  0.433
52124	 -0.255	  0.142	  0.404	 -0.296	 -1.900	 -8.159	  0.360	 -0.170	 -0.048	 30.200	 99.397	  0.433
52174	 -0.251	  0.138	  0.406	 -0.493	 -2.069	 -8.727	 -0.027	 -0.006	 -0.068	 30.200	 99.393	  0.802
52224	 -0.251	  0.135	  0.405	 -0.395	 -1.681	 -8.643	 -0.058	  0.112	 -0.084	 30.200	 99.397	  0.433
52274	 -0.252	  0.134	  0.407	 -0.280	 -1.595	 -8.781	 -0.072	  0.170	 -0.281	 30.200	 99.409	 -0.673
52324	 -0.251	  0.129	  0.405	 -0.436	 -1.437	 -8.867	 -0.095	  0.115	 -0.297	 30.200	 99.393	  0.802
52374	 -0.251	  0.129	  0.402	 -0.146	 -1.566	 -8.957	  0.042	  0.092	 -0.342	 30.200	 99.397	  0.433
52424	 -0.250	  0.116	  0.404	 -0.003	 -1.499	 -9.080	 -0.061	 -0.031	 -0.434	 30.200	 99.380	  2.001
52474	 -0.243	  0.108	  0.400	 -0.073	 -1.579	 -9.390	 -0.067	 -0.085	 -0.576	 30.200	 99.397	  0.433
