Time	 MagX	 MagY	 MagZ	 AccelX	 AccelY	 AccelZ	 Yaw	 Pitch	 Roll	 Temperature	 Pressure	 Altitude
13232	 -0.337	 -0.092	  0.126	  0.087	  0.001	 -9.846	 -0.001	  0.001	 -0.000	 35.200	 99.432	 -99999.000
13282	 -0.335	 -0.089	  0.124	  0.107	  0.040	 -9.893	 -0.003	  0.002	  0.001	 35.200	 99.437	 -99999.000
13332	 -0.338	 -0.093	  0.131	  0.093	  0.004	 -9.893	 -0.003	  0.000	  0.000	 35.200	 99.425	 -99999.000
13382	 -0.338	 -0.090	  0.126	  0.092	  0.027	 -9.852	 -0.001	 -0.000	  0.000	 35.200	 99.437	 -99999.000
13432	 -0.335	 -0.095	  0.128	  0.078	  0.030	 -9.846	 -0.002	  0.001	  0.001	 35.200	 99.437	 -99999.000
13482	 -0.334	 -0.093	  0.129	  0.124	  0.019	 -9.875	 -0.001	  0.002	  0.000	 35.200	 99.425	 -99999.000
13532	 -0.336	 -0.093	  0.123	  0.105	  0.033	 -9.876	 -0.001	  0.001	  0.000	 35.200	 99.437	 -99999.000
13582	 -0.334	 -0.092	  0.122	  0.104	  0.001	 -9.850	 -0.003	  0.002	  0.000	 35.200	 99.437	 -99999.000
13632	 -0.336	 -0.091	  0.126	  0.089	  0.026	 -9.878	 -0.002	  0.001	  0.001	 35.200	 99.444	 -99999.000
13682	 -0.337	 -0.091	  0.125	  0.076	  0.022	 -9.912	 -0.002	  0.001	  0.001	 35.200	 99.432	 -99999.000
13732	 -0.335	 -0.095	  0.127	  0.101	  0.024	 -9.884	 -0.002	  0.000	  0.001	 35.200	 99.437	 -99999.000
13782	 -0.336	 -0.091	  0.125	  0.099	  0.021	 -9.859	 -0.003	  0.002	  0.001	 35.200	 99.437	 -99999.000
13832	 -0.335	 -0.093	  0.129	  0.109	  0.035	 -9.822	 -0.002	  0.002	  0.000	 35.200	 99.437	 -99999.000
13882	 -0.335	 -0.093	  0.125	  0.111	  0.032	 -9.879	 -0.002	  0.001	 -0.000	 35.200	 99.437	 -99999.000
13931	 -0.333	 -0.090	  0.124	  0.116	  0.027	 -9.884	 -0.003	  0.002	  0.000	 35.200	 99.432	 -99999.000
13981	 -0.335	 -0.093	  0.125	  0.090	  0.022	 -9.910	 -0.004	  0.001	 -0.000	 35.200	 99.425	 -99999.000
14031	 -0.334	 -0.088	  0.128	  0.103	  0.028	 -9.861	 -0.002	  0.002	 -0.000	 35.200	 99.448	 -99999.000
14081	 -0.336	 -0.088	  0.124	  0.110	  0.049	 -9.881	 -0.003	  0.002	 -0.000	 35.200	 99.421	 -99999.000
14131	 -0.339	 -0.092	  0.125	  0.086	  0.040	 -9.858	 -0.000	  0.002	  0.001	 35.200	 99.444	 -99999.000
14181	 -0.336	 -0.092	  0.125	  0.087	  0.031	 -9.906	 -0.002	  0.002	  0.001	 35.200	 99.425	 -99999.000
14231	 -0.336	 -0.093	  0.124	  0.105	  0.024	 -9.874	 -0.002	  0.002	  0.002	 35.200	 99.425	 -99999.000
14281	 -0.336	 -0.091	  0.125	  0.094	  0.035	 -9.924	 -0.001	  0.002	  0.001	 35.200	 99.448	 -99999.000
14331	 -0.335	 -0.094	  0.131	  0.087	  0.034	 -9.896	 -0.001	  0.001	 -0.000	 35.200	 99.432	 -99999.000
14381	 -0.337	 -0.089	  0.122	  0.089	  0.026	 -9.877	 -0.001	  0.002	  0.001	 35.200	 99.432	 -99999.000
14431	 -0.335	 -0.095	  0.128	  0.090	  0.023	 -9.877	 -0.002	  0.001	  0.001	 35.200	 99.444	 -99999.000
14481	 -0.334	 -0.092	  0.128	  0.099	  0.033	 -9.896	 -0.002	  0.002	 -0.000	 35.200	 99.437	 -99999.000
14532	 -0.335	 -0.093	  0.125	  0.107	  0.019	 -9.883	 -0.000	  0.000	  0.001	 35.200	 99.444	 -99999.000
14581	 -0.335	 -0.091	  0.123	  0.097	  0.036	 -9.894	 -0.002	  0.000	  0.000	 35.200	 99.437	 -99999.000
14631	 -0.333	 -0.094	  0.125	  0.098	  0.033	 -9.872	 -0.002	  0.001	  0.000	 35.200	 99.437	 -99999.000
14681	 -0.334	 -0.086	  0.128	  0.111	  0.034	 -9.901	 -0.002	  0.003	  0.000	 35.200	 99.437	 -99999.000
14731	 -0.334	 -0.094	  0.123	  0.120	  0.014	 -9.867	 -0.004	  0.002	 -0.000	 35.200	 99.432	 -99999.000
14781	 -0.335	 -0.089	  0.126	  0.099	  0.012	 -9.884	 -0.002	  0.002	 -0.000	 35.200	 99.432	 -99999.000
14831	 -0.333	 -0.093	  0.127	  0.108	  0.041	 -9.851	 -0.001	  0.002	  0.001	 35.200	 99.432	 -99999.000
14881	 -0.338	 -0.096	  0.123	  0.098	  0.028	 -9.911	 -0.002	  0.003	  0.001	 35.200	 99.444	 -99999.000
14931	 -0.335	 -0.096	  0.129	  0.088	  0.025	 -9.879	 -0.003	  0.002	 -0.000	 35.200	 99.421	 -99999.000
14981	 -0.335	 -0.087	  0.126	  0.105	  0.033	 -9.882	 -0.002	  0.003	  0.001	 35.200	 99.432	 -99999.000
15031	 -0.335	 -0.091	  0.124	  0.092	  0.033	 -9.871	 -0.002	  0.002	 -0.001	 35.200	 99.437	 -99999.000
15081	 -0.334	 -0.093	  0.125	  0.108	  0.035	 -9.905	 -0.002	  0.002	  0.001	 35.200	 99.437	 -99999.000
15131	 -0.334	 -0.093	  0.123	  0.080	  0.004	 -9.858	 -0.002	  0.000	  0.000	 35.200	 99.437	 -99999.000
15181	 -0.333	 -0.084	  0.129	  0.099	  0.014	 -9.901	 -0.001	  0.001	  0.001	 35.200	 99.437	 -99999.000
15231	 -0.335	 -0.094	  0.127	  0.106	  0.027	 -9.873	 -0.003	  0.002	  0.000	 35.200	 99.444	 -99999.000
15281	 -0.332	 -0.094	  0.129	  0.099	  0.027	 -9.868	 -0.002	  0.002	  0.001	 35.200	 99.432	 -99999.000
15331	 -0.335	 -0.096	  0.127	  0.100	  0.028	 -9.857	 -0.003	  0.002	  0.001	 35.200	 99.432	 -99999.000
15381	 -0.336	 -0.092	  0.123	  0.116	  0.024	 -9.874	 -0.002	  0.001	  0.000	 35.200	 99.437	 -99999.000
15431	 -0.335	 -0.091	  0.129	  0.109	  0.034	 -9.888	 -0.003	  0.001	 -0.001	 35.200	 99.432	 -99999.000
15481	 -0.337	 -0.092	  0.126	  0.085	  0.042	 -9.934	 -0.002	  0.002	  0.000	 35.200	 99.437	 -99999.000
15531	 -0.334	 -0.093	  0.124	  0.088	  0.019	 -9.887	 -0.004	  0.001	  0.000	 35.200	 99.432	 -99999.000
15581	 -0.333	 -0.082	  0.128	  0.106	  0.022	 -9.857	 -0.002	  0.002	  0.000	 35.200	 99.432	 -99999.000
15631	 -0.337	 -0.095	  0.126	  0.100	  0.007	 -9.865	 -0.002	  0.001	  0.001	 35.200	 99.444	 -99999.000
15682	 -0.335	 -0.094	  0.125	  0.100	  0.046	 -9.886	 -0.002	  0.001	  0.000	 35.200	 99.432	 -99999.000
15731	 -0.335	 -0.091	  0.128	  0.095	  0.029	 -9.868	 -0.003	  0.003	 -0.001	 35.200	 99.432	 -99999.000
15781	 -0.334	 -0.086	  0.128	  0.084	  0.054	 -9.906	 -0.002	  0.002	  0.001	 35.200	 99.437	 -99999.000
15832	 -0.335	 -0.091	  0.124	  0.092	  0.029	 -9.888	 -0.002	  0.002	 -0.001	 35.200	 99.421	 -99999.000
15881	 -0.336	 -0.097	  0.126	  0.113	  0.037	 -9.878	 -0.003	  0.001	  0.001	 35.200	 99.432	 -99999.000
15932	 -0.334	 -0.095	  0.128	  0.089	  0.036	 -9.853	 -0.003	  0.001	  0.002	 35.200	 99.432	 -99999.000
15981	 -0.335	 -0.091	  0.125	  0.082	  0.016	 -9.862	 -0.001	  0.003	  0.000	 35.200	 99.432	 -99999.000
16032	 -0.336	 -0.095	  0.129	  0.097	  0.028	 -9.890	 -0.003	  0.001	  0.000	 35.200	 99.432	 -99999.000
16082	 -0.336	 -0.094	  0.120	  0.075	  0.029	 -9.879	 -0.001	  0.002	 -0.000	 35.200	 99.432	 -99999.000
16132	 -0.336	 -0.099	  0.128	  0.096	  0.022	 -9.890	 -0.002	  0.002	  0.001	 35.200	 99.432	 -99999.000
16182	 -0.335	 -0.090	  0.126	  0.113	  0.016	 -9.861	 -0.001	  0.002	  0.000	 35.200	 99.444	 -99999.000
16233	 -0.334	 -0.092	  0.127	  0.123	  0.015	 -9.845	 -0.002	  0.001	  0.001	 35.200	 99.444	 -99999.000
16282	 -0.336	 -0.092	  0.125	  0.087	  0.032	 -9.893	 -0.001	  0.002	 -0.000	 35.200	 99.432	 -99999.000
16332	 -0.333	 -0.091	  0.127	  0.074	  0.006	 -9.858	 -0.002	  0.002	  0.001	 35.200	 99.421	 -99999.000
16382	 -0.337	 -0.091	  0.119	  0.084	  0.028	 -9.853	 -0.002	  0.002	  0.001	 35.200	 99.432	 -99999.000
16432	 -0.336	 -0.089	  0.129	  0.096	  0.016	 -9.861	 -0.002	  0.003	  0.000	 35.200	 99.432	 -99999.000
16482	 -0.332	 -0.098	  0.128	  0.104	  0.035	 -9.872	 -0.003	  0.001	 -0.000	 35.200	 99.444	 -99999.000
16532	 -0.334	 -0.095	  0.130	  0.097	  0.042	 -9.895	 -0.002	  0.002	  0.000	 35.200	 99.437	 -99999.000
16582	 -0.333	 -0.090	  0.128	  0.094	  0.026	 -9.905	 -0.002	  0.003	  0.000	 35.200	 99.432	 -99999.000
16632	 -0.335	 -0.095	  0.117	  0.111	  0.022	 -9.852	 -0.002	  0.001	  0.000	 35.200	 99.432	 -99999.000
16682	 -0.335	 -0.096	  0.127	  0.081	  0.014	 -9.907	 -0.002	  0.001	  0.001	 35.200	 99.421	 -99999.000
16732	 -0.336	 -0.093	  0.125	  0.123	  0.027	 -9.862	 -0.003	  0.000	 -0.000	 35.200	 99.437	 -99999.000
16782	 -0.335	 -0.090	  0.126	  0.090	  0.033	 -9.883	 -0.002	  0.002	 -0.001	 35.200	 99.432	 -99999.000
16832	 -0.339	 -0.096	  0.127	  0.104	  0.042	 -9.858	 -0.003	  0.002	  0.000	 35.200	 99.432	 -99999.000
16882	 -0.335	 -0.094	  0.126	  0.099	  0.039	 -9.853	 -0.002	  0.001	 -0.000	 35.200	 99.432	 -99999.000
16932	 -0.335	 -0.098	  0.124	  0.104	  0.036	 -9.865	 -0.002	  0.001	  0.000	 35.200	 99.432	 -99999.000
16982	 -0.334	 -0.090	  0.127	  0.099	  0.037	 -9.850	 -0.002	  0.002	  0.001	 35.200	 99.432	 -99999.000
17032	 -0.333	 -0.095	  0.120	  0.115	  0.030	 -9.868	 -0.002	  0.001	 -0.000	 35.200	 99.444	 -99999.000
17083	 -0.336	 -0.093	  0.126	  0.087	  0.029	 -9.863	 -0.001	  0.001	 -0.001	 35.200	 99.444	 -99999.000
17132	 -0.337	 -0.093	  0.129	  0.095	  0.044	 -9.869	 -0.002	  0.002	  0.000	 35.200	 99.437	 -99999.000
17182	 -0.333	 -0.092	  0.129	  0.107	  0.036	 -9.872	 -0.001	  0.002	 -0.000	 35.200	 99.432	 -99999.000
17232	 -0.336	 -0.092	  0.128	  0.108	  0.013	 -9.873	 -0.002	  0.001	  0.001	 35.200	 99.432	 -99999.000
17282	 -0.337	 -0.093	  0.124	  0.131	  0.001	 -9.908	 -0.002	  0.001	  0.001	 35.200	 99.432	 -99999.000
17332	 -0.335	 -0.096	  0.119	  0.085	  0.044	 -9.853	 -0.002	  0.001	  0.001	 35.200	 99.444	 -99999.000
17382	 -0.335	 -0.094	  0.131	  0.130	  0.037	 -9.867	 -0.003	  0.002	  0.001	 35.200	 99.444	 -99999.000
17432	 -0.334	 -0.090	  0.123	  0.116	  0.044	 -9.910	 -0.002	  0.001	  0.000	 35.200	 99.432	 -99999.000
17482	 -0.334	 -0.094	  0.123	  0.095	  0.032	 -9.889	 -0.003	  0.002	  0.000	 35.200	 99.432	 -99999.000
17532	 -0.336	 -0.085	  0.130	  0.112	  0.041	 -9.879	 -0.000	  0.002	  0.000	 35.200	 99.421	 -99999.000
17582	 -0.334	 -0.092	  0.127	  0.106	  0.031	 -9.888	 -0.002	  0.001	  0.001	 35.200	 99.444	 -99999.000
17632	 -0.337	 -0.097	  0.125	  0.099	  0.004	 -9.893	 -0.000	  0.001	  0.000	 35.200	 99.432	 -99999.000
17682	 -0.336	 -0.092	  0.126	  0.097	  0.017	 -9.892	 -0.002	  0.003	 -0.001	 35.200	 99.432	 -99999.000
17732	 -0.336	 -0.094	  0.123	  0.098	  0.015	 -9.848	 -0.002	  0.002	  0.000	 35.100	 99.428	 -99999.000
17782	 -0.333	 -0.097	  0.129	  0.101	  0.017	 -9.903	 -0.003	  0.001	  0.001	 35.200	 99.448	 -99999.000
17832	 -0.334	 -0.094	  0.125	  0.096	  0.013	 -9.857	 -0.002	  0.000	 -0.000	 35.200	 99.432	 -99999.000
17882	 -0.336	 -0.096	  0.131	  0.099	  0.021	 -9.899	 -0.002	  0.001	  0.000	 35.200	 99.444	 -99999.000
17932	 -0.338	 -0.092	  0.126	  0.118	  0.032	 -9.923	 -0.003	  0.001	  0.001	 35.200	 99.432	 -99999.000
17982	 -0.335	 -0.093	  0.126	  0.112	  0.023	 -9.912	 -0.002	  0.003	 -0.001	 35.100	 99.440	 -99999.000
18032	 -0.334	 -0.086	  0.128	  0.080	  0.020	 -9.858	 -0.003	  0.001	  0.001	 35.200	 99.444	 -99999.000
18082	 -0.335	 -0.092	  0.125	  0.082	  0.024	 -9.892	 -0.001	  0.003	  0.000	 35.200	 99.432	 -99999.000
18132	 -0.336	 -0.095	  0.126	  0.094	  0.018	 -9.891	 -0.002	  0.001	  0.001	 35.200	 99.432	 -99999.000
18182	 -0.336	 -0.090	  0.122	  0.095	  0.036	 -9.876	 -0.002	  0.000	  0.001	 35.200	 99.421	 -99999.000
18232	 -0.337	 -0.094	  0.123	  0.086	  0.019	 -9.884	 -0.003	  0.002	 -0.000	 35.200	 99.432	 -99999.000
18282	 -0.334	 -0.097	  0.128	  0.104	  0.067	 -9.882	 -0.003	  0.001	  0.000	 35.200	 99.432	 -99999.000
18332	 -0.334	 -0.093	  0.124	  0.116	  0.030	 -9.860	 -0.002	 -0.000	 -0.000	 35.200	 99.444	 -99999.000
18382	 -0.335	 -0.096	  0.123	  0.106	  0.052	 -9.862	 -0.002	  0.002	 -0.000	 35.200	 99.432	 -99999.000
18432	 -0.334	 -0.095	  0.124	  0.105	  0.041	 -9.872	 -0.003	  0.001	 -0.000	 35.200	 99.444	 -99999.000
18482	 -0.338	 -0.094	  0.124	  0.096	  0.057	 -9.852	 -0.003	  0.002	  0.001	 35.200	 99.432	 -99999.000
18532	 -0.334	 -0.101	  0.125	  0.122	  0.011	 -9.853	 -0.004	  0.002	 -0.000	 35.200	 99.432	 -99999.000
18582	 -0.334	 -0.092	  0.122	  0.064	  0.045	 -9.897	 -0.002	  0.001	 -0.001	 35.200	 99.444	 -99999.000
18632	 -0.336	 -0.084	  0.127	  0.081	  0.018	 -9.886	 -0.002	  0.002	  0.000	 35.200	 99.432	 -99999.000
18682	 -0.334	 -0.091	  0.125	  0.105	  0.020	 -9.853	 -0.002	  0.000	  0.001	 35.200	 99.444	 -99999.000
18732	 -0.336	 -0.091	  0.126	  0.095	  0.014	 -9.894	 -0.001	  0.001	  0.001	 35.200	 99.444	 -99999.000
18782	 -0.334	 -0.095	  0.127	  0.112	  0.044	 -9.892	 -0.003	  0.002	  0.001	 35.200	 99.432	 -99999.000
18832	 -0.336	 -0.092	  0.125	  0.088	  0.019	 -9.868	 -0.003	  0.001	 -0.000	 35.200	 99.432	 -99999.000
18882	 -0.334	 -0.091	  0.120	  0.095	  0.041	 -9.895	 -0.003	  0.002	  0.002	 35.200	 99.444	 -99999.000
18933	 -0.338	 -0.095	  0.125	  0.107	  0.032	 -9.919	 -0.002	  0.001	  0.001	 35.200	 99.421	 -99999.000
18983	 -0.336	 -0.095	  0.129	  0.101	  0.039	 -9.870	 -0.003	  0.003	  0.001	 35.100	 99.440	 -99999.000
19033	 -0.335	 -0.093	  0.126	  0.097	  0.013	 -9.906	 -0.002	  0.002	  0.001	 35.200	 99.432	 -99999.000
19083	 -0.336	 -0.087	  0.128	  0.077	  0.017	 -9.902	 -0.003	  0.002	  0.000	 35.200	 99.421	 -99999.000
19133	 -0.334	 -0.091	  0.127	  0.087	  0.019	 -9.873	 -0.003	  0.001	  0.001	 35.200	 99.432	 -99999.000
19183	 -0.336	 -0.094	  0.126	  0.110	  0.027	 -9.862	 -0.002	  0.001	 -0.000	 35.200	 99.432	 -99999.000
37362	 -0.335	 -0.095	  0.125	  0.129	  0.029	 -9.863	 -0.002	  0.001	  0.001	 35.100	 99.435	 -0.035
37411	 -0.334	 -0.096	  0.130	  0.092	  0.035	 -9.890	 -0.002	  0.001	  0.001	 35.100	 99.447	 -1.117
37461	 -0.335	 -0.094	  0.124	  0.094	  0.003	 -9.872	 -0.002	  0.002	 -0.000	 35.100	 99.435	 -0.035
37511	 -0.338	 -0.092	  0.129	  0.102	  0.018	 -9.900	 -0.002	  0.002	  0.001	 35.100	 99.435	 -0.035
37561	 -0.334	 -0.095	  0.125	  0.089	 -0.003	 -9.881	 -0.003	  0.001	  0.000	 35.100	 99.431	  0.325
37610	 -0.335	 -0.088	  0.128	  0.068	  0.008	 -9.830	 -0.003	  0.002	  0.000	 35.100	 99.431	  0.325
37661	 -0.334	 -0.096	  0.127	  0.089	  0.032	 -9.871	 -0.001	  0.002	  0.000	 35.100	 99.431	  0.325
37710	 -0.334	 -0.095	  0.121	  0.091	  0.044	 -9.883	 -0.002	  0.003	  0.001	 35.100	 99.431	  0.325
37760	 -0.336	 -0.093	  0.131	  0.110	  0.032	 -9.863	 -0.002	  0.002	  0.001	 35.100	 99.443	 -0.757
37811	 -0.336	 -0.095	  0.131	  0.107	  0.023	 -9.901	 -0.003	  0.001	 -0.000	 35.100	 99.435	 -0.035
37861	 -0.335	 -0.096	  0.126	  0.116	  0.033	 -9.876	 -0.002	  0.002	  0.001	 35.100	 99.431	  0.325
37911	 -0.335	 -0.091	  0.128	  0.101	  0.013	 -9.910	 -0.003	  0.001	  0.000	 35.100	 99.431	  0.325
37961	 -0.335	 -0.095	  0.128	  0.114	  0.036	 -9.902	 -0.002	  0.000	  0.001	 35.100	 99.435	 -0.035
38011	 -0.336	 -0.092	  0.124	  0.098	  0.043	 -9.876	 -0.003	  0.002	 -0.001	 35.100	 99.431	  0.325
38061	 -0.335	 -0.092	  0.126	  0.100	  0.038	 -9.865	 -0.003	  0.002	  0.000	 35.100	 99.443	 -0.757
38111	 -0.335	 -0.091	  0.124	  0.085	  0.022	 -9.864	 -0.003	  0.000	  0.001	 35.100	 99.447	 -1.117
38161	 -0.331	 -0.093	  0.129	  0.106	  0.031	 -9.865	 -0.004	  0.002	  0.001	 35.100	 99.420	  1.316
38211	 -0.333	 -0.084	  0.128	  0.088	  0.045	 -9.903	 -0.003	  0.001	 -0.001	 35.100	 99.431	  0.325
38261	 -0.334	 -0.094	  0.124	  0.118	  0.025	 -9.881	 -0.003	  0.002	 -0.000	 35.100	 99.431	  0.325
38311	 -0.336	 -0.093	  0.123	  0.115	  0.038	 -9.868	 -0.003	  0.002	  0.001	 35.100	 99.435	 -0.035
38361	 -0.335	 -0.092	  0.121	  0.113	  0.030	 -9.873	 -0.002	  0.001	  0.000	 35.100	 99.447	 -1.117
38411	 -0.335	 -0.096	  0.124	  0.107	  0.021	 -9.868	 -0.003	  0.002	  0.000	 35.100	 99.443	 -0.757
38461	 -0.334	 -0.091	  0.128	  0.108	  0.035	 -9.879	 -0.002	  0.001	 -0.000	 35.100	 99.431	  0.325
38511	 -0.336	 -0.095	  0.128	  0.099	  0.034	 -9.862	 -0.002	  0.001	  0.000	 35.100	 99.420	  1.316
38561	 -0.335	 -0.082	  0.132	  0.100	  0.015	 -9.857	 -0.002	  0.001	 -0.000	 35.100	 99.431	  0.325
38611	 -0.335	 -0.094	  0.122	  0.098	  0.023	 -9.877	 -0.002	  0.000	  0.001	 35.100	 99.431	  0.325
38661	 -0.335	 -0.095	  0.126	  0.116	  0.052	 -9.834	 -0.003	  0.001	  0.001	 35.100	 99.431	  0.325
38711	 -0.334	 -0.088	  0.126	  0.108	  0.027	 -9.865	 -0.002	  0.002	 -0.000	 35.100	 99.431	  0.325
38761	 -0.333	 -0.094	  0.125	  0.117	  0.037	 -9.847	 -0.003	  0.001	 -0.001	 35.100	 99.443	 -0.757
38811	 -0.335	 -0.094	  0.126	  0.091	  0.026	 -9.878	 -0.001	  0.001	  0.000	 35.100	 99.443	 -0.757
38861	 -0.336	 -0.091	  0.130	  0.119	  0.037	 -9.868	 -0.003	 -0.000	  0.001	 35.100	 99.431	  0.325
38911	 -0.335	 -0.099	  0.124	  0.091	  0.023	 -9.879	 -0.002	  0.000	  0.000	 35.100	 99.431	  0.325
38961	 -0.334	 -0.088	  0.128	  0.098	  0.034	 -9.864	 -0.002	  0.002	  0.000	 35.100	 99.431	  0.325
39011	 -0.337	 -0.092	  0.126	  0.110	  0.030	 -9.908	 -0.002	  0.002	  0.000	 35.100	 99.431	  0.325
39061	 -0.335	 -0.100	  0.130	  0.115	  0.052	 -9.905	 -0.003	  0.001	  0.002	 35.100	 99.443	 -0.757
39111	 -0.335	 -0.091	  0.129	  0.086	  0.015	 -9.884	 -0.002	  0.002	  0.000	 35.100	 99.443	 -0.757
39162	 -0.338	 -0.095	  0.131	  0.065	  0.027	 -9.884	 -0.000	 -0.000	  0.001	 35.100	 99.443	 -0.757
39211	 -0.336	 -0.095	  0.124	  0.088	  0.044	 -9.852	 -0.002	  0.002	 -0.001	 35.100	 99.447	 -1.117
39261	 -0.333	 -0.094	  0.123	  0.070	  0.030	 -9.889	 -0.003	  0.001	  0.002	 35.100	 99.431	  0.325
39311	 -0.337	 -0.095	  0.128	  0.098	  0.034	 -9.881	 -0.002	  0.002	 -0.000	 35.100	 99.427	  0.685
39361	 -0.334	 -0.093	  0.125	  0.085	  0.001	 -9.878	 -0.002	  0.001	  0.001	 35.100	 99.431	  0.325
39411	 -0.333	 -0.098	  0.127	  0.091	  0.056	 -9.851	 -0.003	  0.003	  0.001	 35.100	 99.447	 -1.117
39461	 -0.333	 -0.091	  0.123	  0.098	  0.013	 -9.892	 -0.002	  0.002	  0.000	 35.100	 99.435	 -0.035
39511	 -0.333	 -0.093	  0.128	  0.109	  0.050	 -9.883	 -0.002	  0.002	 -0.001	 35.100	 99.431	  0.325
39561	 -0.336	 -0.097	  0.125	  0.110	  0.037	 -9.872	 -0.004	  0.001	  0.001	 35.100	 99.443	 -0.757
39611	 -0.333	 -0.093	  0.129	  0.121	  0.025	 -9.892	 -0.003	  0.002	 -0.000	 35.100	 99.447	 -1.117
39661	 -0.335	 -0.094	  0.129	  0.105	  0.032	 -9.885	 -0.001	  0.002	  0.000	 35.100	 99.431	  0.325
39711	 -0.332	 -0.083	  0.125	  0.097	  0.044	 -9.872	 -0.002	  0.000	  0.001	 35.100	 99.431	  0.325
39761	 -0.334	 -0.089	  0.130	  0.078	  0.024	 -9.872	 -0.003	  0.001	  0.001	 35.100	 99.431	  0.325
39811	 -0.336	 -0.095	  0.124	  0.102	  0.012	 -9.867	 -0.002	  0.001	  0.000	 35.100	 99.443	 -0.757
39861	 -0.334	 -0.090	  0.129	  0.088	  0.010	 -9.864	 -0.002	  0.000	 -0.001	 35.100	 99.443	 -0.757
39911	 -0.334	 -0.090	  0.128	  0.100	  0.028	 -9.878	 -0.003	 -0.001	  0.002	 35.100	 99.431	  0.325
39961	 -0.335	 -0.093	  0.123	  0.096	  0.008	 -9.899	 -0.002	  0.002	 -0.001	 35.100	 99.447	 -1.117
40011	 -0.333	 -0.089	  0.128	  0.108	  0.035	 -9.877	 -0.002	  0.001	 -0.000	 35.100	 99.447	 -1.117
40061	 -0.334	 -0.094	  0.128	  0.091	  0.015	 -9.877	 -0.002	  0.002	  0.000	 35.100	 99.431	  0.325
40111	 -0.334	 -0.095	  0.128	  0.084	  0.015	 -9.893	 -0.002	  0.001	  0.000	 35.100	 99.424	  0.955
40161	 -0.333	 -0.090	  0.125	  0.081	  0.028	 -9.869	 -0.002	  0.000	  0.000	 35.100	 99.443	 -0.757
40211	 -0.334	 -0.092	  0.123	  0.102	 -0.001	 -9.873	 -0.003	  0.003	 -0.001	 35.100	 99.443	 -0.757
40261	 -0.333	 -0.086	  0.128	  0.086	  0.018	 -9.940	 -0.001	  0.001	  0.000	 35.100	 99.447	 -1.117
40311	 -0.335	 -0.093	  0.128	  0.108	  0.031	 -9.888	 -0.002	  0.002	  0.000	 35.100	 99.439	 -0.396
40361	 -0.335	 -0.092	  0.128	  0.070	  0.036	 -9.839	 -0.002	  0.001	  0.000	 35.100	 99.431	  0.325
40411	 -0.332	 -0.092	  0.128	  0.086	  0.010	 -9.854	 -0.003	  0.000	 -0.000	 35.100	 99.443	 -0.757
40461	 -0.334	 -0.089	  0.129	  0.111	  0.059	 -9.809	 -0.002	  0.002	  0.001	 35.100	 99.447	 -1.117
40511	 -0.336	 -0.094	  0.129	  0.098	  0.002	 -9.872	 -0.001	  0.001	  0.001	 35.100	 99.431	  0.325
40561	 -0.333	 -0.096	  0.124	  0.103	  0.032	 -9.889	 -0.001	  0.001	 -0.000	 35.100	 99.431	  0.325
40611	 -0.335	 -0.092	  0.128	  0.089	  0.026	 -9.888	 -0.003	  0.001	  0.000	 35.100	 99.431	  0.325
40661	 -0.335	 -0.092	  0.123	  0.104	  0.024	 -9.884	 -0.002	  0.003	  0.002	 35.100	 99.431	  0.325
40711	 -0.334	 -0.093	  0.127	  0.107	  0.020	 -9.863	 -0.002	  0.001	 -0.001	 35.100	 99.431	  0.325
40761	 -0.333	 -0.093	  0.131	  0.108	  0.041	 -9.869	 -0.002	  0.001	  0.000	 35.100	 99.431	  0.325
40811	 -0.335	 -0.094	  0.129	  0.087	  0.025	 -9.875	 -0.001	  0.001	 -0.002	 35.100	 99.427	  0.685
40861	 -0.335	 -0.088	  0.126	  0.094	  0.016	 -9.901	 -0.002	  0.003	 -0.000	 35.100	 99.431	  0.325
40911	 -0.334	 -0.088	  0.128	  0.103	  0.025	 -9.847	 -0.003	  0.002	  0.001	 35.100	 99.443	 -0.757
40961	 -0.336	 -0.093	  0.129	  0.113	  0.054	 -9.831	 -0.002	  0.000	  0.000	 35.100	 99.431	  0.325
41011	 -0.333	 -0.090	  0.129	  0.069	  0.013	 -9.857	 -0.002	  0.002	 -0.000	 35.100	 99.431	  0.325
41061	 -0.335	 -0.093	  0.124	  0.109	  0.032	 -9.887	 -0.001	  0.002	  0.000	 35.100	 99.443	 -0.757
41111	 -0.335	 -0.095	  0.128	  0.083	  0.034	 -9.922	 -0.003	  0.000	  0.000	 35.100	 99.427	  0.685
41161	 -0.334	 -0.093	  0.127	  0.098	  0.025	 -9.870	 -0.002	  0.002	  0.001	 35.100	 99.443	 -0.757
41211	 -0.338	 -0.091	  0.126	  0.121	  0.039	 -9.896	 -0.003	  0.002	  0.001	 35.100	 99.443	 -0.757
41261	 -0.336	 -0.093	  0.121	  0.096	  0.036	 -9.895	 -0.003	  0.001	  0.001	 35.100	 99.431	  0.325
41311	 -0.335	 -0.096	  0.126	  0.097	  0.014	 -9.885	 -0.001	  0.001	  0.001	 35.100	 99.431	  0.325
41361	 -0.336	 -0.091	  0.128	  0.075	  0.013	 -9.870	 -0.003	  0.002	 -0.000	 35.100	 99.431	  0.325
41411	 -0.335	 -0.095	  0.129	  0.102	  0.027	 -9.876	 -0.002	  0.001	  0.000	 35.100	 99.431	  0.325
41461	 -0.334	 -0.091	  0.126	  0.101	  0.029	 -9.904	 -0.003	  0.001	  0.001	 35.100	 99.443	 -0.757
41511	 -0.333	 -0.092	  0.124	  0.088	  0.028	 -9.864	 -0.002	  0.001	  0.000	 35.100	 99.443	 -0.757
41561	 -0.336	 -0.096	  0.128	  0.088	  0.028	 -9.865	 -0.002	  0.001	  0.001	 35.100	 99.431	  0.325
41611	 -0.334	 -0.092	  0.127	  0.082	  0.051	 -9.861	 -0.003	  0.002	 -0.001	 35.100	 99.431	  0.325
41661	 -0.336	 -0.088	  0.130	  0.099	  0.035	 -9.892	 -0.001	  0.001	  0.001	 35.100	 99.431	  0.325
41711	 -0.335	 -0.095	  0.125	  0.094	  0.017	 -9.879	 -0.003	  0.001	  0.000	 35.100	 99.431	  0.325
41761	 -0.334	 -0.087	  0.133	  0.106	  0.036	 -9.860	 -0.003	  0.003	  0.001	 35.100	 99.431	  0.325
41811	 -0.335	 -0.093	  0.126	  0.100	  0.030	 -9.848	 -0.001	  0.001	  0.000	 35.100	 99.435	 -0.035
41861	 -0.334	 -0.094	  0.121	  0.097	  0.017	 -9.905	 -0.001	  0.002	  0.000	 35.100	 99.431	  0.325
41911	 -0.335	 -0.094	  0.125	 -0.152	  0.095	 -9.914	 -0.004	  0.001	  0.001	 35.100	 99.431	  0.325
41961	 -0.339	 -0.083	  0.128	  0.149	 -0.084	 -9.911	 -0.002	  0.004	 -0.000	 35.100	 99.443	 -0.757
42011	 -0.335	 -0.086	  0.134	 -0.011	  0.081	 -9.879	 -0.002	 -0.000	 -0.000	 35.100	 99.431	  0.325
42061	 -0.336	 -0.094	  0.123	  0.143	  0.060	 -9.898	 -0.003	 -0.001	  0.000	 35.100	 99.431	  0.325
42111	 -0.335	 -0.093	  0.128	  0.205	  0.002	 -9.897	 -0.002	  0.003	 -0.001	 35.100	 99.427	  0.685
42161	 -0.336	 -0.096	  0.126	 -0.077	  0.069	 -9.859	 -0.004	  0.003	 -0.001	 35.100	 99.427	  0.685
42211	 -0.334	 -0.091	  0.125	  0.180	 -0.066	 -9.874	 -0.003	 -0.000	 -0.000	 35.100	 99.439	 -0.396
42261	 -0.336	 -0.097	  0.131	  0.071	  0.057	 -9.849	 -0.001	  0.003	 -0.000	 35.100	 99.443	 -0.757
42311	 -0.335	 -0.093	  0.128	  0.103	  0.083	 -9.887	 -0.004	 -0.001	  0.000	 35.100	 99.443	 -0.757
42361	 -0.334	 -0.090	  0.126	  0.179	 -0.028	 -9.886	 -0.002	  0.001	 -0.000	 35.100	 99.427	  0.685
42411	 -0.334	 -0.091	  0.132	  0.047	  0.022	 -9.868	 -0.003	  0.002	 -0.000	 35.100	 99.431	  0.325
42461	 -0.334	 -0.099	  0.123	  0.154	  0.046	 -9.908	 -0.002	 -0.001	  0.000	 35.100	 99.431	  0.325
42511	 -0.334	 -0.097	  0.131	 -0.008	  0.125	 -9.865	 -0.002	  0.001	  0.000	 35.100	 99.431	  0.325
42561	 -0.337	 -0.090	  0.127	  0.296	 -0.153	 -9.875	 -0.005	  0.003	  0.000	 35.100	 99.443	 -0.757
42611	 -0.336	 -0.092	  0.129	 -0.055	 -0.094	 -9.875	 -0.006	  0.000	  0.001	 35.100	 99.431	  0.325
42662	 -0.335	 -0.098	  0.132	  0.287	  0.114	 -9.864	 -0.005	 -0.005	  0.000	 35.100	 99.431	  0.325
42712	 -0.335	 -0.092	  0.129	  0.380	  0.210	 -9.850	 -0.007	 -0.012	 -0.004	 35.100	 99.427	  0.685
42762	 -0.336	 -0.088	  0.129	  0.124	  0.785	 -9.926	  0.048	 -0.020	  0.110	 35.100	 99.443	 -0.757
42812	 -0.334	 -0.087	  0.132	  0.053	  0.655	 -9.791	  0.066	 -0.035	  0.271	 35.100	 99.431	  0.325
42862	 -0.334	 -0.084	  0.130	 -3.356	 -3.804	 -9.987	 -0.014	  0.100	 -0.119	 35.100	 99.431	  0.325
42912	 -0.335	 -0.095	  0.131	  1.186	  1.569	 -9.728	 -0.135	  0.202	 -0.340	 35.100	 99.427	  0.685
42962	 -0.340	 -0.103	  0.123	  6.477	  3.893	 -9.149	 -0.004	 -0.049	 -0.463	 35.100	 99.431	  0.325
43013	 -0.337	 -0.094	  0.131	 -0.571	 -0.867	 -15.056	  0.165	 -0.378	 -0.304	 35.100	 99.450	 -1.387
43062	 -0.329	 -0.094	  0.130	 -6.787	 -2.184	 -9.383	  0.117	 -0.192	 -0.100	 35.100	 99.431	  0.325
43112	 -0.329	 -0.087	  0.136	 -2.946	 -1.973	 -9.967	 -0.035	  0.125	  0.621	 35.100	 99.427	  0.685
43162	 -0.331	 -0.090	  0.129	  2.820	  1.660	 -9.837	 -0.026	  0.102	  0.375	 35.100	 99.443	 -0.757
43212	 -0.334	 -0.090	  0.130	  0.305	 -0.286	 -9.891	  0.017	  0.012	 -0.513	 35.100	 99.443	 -0.757
43263	 -0.334	 -0.098	  0.130	 -1.993	 -0.437	 -9.892	 -0.020	  0.084	 -0.279	 35.100	 99.427	  0.685
43312	 -0.335	 -0.096	  0.131	  2.815	  0.746	 -9.814	 -0.015	  0.056	  0.504	 35.100	 99.431	  0.325
43363	 -0.333	 -0.090	  0.132	  1.425	 -0.113	 -9.873	  0.023	 -0.082	  0.058	 35.100	 99.443	 -0.757
43413	 -0.332	 -0.093	  0.131	 -0.667	 -0.651	 -9.955	 -0.004	 -0.087	 -0.103	 35.100	 99.431	  0.325
43463	 -0.331	 -0.084	  0.128	 -1.053	 -0.441	 -9.864	 -0.035	 -0.022	 -0.117	 35.100	 99.443	 -0.757
43513	 -0.332	 -0.092	  0.129	 -0.384	 -0.008	 -9.874	 -0.045	  0.015	 -0.104	 35.100	 99.431	  0.325
43563	 -0.332	 -0.093	  0.127	 -0.184	  0.241	 -9.850	 -0.036	  0.025	 -0.011	 35.100	 99.427	  0.685
43613	 -0.335	 -0.096	  0.136	  0.105	  0.274	 -9.869	 -0.024	  0.027	  0.021	 35.100	 99.427	  0.685
43663	 -0.335	 -0.088	  0.131	 -0.051	  0.368	 -9.843	 -0.002	  0.023	  0.024	 35.100	 99.443	 -0.757
43713	 -0.335	 -0.096	  0.130	 -0.069	  0.112	 -9.867	  0.009	  0.027	  0.063	 35.100	 99.443	 -0.757
43763	 -0.335	 -0.094	  0.132	 -0.111	 -0.026	 -9.902	  0.008	  0.036	  0.074	 35.100	 99.427	  0.685
43813	 -0.336	 -0.097	  0.130	  0.207	 -0.408	 -9.916	  0.000	  0.046	  0.074	 35.100	 99.443	 -0.757
43863	 -0.336	 -0.094	  0.131	  0.480	 -0.412	 -9.886	 -0.033	  0.025	  0.035	 35.100	 99.431	  0.325
43913	 -0.337	 -0.097	  0.124	  0.781	  0.682	 -9.769	 -0.025	  0.001	 -0.007	 35.100	 99.431	  0.325
43963	 -0.338	 -0.096	  0.129	 -0.138	  0.356	 -9.810	  0.002	 -0.008	  0.001	 35.100	 99.439	 -0.396
44013	 -0.337	 -0.096	  0.129	 -0.189	  0.150	 -9.898	  0.012	  0.011	  0.001	 35.100	 99.443	 -0.757
44063	 -0.338	 -0.093	  0.131	  0.233	 -0.769	 -9.919	 -0.003	  0.003	 -0.000	 35.100	 99.431	  0.325
44113	 -0.337	 -0.096	  0.124	  0.454	  0.467	 -9.845	 -0.014	 -0.003	  0.004	 35.100	 99.431	  0.325
44163	 -0.336	 -0.095	  0.126	 -0.413	  0.287	 -9.885	  0.007	  0.007	 -0.000	 35.100	 99.439	 -0.396
44213	 -0.335	 -0.096	  0.123	  0.068	 -0.541	 -9.914	  0.007	  0.006	  0.001	 35.100	 99.431	  0.325
44263	 -0.336	 -0.096	  0.132	  0.569	  0.106	 -9.879	 -0.009	 -0.009	  0.001	 35.100	 99.439	 -0.396
44313	 -0.335	 -0.098	  0.129	 -0.572	  0.152	 -9.858	 -0.004	  0.008	 -0.000	 35.100	 99.427	  0.685
44363	 -0.337	 -0.097	  0.129	  0.344	 -0.206	 -9.898	  0.004	 -0.002	  0.001	 35.100	 99.443	 -0.757
44413	 -0.337	 -0.095	  0.131	 -0.020	  0.286	 -9.883	 -0.008	  0.001	 -0.000	 35.100	 99.439	 -0.396
44463	 -0.336	 -0.099	  0.128	  0.085	 -0.103	 -9.878	  0.005	  0.003	  0.000	 35.100	 99.427	  0.685
44513	 -0.337	 -0.098	  0.126	  0.168	  0.173	 -9.874	 -0.009	 -0.001	  0.001	 35.100	 99.431	  0.325
44563	 -0.336	 -0.092	  0.130	  0.075	 -0.017	 -9.874	  0.001	  0.004	  0.000	 35.100	 99.443	 -0.757
44613	 -0.340	 -0.095	  0.130	  0.109	  0.079	 -9.885	 -0.005	 -0.001	 -0.000	 35.100	 99.427	  0.685
44663	 -0.337	 -0.095	  0.129	  0.155	 -0.005	 -9.879	  0.000	  0.004	  0.001	 35.100	 99.443	 -0.757
44713	 -0.336	 -0.092	  0.132	  0.030	  0.064	 -9.894	 -0.003	  0.001	 -0.000	 35.100	 99.439	 -0.396
44763	 -0.335	 -0.099	  0.130	  0.171	 -0.025	 -9.862	 -0.001	  0.001	 -0.001	 35.100	 99.427	  0.685
44813	 -0.336	 -0.092	  0.129	  0.065	  0.072	 -9.881	 -0.004	  0.002	  0.001	 35.100	 99.427	  0.685
44863	 -0.338	 -0.097	  0.131	  0.108	 -0.019	 -9.852	 -0.001	  0.002	  0.000	 35.100	 99.443	 -0.757
44913	 -0.338	 -0.098	  0.129	  0.085	  0.082	 -9.867	 -0.003	  0.001	  0.001	 35.100	 99.450	 -1.387
44963	 -0.336	 -0.093	  0.125	  0.111	 -0.025	 -9.859	 -0.003	  0.002	 -0.000	 35.100	 99.427	  0.685
45013	 -0.337	 -0.095	  0.128	  0.068	  0.069	 -9.889	 -0.002	  0.000	  0.000	 35.100	 99.439	 -0.396
45063	 -0.337	 -0.093	  0.130	  0.123	  0.006	 -9.898	 -0.001	  0.003	 -0.001	 35.100	 99.439	 -0.396
45113	 -0.337	 -0.099	  0.130	  0.057	  0.048	 -9.894	 -0.001	  0.002	 -0.003	 35.100	 99.427	  0.685
45163	 -0.338	 -0.097	  0.129	  0.123	 -0.012	 -9.893	 -0.002	  0.001	 -0.001	 35.100	 99.431	  0.325
45213	 -0.336	 -0.096	  0.126	  0.081	  0.054	 -9.866	 -0.003	  0.003	  0.000	 35.100	 99.439	 -0.396
45263	 -0.334	 -0.088	  0.128	  0.091	  0.001	 -9.873	 -0.002	  0.002	  0.001	 35.100	 99.427	  0.685
45313	 -0.338	 -0.099	  0.130	  0.075	  0.053	 -9.874	 -0.001	  0.001	 -0.001	 35.100	 99.427	  0.685
45363	 -0.337	 -0.090	  0.132	  0.109	  0.038	 -9.857	 -0.001	  0.001	  0.000	 35.100	 99.443	 -0.757
45413	 -0.337	 -0.095	  0.128	  0.080	  0.044	 -9.903	 -0.002	  0.002	  0.001	 35.100	 99.443	 -0.757
45463	 -0.337	 -0.099	  0.131	  0.119	  0.042	 -9.840	 -0.001	  0.002	  0.000	 35.100	 99.439	 -0.396
45513	 -0.337	 -0.098	  0.130	  0.099	  0.046	 -9.917	 -0.002	  0.001	 -0.000	 35.100	 99.427	  0.685
45563	 -0.335	 -0.094	  0.131	  0.110	  0.022	 -9.895	 -0.001	  0.001	  0.000	 35.100	 99.427	  0.685
45613	 -0.338	 -0.096	  0.129	  0.098	  0.031	 -9.868	 -0.003	  0.002	  0.000	 35.100	 99.439	 -0.396
45663	 -0.338	 -0.094	  0.129	  0.115	  0.043	 -9.880	 -0.002	  0.001	  0.001	 35.100	 99.427	  0.685
45713	 -0.339	 -0.099	  0.127	  0.096	  0.010	 -9.884	 -0.002	  0.001	  0.000	 35.100	 99.439	 -0.396
45763	 -0.336	 -0.096	  0.130	  0.089	  0.020	 -9.896	 -0.003	  0.002	  0.001	 35.100	 99.443	 -0.757
45813	 -0.336	 -0.098	  0.130	  0.089	  0.050	 -9.923	 -0.003	  0.002	  0.001	 35.100	 99.427	  0.685
45863	 -0.337	 -0.097	  0.130	  0.068	  0.043	 -9.907	 -0.002	  0.002	  0.001	 35.100	 99.443	 -0.757
45913	 -0.335	 -0.095	  0.131	  0.125	  0.021	 -9.885	 -0.002	  0.002	 -0.001	 35.100	 99.427	  0.685
45963	 -0.339	 -0.100	  0.129	  0.106	  0.038	 -9.862	 -0.002	  0.001	 -0.001	 35.100	 99.427	  0.685
46013	 -0.337	 -0.093	  0.128	  0.101	  0.045	 -9.884	 -0.002	  0.001	  0.000	 35.100	 99.423	  1.046
46063	 -0.336	 -0.093	  0.130	  0.101	  0.024	 -9.871	 -0.002	  0.001	 -0.001	 35.100	 99.439	 -0.396
46113	 -0.339	 -0.098	  0.125	  0.077	  0.037	 -9.895	 -0.003	  0.001	  0.002	 35.100	 99.427	  0.685
46163	 -0.336	 -0.094	  0.126	  0.096	  0.031	 -9.854	 -0.002	  0.000	 -0.001	 35.100	 99.427	  0.685
46213	 -0.338	 -0.093	  0.127	  0.067	  0.000	 -9.871	 -0.003	  0.001	 -0.000	 35.100	 99.454	 -1.748
46263	 -0.335	 -0.094	  0.129	  0.098	  0.023	 -9.916	 -0.002	  0.002	  0.001	 35.100	 99.427	  0.685
46313	 -0.338	 -0.098	  0.131	  0.106	  0.046	 -9.873	 -0.002	  0.002	 -0.000	 35.100	 99.439	 -0.396
46363	 -0.335	 -0.096	  0.125	  0.089	  0.009	 -9.873	 -0.002	  0.003	  0.001	 35.100	 99.427	  0.685
46413	 -0.337	 -0.100	  0.130	  0.130	  0.031	 -9.887	 -0.002	  0.001	  0.001	 35.100	 99.439	 -0.396
46463	 -0.336	 -0.100	  0.129	  0.095	  0.042	 -9.887	 -0.001	  0.002	  0.000	 35.100	 99.439	 -0.396
46513	 -0.337	 -0.090	  0.127	  0.092	  0.021	 -9.880	 -0.002	  0.002	  0.001	 35.100	 99.427	  0.685
46563	 -0.337	 -0.096	  0.121	  0.091	  0.022	 -9.916	 -0.002	  0.002	  0.000	 35.100	 99.439	 -0.396
46613	 -0.338	 -0.094	  0.126	  0.076	  0.026	 -9.898	 -0.002	  0.001	  0.000	 35.100	 99.427	  0.685
46663	 -0.336	 -0.098	  0.129	  0.095	  0.035	 -9.887	 -0.003	  0.002	 -0.001	 35.100	 99.427	  0.685
46713	 -0.336	 -0.089	  0.128	  0.090	  0.026	 -9.896	 -0.002	  0.001	 -0.001	 35.100	 99.427	  0.685
46763	 -0.337	 -0.098	  0.128	  0.103	  0.032	 -9.859	 -0.003	  0.002	  0.001	 35.100	 99.427	  0.685
46813	 -0.338	 -0.097	  0.130	  0.096	  0.020	 -9.867	 -0.001	  0.001	  0.001	 35.100	 99.427	  0.685
46863	 -0.338	 -0.091	  0.126	  0.080	  0.006	 -9.891	 -0.002	  0.001	  0.001	 35.100	 99.427	  0.685
46913	 -0.337	 -0.096	  0.129	  0.107	  0.044	 -9.848	 -0.003	  0.002	 -0.000	 35.100	 99.439	 -0.396
46963	 -0.335	 -0.094	  0.126	  0.079	  0.027	 -9.899	 -0.002	  0.002	  0.000	 35.100	 99.427	  0.685
47013	 -0.338	 -0.096	  0.127	  0.080	  0.014	 -9.893	 -0.002	  0.002	 -0.000	 35.100	 99.427	  0.685
47063	 -0.338	 -0.094	  0.132	  0.094	  0.032	 -9.885	 -0.003	  0.002	  0.000	 35.100	 99.427	  0.685
47113	 -0.338	 -0.094	  0.126	  0.092	  0.017	 -9.840	 -0.002	  0.000	  0.000	 35.100	 99.416	  1.676
47163	 -0.336	 -0.094	  0.131	  0.108	  0.047	 -9.908	 -0.001	  0.002	  0.000	 35.100	 99.420	  1.316
47213	 -0.340	 -0.090	  0.131	  0.127	  0.047	 -9.857	 -0.003	  0.001	  0.000	 35.100	 99.439	 -0.396
47263	 -0.337	 -0.095	  0.126	  0.098	  0.019	 -9.848	 -0.002	  0.002	  0.001	 35.100	 99.427	  0.685
47313	 -0.334	 -0.095	  0.124	  0.084	  0.025	 -9.921	 -0.002	  0.001	  0.000	 35.100	 99.439	 -0.396
47363	 -0.337	 -0.096	  0.129	  0.100	  0.025	 -9.844	 -0.002	  0.001	  0.001	 35.100	 99.439	 -0.396
47413	 -0.336	 -0.093	  0.122	  0.099	  0.046	 -9.845	 -0.002	  0.001	  0.002	 35.100	 99.439	 -0.396
47463	 -0.337	 -0.094	  0.125	  0.087	  0.025	 -9.862	 -0.001	  0.001	  0.001	 35.100	 99.427	  0.685
47513	 -0.339	 -0.098	  0.125	  0.117	  0.026	 -9.867	 -0.003	  0.001	 -0.000	 35.100	 99.427	  0.685
47563	 -0.336	 -0.098	  0.130	  0.115	  0.043	 -9.866	 -0.002	  0.001	  0.000	 35.100	 99.427	  0.685
47613	 -0.336	 -0.096	  0.125	  0.097	  0.037	 -9.891	 -0.002	  0.003	 -0.000	 35.100	 99.450	 -1.387
47663	 -0.336	 -0.093	  0.123	  0.079	  0.009	 -9.854	 -0.005	  0.001	 -0.000	 35.100	 99.443	 -0.757
47713	 -0.335	 -0.096	  0.124	  0.093	  0.017	 -9.872	 -0.003	  0.002	  0.000	 35.100	 99.427	  0.685
47763	 -0.337	 -0.086	  0.127	  0.119	  0.035	 -9.885	 -0.002	  0.001	 -0.000	 35.100	 99.439	 -0.396
47813	 -0.337	 -0.098	  0.124	  0.130	  0.034	 -9.907	 -0.002	  0.003	  0.001	 35.100	 99.439	 -0.396
47863	 -0.338	 -0.097	  0.123	  0.088	  0.023	 -9.865	 -0.002	  0.002	  0.001	 35.100	 99.439	 -0.396
47913	 -0.336	 -0.096	  0.126	  0.070	  0.021	 -9.882	 -0.002	 -0.000	  0.001	 35.100	 99.427	  0.685
47963	 -0.336	 -0.095	  0.124	  0.104	  0.003	 -9.871	 -0.002	  0.003	 -0.001	 35.100	 99.450	 -1.387
48013	 -0.337	 -0.099	  0.125	  0.097	  0.034	 -9.891	 -0.003	  0.002	 -0.000	 35.100	 99.439	 -0.396
48063	 -0.340	 -0.098	  0.123	  0.082	  0.044	 -9.858	 -0.002	  0.002	  0.001	 35.100	 99.450	 -1.387
48113	 -0.336	 -0.097	  0.125	  0.103	  0.036	 -9.910	 -0.002	  0.001	  0.001	 35.100	 99.439	 -0.396
48163	 -0.335	 -0.098	  0.121	  0.109	  0.005	 -9.892	 -0.002	  0.001	  0.001	 35.100	 99.439	 -0.396
48213	 -0.337	 -0.097	  0.126	  0.108	  0.049	 -9.900	 -0.001	  0.001	 -0.000	 35.100	 99.439	 -0.396
48263	 -0.335	 -0.098	  0.129	  0.094	  0.042	 -9.856	 -0.003	  0.002	  0.001	 35.100	 99.423	  1.046
48313	 -0.336	 -0.097	  0.124	  0.092	  0.039	 -9.876	 -0.002	  0.002	 -0.001	 35.100	 99.439	 -0.396
48363	 -0.336	 -0.093	  0.125	  0.096	  0.036	 -9.878	 -0.003	  0.002	  0.000	 35.100	 99.439	 -0.396
48413	 -0.334	 -0.092	  0.124	  0.086	  0.016	 -9.874	 -0.003	  0.001	  0.000	 35.100	 99.439	 -0.396
48463	 -0.336	 -0.100	  0.124	  0.092	  0.029	 -9.910	 -0.002	  0.001	 -0.000	 35.100	 99.427	  0.685
48513	 -0.337	 -0.094	  0.122	  0.090	  0.040	 -9.867	 -0.003	  0.001	 -0.000	 35.100	 99.439	 -0.396
48563	 -0.336	 -0.101	  0.123	  0.104	  0.016	 -9.850	 -0.002	  0.001	  0.001	 35.100	 99.427	  0.685
48613	 -0.333	 -0.098	  0.129	  0.088	  0.013	 -9.847	 -0.002	  0.001	  0.000	 35.100	 99.439	 -0.396
48663	 -0.336	 -0.093	  0.124	  0.107	  0.033	 -9.870	 -0.003	  0.000	  0.001	 35.100	 99.423	  1.046
48714	 -0.336	 -0.096	  0.129	  0.114	  0.022	 -9.892	 -0.002	  0.002	  0.000	 35.100	 99.427	  0.685
48763	 -0.337	 -0.088	  0.126	  0.096	  0.034	 -9.889	 -0.002	  0.001	  0.000	 35.100	 99.427	  0.685
48813	 -0.335	 -0.090	  0.128	  0.087	  0.023	 -9.876	 -0.002	  0.002	  0.000	 35.100	 99.427	  0.685
48863	 -0.334	 -0.097	  0.121	  0.106	  0.023	 -9.855	 -0.002	  0.002	  0.000	 35.100	 99.439	 -0.396
48914	 -0.336	 -0.091	  0.128	  0.101	  0.055	 -9.875	 -0.002	  0.002	  0.001	 35.100	 99.427	  0.685
48964	 -0.336	 -0.098	  0.130	  0.102	  0.023	 -9.898	 -0.002	  0.002	 -0.000	 35.100	 99.427	  0.685
49014	 -0.335	 -0.095	  0.125	  0.104	  0.021	 -9.884	 -0.003	  0.002	  0.001	 35.100	 99.439	 -0.396
49064	 -0.337	 -0.097	  0.124	  0.081	  0.012	 -9.896	 -0.002	  0.001	 -0.000	 35.100	 99.439	 -0.396
49114	 -0.336	 -0.095	  0.129	  0.102	  0.028	 -9.883	 -0.003	  0.001	 -0.000	 35.100	 99.439	 -0.396
49164	 -0.336	 -0.092	  0.117	  0.097	  0.041	 -9.869	 -0.002	  0.000	  0.000	 35.100	 99.427	  0.685
49214	 -0.338	 -0.094	  0.131	  0.110	  0.023	 -9.892	 -0.003	  0.002	 -0.000	 35.100	 99.443	 -0.757
49264	 -0.336	 -0.099	  0.128	  0.103	  0.043	 -9.883	 -0.002	  0.001	  0.001	 35.100	 99.450	 -1.387
49313	 -0.334	 -0.095	  0.130	  0.097	  0.028	 -9.886	 -0.003	  0.000	  0.000	 35.100	 99.427	  0.685
49363	 -0.338	 -0.091	  0.129	  0.103	  0.022	 -9.889	 -0.002	  0.001	  0.001	 35.100	 99.434	  0.054
49413	 -0.336	 -0.094	  0.129	  0.113	  0.004	 -9.856	 -0.003	  0.002	  0.000	 35.100	 99.439	 -0.396
49463	 -0.337	 -0.093	  0.126	  0.090	  0.035	 -9.883	 -0.002	  0.001	 -0.001	 35.100	 99.439	 -0.396
49513	 -0.336	 -0.093	  0.125	  0.096	  0.042	 -9.848	 -0.001	  0.001	 -0.001	 35.100	 99.439	 -0.396
49563	 -0.337	 -0.098	  0.125	  0.068	  0.011	 -9.872	 -0.002	  0.001	  0.000	 35.100	 99.439	 -0.396
49613	 -0.337	 -0.095	  0.126	  0.084	  0.037	 -9.917	 -0.002	  0.002	  0.000	 35.100	 99.439	 -0.396
49663	 -0.337	 -0.099	  0.126	  0.096	  0.028	 -9.873	 -0.002	  0.001	  0.001	 35.100	 99.439	 -0.396
49713	 -0.336	 -0.098	  0.130	  0.096	  0.033	 -9.886	 -0.003	 -0.001	  0.000	 35.100	 99.439	 -0.396
49763	 -0.336	 -0.096	  0.121	  0.097	  0.036	 -9.896	 -0.002	  0.001	 -0.000	 35.100	 99.439	 -0.396
49813	 -0.337	 -0.101	  0.130	  0.100	  0.030	 -9.872	 -0.002	  0.001	 -0.000	 35.100	 99.439	 -0.396
49863	 -0.336	 -0.093	  0.126	  0.097	  0.020	 -9.903	 -0.002	  0.001	  0.000	 35.100	 99.427	  0.685
49913	 -0.336	 -0.097	  0.126	  0.100	  0.023	 -9.909	 -0.002	  0.002	  0.001	 35.100	 99.439	 -0.396
49963	 -0.338	 -0.096	  0.130	  0.092	  0.027	 -9.855	 -0.001	  0.001	  0.001	 35.100	 99.439	 -0.396
50013	 -0.336	 -0.088	  0.128	  0.138	  0.011	 -9.884	 -0.002	  0.002	  0.001	 35.100	 99.427	  0.685
50063	 -0.335	 -0.095	  0.123	  0.074	  0.031	 -9.856	 -0.002	  0.000	  0.000	 35.100	 99.439	 -0.396
50113	 -0.336	 -0.095	  0.125	  0.128	  0.017	 -9.880	 -0.002	  0.001	  0.001	 35.100	 99.427	  0.685
50163	 -0.336	 -0.097	  0.128	  0.096	  0.035	 -9.886	 -0.001	  0.001	  0.000	 35.100	 99.427	  0.685
50213	 -0.336	 -0.084	  0.127	  0.107	  0.038	 -9.872	 -0.002	  0.002	  0.000	 35.100	 99.427	  0.685
50263	 -0.336	 -0.095	  0.125	  0.095	  0.025	 -9.901	 -0.002	  0.001	  0.001	 35.100	 99.439	 -0.396
50313	 -0.334	 -0.097	  0.131	  0.114	  0.024	 -9.852	 -0.002	  0.001	 -0.001	 35.100	 99.439	 -0.396
50363	 -0.334	 -0.098	  0.127	  0.084	  0.042	 -9.932	 -0.002	  0.003	  0.000	 35.100	 99.434	  0.054
50413	 -0.336	 -0.096	  0.124	  0.095	  0.014	 -9.877	 -0.003	  0.002	 -0.001	 35.100	 99.434	  0.054
50463	 -0.338	 -0.096	  0.130	  0.094	  0.022	 -9.895	 -0.001	  0.001	  0.001	 35.100	 99.439	 -0.396
50513	 -0.336	 -0.096	  0.124	  0.084	  0.025	 -9.881	 -0.002	  0.002	  0.001	 35.100	 99.439	 -0.396
50563	 -0.335	 -0.103	  0.130	  0.089	  0.034	 -9.905	 -0.003	  0.002	  0.001	 35.100	 99.434	  0.054
50613	 -0.335	 -0.097	  0.129	  0.096	  0.014	 -9.891	 -0.003	  0.001	  0.000	 35.100	 99.434	  0.054
50663	 -0.337	 -0.096	  0.124	  0.087	  0.027	 -9.865	 -0.002	  0.002	  0.000	 35.100	 99.434	  0.054
50713	 -0.336	 -0.097	  0.126	  0.085	  0.019	 -9.873	 -0.002	  0.003	  0.001	 35.100	 99.434	  0.054
50763	 -0.337	 -0.097	  0.122	  0.096	  0.007	 -9.856	 -0.002	  0.001	 -0.000	 35.100	 99.439	 -0.396
50813	 -0.336	 -0.095	  0.126	  0.096	  0.043	 -9.880	 -0.002	  0.001	 -0.000	 35.100	 99.427	  0.685
50863	 -0.336	 -0.095	  0.128	  0.099	  0.036	 -9.892	 -0.003	  0.002	 -0.000	 35.100	 99.439	 -0.396
50913	 -0.334	 -0.101	  0.121	  0.082	  0.028	 -9.913	 -0.002	  0.001	 -0.000	 35.100	 99.439	 -0.396
50963	 -0.338	 -0.097	  0.130	  0.079	  0.032	 -9.886	 -0.001	  0.001	 -0.001	 35.100	 99.439	 -0.396
51013	 -0.335	 -0.093	  0.128	  0.070	  0.037	 -9.892	 -0.002	  0.001	  0.001	 35.100	 99.416	  1.676
51063	 -0.336	 -0.089	  0.129	  0.076	  0.041	 -9.881	 -0.003	  0.001	  0.001	 35.100	 99.439	 -0.396
51113	 -0.336	 -0.098	  0.122	  0.087	  0.043	 -9.860	 -0.002	  0.001	  0.000	 35.100	 99.439	 -0.396
51163	 -0.337	 -0.094	  0.123	  0.098	  0.029	 -9.882	 -0.002	  0.002	  0.000	 35.100	 99.446	 -1.027
51214	 -0.334	 -0.099	  0.124	  0.090	  0.022	 -9.900	 -0.003	  0.001	 -0.000	 35.100	 99.439	 -0.396
51263	 -0.337	 -0.098	  0.123	  0.073	  0.042	 -9.892	 -0.002	  0.003	 -0.000	 35.100	 99.434	  0.054
51314	 -0.336	 -0.094	  0.126	  0.105	  0.026	 -9.895	 -0.005	  0.001	  0.000	 35.100	 99.439	 -0.396
51363	 -0.336	 -0.092	  0.131	  0.095	  0.027	 -9.870	 -0.002	  0.002	 -0.001	 35.100	 99.434	  0.054
51413	 -0.335	 -0.093	  0.128	  0.082	  0.034	 -9.858	 -0.002	  0.002	  0.000	 35.100	 99.450	 -1.387
51463	 -0.338	 -0.094	  0.126	  0.103	  0.021	 -9.888	 -0.003	  0.001	  0.000	 35.100	 99.439	 -0.396
51513	 -0.337	 -0.096	  0.125	  0.090	  0.046	 -9.883	 -0.002	  0.001	  0.001	 35.100	 99.423	  1.046
51563	 -0.337	 -0.093	  0.125	  0.103	  0.018	 -9.881	 -0.002	  0.002	  0.001	 35.100	 99.423	  1.046
51613	 -0.337	 -0.091	  0.126	  0.087	  0.043	 -9.882	 -0.002	  0.002	 -0.000	 35.100	 99.423	  1.046
51663	 -0.336	 -0.091	  0.125	  0.103	  0.028	 -9.862	 -0.003	 -0.000	 -0.001	 35.100	 99.439	 -0.396
51713	 -0.335	 -0.097	  0.125	  0.078	  0.017	 -9.868	 -0.002	  0.002	  0.000	 35.100	 99.434	  0.054
51763	 -0.337	 -0.096	  0.124	  0.087	  0.024	 -9.858	 -0.002	  0.001	  0.001	 35.100	 99.434	  0.054
51813	 -0.338	 -0.097	  0.127	  0.093	  0.042	 -9.882	 -0.001	 -0.000	  0.000	 35.100	 99.423	  1.046
51863	 -0.337	 -0.094	  0.130	  0.092	  0.036	 -9.843	 -0.001	  0.002	  0.000	 35.100	 99.434	  0.054
51913	 -0.337	 -0.089	  0.124	  0.115	  0.038	 -9.860	 -0.003	  0.001	 -0.000	 35.100	 99.423	  1.046
51963	 -0.335	 -0.095	  0.131	  0.097	  0.028	 -9.891	 -0.002	  0.001	  0.001	 35.100	 99.423	  1.046
52013	 -0.335	 -0.094	  0.124	  0.093	  0.035	 -9.872	 -0.003	  0.002	  0.001	 35.100	 99.439	 -0.396
52063	 -0.337	 -0.098	  0.132	  0.124	  0.056	 -9.906	 -0.001	  0.002	 -0.001	 35.100	 99.427	  0.685
52113	 -0.337	 -0.086	  0.127	  0.127	  0.030	 -9.865	 -0.003	  0.001	  0.000	 35.100	 99.423	  1.046
52163	 -0.336	 -0.094	  0.123	  0.090	  0.032	 -9.897	 -0.003	  0.002	  0.000	 35.100	 99.427	  0.685
52213	 -0.334	 -0.096	  0.130	  0.094	  0.026	 -9.900	 -0.002	  0.001	  0.001	 35.100	 99.427	  0.685
52263	 -0.336	 -0.098	  0.121	  0.118	  0.016	 -9.913	 -0.003	  0.001	  0.001	 35.100	 99.434	  0.054
52313	 -0.336	 -0.098	  0.129	  0.096	  0.055	 -9.882	 -0.003	  0.002	 -0.000	 35.100	 99.439	 -0.396
52363	 -0.335	 -0.094	  0.128	  0.083	  0.009	 -9.861	 -0.002	  0.001	 -0.000	 35.100	 99.427	  0.685
52413	 -0.336	 -0.087	  0.127	  0.102	  0.055	 -9.879	 -0.002	  0.001	  0.000	 35.100	 99.434	  0.054
52463	 -0.337	 -0.097	  0.129	  0.097	  0.044	 -9.868	 -0.002	  0.001	  0.001	 35.100	 99.434	  0.054
52513	 -0.335	 -0.094	  0.130	  0.093	  0.033	 -9.884	 -0.003	  0.002	  0.001	 35.100	 99.427	  0.685
52563	 -0.336	 -0.088	  0.125	  0.094	  0.026	 -9.883	 -0.002	  0.001	 -0.000	 35.100	 99.434	  0.054
52613	 -0.336	 -0.097	  0.128	  0.122	  0.016	 -9.893	 -0.003	  0.001	  0.000	 35.100	 99.434	  0.054
52663	 -0.335	 -0.095	  0.129	  0.102	  0.029	 -9.866	 -0.002	  0.002	 -0.000	 35.100	 99.427	  0.685
52713	 -0.338	 -0.096	  0.124	  0.103	  0.030	 -9.865	 -0.003	  0.001	  0.000	 35.100	 99.434	  0.054
52763	 -0.335	 -0.098	  0.127	  0.105	  0.024	 -9.830	 -0.001	  0.002	  0.000	 35.100	 99.434	  0.054
52813	 -0.337	 -0.092	  0.127	  0.105	  0.034	 -9.858	 -0.002	  0.001	 -0.000	 35.100	 99.423	  1.046
52863	 -0.338	 -0.093	  0.126	  0.094	  0.021	 -9.864	 -0.002	  0.002	 -0.000	 35.100	 99.427	  0.685
52913	 -0.336	 -0.100	  0.130	  0.105	  0.020	 -9.890	 -0.002	  0.003	 -0.000	 35.100	 99.427	  0.685
52963	 -0.335	 -0.095	  0.122	  0.100	  0.052	 -9.915	 -0.001	 -0.000	  0.001	 35.100	 99.434	  0.054
53013	 -0.335	 -0.091	  0.123	  0.114	  0.061	 -9.864	 -0.003	  0.002	 -0.000	 35.100	 99.423	  1.046
53063	 -0.337	 -0.097	  0.123	  0.086	  0.032	 -9.837	 -0.002	  0.002	  0.002	 35.100	 99.439	 -0.396
53113	 -0.338	 -0.096	  0.124	  0.090	  0.011	 -9.903	 -0.003	  0.002	 -0.001	 35.100	 99.423	  1.046
53163	 -0.335	 -0.098	  0.128	  0.091	  0.017	 -9.857	 -0.003	  0.001	  0.001	 35.100	 99.439	 -0.396
53213	 -0.337	 -0.093	  0.129	  0.108	  0.014	 -9.870	 -0.003	  0.001	  0.001	 35.100	 99.427	  0.685
53263	 -0.336	 -0.097	  0.125	  0.082	  0.034	 -9.866	 -0.001	  0.002	  0.000	 35.100	 99.423	  1.046
53313	 -0.334	 -0.097	  0.122	  0.095	  0.028	 -9.874	 -0.002	  0.001	 -0.000	 35.100	 99.434	  0.054
53363	 -0.336	 -0.093	  0.129	  0.081	  0.036	 -9.889	 -0.002	  0.002	  0.000	 35.100	 99.434	  0.054
53413	 -0.335	 -0.094	  0.131	  0.113	  0.022	 -9.887	 -0.003	  0.001	  0.001	 35.100	 99.423	  1.046
53463	 -0.337	 -0.096	  0.125	  0.093	  0.038	 -9.875	 -0.002	  0.000	  0.002	 35.100	 99.434	  0.054
53513	 -0.335	 -0.097	  0.130	  0.089	  0.024	 -9.890	 -0.002	  0.001	  0.001	 35.100	 99.423	  1.046
53563	 -0.335	 -0.095	  0.124	  0.088	  0.036	 -9.900	 -0.003	  0.001	  0.000	 35.100	 99.423	  1.046
53613	 -0.335	 -0.096	  0.123	  0.101	  0.025	 -9.880	 -0.003	  0.002	  0.001	 35.100	 99.434	  0.054
53663	 -0.337	 -0.097	  0.128	  0.108	  0.029	 -9.904	 -0.001	  0.001	  0.001	 35.100	 99.439	 -0.396
53713	 -0.335	 -0.095	  0.117	  0.100	  0.019	 -9.884	 -0.002	  0.000	  0.001	 35.100	 99.439	 -0.396
53763	 -0.337	 -0.098	  0.129	  0.097	  0.022	 -9.845	 -0.003	  0.001	  0.000	 35.100	 99.434	  0.054
53813	 -0.335	 -0.095	  0.120	  0.112	  0.042	 -9.885	 -0.002	  0.001	  0.001	 35.100	 99.427	  0.685
53863	 -0.335	 -0.094	  0.124	  0.089	  0.040	 -9.892	 -0.002	  0.001	  0.000	 35.100	 99.434	  0.054
53913	 -0.337	 -0.099	  0.128	  0.092	  0.006	 -9.858	 -0.002	  0.001	  0.001	 35.100	 99.423	  1.046
53963	 -0.336	 -0.096	  0.126	  0.081	  0.032	 -9.874	 -0.002	  0.002	  0.001	 35.100	 99.439	 -0.396
54013	 -0.336	 -0.099	  0.128	  0.075	  0.027	 -9.865	 -0.002	  0.001	  0.000	 35.100	 99.423	  1.046
54063	 -0.336	 -0.086	  0.124	  0.110	  0.009	 -9.881	 -0.002	  0.002	 -0.000	 35.100	 99.434	  0.054
54113	 -0.338	 -0.094	  0.126	  0.093	  0.003	 -9.880	 -0.003	  0.002	 -0.000	 35.100	 99.434	  0.054
54163	 -0.336	 -0.097	  0.126	  0.090	  0.024	 -9.855	 -0.002	  0.001	  0.001	 35.100	 99.423	  1.046
54213	 -0.335	 -0.093	  0.126	  0.077	  0.015	 -9.899	 -0.002	  0.001	  0.000	 35.100	 99.427	  0.685
54264	 -0.339	 -0.093	  0.129	  0.108	  0.015	 -9.875	 -0.002	  0.002	  0.000	 35.100	 99.423	  1.046
54314	 -0.338	 -0.097	  0.127	  0.077	  0.029	 -9.855	 -0.002	  0.002	 -0.001	 35.100	 99.439	 -0.396
54365	 -0.338	 -0.098	  0.126	  0.098	  0.031	 -9.860	 -0.002	  0.000	  0.000	 35.100	 99.423	  1.046
54414	 -0.336	 -0.098	  0.128	  0.094	  0.044	 -9.864	 -0.001	  0.002	  0.000	 35.100	 99.434	  0.054
54465	 -0.336	 -0.093	  0.128	  0.103	  0.016	 -9.891	 -0.003	 -0.000	 -0.001	 35.100	 99.450	 -1.387
54515	 -0.334	 -0.096	  0.129	  0.107	  0.060	 -9.885	 -0.001	  0.001	  0.000	 35.100	 99.439	 -0.396
54565	 -0.336	 -0.089	  0.130	  0.102	  0.038	 -9.875	 -0.002	  0.001	  0.001	 35.100	 99.423	  1.046
54615	 -0.338	 -0.090	  0.124	  0.117	  0.043	 -9.884	 -0.002	  0.000	 -0.000	 35.100	 99.423	  1.046
54665	 -0.335	 -0.096	  0.125	  0.117	  0.025	 -9.878	 -0.003	  0.001	  0.000	 35.100	 99.434	  0.054
54715	 -0.334	 -0.095	  0.127	  0.089	  0.040	 -9.882	 -0.003	  0.001	  0.001	 35.100	 99.423	  1.046
54765	 -0.336	 -0.094	  0.126	  0.090	  0.016	 -9.869	 -0.002	  0.000	  0.000	 35.100	 99.423	  1.046
54815	 -0.336	 -0.097	  0.124	  0.101	  0.047	 -9.913	 -0.002	  0.001	  0.001	 35.100	 99.434	  0.054
54865	 -0.338	 -0.096	  0.124	  0.102	  0.051	 -9.879	 -0.002	  0.002	  0.001	 35.100	 99.434	  0.054
54915	 -0.337	 -0.094	  0.118	  0.114	  0.009	 -9.888	 -0.003	  0.000	  0.000	 35.100	 99.430	  0.414
54965	 -0.336	 -0.096	  0.129	  0.100	  0.032	 -9.892	 -0.001	  0.001	  0.000	 35.100	 99.427	  0.685
55015	 -0.335	 -0.096	  0.123	  0.082	  0.037	 -9.895	 -0.002	  0.001	  0.000	 35.100	 99.434	  0.054
55065	 -0.336	 -0.094	  0.129	  0.069	  0.044	 -9.889	 -0.002	  0.001	  0.000	 35.100	 99.423	  1.046
55115	 -0.338	 -0.093	  0.126	  0.101	  0.051	 -9.833	 -0.002	  0.001	 -0.000	 35.100	 99.439	 -0.396
55165	 -0.336	 -0.092	  0.122	  0.099	  0.022	 -9.877	 -0.003	  0.001	  0.001	 35.100	 99.423	  1.046
55215	 -0.338	 -0.096	  0.129	  0.111	  0.029	 -9.883	 -0.002	  0.001	 -0.000	 35.100	 99.434	  0.054
55265	 -0.337	 -0.090	  0.129	  0.109	  0.006	 -9.875	 -0.001	  0.003	  0.000	 35.100	 99.439	 -0.396
55315	 -0.336	 -0.099	  0.126	  0.114	  0.039	 -9.848	 -0.003	  0.000	 -0.001	 35.100	 99.427	  0.685
55365	 -0.336	 -0.099	  0.125	  0.099	  0.018	 -9.907	 -0.003	  0.001	  0.000	 35.100	 99.423	  1.046
55415	 -0.337	 -0.096	  0.126	  0.101	  0.038	 -9.888	 -0.001	  0.002	  0.001	 35.100	 99.423	  1.046
55465	 -0.334	 -0.095	  0.127	  0.114	  0.018	 -9.906	 -0.002	  0.001	  0.001	 35.100	 99.423	  1.046
55515	 -0.335	 -0.094	  0.125	  0.098	  0.036	 -9.858	 -0.003	 -0.000	 -0.000	 35.100	 99.427	  0.685
55565	 -0.337	 -0.093	  0.125	  0.083	  0.025	 -9.862	 -0.002	  0.002	  0.001	 35.100	 99.427	  0.685
55615	 -0.336	 -0.099	  0.125	  0.105	  0.033	 -9.900	 -0.002	  0.002	  0.001	 35.100	 99.430	  0.414
55665	 -0.338	 -0.094	  0.126	  0.108	  0.033	 -9.852	 -0.002	  0.001	  0.001	 35.100	 99.439	 -0.396
55715	 -0.337	 -0.096	  0.130	  0.095	  0.036	 -9.835	 -0.003	  0.003	  0.001	 35.100	 99.423	  1.046
55765	 -0.336	 -0.088	  0.126	  0.089	  0.033	 -9.874	 -0.002	  0.002	  0.000	 35.100	 99.434	  0.054
55815	 -0.337	 -0.098	  0.126	  0.082	  0.013	 -9.868	 -0.002	  0.000	  0.001	 35.100	 99.423	  1.046
55865	 -0.336	 -0.090	  0.128	  0.093	  0.037	 -9.880	 -0.003	  0.001	 -0.000	 35.100	 99.423	  1.046
55915	 -0.337	 -0.096	  0.128	  0.103	  0.037	 -9.867	 -0.002	  0.000	  0.001	 35.100	 99.434	  0.054
55965	 -0.335	 -0.094	  0.124	  0.095	  0.041	 -9.870	 -0.002	  0.000	  0.001	 35.100	 99.434	  0.054
56015	 -0.336	 -0.085	  0.126	  0.106	  0.014	 -9.858	 -0.002	  0.001	  0.001	 35.100	 99.423	  1.046
56065	 -0.338	 -0.097	  0.130	  0.102	  0.031	 -9.874	 -0.002	 -0.000	  0.001	 35.100	 99.423	  1.046
56115	 -0.335	 -0.097	  0.126	  0.097	  0.032	 -9.867	 -0.002	  0.003	  0.000	 35.100	 99.434	  0.054
56165	 -0.336	 -0.087	  0.126	  0.091	  0.040	 -9.856	 -0.001	  0.002	 -0.000	 35.100	 99.434	  0.054
56215	 -0.338	 -0.096	  0.127	  0.084	  0.019	 -9.889	 -0.002	  0.002	  0.000	 35.100	 99.434	  0.054
56265	 -0.334	 -0.094	  0.125	  0.095	 -0.002	 -9.874	 -0.002	  0.002	 -0.001	 35.100	 99.434	  0.054
56315	 -0.336	 -0.099	  0.132	  0.084	  0.032	 -9.859	 -0.002	  0.002	  0.001	 35.100	 99.434	  0.054
56365	 -0.334	 -0.093	  0.130	  0.087	  0.017	 -9.888	 -0.002	  0.001	  0.001	 35.100	 99.423	  1.046
56415	 -0.338	 -0.090	  0.126	  0.113	  0.030	 -9.851	 -0.003	  0.000	  0.001	 35.100	 99.446	 -1.027
56465	 -0.336	 -0.096	  0.126	  0.113	  0.007	 -9.873	 -0.001	  0.001	  0.000	 35.100	 99.423	  1.046
56515	 -0.335	 -0.094	  0.125	  0.087	  0.045	 -9.857	 -0.003	  0.002	 -0.001	 35.100	 99.434	  0.054
56565	 -0.335	 -0.097	  0.129	  0.097	  0.042	 -9.866	 -0.001	  0.002	  0.001	 35.100	 99.423	  1.046
56615	 -0.338	 -0.094	  0.124	  0.095	  0.024	 -9.868	 -0.001	  0.001	 -0.000	 35.100	 99.434	  0.054
56665	 -0.335	 -0.096	  0.124	  0.076	  0.026	 -9.902	 -0.001	  0.001	 -0.001	 35.100	 99.423	  1.046
56715	 -0.336	 -0.098	  0.123	  0.109	  0.029	 -9.865	 -0.003	  0.001	 -0.000	 35.100	 99.434	  0.054
56765	 -0.337	 -0.097	  0.123	  0.091	  0.036	 -9.891	 -0.002	  0.000	 -0.000	 35.100	 99.434	  0.054
56815	 -0.334	 -0.098	  0.121	  0.087	  0.048	 -9.877	 -0.002	  0.002	 -0.001	 35.100	 99.423	  1.046
56865	 -0.336	 -0.094	  0.118	  0.076	  0.033	 -9.845	 -0.001	  0.002	 -0.000	 35.100	 99.427	  0.685
56915	 -0.336	 -0.096	  0.128	  0.092	  0.059	 -9.893	 -0.003	  0.001	  0.001	 35.100	 99.434	  0.054
56965	 -0.336	 -0.097	  0.120	  0.135	  0.002	 -9.871	 -0.001	  0.002	 -0.001	 35.100	 99.434	  0.054
57015	 -0.337	 -0.096	  0.129	  0.089	  0.041	 -9.911	 -0.001	  0.000	  0.001	 35.100	 99.423	  1.046
57065	 -0.337	 -0.094	  0.131	  0.092	  0.012	 -9.880	 -0.002	  0.001	 -0.001	 35.100	 99.434	  0.054
57115	 -0.336	 -0.100	  0.128	  0.082	  0.005	 -9.888	 -0.002	  0.000	 -0.000	 35.100	 99.434	  0.054
57165	 -0.336	 -0.092	  0.131	  0.119	  0.020	 -9.849	 -0.003	  0.002	  0.000	 35.100	 99.423	  1.046
57215	 -0.339	 -0.097	  0.124	  0.083	  0.027	 -9.850	 -0.002	  0.001	 -0.000	 35.100	 99.434	  0.054
57265	 -0.337	 -0.093	  0.125	  0.116	  0.021	 -9.896	 -0.002	  0.001	  0.001	 35.100	 99.434	  0.054
57315	 -0.336	 -0.097	  0.128	  0.080	  0.028	 -9.903	 -0.003	  0.001	  0.000	 35.100	 99.446	 -1.027
57365	 -0.336	 -0.096	  0.125	  0.078	  0.030	 -9.874	 -0.002	  0.001	 -0.000	 35.100	 99.434	  0.054
57415	 -0.335	 -0.099	  0.121	  0.096	  0.027	 -9.880	 -0.001	  0.001	 -0.001	 35.100	 99.434	  0.054
57465	 -0.335	 -0.094	  0.122	  0.107	  0.023	 -9.878	 -0.003	  0.000	  0.000	 35.100	 99.434	  0.054
57515	 -0.336	 -0.094	  0.128	  0.072	  0.027	 -9.876	 -0.002	  0.002	  0.000	 35.100	 99.434	  0.054
57565	 -0.338	 -0.097	  0.123	  0.090	  0.014	 -9.895	 -0.001	  0.001	 -0.001	 35.100	 99.434	  0.054
57615	 -0.337	 -0.096	  0.130	  0.070	  0.035	 -9.878	 -0.002	  0.001	  0.000	 35.100	 99.446	 -1.027
57665	 -0.335	 -0.093	  0.126	  0.092	  0.008	 -9.900	 -0.002	  0.003	 -0.001	 35.100	 99.434	  0.054
57715	 -0.336	 -0.096	  0.119	  0.099	  0.019	 -9.832	 -0.002	  0.001	  0.001	 35.100	 99.434	  0.054
57765	 -0.338	 -0.093	  0.129	  0.111	  0.030	 -9.868	 -0.002	  0.002	  0.000	 35.100	 99.423	  1.046
57815	 -0.337	 -0.099	  0.123	  0.095	  0.018	 -9.852	 -0.002	  0.001	  0.000	 35.100	 99.423	  1.046
57865	 -0.338	 -0.094	  0.129	  0.101	  0.028	 -9.894	 -0.002	  0.002	 -0.000	 35.100	 99.434	  0.054
57915	 -0.336	 -0.093	  0.128	  0.116	  0.056	 -9.893	 -0.002	  0.002	  0.000	 35.100	 99.419	  1.406
57965	 -0.334	 -0.093	  0.128	  0.085	  0.036	 -9.898	 -0.002	  0.001	 -0.000	 35.100	 99.423	  1.046
58015	 -0.338	 -0.098	  0.130	  0.114	  0.029	 -9.864	 -0.002	  0.001	  0.001	 35.100	 99.423	  1.046
58065	 -0.336	 -0.097	  0.123	  0.097	  0.040	 -9.852	 -0.003	  0.002	  0.000	 35.100	 99.434	  0.054
58115	 -0.336	 -0.092	  0.129	  0.113	  0.028	 -9.891	 -0.002	  0.001	 -0.000	 35.100	 99.419	  1.406
58165	 -0.337	 -0.100	  0.128	  0.079	  0.026	 -9.868	 -0.001	  0.002	 -0.000	 35.100	 99.434	  0.054
58215	 -0.338	 -0.088	  0.129	  0.084	  0.026	 -9.892	 -0.003	  0.001	  0.001	 35.100	 99.446	 -1.027
58265	 -0.337	 -0.097	  0.129	  0.115	  0.047	 -9.888	 -0.001	  0.003	  0.000	 35.100	 99.446	 -1.027
58315	 -0.338	 -0.094	  0.124	  0.104	  0.021	 -9.894	 -0.002	  0.002	 -0.000	 35.100	 99.423	  1.046
58365	 -0.335	 -0.095	  0.128	  0.106	  0.018	 -9.874	 -0.002	  0.001	  0.001	 35.100	 99.423	  1.046
58415	 -0.336	 -0.091	  0.128	  0.111	  0.012	 -9.868	 -0.003	  0.001	  0.000	 35.100	 99.423	  1.046
58465	 -0.338	 -0.095	  0.124	  0.100	  0.035	 -9.912	 -0.002	 -0.000	  0.000	 35.100	 99.434	  0.054
58515	 -0.335	 -0.097	  0.122	  0.096	  0.033	 -9.863	 -0.003	  0.002	  0.000	 35.100	 99.434	  0.054
58565	 -0.337	 -0.097	  0.126	  0.104	  0.021	 -9.873	 -0.002	  0.002	 -0.000	 35.100	 99.423	  1.046
58615	 -0.335	 -0.090	  0.125	  0.126	  0.034	 -9.878	 -0.002	  0.001	  0.001	 35.100	 99.419	  1.406
58665	 -0.335	 -0.098	  0.127	  0.100	  0.035	 -9.871	 -0.002	  0.000	 -0.000	 35.100	 99.430	  0.414
58715	 -0.336	 -0.098	  0.128	  0.093	  0.024	 -9.867	 -0.001	  0.002	  0.001	 35.100	 99.442	 -0.666
58765	 -0.337	 -0.096	  0.125	  0.123	  0.020	 -9.845	 -0.002	  0.001	  0.000	 35.100	 99.434	  0.054
58815	 -0.336	 -0.093	  0.125	  0.096	  0.040	 -9.860	 -0.001	  0.001	  0.000	 35.100	 99.434	  0.054
58865	 -0.336	 -0.095	  0.124	  0.102	  0.027	 -9.895	 -0.002	  0.001	 -0.000	 35.100	 99.419	  1.406
58915	 -0.336	 -0.097	  0.123	  0.081	  0.017	 -9.903	 -0.002	  0.002	 -0.000	 35.100	 99.434	  0.054
58965	 -0.336	 -0.097	  0.126	  0.082	  0.051	 -9.887	 -0.003	  0.001	  0.000	 35.100	 99.430	  0.414
59015	 -0.337	 -0.088	  0.127	  0.098	  0.031	 -9.893	 -0.002	  0.001	  0.001	 35.100	 99.419	  1.406
59065	 -0.335	 -0.094	  0.120	  0.086	  0.038	 -9.892	 -0.002	  0.001	  0.000	 35.100	 99.423	  1.046
59115	 -0.338	 -0.093	  0.127	  0.083	  0.022	 -9.882	 -0.003	  0.002	 -0.001	 35.100	 99.434	  0.054
59165	 -0.336	 -0.101	  0.128	  0.097	  0.021	 -9.894	 -0.002	  0.002	 -0.000	 35.100	 99.423	  1.046
59215	 -0.337	 -0.097	  0.128	  0.096	  0.017	 -9.902	 -0.002	  0.001	 -0.000	 35.100	 99.430	  0.414
59265	 -0.336	 -0.093	  0.124	  0.080	  0.028	 -9.897	 -0.003	  0.003	  0.000	 35.100	 99.430	  0.414
59315	 -0.336	 -0.094	  0.123	  0.117	  0.027	 -9.926	 -0.003	  0.001	  0.001	 35.100	 99.434	  0.054
59365	 -0.337	 -0.091	  0.129	  0.099	  0.026	 -9.907	 -0.002	  0.002	 -0.000	 35.100	 99.434	  0.054
59415	 -0.335	 -0.100	  0.119	  0.079	 -0.004	 -9.874	 -0.002	  0.001	  0.001	 35.100	 99.434	  0.054
59465	 -0.336	 -0.093	  0.125	  0.081	  0.047	 -9.871	 -0.003	 -0.000	 -0.000	 35.100	 99.430	  0.414
59515	 -0.338	 -0.096	  0.127	  0.132	  0.034	 -9.862	 -0.003	  0.001	 -0.000	 35.100	 99.430	  0.414
59565	 -0.336	 -0.086	  0.126	  0.095	  0.011	 -9.839	 -0.002	  0.002	 -0.000	 35.100	 99.423	  1.046
59615	 -0.337	 -0.093	  0.124	  0.097	  0.048	 -9.891	 -0.003	  0.001	  0.001	 35.100	 99.423	  1.046
59665	 -0.335	 -0.100	  0.129	  0.098	  0.023	 -9.890	 -0.001	  0.001	 -0.000	 35.100	 99.434	  0.054
59715	 -0.338	 -0.094	  0.126	  0.112	  0.022	 -9.891	 -0.002	  0.002	  0.001	 35.100	 99.419	  1.406
59766	 -0.336	 -0.092	  0.130	  0.104	  0.015	 -9.864	 -0.002	  0.001	  0.000	 35.100	 99.419	  1.406
59815	 -0.338	 -0.095	  0.126	  0.093	  0.028	 -9.885	 -0.002	  0.003	  0.001	 35.100	 99.430	  0.414
59866	 -0.337	 -0.099	  0.131	  0.077	  0.023	 -9.906	 -0.002	  0.002	 -0.000	 35.100	 99.419	  1.406
59915	 -0.335	 -0.088	  0.126	  0.099	  0.026	 -9.867	 -0.002	 -0.001	  0.000	 35.100	 99.434	  0.054
59965	 -0.335	 -0.096	  0.128	  0.083	  0.029	 -9.841	 -0.002	  0.002	 -0.000	 35.100	 99.430	  0.414
60016	 -0.338	 -0.095	  0.123	  0.115	  0.020	 -9.869	 -0.002	  0.003	 -0.000	 35.100	 99.430	  0.414
60066	 -0.336	 -0.094	  0.128	  0.102	  0.029	 -9.883	 -0.002	  0.000	  0.000	 35.100	 99.430	  0.414
60116	 -0.337	 -0.096	  0.128	  0.109	  0.031	 -9.856	 -0.001	  0.001	  0.000	 35.100	 99.430	  0.414
60166	 -0.337	 -0.097	  0.126	  0.085	  0.022	 -9.905	 -0.003	  0.003	  0.001	 35.100	 99.430	  0.414
60216	 -0.336	 -0.094	  0.124	  0.087	  0.050	 -9.869	 -0.003	  0.002	  0.000	 35.100	 99.419	  1.406
60266	 -0.337	 -0.099	  0.129	  0.115	  0.034	 -9.864	 -0.002	  0.002	  0.000	 35.100	 99.430	  0.414
60316	 -0.337	 -0.095	  0.126	  0.109	  0.015	 -9.862	 -0.002	  0.002	  0.000	 35.100	 99.434	  0.054
60366	 -0.334	 -0.098	  0.127	  0.090	  0.036	 -9.876	 -0.002	  0.000	  0.000	 35.100	 99.430	  0.414
60416	 -0.335	 -0.097	  0.122	  0.093	  0.036	 -9.865	 -0.003	  0.001	 -0.000	 35.100	 99.446	 -1.027
