Time	 MagX	 MagY	 MagZ	 AccelX	 AccelY	 AccelZ	 Yaw	 Pitch	 Roll	 Temperature	 Pressure	 Altitude
17213	  0.455	  0.127	  0.295	 -0.214	 -0.001	 -9.454	  0.003	 -0.001	  0.014	 29.600	 99.725	 -1.000
17262	  0.454	  0.126	  0.298	 -0.156	 -0.005	 -9.478	  0.002	 -0.002	  0.014	 29.600	 99.725	 -1.000
17312	  0.456	  0.141	  0.292	 -0.167	 -0.010	 -9.452	  0.002	 -0.000	  0.013	 29.600	 99.737	 -1.000
17362	  0.454	  0.129	  0.302	 -0.211	 -0.005	 -9.474	  0.002	 -0.002	  0.013	 29.500	 99.721	 -1.000
17412	  0.454	  0.132	  0.298	 -0.156	 -0.036	 -9.509	  0.003	 -0.000	  0.013	 29.600	 99.713	 -1.000
17462	  0.454	  0.129	  0.298	 -0.212	 -0.012	 -9.511	  0.001	 -0.002	  0.014	 29.600	 99.725	 -1.000
17512	  0.454	  0.130	  0.292	 -0.142	 -0.049	 -9.526	  0.002	 -0.001	  0.014	 29.600	 99.725	 -1.000
17562	  0.455	  0.127	  0.291	 -0.246	 -0.008	 -9.468	  0.003	 -0.000	  0.015	 29.600	 99.725	 -1.000
17611	  0.452	  0.132	  0.288	 -0.121	 -0.036	 -9.445	  0.001	 -0.001	  0.013	 29.600	 99.729	 -1.000
17662	  0.454	  0.124	  0.301	 -0.198	 -0.001	 -9.473	  0.002	  0.001	  0.014	 29.600	 99.725	 -1.000
17712	  0.454	  0.130	  0.299	 -0.121	 -0.022	 -9.518	  0.002	 -0.003	  0.013	 29.600	 99.725	 -1.000
17761	  0.456	  0.129	  0.301	 -0.207	 -0.018	 -9.509	  0.003	 -0.001	  0.015	 29.600	 99.713	 -1.000
17811	  0.455	  0.129	  0.296	 -0.155	 -0.008	 -9.460	  0.002	 -0.001	  0.013	 29.600	 99.725	 -1.000
17862	  0.454	  0.129	  0.296	 -0.153	 -0.036	 -9.468	  0.002	 -0.001	  0.014	 29.600	 99.725	 -1.000
17912	  0.455	  0.130	  0.301	 -0.217	  0.011	 -9.493	  0.004	 -0.001	  0.013	 29.600	 99.713	 -1.000
17962	  0.455	  0.138	  0.299	 -0.142	 -0.013	 -9.503	  0.003	 -0.001	  0.015	 29.600	 99.725	 -1.000
18012	  0.456	  0.126	  0.298	 -0.195	  0.004	 -9.476	  0.003	 -0.001	  0.014	 29.600	 99.725	 -1.000
18062	  0.454	  0.130	  0.295	 -0.127	 -0.025	 -9.461	  0.003	 -0.000	  0.013	 29.600	 99.725	 -1.000
18113	  0.454	  0.127	  0.296	 -0.165	 -0.031	 -9.451	  0.002	  0.000	  0.014	 29.600	 99.725	 -1.000
18163	  0.454	  0.131	  0.294	 -0.192	 -0.007	 -9.461	  0.002	 -0.001	  0.014	 29.600	 99.725	 -1.000
18213	  0.455	  0.139	  0.296	 -0.153	 -0.037	 -9.515	  0.002	 -0.001	  0.014	 29.600	 99.725	 -1.000
18262	  0.451	  0.130	  0.300	 -0.216	  0.020	 -9.485	  0.002	 -0.000	  0.014	 29.500	 99.708	 -1.000
18312	  0.455	  0.131	  0.299	 -0.153	 -0.014	 -9.482	  0.003	 -0.002	  0.014	 29.600	 99.725	 -1.000
18363	  0.455	  0.136	  0.292	 -0.215	  0.017	 -9.499	  0.002	 -0.001	  0.014	 29.600	 99.713	 -1.000
18413	  0.452	  0.131	  0.294	 -0.134	  0.005	 -9.467	  0.003	 -0.002	  0.013	 29.600	 99.717	 -1.000
20312	  0.455	  0.122	  0.302	 -0.103	 -0.030	 -9.445	  0.004	 -0.002	  0.014	 29.600	 99.725	 -0.224
20362	  0.452	  0.140	  0.298	 -0.126	 -0.032	 -9.481	  0.002	  0.000	  0.013	 29.600	 99.725	 -0.224
20412	  0.455	  0.127	  0.296	 -0.214	  0.023	 -9.514	  0.002	 -0.000	  0.014	 29.600	 99.700	  2.073
20462	  0.455	  0.131	  0.291	 -0.178	 -0.019	 -9.484	  0.003	 -0.000	  0.014	 29.600	 99.729	 -0.592
20512	  0.457	  0.130	  0.297	 -0.191	 -0.040	 -9.534	  0.001	 -0.001	  0.014	 29.600	 99.713	  0.878
20562	  0.455	  0.144	  0.296	 -0.218	  0.012	 -9.515	  0.002	 -0.000	  0.013	 29.600	 99.729	 -0.592
20612	  0.454	  0.129	  0.301	 -0.141	  0.000	 -9.448	  0.002	  0.000	  0.013	 29.600	 99.717	  0.510
20662	  0.454	  0.126	  0.296	 -0.227	  0.006	 -9.470	  0.003	 -0.002	  0.013	 29.600	 99.713	  0.878
20712	  0.455	  0.126	  0.298	 -0.129	 -0.022	 -9.487	  0.003	 -0.001	  0.014	 29.600	 99.713	  0.878
20762	  0.454	  0.134	  0.298	 -0.213	  0.005	 -9.505	  0.001	 -0.001	  0.013	 29.600	 99.725	 -0.224
20812	  0.456	  0.126	  0.301	 -0.119	 -0.026	 -9.532	  0.003	 -0.001	  0.014	 29.600	 99.725	 -0.224
20862	  0.455	  0.134	  0.302	 -0.203	 -0.026	 -9.454	  0.002	 -0.002	  0.013	 29.600	 99.725	 -0.224
20912	  0.454	  0.139	  0.298	 -0.179	  0.006	 -9.496	  0.003	 -0.001	  0.015	 29.600	 99.725	 -0.224
20962	  0.455	  0.135	  0.300	 -0.176	 -0.042	 -9.520	  0.002	 -0.001	  0.013	 29.600	 99.725	 -0.224
21012	  0.455	  0.131	  0.294	 -0.243	  0.004	 -9.510	  0.001	  0.000	  0.015	 29.600	 99.725	 -0.224
21062	  0.456	  0.129	  0.299	 -0.124	 -0.010	 -9.482	  0.003	 -0.000	  0.014	 29.600	 99.725	 -0.224
21112	  0.450	  0.140	  0.296	 -0.219	  0.006	 -9.476	  0.003	 -0.000	  0.014	 29.600	 99.729	 -0.592
21162	  0.452	  0.131	  0.296	 -0.119	 -0.014	 -9.463	  0.003	 -0.002	  0.013	 29.600	 99.713	  0.878
21212	  0.454	  0.136	  0.294	 -0.230	 -0.014	 -9.456	  0.004	 -0.001	  0.014	 29.600	 99.725	 -0.224
21262	  0.454	  0.130	  0.301	 -0.153	 -0.002	 -9.501	  0.003	  0.000	  0.014	 29.600	 99.725	 -0.224
21312	  0.452	  0.140	  0.291	 -0.209	 -0.008	 -9.501	  0.002	 -0.002	  0.014	 29.600	 99.713	  0.878
21362	  0.454	  0.125	  0.294	 -0.154	 -0.009	 -9.501	  0.003	 -0.002	  0.014	 29.600	 99.717	  0.510
21412	  0.452	  0.142	  0.292	 -0.217	  0.015	 -9.525	  0.002	 -0.001	  0.013	 29.600	 99.729	 -0.592
21462	  0.454	  0.129	  0.296	 -0.179	 -0.004	 -9.515	  0.002	 -0.001	  0.013	 29.600	 99.725	 -0.224
21512	  0.452	  0.131	  0.296	 -0.166	 -0.016	 -9.500	  0.002	 -0.001	  0.013	 29.600	 99.713	  0.878
21562	  0.452	  0.129	  0.296	 -0.177	  0.014	 -9.523	  0.002	 -0.000	  0.014	 29.600	 99.725	 -0.224
21612	  0.457	  0.132	  0.299	 -0.122	 -0.032	 -9.476	  0.000	 -0.001	  0.014	 29.600	 99.713	  0.878
21662	  0.455	  0.130	  0.296	 -0.229	 -0.005	 -9.517	  0.002	 -0.002	  0.013	 29.600	 99.725	 -0.224
21712	  0.452	  0.130	  0.300	 -0.114	 -0.031	 -9.509	  0.002	 -0.001	  0.015	 29.600	 99.725	 -0.224
21761	  0.452	  0.134	  0.295	 -0.193	  0.003	 -9.467	  0.003	 -0.002	  0.014	 29.600	 99.713	  0.878
21811	  0.454	  0.131	  0.295	 -0.133	 -0.032	 -9.477	  0.002	 -0.001	  0.014	 29.600	 99.729	 -0.592
21861	  0.452	  0.131	  0.296	 -0.176	 -0.020	 -9.485	  0.001	 -0.002	  0.014	 29.600	 99.725	 -0.224
21911	  0.456	  0.139	  0.298	 -0.238	 -0.038	 -9.472	  0.004	  0.001	  0.043	 29.600	 99.713	  0.878
21961	  0.454	  0.129	  0.296	 -0.504	 -0.008	 -9.540	  0.011	 -0.001	  0.029	 29.600	 99.705	  1.613
22011	  0.454	  0.132	  0.295	 -0.447	 -0.075	 -9.534	  0.003	 -0.002	 -0.012	 29.600	 99.725	 -0.224
22061	  0.451	  0.130	  0.290	  0.073	  0.138	 -9.436	  0.001	 -0.000	  0.030	 29.600	 99.729	 -0.592
22111	  0.455	  0.126	  0.301	 -0.237	 -0.053	 -9.531	 -0.003	 -0.000	  0.014	 29.600	 99.725	 -0.224
22161	  0.451	  0.132	  0.294	 -0.257	  0.025	 -9.475	  0.000	 -0.001	  0.011	 29.600	 99.725	 -0.224
22211	  0.456	  0.130	  0.301	 -0.012	 -0.036	 -9.516	 -0.000	 -0.001	 -0.041	 29.600	 99.713	  0.878
22262	  0.450	  0.140	  0.296	 -0.025	  0.110	 -9.238	  0.009	 -0.004	 -0.358	 29.600	 99.725	 -0.224
22311	  0.455	  0.150	  0.295	 -0.004	 -0.380	 -9.670	  0.006	 -0.004	 -0.507	 29.600	 99.713	  0.878
22361	  0.449	  0.159	  0.302	 -0.329	  0.114	 -9.531	 -0.015	 -0.003	 -0.455	 29.600	 99.725	 -0.224
22411	  0.450	  0.169	  0.294	 -0.189	 -0.096	 -9.509	 -0.003	 -0.003	 -0.249	 29.600	 99.713	  0.878
22461	  0.446	  0.177	  0.299	 -0.353	  0.037	 -9.511	 -0.004	 -0.002	 -0.152	 29.600	 99.737	 -1.327
22511	  0.448	  0.173	  0.301	 -0.026	 -0.044	 -9.500	 -0.004	 -0.002	 -0.204	 29.600	 99.729	 -0.592
22561	  0.446	  0.183	  0.300	 -0.240	 -0.060	 -9.534	 -0.005	 -0.001	 -0.145	 29.600	 99.741	 -1.694
22611	  0.446	  0.187	  0.298	 -0.205	  0.041	 -9.524	 -0.000	 -0.001	 -0.076	 29.600	 99.725	 -0.224
22661	  0.446	  0.189	  0.299	 -0.185	 -0.014	 -9.456	  0.001	 -0.003	 -0.044	 29.600	 99.725	 -0.224
22711	  0.448	  0.198	  0.302	 -0.210	  0.021	 -9.476	  0.002	 -0.001	  0.009	 29.600	 99.717	  0.510
22761	  0.448	  0.185	  0.301	 -0.142	 -0.001	 -9.519	  0.003	 -0.001	  0.015	 29.600	 99.717	  0.510
22811	  0.447	  0.189	  0.299	 -0.925	  0.713	 -9.473	  0.006	  0.001	  0.240	 29.600	 99.729	 -0.592
22861	  0.452	  0.175	  0.298	 -0.755	  0.651	 -9.665	  0.030	  0.003	  1.153	 29.600	 99.717	  0.510
22911	  0.452	  0.134	  0.299	  0.560	 -0.696	 -9.188	  0.052	  0.005	  1.132	 29.600	 99.729	 -0.592
22961	  0.455	  0.129	  0.284	  0.276	 -0.672	 -9.599	 -0.205	  0.006	 -0.295	 29.600	 99.725	 -0.224
23011	  0.451	  0.158	  0.300	  0.060	 -1.571	 -9.409	 -0.025	 -0.009	 -1.626	 29.600	 99.713	  0.878
23062	  0.451	  0.181	  0.299	 -2.307	  2.767	 -9.148	  0.026	 -0.000	  0.116	 29.600	 99.725	 -0.224
23111	  0.453	  0.167	  0.293	 -0.009	 -0.775	 -9.657	 -0.029	  0.009	  1.174	 29.600	 99.725	 -0.224
23162	  0.452	  0.156	  0.297	  3.375	 -2.216	 -8.808	  0.129	  0.007	 -0.840	 29.600	 99.725	 -0.224
23211	  0.448	  0.179	  0.303	 -3.315	  4.018	 -10.168	 -0.029	  0.002	 -0.298	 29.600	 99.713	  0.878
23261	  0.452	  0.170	  0.294	 -0.095	  0.423	 -9.355	 -0.122	  0.009	  1.000	 29.600	 99.729	 -0.592
23311	  0.451	  0.172	  0.297	 -0.084	 -1.127	 -10.037	 -0.241	  0.007	  0.018	 29.600	 99.713	  0.878
23361	  0.447	  0.164	  0.294	 -1.556	  0.821	 -9.910	  0.063	  0.018	  0.442	 29.600	 99.725	 -0.224
23411	  0.452	  0.144	  0.291	  0.007	 -0.837	 -9.852	  0.010	  0.004	  0.622	 29.600	 99.725	 -0.224
23461	  0.456	  0.146	  0.294	  0.129	 -1.218	 -9.643	  0.006	  0.000	  0.129	 29.600	 99.729	 -0.592
23511	  0.454	  0.139	  0.298	 -0.548	 -0.887	 -9.980	  0.063	 -0.003	  0.008	 29.600	 99.705	  1.613
23561	  0.452	  0.139	  0.294	 -0.066	 -0.399	 -9.822	  0.042	 -0.002	  0.016	 29.600	 99.725	 -0.224
23611	  0.454	  0.136	  0.288	 -0.184	 -0.093	 -9.544	  0.016	  0.001	  0.015	 29.600	 99.725	 -0.224
23661	  0.458	  0.138	  0.296	 -0.100	 -0.145	 -9.562	  0.004	 -0.002	  0.013	 29.600	 99.717	  0.510
23712	  0.454	  0.140	  0.295	 -0.200	 -0.038	 -9.542	  0.006	 -0.001	  0.014	 29.600	 99.729	 -0.592
23762	  0.455	  0.140	  0.298	 -0.167	  0.051	 -9.473	  0.010	 -0.001	  0.014	 29.600	 99.729	 -0.592
23812	  0.453	  0.141	  0.291	 -0.162	  0.098	 -9.412	  0.079	 -0.002	  0.012	 29.600	 99.713	  0.878
23862	  0.455	  0.138	  0.292	 -0.206	  0.084	 -9.434	 -0.036	 -0.000	  0.015	 29.600	 99.725	 -0.224
23912	  0.455	  0.134	  0.292	 -0.077	 -0.163	 -9.657	 -0.028	  0.001	  0.012	 29.600	 99.713	  0.878
23962	  0.455	  0.134	  0.294	 -0.226	 -0.106	 -9.566	 -0.007	 -0.001	  0.014	 29.600	 99.725	 -0.224
24012	  0.456	  0.143	  0.294	 -0.130	 -0.006	 -9.481	 -0.000	 -0.000	  0.013	 29.600	 99.717	  0.510
24062	  0.454	  0.134	  0.295	 -0.223	  0.022	 -9.425	  0.002	 -0.000	  0.013	 29.600	 99.729	 -0.592
24112	  0.453	  0.148	  0.293	 -0.133	 -0.012	 -9.475	  0.001	 -0.001	  0.014	 29.600	 99.729	 -0.592
24162	  0.456	  0.148	  0.294	 -0.179	 -0.012	 -9.464	  0.001	 -0.002	  0.012	 29.600	 99.725	 -0.224
24212	  0.454	  0.136	  0.295	 -0.194	  0.002	 -9.466	  0.001	 -0.001	  0.013	 29.600	 99.725	 -0.224
24262	  0.452	  0.136	  0.294	 -0.170	 -0.020	 -9.457	  0.002	 -0.002	  0.014	 29.600	 99.713	  0.878
24312	  0.456	  0.141	  0.295	 -0.208	 -0.006	 -9.491	  0.002	 -0.001	  0.014	 29.600	 99.725	 -0.224
24362	  0.451	  0.134	  0.295	 -0.126	 -0.015	 -9.481	  0.003	 -0.002	  0.015	 29.600	 99.725	 -0.224
24412	  0.451	  0.134	  0.296	 -0.243	  0.003	 -9.476	  0.003	 -0.000	  0.013	 29.600	 99.725	 -0.224
24462	  0.453	  0.141	  0.295	 -0.136	 -0.016	 -9.505	  0.005	 -0.000	  0.014	 29.600	 99.713	  0.878
24512	  0.456	  0.136	  0.298	 -0.222	 -0.006	 -9.516	  0.002	  0.000	  0.013	 29.600	 99.713	  0.878
24562	  0.454	  0.136	  0.290	 -0.158	  0.003	 -9.524	  0.003	  0.000	  0.014	 29.600	 99.729	 -0.592
24612	  0.456	  0.136	  0.296	 -0.193	 -0.036	 -9.489	  0.002	 -0.001	  0.014	 29.600	 99.717	  0.510
24662	  0.453	  0.141	  0.299	 -0.209	  0.015	 -9.525	  0.002	 -0.001	  0.014	 29.600	 99.729	 -0.592
24712	  0.455	  0.136	  0.296	 -0.128	 -0.032	 -9.534	  0.002	 -0.001	  0.014	 29.600	 99.741	 -1.694
24762	  0.452	  0.136	  0.298	 -0.209	  0.000	 -9.511	  0.003	 -0.001	  0.014	 29.600	 99.725	 -0.224
24812	  0.454	  0.135	  0.295	 -0.135	  0.000	 -9.480	  0.003	 -0.001	  0.013	 29.600	 99.725	 -0.224
24862	  0.453	  0.145	  0.293	 -0.091	  0.044	 -9.488	  0.002	 -0.001	  0.003	 29.600	 99.729	 -0.592
24912	  0.452	  0.144	  0.296	 -0.298	 -0.150	 -9.480	 -0.002	 -0.001	 -0.165	 29.600	 99.713	  0.878
24962	  0.453	  0.144	  0.299	 -0.330	  0.143	 -9.514	  0.002	 -0.002	 -0.078	 29.600	 99.729	 -0.592
25012	  0.453	  0.144	  0.296	 -0.360	 -0.337	 -9.791	  0.032	  0.012	  0.043	 29.600	 99.713	  0.878
25062	  0.452	  0.150	  0.300	 -0.162	  0.039	 -10.258	 -0.052	  0.346	  0.115	 29.600	 99.713	  0.878
25112	  0.439	  0.144	  0.306	  0.462	 -0.081	 -10.925	 -0.223	  0.375	  0.062	 29.600	 99.713	  0.878
25162	  0.439	  0.132	  0.312	  1.602	  0.959	 -11.003	 -0.043	 -0.296	  0.099	 29.600	 99.729	 -0.592
25212	  0.435	  0.132	  0.294	  1.309	  0.932	 -12.724	  0.380	 -0.748	  0.019	 29.600	 99.725	 -0.224
25262	  0.428	  0.136	  0.277	 -0.040	 -0.015	 -10.546	  0.720	 -1.048	 -0.024	 29.600	 99.741	 -1.694
25312	  0.419	  0.151	  0.253	 -1.722	 -1.279	 -7.503	  0.737	 -0.796	 -0.228	 29.600	 99.717	  0.510
25362	  0.412	  0.156	  0.245	 -2.958	 -1.057	 -5.359	 -0.006	 -0.331	  0.052	 29.600	 99.717	  0.510
25412	  0.412	  0.148	  0.237	 -2.803	 -0.204	 -3.334	 -0.400	 -0.194	  0.413	 29.600	 99.713	  0.878
25462	  0.416	  0.133	  0.247	 -1.653	 -0.407	 -6.689	 -0.392	  0.983	  0.105	 29.600	 99.713	  0.878
25512	  0.413	  0.137	  0.276	  0.349	  0.114	 -9.338	 -0.474	  1.405	 -0.216	 29.600	 99.729	 -0.592
25562	  0.409	  0.137	  0.301	  1.189	 -0.079	 -11.159	 -0.163	  0.568	 -0.244	 29.600	 99.741	 -1.694
25612	  0.412	  0.160	  0.310	  0.087	 -0.227	 -11.629	 -0.225	 -0.106	 -0.136	 29.600	 99.729	 -0.592
25662	  0.421	  0.146	  0.310	 -0.473	 -0.242	 -10.999	 -0.160	  0.117	 -0.167	 29.600	 99.717	  0.510
25712	  0.420	  0.145	  0.322	  0.670	 -0.268	 -10.101	 -0.044	  0.313	 -0.207	 29.600	 99.717	  0.510
25762	  0.415	  0.154	  0.323	 -0.144	  0.351	 -10.621	 -0.013	  0.086	  0.037	 29.600	 99.713	  0.878
25812	  0.416	  0.145	  0.331	  0.889	  0.355	 -15.293	 -0.241	  0.186	  0.284	 29.600	 99.717	  0.510
25862	  0.402	  0.134	  0.313	  1.564	  0.705	 -13.548	  0.007	 -0.856	  0.599	 29.600	 99.729	 -0.592
25912	  0.402	  0.111	  0.280	  1.324	 -0.734	 -7.720	  0.097	 -1.720	  0.498	 29.600	 99.725	 -0.224
25962	  0.404	  0.114	  0.249	 -2.059	  0.043	 -0.648	 -0.116	 -1.094	 -0.607	 29.600	 99.717	  0.510
26012	  0.405	  0.127	  0.248	 -3.372	  2.076	  0.005	  0.392	  0.854	 -0.608	 29.600	 99.729	 -0.592
26062	  0.394	  0.149	  0.291	 -0.460	  0.604	 -8.504	  0.083	  2.154	 -0.476	 29.600	 99.729	 -0.592
26112	  0.389	  0.159	  0.340	  2.888	 -0.778	 -13.621	  0.196	  1.318	 -0.279	 29.600	 99.729	 -0.592
26162	  0.388	  0.186	  0.357	  1.599	 -0.881	 -13.911	  0.606	  0.208	 -0.220	 29.600	 99.729	 -0.592
26212	  0.387	  0.203	  0.352	  0.508	 -1.748	 -11.718	  0.058	 -0.319	  0.024	 29.600	 99.717	  0.510
26262	  0.393	  0.185	  0.345	 -0.127	 -0.576	 -8.832	 -0.638	 -0.358	  0.196	 29.600	 99.700	  2.073
26312	  0.397	  0.170	  0.330	  0.908	  0.714	 -7.909	 -0.200	 -0.357	  0.191	 29.600	 99.725	 -0.224
26362	  0.404	  0.173	  0.330	  0.494	 -0.325	 -8.736	 -0.111	 -0.051	  0.152	 29.600	 99.729	 -0.592
26412	  0.405	  0.174	  0.323	  0.158	 -0.211	 -9.151	  0.188	 -0.071	 -0.117	 29.600	 99.729	 -0.592
26462	  0.410	  0.178	  0.334	 -0.537	 -0.333	 -10.229	 -0.021	  0.030	 -0.115	 29.600	 99.729	 -0.592
26512	  0.411	  0.188	  0.330	 -0.179	 -0.065	 -9.488	 -0.265	  0.075	  0.146	 29.600	 99.737	 -1.327
26562	  0.410	  0.162	  0.339	  0.830	  0.105	 -9.538	 -0.250	  0.455	  0.167	 29.600	 99.729	 -0.592
26612	  0.404	  0.159	  0.347	  0.845	  0.535	 -8.863	 -0.039	 -0.058	 -0.114	 29.600	 99.717	  0.510
26662	  0.412	  0.163	  0.348	 -0.297	  0.222	 -10.236	  0.094	 -0.135	 -0.156	 29.600	 99.717	  0.510
26712	  0.416	  0.164	  0.339	  0.111	  0.441	 -9.154	 -0.193	 -0.165	  0.082	 29.600	 99.729	 -0.592
26762	  0.422	  0.160	  0.339	  0.720	  0.139	 -9.370	 -0.103	 -0.076	  0.039	 29.600	 99.717	  0.510
26812	  0.422	  0.162	  0.330	  0.077	  0.460	 -9.516	  0.045	 -0.237	  0.034	 29.600	 99.717	  0.510
26862	  0.424	  0.170	  0.328	  0.198	  0.403	 -9.636	  0.083	 -0.157	 -0.005	 29.600	 99.729	 -0.592
26912	  0.430	  0.168	  0.320	  0.100	  0.590	 -8.836	  0.106	 -0.195	  0.070	 29.600	 99.729	 -0.592
26962	  0.434	  0.165	  0.314	 -5.026	  0.123	 -13.793	  0.216	 -0.463	  0.106	 29.600	 99.729	 -0.592
27012	  0.438	  0.160	  0.317	 -0.145	  0.008	 -9.395	  0.016	 -0.000	  0.082	 29.600	 99.717	  0.510
27062	  0.439	  0.167	  0.310	 -0.205	  0.439	 -9.230	  0.124	  0.032	  0.045	 29.600	 99.713	  0.878
27112	  0.440	  0.163	  0.318	  0.087	 -1.544	 -10.321	  0.112	 -0.009	  0.013	 29.600	 99.717	  0.510
27162	  0.435	  0.165	  0.307	 -0.747	 -0.484	 -9.807	  0.054	 -0.003	  0.010	 29.600	 99.729	 -0.592
27212	  0.435	  0.165	  0.312	 -0.122	 -0.230	 -9.581	  0.018	 -0.002	  0.013	 29.600	 99.717	  0.510
27262	  0.438	  0.170	  0.304	 -0.271	  0.315	 -9.361	  0.032	 -0.002	  0.016	 29.600	 99.705	  1.613
27312	  0.436	  0.169	  0.310	 -0.165	  0.363	 -9.265	  0.010	 -0.001	  0.016	 29.600	 99.729	 -0.592
27362	  0.435	  0.167	  0.311	 -0.223	  0.193	 -9.409	  0.002	  0.000	  0.015	 29.600	 99.729	 -0.592
27412	  0.438	  0.165	  0.318	 -0.165	  0.084	 -9.486	  0.001	  0.000	  0.013	 29.600	 99.729	 -0.592
27462	  0.435	  0.168	  0.314	 -0.168	 -0.011	 -9.452	  0.002	 -0.001	  0.015	 29.600	 99.729	 -0.592
27512	  0.436	  0.174	  0.314	 -0.179	 -0.004	 -9.495	  0.001	 -0.001	  0.013	 29.600	 99.729	 -0.592
27562	  0.438	  0.162	  0.311	 -0.136	 -0.040	 -9.487	  0.003	 -0.000	  0.015	 29.600	 99.729	 -0.592
27612	  0.435	  0.169	  0.317	 -0.221	  0.004	 -9.481	  0.002	  0.000	  0.014	 29.600	 99.729	 -0.592
27662	  0.435	  0.167	  0.318	 -0.129	 -0.009	 -9.513	  0.003	 -0.001	  0.013	 29.600	 99.717	  0.510
27712	  0.436	  0.173	  0.312	 -0.223	  0.028	 -9.522	  0.003	 -0.001	  0.013	 29.600	 99.717	  0.510
27762	  0.440	  0.167	  0.309	 -0.144	 -0.008	 -9.500	  0.001	 -0.001	  0.014	 29.600	 99.729	 -0.592
27812	  0.440	  0.167	  0.311	 -0.182	  0.006	 -9.501	  0.002	 -0.002	  0.014	 29.600	 99.725	 -0.224
27862	  0.438	  0.167	  0.315	 -0.197	 -0.005	 -9.500	  0.002	 -0.001	  0.013	 29.600	 99.729	 -0.592
27912	  0.438	  0.172	  0.317	 -0.153	 -0.016	 -9.481	  0.002	 -0.000	  0.014	 29.600	 99.729	 -0.592
27962	  0.439	  0.164	  0.319	 -0.184	 -0.000	 -9.497	  0.002	 -0.001	  0.014	 29.600	 99.717	  0.510
28012	  0.433	  0.164	  0.306	 -0.138	 -0.018	 -9.521	  0.003	 -0.002	  0.014	 29.600	 99.717	  0.510
28062	  0.438	  0.168	  0.318	 -0.217	  0.010	 -9.497	  0.002	 -0.001	  0.014	 29.600	 99.729	 -0.592
28112	  0.437	  0.167	  0.317	 -0.130	 -0.022	 -9.508	  0.001	  0.000	  0.014	 29.600	 99.717	  0.510
28162	  0.433	  0.170	  0.319	 -0.202	 -0.013	 -9.477	  0.002	 -0.000	  0.014	 29.600	 99.713	  0.878
28212	  0.440	  0.163	  0.310	 -0.151	 -0.002	 -9.520	  0.003	 -0.001	  0.014	 29.600	 99.717	  0.510
28262	  0.436	  0.172	  0.314	 -0.173	 -0.027	 -9.505	  0.001	 -0.001	  0.014	 29.600	 99.733	 -0.960
28312	  0.436	  0.170	  0.318	 -0.216	 -0.004	 -9.509	  0.002	 -0.001	  0.013	 29.600	 99.717	  0.510
28362	  0.436	  0.167	  0.312	 -0.119	 -0.047	 -9.469	  0.002	 -0.001	  0.014	 29.600	 99.729	 -0.592
28412	  0.436	  0.169	  0.321	 -0.213	  0.010	 -9.495	  0.002	 -0.000	  0.014	 29.600	 99.741	 -1.694
28462	  0.438	  0.165	  0.314	 -0.120	 -0.040	 -9.478	  0.002	 -0.000	  0.014	 29.600	 99.717	  0.510
28512	  0.438	  0.162	  0.315	 -0.211	 -0.004	 -9.467	  0.003	 -0.002	  0.013	 29.600	 99.717	  0.510
28562	  0.437	  0.165	  0.317	 -0.139	  0.011	 -9.521	  0.002	 -0.001	  0.013	 29.600	 99.729	 -0.592
28612	  0.440	  0.163	  0.317	 -0.213	 -0.021	 -9.482	  0.003	 -0.000	  0.013	 29.600	 99.737	 -1.327
28662	  0.438	  0.169	  0.315	 -0.190	  0.008	 -9.501	  0.003	 -0.001	  0.014	 29.600	 99.717	  0.510
28712	  0.439	  0.168	  0.318	 -0.167	 -0.020	 -9.491	  0.002	  0.000	  0.013	 29.600	 99.717	  0.510
28762	  0.439	  0.165	  0.317	 -0.191	 -0.010	 -9.489	  0.003	 -0.001	  0.015	 29.600	 99.717	  0.510
28812	  0.438	  0.172	  0.317	 -0.159	 -0.067	 -9.541	 -0.004	  0.000	  0.012	 29.600	 99.717	  0.510
28862	  0.438	  0.162	  0.318	 -0.217	 -0.025	 -9.490	 -0.000	 -0.000	  0.014	 29.600	 99.725	 -0.224
28913	  0.436	  0.169	  0.317	 -0.141	 -0.041	 -9.525	  0.001	 -0.001	  0.014	 29.600	 99.729	 -0.592
28962	  0.436	  0.167	  0.315	 -0.254	  0.078	 -9.454	 -0.003	  0.002	  0.015	 29.600	 99.717	  0.510
29013	  0.439	  0.164	  0.310	 -2.045	  0.082	 -9.406	  0.005	  0.002	  0.483	 29.600	 99.705	  1.613
29062	  0.447	  0.150	  0.315	 -0.123	 -0.215	 -9.303	  0.025	  0.001	  0.470	 29.600	 99.729	 -0.592
29112	  0.447	  0.141	  0.300	 -1.115	 -0.481	 -9.414	  0.026	 -0.002	  0.372	 29.600	 99.729	 -0.592
29162	  0.455	  0.127	  0.298	 -2.189	 -0.663	 -9.274	  0.029	 -0.002	  0.520	 29.600	 99.729	 -0.592
29212	  0.464	  0.119	  0.278	 -0.962	 -0.403	 -9.718	  0.023	 -0.001	  0.623	 29.600	 99.717	  0.510
29262	  0.474	  0.101	  0.268	  1.402	  0.370	 -9.611	  0.022	 -0.002	  0.594	 29.600	 99.717	  0.510
29312	  0.480	  0.093	  0.257	  3.883	  0.721	 -9.484	  0.019	 -0.007	  0.266	 29.600	 99.717	  0.510
29362	  0.480	  0.087	  0.257	  2.881	 -0.219	 -9.577	  0.009	 -0.001	 -0.159	 29.600	 99.729	 -0.592
29413	  0.480	  0.110	  0.260	  1.434	  0.464	 -9.186	 -0.014	 -0.003	 -0.852	 29.600	 99.729	 -0.592
29463	  0.470	  0.131	  0.268	 -1.645	 -0.577	 -9.522	 -0.017	 -0.003	 -0.756	 29.600	 99.717	  0.510
29513	  0.463	  0.142	  0.284	 -0.771	  0.341	 -9.210	 -0.005	 -0.003	 -0.435	 29.600	 99.717	  0.510
29563	  0.458	  0.153	  0.283	 -1.521	 -0.192	 -9.554	 -0.013	 -0.005	 -0.269	 29.600	 99.725	 -0.224
29613	  0.463	  0.154	  0.284	 -0.152	 -0.256	 -9.611	  0.019	 -0.004	  0.018	 29.600	 99.717	  0.510
29663	  0.462	  0.156	  0.279	 -1.423	 -0.341	 -9.641	  0.019	 -0.003	  0.306	 29.600	 99.729	 -0.592
29713	  0.467	  0.161	  0.269	 -0.744	 -0.636	 -9.296	  0.025	 -0.002	  0.389	 29.600	 99.717	  0.510
29763	  0.473	  0.136	  0.259	  1.239	  0.133	 -9.569	  0.004	 -0.001	  0.163	 29.600	 99.717	  0.510
29813	  0.477	  0.130	  0.256	  2.564	  1.171	 -9.497	  0.003	  0.001	 -0.088	 29.600	 99.717	  0.510
29863	  0.472	  0.140	  0.266	  1.356	  0.374	 -9.708	 -0.016	  0.003	 -0.481	 29.600	 99.713	  0.878
29913	  0.469	  0.156	  0.274	  0.554	  0.210	 -9.623	  0.005	 -0.004	 -0.531	 29.600	 99.717	  0.510
29963	  0.462	  0.172	  0.282	 -0.016	 -0.246	 -10.023	 -0.018	  0.001	 -0.407	 29.600	 99.729	 -0.592
30013	  0.452	  0.172	  0.293	 -1.124	 -0.565	 -9.608	 -0.010	 -0.002	 -0.306	 29.600	 99.721	  0.143
30063	  0.451	  0.175	  0.301	 -2.124	 -0.613	 -9.057	 -0.000	 -0.006	 -0.285	 29.600	 99.729	 -0.592
30113	  0.448	  0.193	  0.303	 -2.314	 -0.166	 -9.295	  0.001	 -0.003	 -0.103	 29.600	 99.729	 -0.592
30162	  0.451	  0.177	  0.298	 -2.159	 -0.824	 -9.608	  0.014	 -0.004	  0.312	 29.600	 99.705	  1.613
30212	  0.458	  0.178	  0.281	 -0.362	 -0.341	 -9.649	  0.002	 -0.000	  0.359	 29.600	 99.717	  0.510
30263	  0.470	  0.164	  0.271	  0.087	  0.391	 -9.005	  0.042	 -0.005	  0.357	 29.600	 99.717	  0.510
30312	  0.470	  0.164	  0.257	  1.409	  0.691	 -9.008	  0.030	 -0.003	  0.179	 29.600	 99.717	  0.510
30362	  0.479	  0.163	  0.252	  2.668	  1.280	 -9.608	 -0.012	 -0.002	 -0.007	 29.600	 99.705	  1.613
30412	  0.477	  0.163	  0.256	  2.256	  0.579	 -9.487	  0.002	  0.002	 -0.268	 29.600	 99.729	 -0.592
30463	  0.472	  0.170	  0.255	  1.422	  0.706	 -9.216	 -0.040	 -0.006	 -0.174	 29.600	 99.717	  0.510
30512	  0.463	  0.174	  0.273	 -0.197	  0.123	 -9.355	  0.001	  0.005	 -0.176	 29.600	 99.729	 -0.592
30562	  0.463	  0.169	  0.289	 -0.390	  0.156	 -9.613	 -0.014	  0.003	  0.025	 29.600	 99.721	  0.143
30612	  0.453	  0.169	  0.297	 -1.954	 -0.902	 -9.850	  0.001	  0.002	 -0.034	 29.600	 99.729	 -0.592
30662	  0.448	  0.170	  0.297	 -3.374	 -1.008	 -9.420	  0.011	 -0.005	 -0.082	 29.600	 99.717	  0.510
30712	  0.452	  0.170	  0.298	 -2.224	 -0.471	 -9.498	  0.015	 -0.002	  0.148	 29.600	 99.729	 -0.592
30762	  0.457	  0.164	  0.289	 -1.376	 -0.752	 -9.609	  0.022	 -0.006	  0.253	 29.600	 99.729	 -0.592
30812	  0.468	  0.162	  0.279	  0.150	  0.666	 -9.292	  0.013	 -0.004	  0.148	 29.600	 99.717	  0.510
30862	  0.471	  0.162	  0.268	  1.257	 -0.141	 -9.855	 -0.006	 -0.005	  0.156	 29.600	 99.741	 -1.694
30912	  0.472	  0.158	  0.260	  1.649	  0.491	 -9.610	  0.013	 -0.001	  0.017	 29.600	 99.717	  0.510
30962	  0.471	  0.163	  0.259	 -0.016	  0.427	 -9.238	  0.005	  0.000	  0.003	 29.600	 99.717	  0.510
31012	  0.476	  0.159	  0.264	 -0.211	  0.052	 -9.431	 -0.001	  0.000	  0.015	 29.600	 99.729	 -0.592
31062	  0.470	  0.160	  0.262	 -0.137	  0.039	 -9.463	  0.004	 -0.001	  0.015	 29.600	 99.729	 -0.592
31112	  0.477	  0.158	  0.263	 -0.207	  0.012	 -9.441	  0.002	 -0.001	  0.011	 29.600	 99.717	  0.510
