Time	 MagX	 MagY	 MagZ	 AccelX	 AccelY	 AccelZ	 Yaw	 Pitch	 Roll	 Temperature	 Pressure	 Altitude
15264	  0.185	 -0.225	  0.449	  0.191	  0.097	 -9.755	 -0.023	 -0.002	  0.005	 32.300	 98.721	 -99999.000
15313	  0.182	 -0.222	  0.452	  0.184	  0.145	 -9.774	 -0.000	  0.002	  0.003	 32.300	 98.737	 -99999.000
15363	  0.182	 -0.228	  0.447	  0.167	  0.073	 -9.774	  0.015	  0.007	  0.004	 32.300	 98.721	 -99999.000
15413	  0.183	 -0.227	  0.448	  0.208	  0.005	 -9.784	  0.002	  0.011	  0.003	 32.300	 98.733	 -99999.000
15463	  0.183	 -0.228	  0.445	  0.222	  0.026	 -9.797	 -0.019	  0.002	  0.005	 32.300	 98.733	 -99999.000
15513	  0.183	 -0.225	  0.452	  0.223	  0.099	 -9.721	 -0.017	 -0.005	  0.004	 32.300	 98.733	 -99999.000
15563	  0.185	 -0.228	  0.451	  0.159	  0.098	 -9.760	  0.000	 -0.003	  0.003	 32.300	 98.744	 -99999.000
15613	  0.184	 -0.227	  0.448	  0.151	  0.051	 -9.763	  0.012	  0.007	  0.005	 32.300	 98.744	 -99999.000
15664	  0.184	 -0.227	  0.449	  0.215	  0.021	 -9.787	 -0.002	  0.011	  0.005	 32.300	 98.744	 -99999.000
15714	  0.186	 -0.225	  0.448	  0.246	  0.059	 -9.788	 -0.018	  0.002	  0.003	 32.300	 98.733	 -99999.000
15763	  0.184	 -0.227	  0.453	  0.218	  0.094	 -9.742	 -0.012	 -0.007	  0.002	 32.300	 98.733	 -99999.000
15814	  0.183	 -0.226	  0.447	  0.186	  0.094	 -9.759	  0.005	 -0.005	  0.003	 32.300	 98.737	 -99999.000
15864	  0.183	 -0.230	  0.453	  0.205	  0.037	 -9.755	  0.005	  0.007	  0.004	 32.300	 98.737	 -99999.000
15914	  0.183	 -0.230	  0.444	  0.213	  0.027	 -9.790	 -0.007	  0.012	  0.004	 32.300	 98.737	 -99999.000
15964	  0.184	 -0.230	  0.449	  0.248	  0.064	 -9.777	 -0.014	  0.006	  0.004	 32.300	 98.744	 -99999.000
16014	  0.184	 -0.227	  0.446	  0.238	  0.075	 -9.747	 -0.005	 -0.008	  0.004	 32.300	 98.733	 -99999.000
16064	  0.183	 -0.227	  0.451	  0.190	  0.052	 -9.774	  0.003	 -0.008	  0.004	 32.300	 98.733	 -99999.000
16114	  0.185	 -0.225	  0.449	  0.159	  0.058	 -9.779	  0.001	  0.008	  0.005	 32.300	 98.733	 -99999.000
16164	  0.183	 -0.224	  0.448	  0.213	  0.053	 -9.764	 -0.009	  0.015	  0.003	 32.300	 98.733	 -99999.000
16214	  0.184	 -0.219	  0.452	  0.239	  0.078	 -9.746	 -0.010	  0.005	  0.004	 32.300	 98.744	 -99999.000
16264	  0.183	 -0.226	  0.445	  0.234	  0.089	 -9.758	 -0.002	 -0.009	  0.005	 32.300	 98.737	 -99999.000
16314	  0.185	 -0.227	  0.450	  0.163	  0.056	 -9.782	  0.001	 -0.004	  0.005	 32.300	 98.733	 -99999.000
16364	  0.184	 -0.227	  0.447	  0.188	  0.020	 -9.763	 -0.005	  0.009	  0.003	 32.300	 98.737	 -99999.000
16414	  0.184	 -0.228	  0.451	  0.233	  0.071	 -9.749	 -0.011	  0.014	  0.004	 32.300	 98.737	 -99999.000
16464	  0.182	 -0.228	  0.452	  0.239	  0.081	 -9.760	 -0.004	  0.002	  0.003	 32.300	 98.737	 -99999.000
16514	  0.185	 -0.227	  0.451	  0.200	  0.064	 -9.780	  0.000	 -0.009	  0.003	 32.300	 98.725	 -99999.000
16564	  0.186	 -0.228	  0.449	  0.176	  0.050	 -9.770	 -0.004	 -0.005	  0.004	 32.300	 98.733	 -99999.000
16614	  0.185	 -0.226	  0.444	  0.167	  0.050	 -9.770	 -0.007	  0.011	  0.004	 32.300	 98.744	 -99999.000
16664	  0.184	 -0.227	  0.451	  0.241	  0.074	 -9.751	 -0.006	  0.014	  0.004	 32.300	 98.733	 -99999.000
16714	  0.183	 -0.223	  0.447	  0.230	  0.079	 -9.799	  0.001	 -0.000	  0.004	 32.300	 98.733	 -99999.000
16764	  0.182	 -0.227	  0.449	  0.191	  0.049	 -9.772	 -0.003	 -0.006	  0.004	 32.300	 98.737	 -99999.000
16814	  0.183	 -0.223	  0.446	  0.166	  0.036	 -9.786	 -0.007	 -0.003	  0.003	 32.300	 98.721	 -99999.000
16864	  0.182	 -0.228	  0.451	  0.190	  0.069	 -9.783	 -0.010	  0.010	  0.003	 32.300	 98.733	 -99999.000
16914	  0.183	 -0.224	  0.449	  0.237	  0.078	 -9.745	 -0.005	  0.012	  0.004	 32.300	 98.721	 -99999.000
16964	  0.183	 -0.223	  0.452	  0.247	  0.052	 -9.776	  0.003	  0.001	  0.005	 32.300	 98.737	 -99999.000
17014	  0.184	 -0.228	  0.447	  0.228	  0.046	 -9.758	 -0.002	 -0.002	  0.003	 32.300	 98.733	 -99999.000
17064	  0.183	 -0.223	  0.448	  0.195	  0.059	 -9.789	 -0.010	 -0.002	  0.003	 32.300	 98.721	 -99999.000
17114	  0.183	 -0.230	  0.448	  0.187	  0.090	 -9.782	 -0.010	  0.006	  0.004	 32.300	 98.737	 -99999.000
17164	  0.182	 -0.228	  0.451	  0.191	  0.066	 -9.738	  0.001	  0.010	  0.004	 32.300	 98.733	 -99999.000
17214	  0.183	 -0.223	  0.454	  0.235	  0.053	 -9.783	  0.004	  0.004	  0.003	 32.300	 98.733	 -99999.000
17264	  0.185	 -0.219	  0.447	  0.192	  0.022	 -9.766	 -0.006	 -0.004	  0.004	 32.300	 98.737	 -99999.000
17314	  0.182	 -0.225	  0.451	  0.197	  0.055	 -9.776	 -0.011	 -0.001	  0.002	 32.300	 98.733	 -99999.000
17364	  0.183	 -0.228	  0.451	  0.201	  0.054	 -9.781	 -0.005	  0.003	  0.003	 32.300	 98.725	 -99999.000
17414	  0.184	 -0.226	  0.450	  0.220	  0.087	 -9.743	  0.002	  0.009	  0.004	 32.300	 98.737	 -99999.000
17464	  0.184	 -0.229	  0.449	  0.225	  0.054	 -9.739	  0.002	  0.003	  0.004	 32.300	 98.733	 -99999.000
17514	  0.185	 -0.223	  0.451	  0.251	  0.025	 -9.749	 -0.007	 -0.001	  0.002	 32.300	 98.733	 -99999.000
17564	  0.185	 -0.227	  0.450	  0.227	  0.063	 -9.763	 -0.013	 -0.001	  0.004	 32.300	 98.737	 -99999.000
17614	  0.184	 -0.222	  0.447	  0.191	  0.115	 -9.744	 -0.003	  0.002	  0.004	 32.300	 98.737	 -99999.000
17664	  0.184	 -0.228	  0.453	  0.213	  0.092	 -9.766	  0.003	  0.007	  0.005	 32.300	 98.748	 -99999.000
17714	  0.183	 -0.229	  0.445	  0.224	  0.035	 -9.773	 -0.001	  0.006	  0.005	 32.300	 98.748	 -99999.000
17764	  0.185	 -0.227	  0.454	  0.224	  0.055	 -9.784	 -0.009	  0.002	  0.005	 32.300	 98.733	 -99999.000
17814	  0.184	 -0.223	  0.451	  0.213	  0.076	 -9.751	 -0.010	 -0.001	  0.004	 32.300	 98.737	 -99999.000
17864	  0.183	 -0.228	  0.453	  0.197	  0.071	 -9.774	 -0.003	 -0.002	  0.003	 32.300	 98.733	 -99999.000
17914	  0.187	 -0.221	  0.447	  0.203	  0.056	 -9.794	  0.003	  0.004	  0.002	 32.300	 98.737	 -99999.000
17964	  0.185	 -0.229	  0.450	  0.234	  0.046	 -9.771	 -0.001	  0.008	  0.003	 32.300	 98.733	 -99999.000
18014	  0.182	 -0.233	  0.450	  0.225	  0.062	 -9.753	 -0.009	  0.003	  0.003	 32.300	 98.733	 -99999.000
18064	  0.182	 -0.228	  0.448	  0.219	  0.067	 -9.786	 -0.008	 -0.007	  0.004	 32.300	 98.733	 -99999.000
18114	  0.182	 -0.221	  0.450	  0.179	  0.055	 -9.779	 -0.002	 -0.002	  0.003	 32.300	 98.733	 -99999.000
18164	  0.184	 -0.229	  0.449	  0.188	  0.050	 -9.785	  0.002	  0.009	  0.004	 32.300	 98.733	 -99999.000
18214	  0.183	 -0.227	  0.451	  0.216	  0.051	 -9.758	 -0.004	  0.011	  0.004	 32.300	 98.737	 -99999.000
18264	  0.183	 -0.228	  0.448	  0.251	  0.048	 -9.729	 -0.010	  0.002	  0.004	 32.300	 98.737	 -99999.000
18314	  0.185	 -0.229	  0.450	  0.232	  0.082	 -9.790	 -0.006	 -0.008	  0.003	 32.300	 98.737	 -99999.000
18364	  0.184	 -0.226	  0.450	  0.178	  0.078	 -9.766	 -0.001	 -0.002	  0.004	 32.300	 98.737	 -99999.000
18414	  0.184	 -0.225	  0.447	  0.152	  0.064	 -9.770	  0.001	  0.010	  0.003	 32.300	 98.733	 -99999.000
18464	  0.180	 -0.229	  0.452	  0.215	  0.035	 -9.732	 -0.004	  0.013	  0.003	 32.300	 98.737	 -99999.000
18514	  0.185	 -0.226	  0.446	  0.238	  0.066	 -9.773	 -0.007	  0.001	  0.003	 32.300	 98.725	 -99999.000
18564	  0.183	 -0.228	  0.453	  0.220	  0.081	 -9.737	 -0.005	 -0.007	  0.003	 32.300	 98.737	 -99999.000
18614	  0.183	 -0.227	  0.451	  0.179	  0.085	 -9.796	 -0.002	 -0.001	  0.003	 32.300	 98.733	 -99999.000
18664	  0.184	 -0.228	  0.454	  0.202	  0.044	 -9.774	 -0.005	  0.006	  0.004	 32.300	 98.725	 -99999.000
18714	  0.183	 -0.228	  0.451	  0.219	  0.064	 -9.722	 -0.006	  0.011	  0.004	 32.300	 98.721	 -99999.000
18764	  0.183	 -0.219	  0.451	  0.255	  0.066	 -9.761	  0.000	  0.005	  0.002	 32.300	 98.733	 -99999.000
18814	  0.183	 -0.228	  0.450	  0.230	  0.045	 -9.756	 -0.006	 -0.009	  0.003	 32.300	 98.725	 -99999.000
18864	  0.183	 -0.223	  0.446	  0.189	  0.067	 -9.755	 -0.006	 -0.006	  0.004	 32.300	 98.733	 -99999.000
18914	  0.184	 -0.227	  0.453	  0.190	  0.057	 -9.786	 -0.005	  0.009	  0.005	 32.300	 98.733	 -99999.000
18964	  0.184	 -0.230	  0.449	  0.228	  0.075	 -9.756	  0.000	  0.014	  0.004	 32.300	 98.733	 -99999.000
19014	  0.184	 -0.223	  0.451	  0.249	  0.064	 -9.761	 -0.002	  0.003	  0.004	 32.300	 98.733	 -99999.000
19064	  0.185	 -0.217	  0.451	  0.236	  0.061	 -9.767	 -0.007	 -0.008	  0.003	 32.300	 98.737	 -99999.000
19114	  0.182	 -0.221	  0.455	  0.208	  0.056	 -9.756	 -0.008	 -0.004	  0.003	 32.300	 98.737	 -99999.000
19164	  0.184	 -0.230	  0.450	  0.174	  0.072	 -9.768	 -0.006	  0.009	  0.005	 32.300	 98.733	 -99999.000
19214	  0.185	 -0.227	  0.446	  0.239	  0.078	 -9.749	  0.002	  0.011	  0.002	 32.300	 98.733	 -99999.000
19264	  0.185	 -0.218	  0.455	  0.249	  0.043	 -9.748	 -0.001	  0.002	  0.003	 32.300	 98.733	 -99999.000
19314	  0.182	 -0.226	  0.447	  0.226	  0.058	 -9.726	 -0.006	 -0.005	  0.004	 32.300	 98.733	 -99999.000
19364	  0.185	 -0.227	  0.454	  0.207	  0.052	 -9.843	 -0.009	 -0.002	  0.004	 32.300	 98.725	 -99999.000
19414	  0.185	 -0.217	  0.451	  0.189	  0.074	 -9.710	 -0.007	  0.005	  0.003	 32.300	 98.733	 -99999.000
19464	  0.183	 -0.228	  0.454	  0.204	  0.111	 -9.732	  0.002	  0.009	  0.004	 32.300	 98.733	 -99999.000
19514	  0.184	 -0.230	  0.450	  0.229	  0.058	 -9.757	  0.000	  0.005	  0.003	 32.300	 98.744	 -99999.000
19564	  0.182	 -0.219	  0.452	  0.238	  0.072	 -9.785	 -0.007	 -0.002	  0.003	 32.300	 98.721	 -99999.000
19614	  0.183	 -0.227	  0.454	  0.191	  0.075	 -9.766	 -0.011	 -0.004	  0.005	 32.300	 98.721	 -99999.000
19664	  0.186	 -0.220	  0.450	  0.192	  0.079	 -9.789	 -0.004	  0.005	  0.004	 32.300	 98.733	 -99999.000
19714	  0.184	 -0.224	  0.453	  0.189	  0.057	 -9.751	  0.003	  0.009	  0.004	 32.300	 98.737	 -99999.000
19764	  0.183	 -0.223	  0.441	  0.233	  0.014	 -9.800	 -0.002	  0.004	  0.003	 32.300	 98.737	 -99999.000
19814	  0.183	 -0.230	  0.449	  0.232	  0.028	 -9.749	 -0.008	 -0.001	  0.005	 32.300	 98.733	 -99999.000
19864	  0.182	 -0.228	  0.450	  0.214	  0.054	 -9.750	 -0.009	 -0.004	  0.003	 32.300	 98.733	 -99999.000
19914	  0.182	 -0.229	  0.454	  0.187	  0.089	 -9.742	 -0.003	 -0.000	  0.005	 32.300	 98.721	 -99999.000
19964	  0.184	 -0.227	  0.451	  0.167	  0.061	 -9.814	  0.000	  0.011	  0.004	 32.300	 98.721	 -99999.000
20014	  0.184	 -0.219	  0.451	  0.228	  0.057	 -9.768	 -0.003	  0.008	  0.004	 32.300	 98.733	 -99999.000
20064	  0.185	 -0.228	  0.451	  0.272	  0.049	 -9.771	 -0.007	 -0.001	  0.004	 32.300	 98.733	 -99999.000
20114	  0.184	 -0.229	  0.448	  0.211	  0.072	 -9.748	 -0.009	 -0.003	  0.005	 32.300	 98.733	 -99999.000
20164	  0.182	 -0.228	  0.449	  0.181	  0.080	 -9.772	 -0.003	  0.001	  0.004	 32.300	 98.737	 -99999.000
20214	  0.184	 -0.221	  0.450	  0.177	  0.061	 -9.764	  0.000	  0.011	  0.005	 32.300	 98.733	 -99999.000
20264	  0.182	 -0.228	  0.450	  0.235	  0.061	 -9.795	 -0.001	  0.011	  0.002	 32.300	 98.733	 -99999.000
20314	  0.184	 -0.228	  0.453	  0.228	  0.032	 -9.779	 -0.007	 -0.002	  0.003	 32.300	 98.737	 -99999.000
20364	  0.183	 -0.229	  0.454	  0.226	  0.071	 -9.768	 -0.008	 -0.007	  0.003	 32.300	 98.725	 -99999.000
20414	  0.185	 -0.226	  0.447	  0.207	  0.084	 -9.770	 -0.004	 -0.000	  0.004	 32.300	 98.733	 -99999.000
20464	  0.183	 -0.227	  0.449	  0.192	  0.059	 -9.780	 -0.001	  0.010	  0.003	 32.300	 98.744	 -99999.000
