Time	 MagX	 MagY	 MagZ	 AccelX	 AccelY	 AccelZ	 Yaw	 Pitch	 Roll	 Temperature	 Pressure	 Altitude
2255	  0.160	 -0.076	  0.224	 -0.004	  0.010	 -9.517	  0.003	 -0.000	  0.012	 29.400	 99.500	 -99999.000
2305	  0.161	 -0.080	  0.226	 -0.007	  0.043	 -9.525	  0.002	 -0.000	  0.011	 29.400	 99.512	 -99999.000
2355	  0.161	 -0.088	  0.224	  0.011	  0.009	 -9.483	  0.003	 -0.002	  0.011	 29.400	 99.508	 -99999.000
2405	  0.161	 -0.081	  0.226	 -0.005	  0.057	 -9.520	  0.002	 -0.002	  0.012	 29.400	 99.508	 -99999.000
2455	  0.164	 -0.084	  0.223	  0.023	  0.023	 -9.510	  0.003	 -0.000	  0.011	 29.400	 99.495	 -99999.000
2505	  0.166	 -0.080	  0.225	 -0.051	  0.046	 -9.542	  0.003	 -0.001	  0.012	 29.400	 99.524	 -99999.000
2555	  0.163	 -0.083	  0.216	  0.020	  0.032	 -9.431	  0.002	 -0.000	  0.011	 29.400	 99.500	 -99999.000
2605	  0.166	 -0.091	  0.219	 -0.023	  0.051	 -9.495	  0.004	  0.000	  0.011	 29.400	 99.512	 -99999.000
2655	  0.162	 -0.089	  0.226	  0.019	  0.027	 -9.488	  0.002	 -0.000	  0.011	 29.400	 99.500	 -99999.000
2704	  0.163	 -0.089	  0.222	 -0.035	  0.096	 -9.471	  0.002	 -0.001	  0.010	 29.400	 99.508	 -99999.000
2755	  0.166	 -0.086	  0.229	 -0.010	  0.005	 -9.512	  0.001	  0.003	  0.010	 29.400	 99.512	 -99999.000
2805	  0.163	 -0.081	  0.223	 -0.029	  0.091	 -9.391	  0.003	 -0.002	  0.011	 29.400	 99.495	 -99999.000
2855	  0.162	 -0.088	  0.216	  0.006	 -0.001	 -9.518	  0.003	 -0.002	  0.011	 29.400	 99.500	 -99999.000
2905	  0.161	 -0.086	  0.227	 -0.022	  0.055	 -9.439	  0.003	  0.000	  0.011	 29.400	 99.508	 -99999.000
2955	  0.163	 -0.086	  0.218	  0.016	  0.028	 -9.526	  0.002	 -0.002	  0.011	 29.400	 99.495	 -99999.000
3005	  0.163	 -0.084	  0.225	 -0.050	  0.084	 -9.456	  0.003	 -0.001	  0.012	 29.400	 99.500	 -99999.000
3055	  0.163	 -0.085	  0.226	  0.061	  0.025	 -9.446	  0.003	 -0.002	  0.011	 29.400	 99.508	 -99999.000
3105	  0.162	 -0.079	  0.222	 -0.056	  0.068	 -9.506	  0.003	 -0.001	  0.011	 29.400	 99.508	 -99999.000
3154	  0.167	 -0.085	  0.222	  0.019	  0.037	 -9.540	  0.003	 -0.002	  0.012	 29.400	 99.508	 -99999.000
3204	  0.163	 -0.074	  0.223	 -0.034	  0.040	 -9.532	  0.002	 -0.002	  0.013	 29.400	 99.512	 -99999.000
3255	  0.161	 -0.084	  0.226	  0.060	  0.050	 -9.464	  0.002	 -0.001	  0.010	 29.400	 99.512	 -99999.000
3304	  0.161	 -0.084	  0.219	 -0.076	  0.012	 -9.513	  0.003	 -0.000	  0.010	 29.400	 99.512	 -99999.000
3355	  0.162	 -0.085	  0.219	  0.040	  0.026	 -9.477	  0.002	 -0.001	  0.010	 29.400	 99.508	 -99999.000
3404	  0.161	 -0.069	  0.225	 -0.037	  0.042	 -9.490	  0.003	 -0.002	  0.011	 29.400	 99.495	 -99999.000
3455	  0.162	 -0.083	  0.224	  0.064	  0.007	 -9.467	  0.003	 -0.002	  0.011	 29.400	 99.500	 -99999.000
3505	  0.164	 -0.086	  0.225	 -0.040	  0.046	 -9.465	  0.004	 -0.001	  0.010	 29.400	 99.495	 -99999.000
3554	  0.162	 -0.084	  0.224	  0.023	  0.034	 -9.503	  0.002	 -0.001	  0.011	 29.400	 99.512	 -99999.000
3605	  0.161	 -0.085	  0.223	 -0.058	  0.094	 -9.511	  0.002	 -0.001	  0.011	 29.400	 99.508	 -99999.000
3655	  0.161	 -0.086	  0.223	  0.037	  0.033	 -9.519	  0.003	  0.000	  0.011	 29.400	 99.508	 -99999.000
3705	  0.161	 -0.083	  0.227	 -0.052	  0.036	 -9.467	  0.003	 -0.001	  0.011	 29.400	 99.495	 -99999.000
3755	  0.164	 -0.084	  0.218	  0.018	  0.060	 -9.479	  0.003	 -0.000	  0.011	 29.500	 99.500	 -99999.000
3805	  0.163	 -0.085	  0.216	 -0.033	  0.035	 -9.467	  0.004	 -0.000	  0.011	 29.400	 99.483	 -99999.000
3855	  0.166	 -0.089	  0.221	 -0.010	  0.058	 -9.490	  0.003	 -0.001	  0.010	 29.400	 99.512	 -99999.000
3905	  0.163	 -0.083	  0.218	 -0.034	  0.031	 -9.495	  0.002	  0.000	  0.012	 29.400	 99.512	 -99999.000
3955	  0.161	 -0.086	  0.228	 -0.028	  0.047	 -9.480	  0.003	 -0.000	  0.010	 29.400	 99.495	 -99999.000
4005	  0.165	 -0.072	  0.218	 -0.022	  0.013	 -9.468	  0.003	 -0.001	  0.011	 29.400	 99.524	 -99999.000
4055	  0.162	 -0.086	  0.225	 -0.058	  0.053	 -9.507	  0.003	 -0.001	  0.011	 29.400	 99.512	 -99999.000
4105	  0.163	 -0.086	  0.222	 -0.020	  0.023	 -9.459	  0.002	 -0.000	  0.011	 29.400	 99.508	 -99999.000
4155	  0.162	 -0.091	  0.222	 -0.047	  0.040	 -9.504	  0.003	 -0.001	  0.012	 29.400	 99.500	 -99999.000
4205	  0.162	 -0.081	  0.227	  0.025	  0.028	 -9.505	  0.004	 -0.001	  0.011	 29.400	 99.500	 -99999.000
4255	  0.162	 -0.083	  0.224	 -0.063	  0.077	 -9.521	  0.001	 -0.002	  0.011	 29.400	 99.500	 -99999.000
4305	  0.164	 -0.088	  0.222	  0.021	  0.038	 -9.495	  0.003	 -0.001	  0.012	 29.400	 99.512	 -99999.000
4355	  0.161	 -0.081	  0.226	 -0.050	  0.057	 -9.492	  0.003	 -0.001	  0.010	 29.400	 99.495	 -99999.000
4405	  0.162	 -0.078	  0.226	  0.029	  0.038	 -9.507	  0.002	 -0.001	  0.011	 29.400	 99.500	 -99999.000
4455	  0.166	 -0.076	  0.223	 -0.039	  0.048	 -9.482	  0.001	 -0.000	  0.011	 29.400	 99.508	 -99999.000
4505	  0.163	 -0.076	  0.224	  0.042	  0.008	 -9.485	  0.003	 -0.000	  0.011	 29.400	 99.508	 -99999.000
4555	  0.163	 -0.093	  0.225	 -0.047	  0.065	 -9.505	  0.004	 -0.001	  0.009	 29.400	 99.512	 -99999.000
4605	  0.160	 -0.079	  0.224	  0.026	  0.017	 -9.508	  0.002	 -0.000	  0.012	 29.400	 99.512	 -99999.000
4655	  0.164	 -0.081	  0.223	 -0.052	  0.085	 -9.496	  0.002	  0.000	  0.011	 29.400	 99.495	 -99999.000
4705	  0.166	 -0.083	  0.227	  0.033	  0.051	 -9.453	  0.003	 -0.001	  0.010	 29.400	 99.524	 -99999.000
4755	  0.166	 -0.090	  0.215	 -0.064	  0.046	 -9.484	  0.002	 -0.001	  0.011	 29.400	 99.508	 -99999.000
4805	  0.163	 -0.076	  0.222	  0.025	  0.034	 -9.532	  0.003	 -0.000	  0.011	 29.400	 99.500	 -99999.000
4855	  0.162	 -0.071	  0.228	 -0.076	  0.024	 -9.485	  0.002	 -0.001	  0.011	 29.400	 99.508	 -99999.000
4905	  0.163	 -0.079	  0.226	  0.035	  0.022	 -9.459	  0.002	 -0.001	  0.012	 29.400	 99.508	 -99999.000
4955	  0.164	 -0.085	  0.226	 -0.083	  0.041	 -9.461	  0.003	  0.001	  0.010	 29.400	 99.508	 -99999.000
5005	  0.161	 -0.080	  0.228	  0.020	  0.027	 -9.485	  0.003	 -0.000	  0.011	 29.400	 99.512	 -99999.000
5055	  0.162	 -0.084	  0.224	 -0.082	  0.049	 -9.513	  0.003	 -0.000	  0.011	 29.400	 99.512	 -99999.000
5105	  0.166	 -0.088	  0.218	  0.050	  0.046	 -9.484	  0.003	 -0.001	  0.010	 29.400	 99.500	 -99999.000
5155	  0.163	 -0.086	  0.226	 -0.076	  0.056	 -9.489	  0.003	 -0.000	  0.010	 29.400	 99.508	 -99999.000
5205	  0.167	 -0.085	  0.221	  0.002	  0.053	 -9.507	  0.002	 -0.001	  0.011	 29.400	 99.500	 -99999.000
6481	  0.162	 -0.079	  0.224	 -0.033	  0.008	 -9.582	  0.001	 -0.001	  0.011	 29.400	 99.500	  0.513
6529	  0.166	 -0.088	  0.221	 -0.003	 -0.015	 -9.668	  0.003	 -0.003	  0.012	 29.400	 99.512	 -0.591
6580	  0.166	 -0.085	  0.226	  0.134	  0.098	 -9.353	  0.004	 -0.004	  0.010	 29.400	 99.500	  0.513
6629	  0.167	 -0.089	  0.230	 -0.060	  0.005	 -9.507	  0.001	  0.001	  0.010	 29.400	 99.508	 -0.224
6679	  0.166	 -0.076	  0.223	 -0.098	  0.032	 -9.558	  0.002	 -0.000	  0.011	 29.400	 99.512	 -0.591
6729	  0.166	 -0.080	  0.225	  0.013	  0.031	 -9.492	  0.002	  0.001	  0.012	 29.400	 99.512	 -0.591
6779	  0.166	 -0.084	  0.226	 -0.054	  0.043	 -9.488	  0.002	  0.001	  0.011	 29.400	 99.495	  0.972
6829	  0.164	 -0.084	  0.225	  0.021	 -0.011	 -9.582	  0.003	 -0.003	  0.011	 29.400	 99.508	 -0.224
6879	  0.167	 -0.091	  0.225	 -0.079	  0.041	 -9.518	  0.001	  0.001	  0.011	 29.400	 99.500	  0.513
6929	  0.163	 -0.084	  0.226	 -0.007	  0.026	 -9.511	  0.002	 -0.000	  0.010	 29.400	 99.495	  0.972
6979	  0.164	 -0.084	  0.231	 -0.059	  0.057	 -9.520	  0.002	  0.001	  0.011	 29.400	 99.500	  0.513
7029	  0.162	 -0.088	  0.225	  0.042	  0.055	 -9.458	  0.003	 -0.002	  0.011	 29.400	 99.512	 -0.591
7079	  0.166	 -0.090	  0.222	 -0.044	  0.070	 -9.519	  0.002	 -0.003	  0.011	 29.400	 99.495	  0.972
7129	  0.163	 -0.079	  0.223	 -0.038	 -0.002	 -9.790	  0.000	  0.002	  0.011	 29.400	 99.495	  0.972
7179	  0.166	 -0.084	  0.227	  0.049	  0.080	 -9.554	  0.000	 -0.003	  0.011	 29.400	 99.508	 -0.224
7229	  0.167	 -0.086	  0.229	  0.114	  0.038	 -9.444	  0.002	  0.001	  0.012	 29.400	 99.495	  0.972
7279	  0.163	 -0.091	  0.229	 -0.034	  0.012	 -9.498	  0.001	  0.002	  0.011	 29.400	 99.508	 -0.224
7329	  0.164	 -0.088	  0.225	  0.034	  0.025	 -9.453	  0.002	 -0.000	  0.011	 29.400	 99.508	 -0.224
7379	  0.164	 -0.084	  0.226	 -0.071	  0.044	 -9.524	  0.002	 -0.001	  0.011	 29.400	 99.500	  0.513
7429	  0.163	 -0.090	  0.229	  0.059	  0.028	 -9.425	  0.002	  0.001	  0.010	 29.400	 99.495	  0.972
7479	  0.164	 -0.086	  0.227	 -0.019	  0.074	 -9.408	  0.002	 -0.000	  0.010	 29.400	 99.500	  0.513
7529	  0.166	 -0.090	  0.223	  0.019	  0.039	 -9.479	  0.003	 -0.001	  0.012	 29.400	 99.512	 -0.591
7579	  0.167	 -0.076	  0.223	 -0.057	  0.051	 -9.491	  0.004	 -0.002	  0.010	 29.400	 99.508	 -0.224
7629	  0.166	 -0.085	  0.226	  0.029	  0.020	 -9.501	  0.002	 -0.000	  0.011	 29.400	 99.495	  0.972
7679	  0.164	 -0.085	  0.226	 -0.080	  0.044	 -9.492	  0.002	 -0.000	  0.012	 29.400	 99.512	 -0.591
7729	  0.163	 -0.093	  0.226	  0.001	  0.023	 -9.487	  0.004	  0.003	  0.011	 29.400	 99.495	  0.972
7779	  0.166	 -0.085	  0.226	 -0.078	  0.013	 -9.503	  0.000	 -0.002	 -0.007	 29.400	 99.512	 -0.591
7829	  0.170	 -0.084	  0.223	  0.800	  0.026	 -9.477	 -0.006	 -0.171	 -0.373	 29.400	 99.508	 -0.224
7879	  0.164	 -0.074	  0.222	  0.004	  0.113	 -9.485	  0.007	 -0.010	 -0.115	 29.400	 99.495	  0.972
7929	  0.164	 -0.076	  0.228	  0.654	 -0.275	 -9.446	 -0.001	 -0.021	  0.013	 29.400	 99.512	 -0.591
7979	  0.167	 -0.072	  0.230	 -0.227	  0.074	 -9.500	  0.009	 -0.041	  0.022	 29.400	 99.512	 -0.591
8029	  0.169	 -0.080	  0.222	  0.102	  0.080	 -9.490	  0.007	  0.003	  0.098	 29.400	 99.512	 -0.591
8079	  0.168	 -0.070	  0.219	 -0.181	  0.828	 -9.553	 -0.016	  0.035	 -0.163	 29.400	 99.508	 -0.224
8129	  0.168	 -0.075	  0.222	 -0.071	 -0.347	 -9.539	  0.005	  0.062	 -0.051	 29.400	 99.520	 -1.326
8179	  0.166	 -0.078	  0.227	 -0.091	 -0.215	 -9.489	  0.001	  0.002	  0.020	 29.400	 99.512	 -0.591
8229	  0.171	 -0.071	  0.226	  0.069	 -0.012	 -9.462	  0.001	 -0.023	 -0.004	 29.400	 99.500	  0.513
8279	  0.169	 -0.070	  0.230	  0.037	  0.190	 -9.501	  0.008	 -0.016	 -0.030	 29.400	 99.520	 -1.326
8329	  0.168	 -0.064	  0.221	 -0.320	 -0.083	 -9.533	 -0.001	  0.004	 -0.217	 29.400	 99.512	 -0.591
8379	  0.170	 -0.058	  0.224	 -0.039	  0.150	 -9.481	  0.003	  0.028	 -0.147	 29.400	 99.524	 -1.694
8429	  0.169	 -0.050	  0.229	  0.572	 -0.046	 -9.381	  0.003	 -0.004	 -0.182	 29.400	 99.508	 -0.224
8479	  0.168	 -0.054	  0.227	 -0.168	 -0.284	 -9.441	  0.020	 -0.085	 -0.073	 29.400	 99.512	 -0.591
8529	  0.172	 -0.047	  0.223	  0.013	  0.186	 -9.428	  0.054	 -0.128	 -0.139	 29.400	 99.512	 -0.591
8580	  0.176	 -0.041	  0.224	  0.024	  0.261	 -9.485	  0.038	 -0.103	 -0.215	 29.400	 99.524	 -1.694
8630	  0.176	 -0.034	  0.220	 -0.446	 -0.070	 -9.526	 -0.001	  0.001	 -0.183	 29.400	 99.508	 -0.224
8680	  0.177	 -0.028	  0.224	 -0.474	 -0.088	 -9.508	 -0.030	  0.070	 -0.114	 29.400	 99.524	 -1.694
8729	  0.177	 -0.028	  0.225	 -0.167	  0.101	 -9.505	 -0.062	  0.159	 -0.001	 29.400	 99.508	 -0.224
8780	  0.170	 -0.026	  0.228	  0.229	 -0.153	 -9.379	 -0.012	  0.082	 -0.003	 29.400	 99.512	 -0.591
8829	  0.172	 -0.029	  0.229	  0.201	 -0.133	 -9.454	  0.020	 -0.083	 -0.026	 29.400	 99.512	 -0.591
8879	  0.173	 -0.014	  0.219	  0.643	  0.543	 -9.436	  0.048	 -0.128	 -0.125	 29.400	 99.500	  0.513
8929	  0.179	 -0.005	  0.226	 -0.381	  0.178	 -9.652	  0.023	 -0.098	 -0.467	 29.400	 99.508	 -0.224
8979	  0.172	 -0.002	  0.223	 -0.258	  0.234	 -9.462	 -0.072	  0.166	 -0.497	 29.400	 99.500	  0.513
9029	  0.171	  0.002	  0.231	 -0.120	  0.395	 -9.237	  0.027	  0.184	 -0.094	 29.400	 99.500	  0.513
9079	  0.170	  0.019	  0.231	  0.086	 -0.465	 -9.490	  0.009	 -0.001	  0.013	 29.400	 99.512	 -0.591
9129	  0.167	  0.006	  0.231	 -0.166	 -0.522	 -9.504	  0.072	  0.021	 -0.021	 29.400	 99.500	  0.513
9179	  0.171	  0.014	  0.229	  0.089	 -0.169	 -9.603	  0.046	  0.020	 -0.062	 29.400	 99.512	 -0.591
9229	  0.172	  0.010	  0.232	 -1.252	 -1.701	 -9.704	  0.094	  0.016	 -0.062	 29.400	 99.500	  0.513
9279	  0.167	  0.002	  0.232	 -0.205	 -0.363	 -9.726	 -0.010	 -0.017	  0.235	 29.400	 99.512	 -0.591
9329	  0.181	 -0.043	  0.246	 -0.390	 -0.466	 -9.581	  0.012	 -0.015	  0.940	 29.400	 99.508	 -0.224
9379	  0.170	 -0.071	  0.222	  0.484	  0.510	 -9.492	  0.007	 -0.006	  0.487	 29.400	 99.500	  0.513
9430	  0.164	 -0.078	  0.211	  0.431	  1.376	 -9.393	  0.007	 -0.000	  0.174	 29.400	 99.512	 -0.591
9479	  0.164	 -0.075	  0.207	  0.142	  0.035	 -9.486	  0.007	 -0.008	  0.014	 29.400	 99.512	 -0.591
9530	  0.162	 -0.057	  0.204	 -0.054	  0.061	 -9.536	  0.003	 -0.003	  0.011	 29.400	 99.483	  2.076
9579	  0.159	 -0.057	  0.209	  0.016	  0.033	 -9.488	  0.000	 -0.003	  0.010	 29.400	 99.495	  0.972
9629	  0.155	 -0.064	  0.202	 -0.063	  0.069	 -9.492	  0.000	 -0.001	  0.010	 29.400	 99.495	  0.972
9679	  0.158	 -0.071	  0.201	  0.049	  0.018	 -9.496	  0.002	 -0.002	  0.010	 29.400	 99.512	 -0.591
9729	  0.153	 -0.071	  0.202	 -0.030	  0.034	 -9.482	  0.002	 -0.001	  0.010	 29.400	 99.508	 -0.224
9780	  0.157	 -0.066	  0.205	  0.026	  0.031	 -9.457	  0.002	 -0.001	  0.012	 29.400	 99.512	 -0.591
9830	  0.161	 -0.055	  0.208	 -0.051	  0.018	 -9.475	  0.003	  0.000	  0.011	 29.400	 99.512	 -0.591
9880	  0.159	 -0.056	  0.208	  0.002	  0.019	 -9.497	  0.002	  0.001	  0.010	 29.400	 99.500	  0.513
9930	  0.157	 -0.068	  0.202	 -0.096	  0.115	 -9.422	  0.003	  0.005	  0.010	 29.400	 99.508	 -0.224
9980	  0.158	 -0.066	  0.198	 -0.135	  0.103	 -9.463	  0.005	  0.005	  0.010	 29.400	 99.512	 -0.591
10030	  0.159	 -0.064	  0.206	  0.210	  0.014	 -9.450	  0.001	  0.007	  0.009	 29.400	 99.512	 -0.591
10080	  0.157	 -0.068	  0.202	  0.154	  0.041	 -9.436	  0.005	 -0.002	  0.005	 29.400	 99.500	  0.513
10130	  0.157	 -0.066	  0.202	 -0.043	  0.056	 -9.507	  0.003	 -0.005	  0.014	 29.400	 99.508	 -0.224
10180	  0.158	 -0.061	  0.198	 -0.025	  0.064	 -9.462	  0.003	 -0.004	  0.012	 29.400	 99.500	  0.513
10230	  0.161	 -0.068	  0.204	  0.033	 -0.003	 -9.491	  0.001	 -0.004	  0.010	 29.400	 99.495	  0.972
10280	  0.159	 -0.068	  0.203	  0.009	  0.035	 -9.473	  0.001	 -0.013	  0.011	 29.400	 99.512	 -0.591
10330	  0.158	 -0.062	  0.200	 -0.231	  0.026	 -9.526	  0.005	  0.030	  0.010	 29.400	 99.500	  0.513
10380	  0.162	 -0.064	  0.199	 -0.487	  0.020	 -9.609	 -0.001	  0.001	  0.011	 29.400	 99.508	 -0.224
10430	  0.159	 -0.066	  0.197	  0.115	  0.003	 -9.453	  0.004	 -0.009	  0.012	 29.400	 99.500	  0.513
10480	  0.154	 -0.062	  0.206	 -0.043	 -0.306	 -9.483	 -0.001	  0.000	 -0.270	 29.400	 99.512	 -0.591
10530	  0.159	 -0.059	  0.206	 -0.315	 -0.025	 -9.504	 -0.003	  0.008	 -0.214	 29.400	 99.512	 -0.591
10580	  0.159	 -0.057	  0.205	 -0.772	  0.345	 -9.554	 -0.001	  0.054	  0.122	 29.400	 99.495	  0.972
10630	  0.159	 -0.055	  0.202	 -0.574	 -0.141	 -9.542	  0.005	  0.078	  0.015	 29.400	 99.500	  0.513
10680	  0.159	 -0.059	  0.201	 -0.273	  0.253	 -9.498	  0.002	  0.002	 -0.084	 29.400	 99.508	 -0.224
10730	  0.159	 -0.051	  0.204	  0.168	 -0.016	 -9.477	 -0.004	 -0.013	 -0.209	 29.400	 99.500	  0.513
10780	  0.159	 -0.049	  0.205	 -0.226	  0.201	 -9.591	  0.028	 -0.134	 -0.490	 29.400	 99.512	 -0.591
10830	  0.163	 -0.012	  0.197	  0.157	  0.604	 -10.976	  0.431	 -0.058	 -0.734	 29.400	 99.500	  0.513
10880	  0.158	  0.010	  0.207	  0.287	 -1.726	 -19.403	  0.493	  0.766	 -0.851	 29.400	 99.495	  0.972
10930	  0.112	  0.035	  0.218	  2.245	 -0.605	 -18.144	 -0.534	  1.020	 -0.673	 29.400	 99.524	 -1.694
10980	  0.073	  0.024	  0.210	  1.773	  0.810	 -10.677	 -0.044	 -0.756	 -0.441	 29.400	 99.495	  0.972
11030	  0.068	  0.049	  0.179	 -0.177	  0.337	 -3.153	  0.712	 -2.439	 -0.152	 29.400	 99.500	  0.513
11080	  0.085	  0.072	  0.138	 -0.752	 -0.360	  1.527	  1.150	 -1.401	 -0.166	 29.400	 99.512	 -0.591
11130	  0.087	  0.112	  0.125	  0.720	  0.091	  1.187	  0.446	  0.194	 -0.689	 29.400	 99.508	 -0.224
11180	  0.079	  0.116	  0.149	 -0.814	 -0.892	 -2.146	 -1.065	  1.647	 -1.169	 29.400	 99.512	 -0.591
11230	  0.046	  0.115	  0.204	 -0.633	  1.320	 -9.219	 -1.454	  2.546	 -0.765	 29.400	 99.512	 -0.591
11280	  0.015	  0.106	  0.255	  2.944	 -0.030	 -12.889	 -0.324	  1.803	 -0.142	 29.400	 99.495	  0.972
11330	  0.012	  0.115	  0.273	  2.907	 -1.009	 -13.702	  0.468	  0.051	 -0.116	 29.400	 99.512	 -0.591
11380	  0.022	  0.123	  0.276	  1.839	 -1.391	 -13.278	 -0.217	 -0.630	 -0.017	 29.400	 99.500	  0.513
11430	  0.040	  0.104	  0.269	  1.457	 -0.212	 -11.200	 -0.953	 -0.562	 -0.025	 29.400	 99.500	  0.513
11480	  0.045	  0.083	  0.258	  1.174	  0.733	 -9.190	 -0.799	 -0.512	 -0.126	 29.400	 99.500	  0.513
11530	  0.055	  0.070	  0.258	  0.517	  1.380	 -8.891	 -0.253	 -0.494	 -0.123	 29.400	 99.508	 -0.224
11580	  0.066	  0.076	  0.243	  0.284	  0.976	 -9.295	 -0.052	 -0.225	  0.019	 29.400	 99.512	 -0.591
11630	  0.071	  0.075	  0.243	  0.389	  1.280	 -9.491	 -0.148	 -0.116	  0.038	 29.400	 99.500	  0.513
11680	  0.073	  0.070	  0.244	  0.546	  1.490	 -9.323	 -0.201	 -0.226	  0.119	 29.400	 99.495	  0.972
11730	  0.079	  0.056	  0.233	  0.227	  1.296	 -9.525	 -0.288	 -0.119	  0.068	 29.400	 99.512	 -0.591
11780	  0.078	  0.062	  0.243	  0.490	  1.600	 -9.081	 -0.292	 -0.089	  0.099	 29.400	 99.500	  0.513
11830	  0.083	  0.041	  0.239	  0.103	  1.614	 -9.242	 -0.083	  0.028	  0.138	 29.400	 99.495	  0.972
11880	  0.083	  0.049	  0.240	  0.823	  1.042	 -9.114	  0.008	 -0.093	  0.050	 29.400	 99.508	 -0.224
11930	  0.082	  0.046	  0.238	 -0.191	  1.195	 -9.667	  0.086	  0.030	 -0.100	 29.400	 99.508	 -0.224
11980	  0.079	  0.050	  0.240	  0.926	  1.248	 -9.414	  0.073	  0.331	 -0.145	 29.400	 99.500	  0.513
12030	  0.070	  0.055	  0.249	  0.343	  1.663	 -9.426	  0.082	  0.287	 -0.103	 29.400	 99.512	 -0.591
12080	  0.068	  0.050	  0.257	  0.288	  1.591	 -9.548	  0.156	  0.096	  0.010	 29.400	 99.500	  0.513
12130	  0.068	  0.056	  0.257	  0.386	  1.369	 -9.616	  0.186	  0.001	  0.134	 29.400	 99.500	  0.513
12180	  0.068	  0.060	  0.257	  0.997	  0.918	 -9.532	  0.025	 -0.082	  0.091	 29.400	 99.495	  0.972
12230	  0.067	  0.056	  0.249	  0.645	  0.640	 -9.656	 -0.035	  0.087	 -0.041	 29.400	 99.495	  0.972
12280	  0.065	  0.051	  0.257	  0.965	  1.416	 -9.474	 -0.070	  0.100	  0.009	 29.400	 99.500	  0.513
12330	  0.060	  0.056	  0.258	  0.644	  1.433	 -9.296	 -0.167	  0.288	 -0.196	 29.400	 99.508	 -0.224
12380	  0.058	  0.056	  0.266	  0.712	  1.271	 -9.615	  0.060	  0.133	 -0.254	 29.400	 99.495	  0.972
12429	  0.049	  0.062	  0.271	 -0.076	  2.242	 -8.821	  0.154	  0.141	  0.034	 29.400	 99.512	 -0.591
12480	  0.049	  0.060	  0.275	  0.974	  0.824	 -9.155	  0.322	  0.057	  0.166	 29.400	 99.508	 -0.224
12530	  0.048	  0.068	  0.275	  0.900	  0.593	 -9.634	 -0.177	  0.041	 -0.012	 29.400	 99.495	  0.972
12579	  0.040	  0.062	  0.276	  1.926	  0.262	 -9.422	 -0.552	  0.091	 -0.404	 29.400	 99.512	 -0.591
12630	  0.043	  0.049	  0.275	  1.480	  0.616	 -9.488	 -0.106	 -0.186	 -0.187	 29.400	 99.512	 -0.591
12680	  0.049	  0.071	  0.269	  0.404	  1.185	 -9.107	  0.228	 -0.258	 -0.249	 29.400	 99.512	 -0.591
12730	  0.054	  0.068	  0.266	 -0.523	  1.507	 -11.362	  0.132	  0.014	 -0.171	 29.400	 99.508	 -0.224
12780	  0.047	  0.079	  0.269	  1.497	  2.462	 -15.197	  0.394	  0.774	  0.431	 29.400	 99.500	  0.513
12830	  0.029	  0.073	  0.275	  3.994	  1.576	 -14.500	  0.983	  0.469	  0.678	 29.400	 99.512	 -0.591
12880	  0.015	  0.088	  0.260	  2.813	  0.346	 -10.647	  1.204	 -0.789	  0.176	 29.400	 99.512	 -0.591
12929	  0.024	  0.104	  0.228	  0.451	 -0.984	 -5.917	  0.688	 -1.543	 -0.208	 29.400	 99.500	  0.513
12979	  0.044	  0.126	  0.189	 -1.569	 -0.990	  2.961	  0.552	 -1.147	 -0.300	 29.400	 99.512	 -0.591
13030	  0.053	  0.137	  0.190	 -2.173	 -0.191	  1.688	 -0.201	  0.453	  0.348	 29.400	 99.495	  0.972
13079	  0.046	  0.120	  0.216	  1.575	  1.447	 -8.524	 -0.867	  1.777	 -0.257	 29.400	 99.508	 -0.224
13129	  0.019	  0.113	  0.269	  2.652	 -0.240	 -18.505	 -1.893	  2.119	 -0.779	 29.400	 99.500	  0.513
13179	 -0.010	  0.064	  0.306	  4.878	  3.157	 -21.406	 -1.335	  0.530	 -0.469	 29.400	 99.512	 -0.591
13229	 -0.004	  0.059	  0.288	  4.052	  3.215	 -17.203	  0.821	 -1.619	  0.065	 29.400	 99.500	  0.513
13279	  0.025	  0.094	  0.241	  0.831	  1.102	 -7.077	  2.563	 -1.969	  0.164	 29.400	 99.500	  0.513
13329	  0.038	  0.150	  0.187	 -0.124	 -0.583	 -0.661	  1.699	 -1.032	 -0.153	 29.400	 99.508	 -0.224
13379	  0.042	  0.173	  0.184	  0.412	  0.010	  1.918	 -0.222	 -0.211	 -0.435	 29.400	 99.500	  0.513
13429	  0.041	  0.163	  0.193	  0.803	  0.058	 -2.834	 -1.591	  0.055	 -0.903	 29.400	 99.500	  0.513
13479	  0.035	  0.133	  0.225	 -3.531	  1.833	 -11.505	 -3.023	  2.125	 -0.912	 29.400	 99.500	  0.513
13529	 -0.023	  0.080	  0.300	  1.742	  2.969	 -18.013	 -1.497	  2.728	  0.498	 29.400	 99.508	 -0.224
13579	 -0.051	  0.075	  0.322	  6.159	  1.960	 -19.450	  1.189	  0.102	  0.302	 29.400	 99.512	 -0.591
13629	 -0.035	  0.129	  0.296	  4.466	  1.528	 -16.481	  1.921	 -1.380	  0.123	 29.400	 99.495	  0.972
13679	 -0.015	  0.148	  0.254	  2.280	  1.778	 -8.262	  1.568	 -1.368	  0.334	 29.400	 99.500	  0.513
13729	  0.000	  0.181	  0.214	  0.476	 -0.450	 -1.211	  1.045	 -1.282	  0.086	 29.400	 99.500	  0.513
13779	  0.014	  0.179	  0.190	 -1.100	 -0.260	  2.343	  0.196	 -0.691	  0.143	 29.400	 99.500	  0.513
13830	  0.028	  0.177	  0.186	 -0.653	 -0.238	 -0.520	 -0.747	  0.187	 -0.045	 29.400	 99.500	  0.513
13880	  0.020	  0.161	  0.218	  0.554	  1.060	 -9.234	 -1.588	  1.753	 -0.216	 29.400	 99.500	  0.513
13930	 -0.004	  0.138	  0.281	  2.241	 -0.781	 -19.419	 -2.029	  2.168	  0.113	 29.400	 99.487	  1.708
13980	 -0.027	  0.086	  0.308	  5.804	  3.205	 -20.809	 -0.901	 -0.086	 -0.209	 29.400	 99.487	  1.708
14030	 -0.010	  0.085	  0.283	  2.362	  4.810	 -15.477	  1.666	 -1.479	  0.263	 29.400	 99.512	 -0.591
14080	  0.004	  0.135	  0.236	  1.668	  1.581	 -9.385	  2.767	 -0.848	  0.823	 29.400	 99.508	 -0.224
14130	  0.012	  0.177	  0.204	  1.789	  0.158	 -2.339	  2.453	 -0.605	  0.792	 29.400	 99.512	 -0.591
14180	  0.022	  0.216	  0.174	  1.509	 -1.178	  3.155	  1.253	 -0.928	  0.156	 29.400	 99.500	  0.513
14230	  0.036	  0.205	  0.168	 -1.925	 -1.541	 -1.646	 -1.864	  0.044	 -0.695	 29.400	 99.512	 -0.591
14280	  0.016	  0.162	  0.225	 -3.502	  2.414	 -7.826	 -3.522	  2.451	 -0.415	 29.400	 99.500	  0.513
14329	 -0.024	  0.114	  0.301	  2.545	  3.173	 -15.159	 -1.067	  2.668	  0.339	 29.400	 99.512	 -0.591
14379	 -0.055	  0.122	  0.320	  7.360	 -0.135	 -21.517	  1.453	  0.943	  0.141	 29.400	 99.512	 -0.591
14429	 -0.060	  0.157	  0.318	  7.605	 -1.477	 -19.113	  1.327	 -0.663	  0.143	 29.400	 99.500	  0.513
14479	 -0.041	  0.182	  0.267	  3.687	  0.547	 -10.301	  1.093	 -2.184	  0.129	 29.400	 99.500	  0.513
14529	 -0.004	  0.197	  0.210	  0.555	  0.298	 -2.903	  0.780	 -2.686	  0.181	 29.400	 99.512	 -0.591
14579	  0.032	  0.198	  0.172	  0.058	 -0.543	  2.686	  0.007	 -1.645	  0.180	 29.400	 99.500	  0.513
14630	  0.043	  0.195	  0.155	 -1.584	 -1.100	  1.930	 -0.493	  0.370	 -0.014	 29.400	 99.500	  0.513
14679	  0.038	  0.182	  0.193	 -0.786	 -0.113	 -8.347	 -1.806	  1.826	 -0.598	 29.400	 99.500	  0.513
14729	  0.002	  0.152	  0.259	  0.433	  1.296	 -19.569	 -2.265	  2.847	 -0.288	 29.400	 99.495	  0.972
14779	 -0.032	  0.110	  0.310	  9.024	  1.708	 -22.342	 -0.628	  0.532	 -0.034	 29.400	 99.508	 -0.224
14829	 -0.018	  0.137	  0.271	  3.864	  3.407	 -17.156	  1.592	 -2.382	 -0.190	 29.400	 99.512	 -0.591
14879	  0.014	  0.154	  0.214	  1.853	  1.121	 -8.461	  2.007	 -2.021	  0.678	 29.400	 99.500	  0.513
14929	  0.034	  0.186	  0.162	  0.490	 -0.268	  0.986	  1.824	 -1.472	  0.428	 29.400	 99.500	  0.513
14979	  0.043	  0.198	  0.136	 -1.917	  0.282	  5.686	  1.321	 -0.198	  0.383	 29.400	 99.495	  0.972
15029	  0.049	  0.215	  0.143	 -0.875	 -0.831	  0.785	 -0.438	  1.295	 -0.142	 29.400	 99.500	  0.513
15079	  0.029	  0.193	  0.200	 -0.173	 -1.657	 -13.879	 -3.330	  2.574	 -1.198	 29.400	 99.508	 -0.224
15129	 -0.019	  0.123	  0.286	  4.980	  2.977	 -21.097	 -2.994	  2.322	 -0.031	 29.400	 99.508	 -0.224
15179	 -0.029	  0.109	  0.290	  6.698	  1.695	 -23.065	  0.884	 -1.096	 -0.030	 29.400	 99.500	  0.513
15230	 -0.001	  0.142	  0.249	  2.350	  1.206	 -15.861	  2.038	 -1.889	  0.265	 29.400	 99.500	  0.513
15280	  0.012	  0.176	  0.198	  1.951	  0.991	 -3.567	  2.245	 -1.695	  0.381	 29.400	 99.512	 -0.591
15329	  0.029	  0.202	  0.144	 -1.317	  0.720	  3.958	  1.497	 -1.050	  0.406	 29.400	 99.512	 -0.591
15380	  0.041	  0.210	  0.139	 -0.628	 -0.763	  4.600	 -0.196	  0.124	  0.006	 29.400	 99.500	  0.513
15430	  0.030	  0.197	  0.178	 -2.277	 -1.477	 -6.472	 -2.943	  2.091	 -1.128	 29.400	 99.500	  0.513
15479	 -0.015	  0.140	  0.255	  1.253	  1.554	 -20.286	 -3.318	  2.556	 -0.293	 29.400	 99.512	 -0.591
15530	 -0.031	  0.115	  0.287	  4.637	  3.604	 -17.457	  0.522	 -0.105	 -0.454	 29.400	 99.512	 -0.591
15580	 -0.022	  0.206	  0.252	 -3.099	  1.508	 -9.610	  2.745	 -0.506	 -1.198	 29.400	 99.495	  0.972
15630	 -0.023	  0.245	  0.212	  4.114	  2.508	 -4.977	  1.794	 -0.307	 -0.120	 29.400	 99.512	 -0.591
15679	 -0.008	  0.265	  0.204	 10.018	 -7.322	 -8.163	 -0.859	 -0.157	  0.868	 29.400	 99.495	  0.972
15730	 -0.007	  0.212	  0.235	  4.185	 -4.735	 -13.593	 -2.668	  0.711	 -0.077	 29.400	 99.500	  0.513
15780	 -0.043	  0.167	  0.271	 -4.225	  3.055	 -9.698	  0.353	  1.624	  0.156	 29.400	 99.495	  0.972
15830	 -0.062	  0.212	  0.261	  0.058	  1.385	 -6.895	  3.050	  0.192	  0.265	 29.400	 99.500	  0.513
15880	 -0.038	  0.272	  0.214	  5.043	  3.858	 -9.347	  0.760	 -2.294	 -0.694	 29.400	 99.508	 -0.224
15930	 -0.010	  0.262	  0.206	  4.265	 -1.706	 -6.086	 -2.603	 -0.991	  0.147	 29.400	 99.500	  0.513
15980	 -0.006	  0.189	  0.242	 -0.088	 -1.812	 -9.258	 -2.326	  0.767	 -0.057	 29.400	 99.495	  0.972
16030	 -0.033	  0.168	  0.269	 -1.166	  0.818	 -8.924	  0.468	  0.806	  0.301	 29.400	 99.500	  0.513
16080	 -0.015	  0.190	  0.263	  0.550	 -1.303	 -10.452	  1.198	 -0.752	  0.632	 29.400	 99.512	 -0.591
16130	  0.012	  0.190	  0.239	  0.177	 -1.898	 -12.002	 -0.862	 -0.488	  0.337	 29.400	 99.512	 -0.591
16180	  0.010	  0.149	  0.256	  3.401	  2.017	 -17.186	 -1.891	  1.000	 -0.129	 29.400	 99.495	  0.972
16230	 -0.018	  0.142	  0.258	  4.342	  6.074	 -15.332	  1.593	  0.363	  0.169	 29.400	 99.508	 -0.224
16280	 -0.023	  0.185	  0.228	  1.696	  0.189	 -10.065	  2.307	 -1.228	  0.071	 29.400	 99.512	 -0.591
16330	 -0.016	  0.202	  0.185	  1.142	  0.903	 -3.353	  0.811	 -0.959	  0.302	 29.400	 99.512	 -0.591
16380	 -0.014	  0.201	  0.168	  0.200	 -0.166	  2.358	  0.364	 -0.568	  0.325	 29.400	 99.512	 -0.591
16430	 -0.002	  0.208	  0.152	 -1.019	  0.532	  4.964	  0.707	  0.141	  0.245	 29.400	 99.500	  0.513
16480	  0.006	  0.231	  0.172	  0.731	  0.183	 -5.976	 -0.683	  2.036	  0.200	 29.400	 99.500	  0.513
16530	 -0.024	  0.201	  0.247	  5.637	 -3.165	 -20.502	 -2.629	  2.994	 -1.206	 29.400	 99.508	 -0.224
16580	 -0.067	  0.171	  0.300	  7.503	  0.550	 -23.468	 -0.766	  0.848	 -0.410	 29.400	 99.500	  0.513
16630	 -0.056	  0.178	  0.282	  6.924	  0.414	 -19.635	  1.366	 -1.892	  0.672	 29.400	 99.508	 -0.224
16680	 -0.017	  0.203	  0.211	  3.943	  2.137	 -8.114	  2.053	 -2.624	  0.576	 29.400	 99.512	 -0.591
16730	  0.001	  0.216	  0.163	  0.389	  2.511	  2.266	  1.583	 -1.296	  0.502	 29.400	 99.500	  0.513
16780	  0.006	  0.240	  0.138	 -2.391	  0.327	  6.860	  0.651	  0.440	  0.351	 29.400	 99.500	  0.513
16830	  0.007	  0.234	  0.168	 -1.406	 -1.681	 -1.132	 -1.566	  1.695	 -0.577	 29.400	 99.500	  0.513
16880	 -0.026	  0.197	  0.257	  4.304	 -1.933	 -22.306	 -4.795	  2.648	 -1.853	 29.400	 99.500	  0.513
16930	 -0.064	  0.138	  0.312	  9.915	  6.078	 -24.751	 -0.654	  0.303	 -0.269	 29.400	 99.500	  0.513
16980	 -0.042	  0.166	  0.264	  4.120	  0.954	 -10.580	  3.265	 -2.714	  0.564	 29.400	 99.500	  0.513
17030	 -0.003	  0.219	  0.195	 -1.121	  2.679	  4.068	  3.014	 -1.473	  0.579	 29.400	 99.500	  0.513
17080	  0.008	  0.258	  0.166	 -0.585	 -0.484	  6.554	  0.849	  1.536	  0.338	 29.400	 99.495	  0.972
17130	 -0.034	  0.247	  0.237	  4.252	 -7.828	 -21.677	 -4.462	  2.787	 -2.032	 29.400	 99.495	  0.972
17180	 -0.081	  0.140	  0.313	  6.543	  7.965	 -20.502	 -3.017	 -0.163	 -0.937	 29.400	 99.508	 -0.224
17230	 -0.037	  0.175	  0.252	  2.696	  1.932	 -8.560	  4.695	 -2.893	  1.076	 29.400	 99.512	 -0.591
17280	  0.007	  0.258	  0.174	  1.271	  1.928	  3.279	  3.561	 -1.107	  0.572	 29.400	 99.512	 -0.591
17330	  0.004	  0.288	  0.165	  0.887	 -0.348	  1.607	 -0.558	  1.786	 -0.261	 29.400	 99.512	 -0.591
17380	 -0.046	  0.254	  0.254	  2.630	 -3.239	 -19.410	 -4.876	  3.077	 -1.525	 29.400	 99.512	 -0.591
17430	 -0.121	  0.163	  0.329	  7.128	  0.835	 -21.667	 -1.363	  1.414	 -0.131	 29.400	 99.512	 -0.591
17480	 -0.089	  0.196	  0.290	  4.780	  0.345	 -12.042	  4.259	 -3.044	  1.431	 29.400	 99.512	 -0.591
17530	 -0.008	  0.258	  0.184	  4.046	  1.261	 -1.710	  2.290	 -3.459	  1.191	 29.400	 99.512	 -0.591
17580	  0.036	  0.259	  0.139	  2.229	  1.947	  5.965	 -0.712	 -1.033	  0.082	 29.400	 99.512	 -0.591
17630	  0.012	  0.236	  0.191	 -2.740	 -0.938	 -8.594	 -3.454	  3.677	 -1.004	 29.400	 99.512	 -0.591
17680	 -0.067	  0.171	  0.304	  7.323	 -0.383	 -23.935	 -3.148	  2.755	 -1.104	 29.400	 99.500	  0.513
17730	 -0.073	  0.162	  0.306	  5.239	  2.738	 -17.425	  2.037	 -2.426	  0.195	 29.400	 99.508	 -0.224
17780	 -0.006	  0.235	  0.212	  2.995	  2.262	 -5.625	  3.396	 -3.096	  0.763	 29.400	 99.512	 -0.591
17830	  0.026	  0.256	  0.156	  1.108	  2.655	  3.878	  1.479	 -0.639	  0.517	 29.400	 99.500	  0.513
17880	  0.010	  0.274	  0.183	 -1.729	 -1.930	 -0.343	 -1.186	  2.659	 -0.107	 29.400	 99.500	  0.513
17930	 -0.053	  0.235	  0.276	  3.768	 -4.194	 -21.606	 -3.991	  3.366	 -1.679	 29.400	 99.500	  0.513
17980	 -0.101	  0.180	  0.324	  8.292	  3.926	 -20.344	  0.150	 -0.132	  0.235	 29.400	 99.500	  0.513
18030	 -0.052	  0.233	  0.261	  6.540	 -1.185	 -11.912	  3.929	 -3.330	  1.264	 29.400	 99.508	 -0.224
18080	  0.004	  0.266	  0.152	  2.930	  3.636	  0.043	  2.170	 -2.496	  0.680	 29.400	 99.512	 -0.591
18130	  0.019	  0.275	  0.126	  0.469	  1.991	  5.921	  0.132	  0.288	 -0.056	 29.400	 99.500	  0.513
18180	 -0.007	  0.271	  0.180	 -4.953	 -3.472	 -3.742	 -2.869	  3.028	 -0.629	 29.400	 99.512	 -0.591
18230	 -0.060	  0.213	  0.292	  5.482	 -1.271	 -20.640	 -3.160	  2.820	 -0.753	 29.400	 99.512	 -0.591
18280	 -0.077	  0.182	  0.320	  9.893	 -0.385	 -24.010	  0.359	 -1.194	 -0.125	 29.400	 99.508	 -0.224
18329	 -0.030	  0.202	  0.264	  4.517	  0.905	 -12.316	  1.901	 -3.180	  0.710	 29.400	 99.508	 -0.224
18379	  0.026	  0.244	  0.172	  1.913	  4.579	  0.831	  2.631	 -2.230	  0.710	 29.400	 99.512	 -0.591
18429	  0.040	  0.269	  0.131	 -0.186	  1.872	  4.031	  2.080	  0.794	  0.433	 29.400	 99.512	 -0.591
18479	  0.022	  0.280	  0.170	 -0.772	 -5.351	 -8.463	 -1.970	  2.595	 -0.465	 29.400	 99.512	 -0.591
18529	 -0.029	  0.216	  0.271	  4.568	 -5.235	 -19.622	 -5.210	  1.441	 -1.819	 29.400	 99.495	  0.972
18580	 -0.032	  0.153	  0.293	  5.871	  3.030	 -19.404	 -0.278	 -1.645	 -0.429	 29.400	 99.512	 -0.591
18629	  0.014	  0.188	  0.215	  2.519	  3.019	 -10.224	  2.748	 -2.911	  0.467	 29.400	 99.508	 -0.224
18679	  0.047	  0.235	  0.152	  0.650	  3.612	  2.963	  3.224	 -1.239	  0.513	 29.400	 99.500	  0.513
18729	  0.051	  0.271	  0.108	  0.766	  1.304	  4.808	  1.793	  1.365	  0.336	 29.400	 99.508	 -0.224
18779	  0.031	  0.273	  0.169	  1.259	 -7.186	 -12.956	 -3.824	  2.064	 -1.532	 29.400	 99.495	  0.972
18829	 -0.031	  0.178	  0.285	  0.975	 -0.658	 -19.420	 -5.743	  2.159	 -1.104	 29.400	 99.512	 -0.591
18879	 -0.034	  0.133	  0.306	  5.165	  2.900	 -19.123	  1.819	 -1.791	  0.745	 29.400	 99.524	 -1.694
18929	  0.029	  0.211	  0.208	  3.028	  1.766	 -9.820	  4.546	 -2.900	  1.008	 29.400	 99.495	  0.972
18979	  0.055	  0.261	  0.129	  2.765	  6.262	  2.323	  3.901	 -0.433	  0.661	 29.400	 99.508	 -0.224
19029	  0.047	  0.306	  0.106	  1.517	  1.198	  0.456	  1.060	  1.424	 -0.399	 29.400	 99.495	  0.972
19079	  0.003	  0.292	  0.185	 -1.901	 -11.501	 -14.184	 -6.317	  2.604	 -1.879	 29.400	 99.508	 -0.224
19129	 -0.051	  0.160	  0.306	  4.134	  1.814	 -18.622	 -4.929	  0.412	 -0.929	 29.400	 99.512	 -0.591
19179	 -0.009	  0.125	  0.276	  2.888	  3.421	 -18.054	  2.170	 -3.600	  0.473	 29.400	 99.495	  0.972
19229	  0.052	  0.179	  0.175	  2.997	  3.264	 -5.491	  4.204	 -2.516	  0.493	 29.400	 99.512	 -0.591
19279	  0.066	  0.245	  0.109	  2.060	  4.120	  2.841	  2.818	  0.369	 -0.076	 29.400	 99.500	  0.513
19329	  0.045	  0.275	  0.133	 -0.427	 -0.523	  0.092	 -0.903	  1.470	 -0.730	 29.400	 99.495	  0.972
19379	  0.008	  0.226	  0.218	 -2.600	 -6.928	 -15.993	 -6.051	  1.672	 -1.106	 29.400	 99.508	 -0.224
19429	 -0.017	  0.115	  0.290	  2.643	  5.139	 -21.257	 -3.237	  0.633	  0.159	 29.400	 99.520	 -1.326
19479	  0.016	  0.127	  0.255	  3.468	  3.709	 -16.280	  3.442	 -2.960	  0.295	 29.400	 99.512	 -0.591
19529	  0.053	  0.200	  0.165	  2.791	  2.286	 -5.041	  4.670	 -1.974	 -0.001	 29.400	 99.495	  0.972
19579	  0.056	  0.278	  0.102	  3.858	  3.617	  2.731	  2.517	 -0.242	 -0.394	 29.400	 99.495	  0.972
19629	  0.042	  0.298	  0.107	 -1.707	 -0.612	 -1.585	 -1.000	  0.812	 -0.746	 29.400	 99.512	 -0.591
19679	  0.004	  0.248	  0.211	 -7.098	 -9.470	 -12.353	 -5.896	  3.301	 -0.700	 29.400	 99.512	 -0.591
19729	 -0.043	  0.142	  0.294	  5.092	  3.910	 -18.703	 -2.143	  1.252	  0.166	 29.400	 99.512	 -0.591
19779	 -0.015	  0.163	  0.268	  5.140	  1.759	 -18.599	  3.359	 -2.207	  0.613	 29.400	 99.512	 -0.591
19829	  0.027	  0.229	  0.182	  3.300	  1.971	 -10.428	  2.599	 -2.483	  0.101	 29.400	 99.495	  0.972
19879	  0.051	  0.251	  0.122	  2.328	  4.819	  4.228	  0.874	 -1.814	 -0.015	 29.400	 99.512	 -0.591
19929	  0.068	  0.263	  0.106	 -0.846	  0.096	  2.337	 -0.709	 -0.158	 -0.241	 29.400	 99.500	  0.513
19979	  0.048	  0.229	  0.178	 -7.401	 -5.058	 -11.966	 -4.060	  3.564	  0.128	 29.400	 99.500	  0.513
20029	 -0.020	  0.138	  0.290	  4.418	  2.545	 -22.512	 -2.452	  2.988	  0.485	 29.400	 99.495	  0.972
20079	 -0.020	  0.148	  0.280	  5.007	  1.231	 -19.265	  2.787	 -2.157	  0.188	 29.400	 99.500	  0.513
20129	  0.030	  0.219	  0.186	  1.541	  2.213	 -8.881	  3.622	 -2.959	  0.184	 29.400	 99.512	 -0.591
20179	  0.056	  0.269	  0.112	  0.997	  4.691	  2.320	  2.247	 -1.011	  0.341	 29.400	 99.500	  0.513
20229	  0.057	  0.288	  0.100	  0.400	  0.420	  4.069	  0.502	  1.424	 -0.026	 29.400	 99.500	  0.513
20279	  0.026	  0.277	  0.174	 -2.236	 -7.275	 -12.758	 -3.799	  3.121	 -0.691	 29.400	 99.508	 -0.224
20329	 -0.036	  0.178	  0.278	  3.475	  0.668	 -24.205	 -4.486	  2.202	 -0.325	 29.400	 99.508	 -0.224
20379	 -0.028	  0.146	  0.281	  4.748	  3.346	 -18.817	  1.848	 -2.730	 -0.075	 29.400	 99.500	  0.513
20429	  0.031	  0.210	  0.184	  2.218	  2.230	 -6.094	  3.788	 -3.475	 -0.094	 29.400	 99.500	  0.513
20480	  0.051	  0.271	  0.095	  0.615	  3.132	  3.505	  2.596	 -0.540	 -0.055	 29.400	 99.512	 -0.591
20530	  0.046	  0.290	  0.106	 -1.484	  0.480	  4.281	  0.139	  2.136	  0.529	 29.400	 99.508	 -0.224
20580	  0.019	  0.273	  0.178	 -0.433	 -5.254	 -10.426	 -2.998	  2.652	 -0.497	 29.400	 99.495	  0.972
20629	 -0.021	  0.211	  0.266	  4.191	 -0.307	 -26.149	 -3.903	  2.037	 -0.669	 29.400	 99.500	  0.513
20679	 -0.032	  0.165	  0.286	  5.674	  1.195	 -20.565	  0.461	 -1.834	 -0.034	 29.400	 99.495	  0.972
20729	  0.018	  0.197	  0.201	  1.170	  0.715	 -7.805	  3.251	 -3.781	  0.162	 29.400	 99.483	  2.076
20779	  0.058	  0.259	  0.107	  0.678	  2.286	  0.993	  2.841	 -2.136	  0.067	 29.400	 99.512	 -0.591
20829	  0.074	  0.279	  0.074	  0.541	  1.707	  4.033	  0.841	  0.868	  0.248	 29.400	 99.512	 -0.591
20879	  0.056	  0.283	  0.122	 -2.233	 -4.176	 -6.470	 -2.106	  2.790	 -0.233	 29.400	 99.512	 -0.591
20929	  0.013	  0.221	  0.222	  2.811	 -2.876	 -24.657	 -4.929	  2.515	 -0.732	 29.400	 99.512	 -0.591
20979	 -0.012	  0.151	  0.271	  3.825	  3.217	 -19.755	 -0.610	 -1.041	  0.077	 29.400	 99.508	 -0.224
21030	  0.031	  0.195	  0.203	 -0.174	  0.733	 -7.390	  3.933	 -3.133	  0.377	 29.400	 99.500	  0.513
21079	  0.063	  0.256	  0.105	  1.062	  1.287	  1.161	  4.036	 -0.930	  0.313	 29.400	 99.500	  0.513
21130	  0.060	  0.300	  0.078	 -0.227	  1.607	  3.653	  1.902	  1.996	  0.289	 29.400	 99.495	  0.972
21179	  0.042	  0.302	  0.138	  0.796	 -7.908	 -12.763	 -3.000	  2.481	 -0.666	 29.400	 99.495	  0.972
21230	  0.001	  0.216	  0.246	  1.975	 -4.617	 -22.682	 -6.879	  1.479	 -1.448	 29.400	 99.508	 -0.224
21280	 -0.015	  0.122	  0.288	  2.001	  4.986	 -16.960	 -0.382	 -1.918	 -0.247	 29.400	 99.495	  0.972
21329	  0.041	  0.177	  0.191	  0.535	  1.142	 -8.259	  4.545	 -3.369	  0.304	 29.400	 99.500	  0.513
21380	  0.072	  0.247	  0.095	  1.600	  1.174	 -1.132	  3.980	 -1.055	  0.041	 29.400	 99.495	  0.972
21431	  0.066	  0.300	  0.065	  0.090	  1.907	  3.682	  1.516	  1.653	 -0.105	 29.400	 99.500	  0.513
21480	  0.048	  0.304	  0.121	 -0.190	 -5.588	 -8.263	 -2.557	  2.162	 -0.418	 29.400	 99.495	  0.972
21530	  0.015	  0.231	  0.222	  0.965	 -4.103	 -20.426	 -5.653	  1.670	 -0.977	 29.400	 99.512	 -0.591
21580	 -0.009	  0.165	  0.279	  3.598	  3.595	 -19.914	 -0.821	 -0.393	 -0.082	 29.400	 99.495	  0.972
21630	  0.024	  0.180	  0.219	  1.736	  0.158	 -13.445	  2.737	 -2.997	  0.327	 29.400	 99.508	 -0.224
21680	  0.063	  0.240	  0.127	  1.742	  3.297	  0.288	  3.486	 -2.174	  0.001	 29.400	 99.495	  0.972
21730	  0.072	  0.280	  0.078	  0.660	  2.333	  5.510	  2.305	  0.832	  0.244	 29.400	 99.508	 -0.224
21780	  0.054	  0.311	  0.122	 -1.444	 -5.174	 -3.185	 -1.690	  2.878	 -0.324	 29.400	 99.512	 -0.591
21830	  0.018	  0.243	  0.233	  1.497	 -4.258	 -23.457	 -6.000	  2.494	 -0.848	 29.400	 99.495	  0.972
21880	 -0.012	  0.141	  0.286	  4.483	  3.708	 -21.789	 -1.371	 -0.798	 -0.022	 29.400	 99.508	 -0.224
21930	  0.035	  0.163	  0.229	 -0.962	  1.368	 -10.769	  3.935	 -3.276	  0.233	 29.400	 99.512	 -0.591
21980	  0.072	  0.236	  0.124	  0.841	  0.446	 -2.940	  3.661	 -1.356	  0.321	 29.400	 99.500	  0.513
22030	  0.068	  0.274	  0.087	  1.185	  2.225	  7.475	  2.275	  1.177	 -0.055	 29.400	 99.508	 -0.224
22080	  0.052	  0.310	  0.104	 -0.759	 -2.841	 -3.411	 -0.508	  2.048	 -0.636	 29.400	 99.508	 -0.224
22130	  0.025	  0.266	  0.208	  2.035	 -4.777	 -24.213	 -6.450	  2.544	 -1.221	 29.400	 99.495	  0.972
22180	 -0.025	  0.143	  0.296	  4.572	  2.963	 -19.152	 -3.074	 -0.270	 -0.592	 29.400	 99.512	 -0.591
22230	  0.017	  0.156	  0.249	 -0.692	  0.559	 -11.565	  3.495	 -3.230	  0.321	 29.400	 99.508	 -0.224
22280	  0.063	  0.237	  0.139	  2.029	  0.839	 -4.021	  4.074	 -1.703	  0.392	 29.400	 99.508	 -0.224
22330	  0.068	  0.290	  0.094	  0.978	  1.892	  3.194	  2.291	  0.775	  0.002	 29.400	 99.495	  0.972
22380	  0.059	  0.302	  0.117	 -0.001	 -4.240	 -4.938	 -1.529	  1.457	 -0.295	 29.400	 99.508	 -0.224
22430	  0.033	  0.235	  0.201	  1.608	 -5.927	 -19.896	 -6.876	  1.235	 -1.338	 29.400	 99.500	  0.513
22480	  0.009	  0.112	  0.275	  1.433	  5.970	 -16.541	 -2.951	 -0.430	 -0.261	 29.400	 99.495	  0.972
22530	  0.046	  0.140	  0.209	 -1.483	  3.292	 -12.280	  3.797	 -3.243	  0.166	 29.400	 99.508	 -0.224
22580	  0.086	  0.207	  0.124	  1.641	 -0.499	 -5.583	  4.019	 -1.441	  0.261	 29.400	 99.508	 -0.224
22630	  0.076	  0.261	  0.079	  2.025	  1.435	  3.161	  2.279	  1.063	 -0.343	 29.400	 99.512	 -0.591
22680	  0.059	  0.284	  0.099	  0.612	 -0.155	 -0.632	  0.091	  1.770	 -0.453	 29.400	 99.508	 -0.224
22730	  0.034	  0.277	  0.176	 -0.470	 -5.227	 -14.984	 -4.042	  1.974	 -0.991	 29.400	 99.508	 -0.224
22780	 -0.009	  0.182	  0.268	  2.765	  1.044	 -22.422	 -4.107	  2.228	 -0.063	 29.400	 99.495	  0.972
22830	 -0.016	  0.152	  0.282	  4.011	  0.494	 -18.273	  1.812	 -2.289	  0.254	 29.400	 99.512	 -0.591
22880	  0.032	  0.209	  0.191	  0.938	 -0.671	 -10.096	  3.553	 -3.263	  0.490	 29.400	 99.512	 -0.591
22930	  0.064	  0.254	  0.094	  1.420	  1.566	 -1.602	  2.141	 -1.646	 -0.025	 29.400	 99.520	 -1.326
22980	  0.059	  0.266	  0.078	 -0.225	  0.285	  2.039	  0.087	  0.437	 -0.135	 29.400	 99.508	 -0.224
23030	  0.052	  0.263	  0.112	 -1.279	 -2.076	 -3.064	 -1.737	  1.553	 -0.396	 29.400	 99.495	  0.972
23080	  0.031	  0.240	  0.175	 -0.672	 -0.818	 -9.595	 -2.429	  1.593	 -0.132	 29.400	 99.512	 -0.591
23130	  0.028	  0.209	  0.216	  1.536	 -0.296	 -12.371	 -0.845	  0.544	  0.045	 29.400	 99.508	 -0.224
23180	  0.042	  0.211	  0.213	  1.340	 -1.335	 -14.377	 -0.159	 -0.577	 -0.137	 29.400	 99.508	 -0.224
23230	  0.060	  0.199	  0.212	  0.330	 -0.489	 -12.248	 -0.260	 -0.457	  0.170	 29.400	 99.508	 -0.224
23280	  0.070	  0.194	  0.207	  0.296	 -0.241	 -9.502	  0.067	 -0.401	  0.240	 29.400	 99.508	 -0.224
23330	  0.084	  0.195	  0.196	 -0.021	 -0.064	 -8.756	  0.527	 -0.441	  0.218	 29.400	 99.508	 -0.224
23380	  0.096	  0.216	  0.182	 -0.075	 -0.266	 -9.584	  0.584	 -0.214	  0.159	 29.400	 99.495	  0.972
23430	  0.104	  0.216	  0.177	 -0.044	 -0.639	 -9.710	  0.315	  0.066	  0.100	 29.400	 99.495	  0.972
23480	  0.103	  0.214	  0.180	  0.015	 -0.699	 -9.329	 -0.020	  0.102	  0.096	 29.400	 99.520	 -1.326
23530	  0.104	  0.213	  0.183	 -0.015	 -0.480	 -9.290	 -0.108	 -0.033	  0.042	 29.400	 99.508	 -0.224
23580	  0.112	  0.201	  0.182	 -0.212	 -0.565	 -9.381	 -0.099	 -0.089	  0.057	 29.400	 99.500	  0.513
23630	  0.115	  0.206	  0.176	 -0.245	 -0.379	 -9.567	 -0.010	 -0.034	  0.096	 29.400	 99.508	 -0.224
23680	  0.115	  0.203	  0.182	 -0.000	 -0.386	 -9.975	 -0.001	  0.030	  0.049	 29.400	 99.520	 -1.326
23730	  0.118	  0.208	  0.182	 -0.083	 -0.473	 -9.702	 -0.142	  0.047	 -0.004	 29.400	 99.495	  0.972
23780	  0.124	  0.198	  0.189	 -0.143	 -0.467	 -9.491	 -0.105	  0.033	  0.021	 29.400	 99.524	 -1.694
23830	  0.120	  0.216	  0.186	 -0.140	 -0.474	 -9.496	 -0.085	 -0.027	 -0.012	 29.400	 99.508	 -0.224
23880	  0.125	  0.199	  0.192	 -0.226	 -0.297	 -9.475	 -0.065	  0.072	  0.071	 29.400	 99.508	 -0.224
23930	  0.123	  0.200	  0.188	 -0.023	 -0.402	 -9.470	 -0.037	  0.104	  0.096	 29.400	 99.508	 -0.224
23980	  0.124	  0.195	  0.192	  0.010	 -0.374	 -9.359	 -0.071	  0.071	 -0.034	 29.400	 99.495	  0.972
24030	  0.123	  0.201	  0.200	  0.021	 -0.215	 -9.122	 -0.197	  0.119	 -0.018	 29.400	 99.500	  0.513
24080	  0.120	  0.188	  0.209	 -0.140	  0.025	 -9.172	 -0.287	  0.168	  0.020	 29.400	 99.508	 -0.224
24130	  0.121	  0.189	  0.213	 -1.324	  1.696	 -6.790	  0.222	 -0.482	  0.015	 29.400	 99.508	 -0.224
24180	  0.124	  0.184	  0.211	  0.283	 -0.348	 -9.474	 -0.016	  0.074	 -0.008	 29.400	 99.495	  0.972
24230	  0.123	  0.188	  0.209	 -0.176	  0.005	 -9.283	  0.003	 -0.007	 -0.044	 29.400	 99.495	  0.972
24280	  0.123	  0.191	  0.212	 -0.103	 -0.050	 -9.488	  0.003	  0.026	  0.001	 29.400	 99.508	 -0.224
24330	  0.123	  0.184	  0.212	 -0.037	 -0.027	 -9.519	  0.002	  0.009	  0.007	 29.400	 99.508	 -0.224
24380	  0.119	  0.190	  0.211	  0.122	 -0.117	 -9.598	  0.003	 -0.004	  0.014	 29.400	 99.495	  0.972
24430	  0.124	  0.183	  0.212	  0.290	 -0.083	 -9.433	 -0.000	 -0.063	  0.015	 29.400	 99.520	 -1.326
24480	  0.121	  0.194	  0.206	 -0.274	 -0.179	 -9.489	  0.002	  0.006	  0.023	 29.400	 99.495	  0.972
24530	  0.124	  0.186	  0.212	  0.040	 -0.102	 -9.541	 -0.001	  0.017	  0.021	 29.400	 99.508	 -0.224
24580	  0.124	  0.189	  0.205	  1.023	  0.219	 -9.328	  0.009	 -0.061	  0.016	 29.400	 99.508	 -0.224
24630	  0.125	  0.201	  0.209	 -0.103	 -0.014	 -9.500	  0.005	  0.041	  0.011	 29.400	 99.508	 -0.224
24680	  0.121	  0.203	  0.209	 -0.027	 -0.032	 -9.513	  0.004	  0.011	  0.012	 29.400	 99.512	 -0.591
24730	  0.124	  0.186	  0.212	 -0.081	 -0.068	 -9.534	  0.003	  0.005	  0.012	 29.400	 99.508	 -0.224
24780	  0.124	  0.189	  0.208	  0.003	 -0.123	 -9.629	  0.006	  0.011	  0.012	 29.400	 99.508	 -0.224
24830	  0.123	  0.188	  0.208	  0.460	 -0.035	 -9.431	  0.004	 -0.004	  0.013	 29.400	 99.512	 -0.591
24880	  0.125	  0.188	  0.209	  0.042	 -0.057	 -9.492	  0.002	  0.011	  0.011	 29.400	 99.508	 -0.224
24930	  0.123	  0.201	  0.213	 -0.031	 -0.059	 -9.521	  0.004	  0.006	  0.012	 29.400	 99.508	 -0.224
24980	  0.125	  0.188	  0.209	  0.054	 -0.036	 -9.470	  0.002	  0.003	  0.012	 29.400	 99.508	 -0.224
25030	  0.118	  0.188	  0.208	  0.056	 -0.072	 -9.522	  0.001	  0.002	  0.012	 29.400	 99.520	 -1.326
25080	  0.124	  0.201	  0.214	  0.165	 -0.055	 -9.473	  0.002	  0.003	  0.011	 29.400	 99.508	 -0.224
25130	  0.123	  0.199	  0.210	  0.164	 -0.069	 -9.498	  0.003	 -0.002	  0.012	 29.400	 99.520	 -1.326
25180	  0.121	  0.184	  0.215	  0.108	 -0.027	 -9.502	  0.003	  0.001	  0.012	 29.400	 99.508	 -0.224
25230	  0.125	  0.201	  0.209	  0.089	 -0.078	 -9.463	  0.002	 -0.001	  0.012	 29.400	 99.495	  0.972
25280	  0.125	  0.188	  0.213	  0.110	 -0.044	 -9.507	  0.002	  0.000	  0.012	 29.400	 99.508	 -0.224
25330	  0.124	  0.186	  0.209	  0.124	 -0.067	 -9.527	  0.001	  0.000	  0.012	 29.400	 99.508	 -0.224
25380	  0.124	  0.196	  0.215	  0.095	 -0.015	 -9.493	  0.002	  0.000	  0.011	 29.400	 99.495	  0.972
25430	  0.121	  0.190	  0.212	  0.144	 -0.073	 -9.486	  0.003	 -0.000	  0.013	 29.400	 99.495	  0.972
25480	  0.125	  0.188	  0.212	  0.022	 -0.072	 -9.498	  0.002	 -0.002	  0.012	 29.400	 99.508	 -0.224
25530	  0.125	  0.186	  0.209	  0.130	 -0.133	 -9.529	  0.002	 -0.004	  0.009	 29.400	 99.508	 -0.224
25580	  0.119	  0.189	  0.209	  0.027	 -0.029	 -9.494	  0.002	 -0.001	  0.012	 29.400	 99.508	 -0.224
25630	  0.124	  0.190	  0.207	 -0.009	 -0.012	 -9.455	  0.002	 -0.005	  0.013	 29.400	 99.508	 -0.224
25680	  0.120	  0.186	  0.212	  0.034	 -0.031	 -9.516	  0.001	 -0.005	  0.011	 29.400	 99.508	 -0.224
25730	  0.123	  0.191	  0.211	  0.073	 -0.071	 -9.527	  0.002	 -0.002	  0.012	 29.400	 99.508	 -0.224
25780	  0.121	  0.190	  0.203	  0.054	 -0.063	 -9.511	  0.001	  0.001	  0.011	 29.400	 99.508	 -0.224
25830	  0.121	  0.188	  0.211	  0.218	 -0.089	 -9.473	  0.003	 -0.002	  0.013	 29.400	 99.495	  0.972
25880	  0.119	  0.189	  0.209	  0.078	  0.001	 -9.454	  0.002	  0.001	  0.012	 29.400	 99.495	  0.972
25930	  0.121	  0.188	  0.201	  0.148	 -0.047	 -9.509	  0.004	 -0.002	  0.013	 29.400	 99.508	 -0.224
25980	  0.123	  0.194	  0.212	  0.055	 -0.025	 -9.461	  0.002	 -0.001	  0.012	 29.400	 99.508	 -0.224
26030	  0.123	  0.184	  0.211	  0.158	 -0.084	 -9.475	  0.003	 -0.003	  0.012	 29.400	 99.508	 -0.224
26080	  0.123	  0.188	  0.211	  0.079	 -0.032	 -9.485	  0.004	  0.001	  0.010	 29.400	 99.508	 -0.224
26130	  0.124	  0.185	  0.215	  0.175	 -0.041	 -9.475	  0.003	 -0.001	  0.012	 29.400	 99.508	 -0.224
26180	  0.123	  0.193	  0.212	  0.102	 -0.042	 -9.485	  0.003	 -0.003	  0.012	 29.400	 99.520	 -1.326
26230	  0.123	  0.185	  0.209	 -0.556	 -0.020	 -9.582	  0.007	 -0.015	  0.011	 29.400	 99.500	  0.513
26280	  0.121	  0.189	  0.209	 -1.309	 -0.012	 -9.715	  0.001	  0.005	 -0.074	 29.400	 99.508	 -0.224
26331	  0.121	  0.193	  0.206	  0.108	 -0.056	 -9.500	  0.002	  0.007	 -0.062	 29.400	 99.508	 -0.224
26380	  0.121	  0.205	  0.206	  0.250	 -0.086	 -9.489	  0.002	 -0.004	  0.001	 29.400	 99.508	 -0.224
26430	  0.121	  0.210	  0.209	  0.213	 -0.025	 -9.442	  0.004	 -0.006	  0.016	 29.400	 99.495	  0.972
26480	  0.118	  0.194	  0.205	  0.134	  0.018	 -9.465	  0.003	 -0.000	  0.013	 29.400	 99.508	 -0.224
26530	  0.120	  0.193	  0.212	  0.124	 -0.120	 -9.468	  0.004	 -0.002	  0.045	 29.400	 99.520	 -1.326
26579	  0.121	  0.191	  0.209	  0.039	 -0.059	 -9.492	  0.002	  0.005	  0.008	 29.400	 99.508	 -0.224
26629	  0.123	  0.190	  0.212	 -0.347	 -0.370	 -9.505	  0.003	  0.001	 -0.131	 29.400	 99.508	 -0.224
26679	  0.119	  0.194	  0.213	 -2.460	 -1.080	 -9.764	 -0.076	  0.339	  0.218	 29.400	 99.495	  0.972
26729	  0.114	  0.189	  0.220	  2.094	 -0.299	 -17.115	  0.386	  0.596	  0.492	 29.400	 99.508	 -0.224
26779	  0.100	  0.183	  0.219	  2.473	 -0.182	 -17.045	  0.193	  0.318	  0.300	 29.400	 99.508	 -0.224
26829	  0.073	  0.172	  0.199	  1.794	  0.742	 -13.713	  0.514	 -0.554	  0.356	 29.400	 99.508	 -0.224
26879	  0.059	  0.162	  0.171	  1.452	  0.158	 -8.948	  0.555	 -0.777	  0.486	 29.400	 99.495	  0.972
26929	  0.043	  0.178	  0.157	 -0.983	 -1.690	 -4.034	  0.304	 -0.827	  0.171	 29.400	 99.508	 -0.224
26980	  0.046	  0.154	  0.133	  0.840	 -0.765	  5.515	  0.201	 -1.437	  0.454	 29.400	 99.516	 -0.959
27029	  0.071	  0.156	  0.099	 -0.205	  2.020	  7.851	  0.108	 -1.157	  0.070	 29.400	 99.495	  0.972
27080	  0.095	  0.160	  0.104	  0.390	  1.953	  0.202	 -1.378	  1.633	  0.100	 29.400	 99.508	 -0.224
27130	  0.089	  0.127	  0.185	  1.478	 -0.477	 -18.730	 -2.171	  3.315	 -0.876	 29.400	 99.508	 -0.224
27180	  0.042	  0.105	  0.271	  1.181	  0.743	 -29.183	 -1.181	  2.156	 -0.128	 29.400	 99.520	 -1.326
27230	  0.034	  0.094	  0.273	  4.275	  1.200	 -26.033	  0.464	 -1.473	  0.131	 29.400	 99.520	 -1.326
27280	  0.063	  0.114	  0.201	  2.577	  3.465	 -14.727	  2.124	 -2.940	  0.663	 29.400	 99.495	  0.972
27330	  0.084	  0.147	  0.116	  1.585	  4.171	 -1.956	  3.521	 -2.507	  0.339	 29.400	 99.503	  0.237
27380	  0.085	  0.198	  0.067	  1.134	  3.099	 10.082	  3.379	 -0.236	  0.275	 29.400	 99.508	 -0.224
27430	  0.089	  0.235	  0.051	 -1.396	  0.317	  6.840	  0.765	  1.209	  0.069	 29.400	 99.500	  0.513
27480	  0.083	  0.235	  0.101	  1.238	 -5.283	 -5.974	 -3.162	  1.690	 -1.876	 29.400	 99.508	 -0.224
27530	  0.066	  0.200	  0.194	 -1.837	 -2.331	 -21.915	 -4.102	  2.210	 -0.905	 29.400	 99.508	 -0.224
27580	  0.049	  0.166	  0.239	  2.123	 -0.632	 -23.827	  0.030	  0.385	  0.330	 29.400	 99.508	 -0.224
27630	  0.065	  0.178	  0.215	  2.507	 -2.594	 -15.942	  1.349	 -0.956	  0.538	 29.400	 99.495	  0.972
27680	  0.079	  0.189	  0.174	  2.341	 -0.715	 -8.031	  0.917	 -1.480	 -0.027	 29.400	 99.508	 -0.224
27730	  0.083	  0.210	  0.128	  0.161	  0.185	 -5.224	  0.578	 -1.119	 -0.317	 29.400	 99.508	 -0.224
27780	  0.090	  0.215	  0.112	 -0.199	  0.669	 -4.940	  0.199	 -0.462	 -0.206	 29.400	 99.495	  0.972
27830	  0.091	  0.219	  0.103	 -0.245	 -0.694	 -6.802	 -0.052	  0.159	 -0.146	 29.400	 99.495	  0.972
27880	  0.085	  0.215	  0.116	 -0.253	 -1.353	 -7.770	 -0.528	  0.393	 -0.142	 29.400	 99.495	  0.972
27930	  0.085	  0.206	  0.138	 -0.844	 -1.499	 -8.928	 -0.917	  0.331	 -0.062	 29.400	 99.520	 -1.326
27980	  0.088	  0.199	  0.147	 -0.198	 -1.298	 -9.314	 -1.049	 -0.066	  0.051	 29.400	 99.495	  0.972
28030	  0.102	  0.178	  0.159	 -0.119	 -0.253	 -9.411	 -0.614	 -0.307	  0.179	 29.400	 99.508	 -0.224
28080	  0.116	  0.171	  0.156	 -0.382	 -0.154	 -10.294	 -0.010	 -0.329	  0.118	 29.400	 99.508	 -0.224
28130	  0.125	  0.176	  0.156	 -0.869	 -0.074	 -10.544	  0.183	  0.007	  0.190	 29.400	 99.503	  0.237
28180	  0.127	  0.185	  0.160	 -0.521	 -0.318	 -10.388	  0.166	  0.273	  0.151	 29.400	 99.503	  0.237
28230	  0.129	  0.171	  0.164	 -0.742	 -0.238	 -9.834	  0.130	  0.275	  0.096	 29.400	 99.508	 -0.224
28280	  0.125	  0.177	  0.173	 -0.104	 -0.672	 -9.556	  0.156	  0.111	  0.110	 29.400	 99.508	 -0.224
28330	  0.132	  0.175	  0.175	 -0.326	 -0.818	 -9.720	  0.077	 -0.142	  0.022	 29.400	 99.495	  0.972
28380	  0.136	  0.182	  0.166	 -0.599	 -0.405	 -9.802	 -0.151	 -0.171	  0.040	 29.400	 99.508	 -0.224
28430	  0.144	  0.169	  0.170	 -0.613	 -0.382	 -9.700	 -0.227	 -0.038	  0.086	 29.400	 99.520	 -1.326
28480	  0.143	  0.169	  0.168	 -0.316	 -0.357	 -9.442	 -0.206	 -0.091	  0.025	 29.400	 99.503	  0.237
28530	  0.150	  0.169	  0.169	 -0.433	 -0.265	 -9.532	 -0.074	 -0.030	  0.071	 29.400	 99.491	  1.341
28580	  0.153	  0.162	  0.173	 -0.534	 -0.342	 -9.429	 -0.110	 -0.020	  0.025	 29.400	 99.508	 -0.224
28630	  0.152	  0.157	  0.175	 -0.573	 -0.274	 -9.440	 -0.071	  0.045	  0.014	 29.400	 99.508	 -0.224
28680	  0.155	  0.160	  0.177	 -0.517	  0.027	 -9.617	 -0.061	  0.085	  0.066	 29.400	 99.495	  0.972
28730	  0.155	  0.160	  0.183	 -0.387	 -0.040	 -9.577	  0.053	  0.128	 -0.018	 29.400	 99.495	  0.972
28780	  0.153	  0.169	  0.188	 -0.398	  0.023	 -9.443	  0.083	  0.216	  0.042	 29.400	 99.503	  0.237
28830	  0.146	  0.166	  0.199	  0.537	 -0.348	 -9.028	  0.190	  0.444	  0.026	 29.400	 99.508	 -0.224
28880	  0.143	  0.160	  0.201	 -0.951	 -1.696	 -14.305	 -0.069	  0.203	 -0.023	 29.400	 99.508	 -0.224
28930	  0.141	  0.160	  0.203	 -0.215	 -0.340	 -9.646	 -0.009	  0.021	  0.011	 29.400	 99.508	 -0.224
28980	  0.140	  0.169	  0.208	 -0.493	 -0.208	 -9.518	 -0.062	  0.173	  0.046	 29.400	 99.508	 -0.224
29030	  0.131	  0.160	  0.213	  0.409	 -0.061	 -9.432	  0.010	  0.076	 -0.027	 29.400	 99.508	 -0.224
29080	  0.136	  0.171	  0.210	  0.067	  0.008	 -9.491	  0.003	 -0.027	 -0.075	 29.400	 99.508	 -0.224
29130	  0.136	  0.170	  0.210	  0.287	 -0.075	 -9.493	  0.003	 -0.005	 -0.038	 29.400	 99.508	 -0.224
29180	  0.136	  0.159	  0.208	  0.106	 -0.071	 -9.530	  0.003	 -0.006	 -0.043	 29.400	 99.495	  0.972
29230	  0.134	  0.160	  0.210	  0.215	 -0.065	 -9.489	  0.002	 -0.016	 -0.021	 29.400	 99.508	 -0.224
29280	  0.135	  0.164	  0.210	 -0.686	 -0.066	 -9.630	  0.004	 -0.007	  0.016	 29.400	 99.508	 -0.224
29330	  0.136	  0.171	  0.210	  0.102	 -0.041	 -9.483	  0.002	 -0.001	  0.012	 29.400	 99.503	  0.237
29380	  0.137	  0.164	  0.210	 -0.031	 -0.030	 -9.459	  0.002	  0.001	  0.011	 29.400	 99.508	 -0.224
29430	  0.135	  0.161	  0.204	  0.171	 -0.060	 -9.488	  0.001	 -0.002	  0.000	 29.400	 99.495	  0.972
29480	  0.135	  0.164	  0.205	  0.042	 -0.046	 -9.470	  0.003	 -0.003	 -0.030	 29.400	 99.503	  0.237
29530	  0.135	  0.171	  0.209	  0.122	 -0.060	 -9.509	  0.002	 -0.004	 -0.000	 29.400	 99.503	  0.237
29580	  0.135	  0.165	  0.209	  0.445	 -0.056	 -9.502	  0.005	 -0.005	 -0.049	 29.400	 99.508	 -0.224
29630	  0.132	  0.172	  0.210	  1.004	  0.096	 -9.436	  0.014	 -0.060	 -0.339	 29.400	 99.532	 -2.429
29680	  0.127	  0.183	  0.203	  0.342	  0.117	 -9.556	  0.055	 -0.150	 -0.518	 29.400	 99.508	 -0.224
29730	  0.125	  0.189	  0.215	 -1.384	 -0.327	 -9.561	 -0.007	  0.015	 -0.223	 29.400	 99.508	 -0.224
29780	  0.121	  0.189	  0.213	 -0.762	 -0.416	 -9.485	 -0.065	  0.171	  0.222	 29.400	 99.503	  0.237
29830	  0.120	  0.184	  0.209	  0.059	 -0.046	 -9.509	 -0.010	  0.059	  0.011	 29.400	 99.516	 -0.959
29880	  0.119	  0.184	  0.208	 -0.115	  0.005	 -9.491	  0.003	  0.006	 -0.008	 29.400	 99.508	 -0.224
29930	  0.121	  0.184	  0.219	  0.335	  0.384	 -9.492	  0.005	 -0.005	 -0.114	 29.400	 99.516	 -0.959
29980	  0.115	  0.193	  0.217	 -0.531	 -0.953	 -9.477	  0.003	  0.023	 -0.043	 29.400	 99.520	 -1.326
30030	  0.118	  0.205	  0.217	  0.696	  0.016	 -9.491	  0.007	 -0.032	  0.177	 29.400	 99.520	 -1.326
30080	  0.119	  0.196	  0.214	  0.150	 -0.073	 -9.531	  0.015	 -0.034	  0.139	 29.400	 99.508	 -0.224
30130	  0.120	  0.188	  0.217	 -0.106	 -0.157	 -9.527	 -0.013	  0.038	 -0.018	 29.400	 99.503	  0.237
30180	  0.120	  0.199	  0.216	 -0.197	 -0.109	 -9.522	 -0.009	  0.052	  0.009	 29.400	 99.503	  0.237
30230	  0.115	  0.189	  0.213	 -0.051	  0.135	 -9.463	  0.005	 -0.024	 -0.073	 29.400	 99.516	 -0.959
30280	  0.118	  0.188	  0.217	  0.484	 -0.171	 -9.470	  0.004	  0.012	 -0.027	 29.400	 99.503	  0.237
30329	  0.114	  0.195	  0.214	  0.078	 -0.264	 -9.524	 -0.001	  0.012	 -0.025	 29.400	 99.508	 -0.224
30379	  0.115	  0.200	  0.221	  0.118	 -0.052	 -9.514	  0.000	 -0.013	  0.013	 29.400	 99.503	  0.237
30429	  0.119	  0.189	  0.213	 -0.220	 -0.040	 -9.529	  0.002	 -0.006	  0.022	 29.400	 99.508	 -0.224
30480	  0.113	  0.194	  0.220	 -0.040	 -0.050	 -9.520	  0.005	  0.039	  0.031	 29.400	 99.508	 -0.224
30530	  0.117	  0.186	  0.219	  0.107	 -0.061	 -9.463	  0.001	  0.006	  0.007	 29.400	 99.508	 -0.224
30580	  0.119	  0.186	  0.221	  0.137	 -0.061	 -9.482	  0.002	 -0.001	 -0.074	 29.400	 99.503	  0.237
30629	  0.113	  0.191	  0.220	  0.219	 -0.162	 -9.461	  0.002	 -0.002	 -0.106	 29.400	 99.508	 -0.224
30679	  0.115	  0.194	  0.212	  0.137	 -0.004	 -9.478	  0.003	 -0.001	 -0.022	 29.400	 99.516	 -0.959
30729	  0.112	  0.204	  0.222	  0.176	 -0.120	 -9.478	  0.002	  0.000	 -0.030	 29.400	 99.508	 -0.224
30779	  0.114	  0.191	  0.217	 -0.280	 -0.083	 -9.652	 -0.013	  0.061	 -0.048	 29.400	 99.503	  0.237
30829	  0.109	  0.198	  0.225	  0.050	 -0.089	 -9.482	 -0.005	  0.030	  0.060	 29.400	 99.503	  0.237
30879	  0.114	  0.212	  0.214	 -1.769	 -0.044	 -9.823	  0.122	 -0.242	 -0.271	 29.400	 99.503	  0.237
30929	  0.118	  0.204	  0.205	 -0.305	 -0.228	 -9.497	  0.080	 -0.193	 -0.010	 29.400	 99.520	 -1.326
30979	  0.118	  0.201	  0.212	 -1.089	 -0.399	 -9.575	 -0.066	  0.193	  0.040	 29.400	 99.520	 -1.326
31029	  0.113	  0.198	  0.221	  3.906	 -0.758	 -8.069	  0.010	 -0.016	 -0.102	 29.400	 99.503	  0.237
31079	  0.107	  0.203	  0.219	  0.195	  0.032	 -9.446	  0.002	 -0.003	 -0.110	 29.400	 99.495	  0.972
31129	  0.111	  0.200	  0.215	  0.869	 -0.065	 -9.347	  0.001	 -0.108	  0.017	 29.400	 99.503	  0.237
31179	  0.115	  0.196	  0.212	 -0.063	  0.264	 -9.476	  0.016	 -0.061	  0.276	 29.400	 99.503	  0.237
31229	  0.115	  0.191	  0.221	  1.156	 -0.128	 -9.616	  0.007	 -0.009	  0.349	 29.400	 99.503	  0.237
31279	  0.115	  0.183	  0.224	  0.546	  0.219	 -9.549	  0.003	  0.050	  0.224	 29.400	 99.508	 -0.224
31329	  0.112	  0.175	  0.228	  1.725	  0.254	 -9.182	 -0.003	  0.022	  0.348	 29.400	 99.508	 -0.224
31379	  0.111	  0.164	  0.230	  0.943	  0.156	 -9.508	  0.002	  0.010	  0.354	 29.400	 99.503	  0.237
31429	  0.105	  0.151	  0.226	  0.637	  0.215	 -9.565	  0.000	  0.018	  0.422	 29.400	 99.508	 -0.224
31479	  0.100	  0.140	  0.247	  0.453	  0.247	 -9.435	 -0.003	  0.021	  0.442	 29.400	 99.503	  0.237
31529	  0.095	  0.132	  0.250	  0.298	  0.244	 -9.520	 -0.010	  0.020	  0.482	 29.400	 99.491	  1.341
31579	  0.086	  0.114	  0.258	  0.322	  0.031	 -9.644	 -0.010	  0.036	  0.483	 29.400	 99.516	 -0.959
31629	  0.084	  0.109	  0.258	 -0.064	  0.055	 -9.566	 -0.011	  0.055	  0.442	 29.400	 99.516	 -0.959
31679	  0.075	  0.099	  0.269	 -0.243	 -0.079	 -9.654	 -0.052	  0.195	  0.564	 29.400	 99.508	 -0.224
31729	  0.065	  0.085	  0.275	  0.329	 -0.092	 -9.430	 -0.010	  0.289	  0.578	 29.400	 99.508	 -0.224
31779	  0.054	  0.080	  0.288	  0.333	 -0.005	 -9.119	  0.188	  0.162	  0.457	 29.400	 99.503	  0.237
31829	  0.045	  0.078	  0.289	  0.193	 -0.824	 -9.525	  0.230	  0.035	  0.355	 29.400	 99.503	  0.237
31879	  0.044	  0.070	  0.291	  0.316	 -1.094	 -9.621	  0.044	  0.090	  0.303	 29.400	 99.516	 -0.959
31929	  0.034	  0.066	  0.292	  1.092	 -1.166	 -10.389	 -0.179	 -0.071	  0.379	 29.400	 99.503	  0.237
31979	  0.043	  0.056	  0.292	  1.237	 -0.488	 -11.111	 -0.298	 -0.543	  0.041	 29.400	 99.503	  0.237
32029	  0.049	  0.041	  0.282	 -0.556	 -1.258	 -10.030	 -0.290	 -0.527	  0.345	 29.400	 99.503	  0.237
32079	  0.051	  0.028	  0.269	  0.667	 -1.094	 -9.572	 -0.184	 -0.426	  0.600	 29.400	 99.495	  0.972
32129	  0.057	  0.011	  0.268	  0.234	 -0.623	 -9.247	 -0.025	 -0.396	  0.707	 29.400	 99.503	  0.237
32180	  0.059	  0.001	  0.259	  0.272	 -1.075	 -9.255	  0.155	 -0.307	  0.604	 29.400	 99.503	  0.237
32230	  0.052	 -0.002	  0.250	 -0.060	 -1.061	 -9.967	  0.200	 -0.049	  0.818	 29.400	 99.508	 -0.224
32281	  0.049	 -0.010	  0.256	  0.698	 -1.085	 -10.173	  0.052	 -0.172	  0.885	 29.400	 99.491	  1.341
32330	  0.044	 -0.027	  0.259	  0.466	 -0.718	 -11.257	 -0.299	 -0.049	  0.928	 29.400	 99.516	 -0.959
32380	  0.031	 -0.058	  0.255	  0.827	 -0.362	 -10.815	 -0.376	  0.052	  0.865	 29.400	 99.503	  0.237
32430	  0.019	 -0.088	  0.260	 -0.061	  0.004	 -10.561	 -0.385	  0.058	  0.877	 29.400	 99.503	  0.237
32480	 -0.001	 -0.105	  0.266	 -0.196	  0.419	 -10.108	 -0.240	  0.204	  1.000	 29.400	 99.491	  1.341
32530	 -0.020	 -0.130	  0.278	 -0.164	  0.368	 -10.192	 -0.056	  0.394	  1.151	 29.400	 99.508	 -0.224
32579	 -0.045	 -0.139	  0.287	  0.170	  0.883	 -9.399	  0.297	  0.354	  1.103	 29.400	 99.508	 -0.224
32629	 -0.066	 -0.126	  0.300	 -0.510	  0.878	 -9.828	  0.524	  0.389	  1.337	 29.400	 99.508	 -0.224
