Time	 MagX	 MagY	 MagZ	 AccelX	 AccelY	 AccelZ	 Yaw	 Pitch	 Roll	 Temperature	 Pressure	 Altitude
17242	  0.437	 -0.115	  0.268	 -0.002	  0.351	 -9.487	  0.002	 -0.001	  0.009	 31.000	 99.592	 -99999.000
17289	  0.440	 -0.116	  0.269	  0.043	  0.347	 -9.457	  0.003	 -0.001	  0.010	 31.000	 99.579	 -99999.000
17339	  0.436	 -0.116	  0.269	 -0.013	  0.351	 -9.454	  0.003	 -0.001	  0.010	 31.000	 99.604	 -99999.000
17389	  0.437	 -0.112	  0.260	  0.059	  0.317	 -9.487	  0.002	 -0.002	  0.011	 31.000	 99.604	 -99999.000
17439	  0.437	 -0.114	  0.269	 -0.000	  0.316	 -9.467	  0.003	  0.001	  0.010	 31.000	 99.592	 -99999.000
17489	  0.438	 -0.104	  0.266	  0.027	  0.334	 -9.494	  0.002	  0.001	  0.010	 31.000	 99.592	 -99999.000
17539	  0.439	 -0.120	  0.260	  0.035	  0.354	 -9.471	  0.003	 -0.002	  0.010	 31.000	 99.592	 -99999.000
17589	  0.436	 -0.114	  0.265	  0.031	  0.337	 -9.466	  0.004	 -0.001	  0.010	 31.000	 99.592	 -99999.000
17639	  0.439	 -0.116	  0.273	  0.028	  0.328	 -9.487	  0.002	 -0.001	  0.011	 31.000	 99.592	 -99999.000
17689	  0.440	 -0.110	  0.271	 -0.009	  0.338	 -9.462	  0.002	 -0.000	  0.012	 31.000	 99.592	 -99999.000
17739	  0.436	 -0.108	  0.272	  0.063	  0.339	 -9.492	  0.003	 -0.001	  0.010	 31.000	 99.592	 -99999.000
17789	  0.440	 -0.114	  0.268	  0.006	  0.325	 -9.484	  0.003	 -0.001	  0.012	 31.000	 99.588	 -99999.000
17839	  0.437	 -0.112	  0.269	  0.049	  0.330	 -9.519	  0.004	 -0.002	  0.010	 31.000	 99.579	 -99999.000
17889	  0.441	 -0.112	  0.269	  0.003	  0.328	 -9.450	  0.002	 -0.002	  0.010	 31.000	 99.592	 -99999.000
17939	  0.438	 -0.115	  0.267	  0.103	  0.329	 -9.453	  0.003	  0.000	  0.011	 31.000	 99.592	 -99999.000
17989	  0.439	 -0.123	  0.273	 -0.026	  0.337	 -9.477	  0.002	  0.000	  0.011	 31.000	 99.604	 -99999.000
18039	  0.437	 -0.106	  0.266	  0.061	  0.330	 -9.480	  0.003	 -0.002	  0.009	 31.000	 99.592	 -99999.000
18089	  0.443	 -0.115	  0.265	 -0.024	  0.336	 -9.486	  0.002	 -0.003	  0.011	 31.000	 99.588	 -99999.000
18139	  0.436	 -0.110	  0.266	  0.056	  0.323	 -9.476	  0.003	 -0.001	  0.011	 31.000	 99.592	 -99999.000
18189	  0.439	 -0.120	  0.268	 -0.015	  0.325	 -9.474	  0.002	 -0.002	  0.010	 31.000	 99.592	 -99999.000
18239	  0.440	 -0.110	  0.260	  0.075	  0.316	 -9.483	  0.003	  0.000	  0.010	 31.000	 99.592	 -99999.000
18289	  0.438	 -0.108	  0.269	 -0.004	  0.354	 -9.484	  0.003	 -0.001	  0.010	 31.000	 99.592	 -99999.000
18339	  0.440	 -0.116	  0.269	  0.041	  0.317	 -9.468	  0.003	 -0.001	  0.011	 31.000	 99.592	 -99999.000
18389	  0.439	 -0.119	  0.271	  0.004	  0.334	 -9.490	  0.003	 -0.001	  0.010	 31.000	 99.604	 -99999.000
18439	  0.437	 -0.114	  0.266	  0.021	  0.326	 -9.472	  0.002	 -0.001	  0.010	 31.000	 99.592	 -99999.000
23264	  0.439	 -0.120	  0.269	  0.054	  0.348	 -9.531	  0.003	 -0.002	  0.011	 31.000	 99.596	 -0.317
23314	  0.439	 -0.119	  0.271	  0.058	  0.331	 -9.485	  0.003	  0.001	  0.009	 31.000	 99.592	  0.052
23364	  0.441	 -0.111	  0.262	 -0.018	  0.343	 -9.500	  0.002	 -0.000	  0.012	 31.000	 99.579	  1.254
23414	  0.440	 -0.115	  0.271	  0.001	  0.340	 -9.484	  0.001	 -0.003	  0.011	 31.000	 99.579	  1.254
23464	  0.442	 -0.106	  0.268	  0.049	  0.335	 -9.532	  0.004	  0.001	  0.009	 31.000	 99.588	  0.422
23514	  0.440	 -0.123	  0.268	  0.009	  0.333	 -9.497	  0.002	 -0.002	  0.010	 31.000	 99.592	  0.052
23564	  0.439	 -0.124	  0.268	  0.079	  0.348	 -9.451	  0.002	 -0.001	  0.010	 31.000	 99.592	  0.052
23614	  0.440	 -0.116	  0.267	 -0.017	  0.359	 -9.449	  0.003	 -0.000	  0.011	 31.000	 99.575	  1.624
23664	  0.439	 -0.119	  0.268	  0.092	  0.339	 -9.478	  0.003	 -0.001	  0.010	 31.000	 99.592	  0.052
23714	  0.442	 -0.119	  0.264	 -0.015	  0.353	 -9.456	  0.002	  0.000	  0.011	 31.000	 99.604	 -1.057
23764	  0.441	 -0.119	  0.267	  0.085	  0.328	 -9.470	  0.002	 -0.001	  0.011	 31.000	 99.579	  1.254
23814	  0.440	 -0.116	  0.269	  0.001	  0.361	 -9.475	  0.002	 -0.001	  0.011	 31.000	 99.592	  0.052
23864	  0.439	 -0.119	  0.271	  0.073	  0.319	 -9.496	  0.002	 -0.000	  0.010	 31.000	 99.592	  0.052
23914	  0.441	 -0.117	  0.265	  0.004	  0.354	 -9.492	  0.002	 -0.002	  0.010	 31.000	 99.592	  0.052
23964	  0.443	 -0.110	  0.271	  0.074	  0.316	 -9.444	  0.002	  0.001	  0.011	 31.000	 99.592	  0.052
24014	  0.445	 -0.116	  0.268	 -0.031	  0.357	 -9.453	  0.002	 -0.000	  0.012	 31.000	 99.592	  0.052
24064	  0.442	 -0.108	  0.271	  0.057	  0.333	 -9.487	  0.003	 -0.001	  0.011	 31.000	 99.592	  0.052
24114	  0.440	 -0.108	  0.268	  0.006	  0.358	 -9.482	  0.004	 -0.001	  0.010	 31.000	 99.592	  0.052
24164	  0.437	 -0.116	  0.271	  0.048	  0.344	 -9.499	  0.002	 -0.000	  0.009	 31.000	 99.604	 -1.057
24214	  0.442	 -0.115	  0.261	  0.017	  0.345	 -9.490	  0.003	 -0.001	  0.010	 31.000	 99.596	 -0.317
24264	  0.440	 -0.119	  0.264	  0.033	  0.330	 -9.480	  0.003	 -0.000	  0.011	 31.000	 99.579	  1.254
24314	  0.439	 -0.120	  0.267	  0.039	  0.339	 -9.470	  0.003	 -0.001	  0.010	 31.000	 99.604	 -1.057
24364	  0.440	 -0.116	  0.269	  0.008	  0.337	 -9.519	  0.002	 -0.002	  0.010	 31.000	 99.592	  0.052
24414	  0.441	 -0.119	  0.267	  0.047	  0.363	 -9.537	  0.003	 -0.003	  0.011	 31.000	 99.592	  0.052
24464	  0.442	 -0.114	  0.261	 -0.006	  0.340	 -9.497	  0.002	 -0.000	  0.010	 31.000	 99.604	 -1.057
24514	  0.441	 -0.115	  0.265	  0.085	  0.327	 -9.482	  0.004	 -0.000	  0.011	 31.000	 99.592	  0.052
24564	  0.442	 -0.119	  0.271	  0.003	  0.356	 -9.473	  0.003	 -0.002	  0.010	 31.000	 99.592	  0.052
24614	  0.440	 -0.119	  0.267	  0.086	  0.321	 -9.488	  0.003	 -0.001	  0.010	 31.000	 99.604	 -1.057
24664	  0.440	 -0.119	  0.269	 -0.005	  0.366	 -9.483	  0.002	 -0.000	  0.010	 31.000	 99.604	 -1.057
24714	  0.440	 -0.116	  0.272	  0.075	  0.320	 -9.487	  0.002	 -0.002	  0.010	 31.000	 99.592	  0.052
24764	  0.439	 -0.116	  0.265	  0.110	  0.392	 -9.426	  0.001	 -0.005	  0.014	 31.000	 99.592	  0.052
24814	  0.438	 -0.111	  0.262	  0.038	  0.283	 -9.651	  0.003	  0.006	  0.010	 31.000	 99.575	  1.624
24864	  0.442	 -0.120	  0.268	 -0.006	  0.361	 -9.489	  0.001	 -0.000	  0.008	 31.000	 99.588	  0.422
24914	  0.439	 -0.121	  0.267	  0.067	  0.341	 -9.509	  0.003	 -0.004	  0.011	 31.000	 99.592	  0.052
24964	  0.440	 -0.116	  0.261	  0.053	  0.315	 -9.397	  0.002	  0.001	  0.010	 31.000	 99.592	  0.052
25014	  0.440	 -0.117	  0.269	 -0.038	  0.321	 -9.454	  0.002	 -0.006	  0.009	 31.000	 99.600	 -0.687
25064	  0.441	 -0.108	  0.268	 -0.054	  0.267	 -9.532	  0.001	 -0.006	  0.009	 31.000	 99.592	  0.052
25114	  0.444	 -0.107	  0.268	  0.107	  0.405	 -9.378	  0.003	 -0.012	  0.011	 31.000	 99.592	  0.052
25164	  0.441	 -0.117	  0.264	 -0.059	  0.330	 -9.495	  0.003	 -0.003	  0.011	 31.000	 99.592	  0.052
25214	  0.440	 -0.115	  0.265	 -0.100	  0.355	 -9.514	  0.003	 -0.001	  0.011	 31.000	 99.592	  0.052
25264	  0.440	 -0.124	  0.268	  0.113	  0.345	 -9.426	  0.003	  0.002	  0.009	 31.000	 99.579	  1.254
25314	  0.437	 -0.117	  0.269	  0.129	  0.312	 -9.470	  0.003	 -0.003	  0.010	 31.000	 99.596	 -0.317
25364	  0.440	 -0.105	  0.272	  0.198	  0.320	 -9.489	  0.004	 -0.005	  0.010	 31.000	 99.592	  0.052
25414	  0.440	 -0.115	  0.260	 -0.398	  0.308	 -9.510	  0.005	 -0.028	  0.003	 31.000	 99.592	  0.052
25464	  0.441	 -0.120	  0.265	 -0.063	  0.429	 -9.509	  0.008	 -0.012	  0.010	 31.000	 99.592	  0.052
25514	  0.441	 -0.107	  0.268	 -0.053	  0.544	 -9.440	  0.011	 -0.009	  0.011	 31.000	 99.592	  0.052
25564	  0.440	 -0.123	  0.265	  0.164	  0.367	 -9.496	  0.012	 -0.042	 -0.003	 31.000	 99.592	  0.052
25614	  0.443	 -0.115	  0.265	 -0.067	  0.375	 -9.503	  0.000	  0.002	 -0.066	 31.000	 99.608	 -1.426
25664	  0.439	 -0.116	  0.272	  0.332	  0.524	 -9.457	  0.029	 -0.069	 -0.050	 31.000	 99.604	 -1.057
25714	  0.443	 -0.116	  0.259	 -0.108	  0.380	 -9.488	  0.068	 -0.180	 -0.042	 31.000	 99.592	  0.052
25764	  0.443	 -0.105	  0.262	 -0.323	 -0.264	 -9.785	 -0.001	  0.011	  0.015	 31.000	 99.592	  0.052
25814	  0.446	 -0.124	  0.249	 -0.051	  0.328	 -9.458	  0.014	 -0.031	  0.012	 31.000	 99.604	 -1.057
25864	  0.445	 -0.121	  0.245	 -0.067	  0.396	 -9.443	 -0.002	  0.016	  0.013	 31.000	 99.579	  1.254
25914	  0.442	 -0.124	  0.238	 -0.453	  0.162	 -9.524	 -0.031	  0.089	  0.014	 31.000	 99.588	  0.422
25964	  0.440	 -0.129	  0.255	 -0.406	  0.172	 -9.527	 -0.106	  0.278	  0.018	 31.000	 99.592	  0.052
26014	  0.439	 -0.125	  0.253	 -1.517	  0.206	 -9.722	  0.001	  0.003	 -0.002	 31.000	 99.592	  0.052
26064	  0.440	 -0.128	  0.249	  0.337	  0.549	 -9.406	 -0.002	  0.018	  0.011	 31.000	 99.579	  1.254
26114	  0.439	 -0.129	  0.253	  0.198	  0.363	 -9.428	  0.006	 -0.010	  0.007	 31.000	 99.579	  1.254
26164	  0.445	 -0.132	  0.251	 -0.096	  0.316	 -9.536	  0.003	 -0.005	  0.010	 31.000	 99.604	 -1.057
26214	  0.445	 -0.132	  0.242	  0.006	  0.326	 -9.522	  0.000	  0.010	  0.009	 31.000	 99.592	  0.052
26263	  0.446	 -0.132	  0.239	  0.170	  0.432	 -9.423	 -0.001	  0.022	  0.011	 31.000	 99.592	  0.052
26313	  0.447	 -0.130	  0.240	 -0.096	  0.331	 -9.450	  0.003	 -0.004	  0.011	 31.000	 99.604	 -1.057
26363	  0.451	 -0.133	  0.238	  0.076	  0.393	 -9.495	  0.003	 -0.001	  0.010	 31.000	 99.604	 -1.057
26413	  0.456	 -0.135	  0.241	 -0.143	  0.306	 -9.619	  0.001	 -0.004	  0.010	 31.000	 99.592	  0.052
26463	  0.467	 -0.134	  0.241	  0.081	  0.428	 -9.413	  0.006	 -0.006	  0.010	 31.000	 99.579	  1.254
26513	  0.469	 -0.140	  0.234	  0.024	  0.373	 -9.477	  0.005	 -0.017	  0.009	 31.000	 99.592	  0.052
26563	  0.476	 -0.138	  0.235	 -0.034	  0.320	 -9.511	  0.005	 -0.011	  0.009	 31.000	 99.600	 -0.687
26613	  0.476	 -0.152	  0.242	 -0.007	  0.334	 -9.477	  0.003	 -0.001	  0.009	 31.000	 99.592	  0.052
26664	  0.475	 -0.144	  0.235	  0.053	  0.386	 -9.469	  0.003	  0.003	  0.010	 31.000	 99.592	  0.052
26714	  0.479	 -0.147	  0.242	 -0.335	  0.217	 -9.555	  0.009	 -0.018	  0.011	 31.000	 99.592	  0.052
26764	  0.475	 -0.153	  0.239	 -0.022	  0.364	 -9.521	 -0.001	  0.014	  0.009	 31.000	 99.592	  0.052
26814	  0.476	 -0.145	  0.237	  0.078	  0.366	 -9.447	  0.004	 -0.005	  0.009	 31.000	 99.592	  0.052
26864	  0.477	 -0.150	  0.232	 -0.088	  0.317	 -9.483	  0.002	 -0.000	  0.003	 31.000	 99.592	  0.052
26914	  0.480	 -0.152	  0.230	  0.062	  0.362	 -9.494	  0.005	 -0.005	 -0.029	 31.000	 99.579	  1.254
26964	  0.482	 -0.137	  0.239	  0.308	  0.378	 -9.417	  0.046	 -0.115	 -0.157	 31.000	 99.592	  0.052
27014	  0.481	 -0.143	  0.228	  0.024	  0.468	 -9.484	  0.070	 -0.184	 -0.247	 31.000	 99.604	 -1.057
27064	  0.486	 -0.128	  0.235	  0.004	  0.488	 -9.344	  0.028	 -0.075	 -0.274	 31.000	 99.592	  0.052
27114	  0.487	 -0.126	  0.232	 -0.397	  0.284	 -9.472	  0.002	 -0.003	 -0.195	 31.000	 99.604	 -1.057
27164	  0.491	 -0.127	  0.240	 -0.273	  0.176	 -9.491	  0.005	 -0.008	 -0.087	 31.000	 99.592	  0.052
27214	  0.497	 -0.129	  0.239	 -0.267	  0.271	 -9.497	 -0.002	  0.005	 -0.031	 31.000	 99.592	  0.052
27264	  0.500	 -0.134	  0.231	 -0.257	  0.211	 -9.481	 -0.008	  0.028	 -0.036	 31.000	 99.592	  0.052
27314	  0.499	 -0.139	  0.240	 -0.211	  0.325	 -9.474	 -0.035	  0.099	 -0.000	 31.000	 99.604	 -1.057
27364	  0.498	 -0.140	  0.245	  0.016	  0.269	 -9.488	 -0.028	  0.083	 -0.005	 31.000	 99.592	  0.052
27414	  0.498	 -0.136	  0.239	 -0.009	  0.380	 -9.481	 -0.004	  0.017	  0.002	 31.000	 99.579	  1.254
27464	  0.499	 -0.140	  0.245	  0.097	  0.345	 -9.436	  0.012	 -0.025	 -0.010	 31.000	 99.592	  0.052
27514	  0.505	 -0.132	  0.244	 -0.123	  0.365	 -9.476	  0.016	 -0.036	 -0.072	 31.000	 99.579	  1.254
27564	  0.505	 -0.133	  0.237	  0.085	  0.394	 -9.475	  0.019	 -0.043	 -0.078	 31.000	 99.579	  1.254
27614	  0.511	 -0.130	  0.238	 -0.233	  0.257	 -9.526	  0.019	 -0.046	 -0.068	 31.000	 99.592	  0.052
27664	  0.510	 -0.124	  0.240	 -0.275	  0.234	 -9.538	  0.002	 -0.002	 -0.069	 31.000	 99.592	  0.052
27715	  0.509	 -0.121	  0.246	 -0.301	  0.274	 -9.482	 -0.045	  0.117	 -0.070	 31.000	 99.592	  0.052
27765	  0.509	 -0.113	  0.249	 -0.035	  0.439	 -9.555	 -0.062	  0.169	 -0.053	 31.000	 99.592	  0.052
27815	  0.503	 -0.124	  0.243	  0.027	  0.397	 -9.476	  0.012	 -0.011	  0.009	 31.000	 99.592	  0.052
27865	  0.500	 -0.124	  0.246	 -0.116	  0.328	 -9.438	  0.001	 -0.005	 -0.079	 31.000	 99.604	 -1.057
27916	  0.501	 -0.122	  0.251	  0.178	  0.377	 -9.490	  0.006	 -0.020	 -0.020	 31.000	 99.592	  0.052
27965	  0.504	 -0.119	  0.250	  0.076	  0.412	 -9.488	  0.003	 -0.012	 -0.052	 31.000	 99.604	 -1.057
28014	  0.503	 -0.119	  0.245	  0.014	  0.321	 -9.456	  0.005	 -0.014	 -0.049	 31.000	 99.592	  0.052
28064	  0.500	 -0.110	  0.252	 -0.029	  0.363	 -9.454	  0.001	  0.002	 -0.032	 31.000	 99.592	  0.052
28114	  0.505	 -0.115	  0.239	  0.005	  0.275	 -9.485	  0.002	  0.001	  0.003	 31.000	 99.592	  0.052
28165	  0.502	 -0.112	  0.243	 -0.057	  0.353	 -9.478	  0.002	  0.005	  0.006	 31.000	 99.592	  0.052
28214	  0.504	 -0.115	  0.246	  0.104	  0.341	 -9.467	  0.004	 -0.004	  0.007	 31.000	 99.592	  0.052
28264	  0.502	 -0.108	  0.246	 -0.030	  0.377	 -9.462	  0.002	  0.003	 -0.004	 31.000	 99.592	  0.052
28314	  0.506	 -0.113	  0.243	  0.078	  0.310	 -9.441	  0.002	  0.002	 -0.020	 31.000	 99.592	  0.052
28364	  0.507	 -0.102	  0.250	 -0.131	  0.344	 -9.517	  0.001	  0.002	 -0.022	 31.000	 99.592	  0.052
28414	  0.506	 -0.108	  0.239	 -0.037	  0.359	 -9.498	  0.001	  0.015	  0.002	 31.000	 99.604	 -1.057
28464	  0.508	 -0.108	  0.245	  0.076	  0.386	 -9.471	 -0.003	  0.025	 -0.013	 31.000	 99.592	  0.052
28514	  0.511	 -0.103	  0.247	 -0.033	  0.281	 -9.487	  0.003	  0.001	 -0.018	 31.000	 99.592	  0.052
28564	  0.516	 -0.111	  0.245	 -0.069	  0.314	 -9.485	 -0.001	  0.029	 -0.002	 31.000	 99.579	  1.254
28614	  0.515	 -0.108	  0.249	 -0.133	  0.219	 -9.480	  0.003	 -0.002	  0.001	 31.000	 99.579	  1.254
28664	  0.513	 -0.102	  0.239	  0.059	  0.311	 -9.462	  0.003	  0.002	  0.008	 31.000	 99.592	  0.052
28714	  0.516	 -0.105	  0.252	 -0.038	  0.357	 -9.483	  0.002	 -0.001	  0.007	 31.000	 99.592	  0.052
28764	  0.515	 -0.112	  0.248	  0.099	  0.353	 -9.477	  0.002	 -0.001	  0.005	 31.000	 99.579	  1.254
28814	  0.517	 -0.106	  0.245	 -0.035	  0.351	 -9.501	  0.003	 -0.002	  0.006	 31.000	 99.592	  0.052
28864	  0.517	 -0.108	  0.238	  0.047	  0.344	 -9.460	  0.002	 -0.001	  0.008	 31.000	 99.592	  0.052
28914	  0.519	 -0.106	  0.248	 -0.044	  0.380	 -9.475	  0.003	 -0.001	  0.007	 31.000	 99.592	  0.052
28964	  0.516	 -0.110	  0.242	  0.050	  0.314	 -9.475	  0.003	  0.001	  0.007	 31.000	 99.604	 -1.057
29014	  0.517	 -0.111	  0.248	 -0.091	  0.370	 -9.487	  0.002	  0.000	  0.007	 31.000	 99.592	  0.052
29064	  0.519	 -0.106	  0.240	  0.096	  0.315	 -9.484	  0.002	  0.003	  0.009	 31.000	 99.592	  0.052
29114	  0.516	 -0.106	  0.245	 -0.051	  0.358	 -9.509	  0.002	 -0.000	  0.009	 31.000	 99.592	  0.052
29164	  0.516	 -0.102	  0.246	  0.022	  0.325	 -9.468	  0.003	  0.011	  0.009	 31.000	 99.592	  0.052
29214	  0.515	 -0.112	  0.248	  0.034	  0.400	 -9.494	  0.002	 -0.008	  0.009	 31.000	 99.604	 -1.057
29264	  0.516	 -0.110	  0.250	  0.089	  0.335	 -9.474	  0.002	  0.000	  0.008	 31.000	 99.579	  1.254
29314	  0.519	 -0.112	  0.247	 -0.003	  0.377	 -9.504	  0.002	  0.000	  0.009	 31.000	 99.592	  0.052
29364	  0.517	 -0.112	  0.246	  0.073	  0.335	 -9.474	  0.002	 -0.001	  0.009	 31.000	 99.579	  1.254
29414	  0.518	 -0.106	  0.250	  0.054	  0.366	 -9.466	  0.003	 -0.000	 -0.004	 31.000	 99.592	  0.052
29464	  0.521	 -0.110	  0.246	  0.024	  0.357	 -9.448	  0.004	 -0.001	 -0.006	 31.000	 99.604	 -1.057
29514	  0.519	 -0.093	  0.247	  0.046	  0.379	 -9.473	  0.004	 -0.001	 -0.013	 31.000	 99.592	  0.052
29564	  0.521	 -0.107	  0.242	 -0.010	  0.344	 -9.455	  0.002	  0.001	 -0.006	 31.000	 99.592	  0.052
29614	  0.519	 -0.106	  0.242	  0.122	  0.328	 -9.468	  0.003	 -0.001	 -0.026	 31.000	 99.592	  0.052
29664	  0.519	 -0.107	  0.250	  0.024	  0.364	 -9.488	  0.002	 -0.002	 -0.023	 31.000	 99.592	  0.052
29714	  0.516	 -0.101	  0.252	  0.063	  0.355	 -9.475	  0.003	 -0.001	 -0.035	 31.000	 99.604	 -1.057
29764	  0.516	 -0.098	  0.246	 -0.033	  0.403	 -9.515	  0.002	 -0.019	 -0.021	 31.000	 99.592	  0.052
29814	  0.514	 -0.088	  0.251	  0.063	  0.438	 -9.480	  0.003	  0.002	 -0.076	 31.000	 99.592	  0.052
29864	  0.511	 -0.097	  0.250	 -0.041	  0.353	 -9.460	  0.003	 -0.011	 -0.120	 31.000	 99.592	  0.052
29914	  0.512	 -0.094	  0.249	 -0.049	 -2.053	 -9.924	  0.022	  0.022	  0.047	 31.000	 99.592	  0.052
29964	  0.503	 -0.055	  0.292	 -0.667	 -0.422	 -9.393	  0.007	 -0.011	  0.124	 31.000	 99.608	 -1.426
30014	  0.461	 -0.093	  0.257	 -1.325	  0.284	 -9.918	  0.001	 -0.040	  0.374	 31.000	 99.592	  0.052
30064	  0.446	 -0.096	  0.250	 -0.045	  1.346	 -9.457	  0.008	 -0.022	  0.686	 31.000	 99.588	  0.422
30114	  0.442	 -0.114	  0.244	  1.047	  1.123	 -9.368	  0.006	 -0.008	  0.397	 31.000	 99.604	 -1.057
30164	  0.442	 -0.115	  0.240	  0.815	  0.384	 -9.469	  0.006	 -0.001	  0.054	 31.000	 99.592	  0.052
30214	  0.446	 -0.110	  0.247	  0.080	  0.365	 -9.463	  0.002	 -0.001	  0.010	 31.000	 99.592	  0.052
30264	  0.442	 -0.119	  0.236	  0.021	  0.329	 -9.479	  0.003	 -0.000	  0.010	 31.000	 99.592	  0.052
30314	  0.441	 -0.112	  0.246	  0.024	  0.324	 -9.485	  0.002	 -0.000	  0.010	 31.000	 99.579	  1.254
30364	  0.440	 -0.111	  0.238	  0.040	  0.357	 -9.417	  0.002	 -0.000	  0.009	 31.000	 99.592	  0.052
30414	  0.443	 -0.118	  0.238	  0.002	  0.320	 -9.474	  0.003	  0.001	  0.011	 31.000	 99.592	  0.052
30464	  0.443	 -0.114	  0.237	  0.038	  0.372	 -9.468	  0.003	 -0.000	  0.010	 31.000	 99.592	  0.052
30514	  0.445	 -0.116	  0.237	  0.083	  0.355	 -9.479	  0.002	 -0.007	  0.009	 31.000	 99.592	  0.052
30564	  0.443	 -0.114	  0.245	  0.149	  0.209	 -9.563	  0.002	  0.028	  0.008	 31.000	 99.592	  0.052
30614	  0.442	 -0.112	  0.237	 -0.194	  0.373	 -9.516	  0.003	 -0.004	  0.009	 31.000	 99.592	  0.052
30664	  0.446	 -0.118	  0.238	  0.106	  0.330	 -9.499	  0.002	 -0.005	  0.012	 31.000	 99.592	  0.052
30714	  0.443	 -0.102	  0.242	  0.035	  0.358	 -9.470	  0.003	 -0.003	  0.010	 31.000	 99.575	  1.624
30764	  0.443	 -0.119	  0.233	  0.095	  0.335	 -9.478	  0.004	  0.001	  0.010	 31.000	 99.592	  0.052
30814	  0.442	 -0.114	  0.237	 -0.015	  0.361	 -9.490	  0.003	  0.000	  0.010	 31.000	 99.592	  0.052
30864	  0.445	 -0.115	  0.234	  0.054	  0.333	 -9.503	  0.002	 -0.000	  0.010	 31.000	 99.592	  0.052
30914	  0.445	 -0.115	  0.232	  0.102	  0.347	 -9.506	  0.002	 -0.002	  0.010	 31.000	 99.592	  0.052
30964	  0.444	 -0.106	  0.241	  0.022	  0.350	 -9.474	  0.003	 -0.000	  0.010	 31.000	 99.592	  0.052
31014	  0.442	 -0.116	  0.238	  0.062	  0.340	 -9.533	  0.003	 -0.002	  0.009	 31.000	 99.592	  0.052
31064	  0.446	 -0.112	  0.240	  0.023	  0.349	 -9.502	  0.002	  0.000	  0.010	 31.000	 99.592	  0.052
31114	  0.443	 -0.116	  0.236	  0.105	  0.344	 -9.459	  0.003	 -0.000	  0.011	 31.000	 99.592	  0.052
31164	  0.445	 -0.115	  0.240	  0.034	  0.374	 -9.399	  0.001	 -0.002	  0.011	 31.000	 99.592	  0.052
31214	  0.445	 -0.115	  0.238	  0.088	  0.357	 -9.436	  0.001	 -0.001	  0.010	 31.000	 99.592	  0.052
31264	  0.443	 -0.114	  0.234	  0.014	  0.346	 -9.450	  0.003	  0.000	  0.011	 31.000	 99.592	  0.052
31314	  0.442	 -0.115	  0.241	  0.080	  0.348	 -9.491	  0.002	 -0.000	  0.010	 31.000	 99.600	 -0.687
31364	  0.443	 -0.114	  0.233	  0.024	  0.364	 -9.490	  0.003	 -0.001	  0.010	 31.000	 99.579	  1.254
31414	  0.443	 -0.102	  0.246	  0.103	  0.325	 -9.449	  0.002	 -0.001	  0.009	 31.000	 99.592	  0.052
31464	  0.446	 -0.112	  0.240	 -0.035	  0.370	 -9.460	  0.002	 -0.001	  0.010	 31.000	 99.596	 -0.317
31514	  0.445	 -0.117	  0.241	  0.048	  0.295	 -9.494	  0.002	 -0.000	  0.010	 31.000	 99.579	  1.254
31564	  0.441	 -0.121	  0.236	 -0.015	  0.366	 -9.496	  0.001	 -0.001	  0.011	 31.000	 99.592	  0.052
31614	  0.446	 -0.115	  0.234	  0.057	  0.306	 -9.449	  0.004	  0.000	  0.010	 31.000	 99.584	  0.792
31664	  0.442	 -0.112	  0.242	  0.077	  0.291	 -9.477	  0.003	 -0.002	  0.010	 31.000	 99.579	  1.254
31714	  0.442	 -0.116	  0.237	  0.078	  0.353	 -9.497	  0.003	 -0.000	  0.011	 31.000	 99.592	  0.052
31764	  0.447	 -0.101	  0.240	  0.032	  0.345	 -9.499	  0.003	  0.001	  0.010	 31.000	 99.588	  0.422
31814	  0.442	 -0.111	  0.238	  0.116	  0.342	 -9.477	  0.003	 -0.005	  0.010	 31.000	 99.592	  0.052
31864	  0.442	 -0.102	  0.239	  0.114	  0.344	 -9.500	  0.003	 -0.002	  0.010	 31.000	 99.596	 -0.317
31914	  0.442	 -0.114	  0.240	 -0.018	  0.339	 -9.478	  0.003	  0.001	  0.011	 31.000	 99.579	  1.254
31965	  0.442	 -0.116	  0.240	  0.548	  0.410	 -9.329	  0.001	 -0.003	  0.010	 31.000	 99.592	  0.052
32014	  0.445	 -0.117	  0.243	  0.017	  0.270	 -9.528	  0.003	  0.012	  0.009	 31.000	 99.592	  0.052
32064	  0.440	 -0.110	  0.237	  0.209	  0.333	 -9.425	  0.002	 -0.032	  0.009	 31.000	 99.604	 -1.057
32114	  0.446	 -0.116	  0.234	 -0.302	  0.412	 -9.488	 -0.000	  0.059	  0.008	 31.000	 99.592	  0.052
32163	  0.445	 -0.116	  0.247	 -0.047	  0.215	 -9.558	  0.000	 -0.026	  0.004	 31.000	 99.604	 -1.057
32213	  0.443	 -0.115	  0.230	 -0.248	  0.398	 -9.460	  0.003	  0.019	  0.010	 31.000	 99.579	  1.254
32264	  0.445	 -0.118	  0.240	  0.101	  0.297	 -9.465	  0.003	 -0.009	  0.010	 31.000	 99.579	  1.254
32314	  0.442	 -0.110	  0.238	  0.074	  0.345	 -9.453	  0.002	  0.001	  0.010	 31.000	 99.579	  1.254
32364	  0.443	 -0.111	  0.237	  0.079	  0.315	 -9.467	  0.004	 -0.002	  0.011	 31.000	 99.592	  0.052
32414	  0.443	 -0.110	  0.241	  0.025	  0.356	 -9.444	  0.003	  0.001	  0.005	 31.000	 99.579	  1.254
32465	  0.446	 -0.115	  0.233	  0.073	  0.335	 -9.468	  0.002	  0.001	  0.005	 31.000	 99.604	 -1.057
32514	  0.445	 -0.115	  0.244	  0.089	  0.369	 -9.413	  0.001	  0.002	  0.010	 31.000	 99.592	  0.052
32564	  0.443	 -0.120	  0.238	  0.076	  0.333	 -9.490	  0.002	 -0.001	  0.010	 31.000	 99.596	 -0.317
32614	  0.442	 -0.111	  0.240	  0.001	  0.361	 -9.518	  0.002	  0.002	  0.010	 31.000	 99.592	  0.052
32664	  0.442	 -0.112	  0.242	  0.049	  0.328	 -9.503	  0.002	  0.002	  0.009	 31.000	 99.579	  1.254
32714	  0.441	 -0.111	  0.230	 -0.069	  0.168	 -9.521	 -0.021	  0.090	 -0.076	 31.000	 99.592	  0.052
32764	  0.444	 -0.110	  0.233	 -1.362	  1.811	 -9.918	  0.149	 -0.389	  0.552	 31.000	 99.579	  1.254
32814	  0.434	 -0.156	  0.244	  2.069	  4.150	 -9.313	 -0.083	  0.654	  2.479	 31.000	 99.592	  0.052
32865	  0.418	 -0.226	  0.238	  0.275	 -0.528	 -9.277	  0.016	 -0.190	  2.966	 31.000	 99.592	  0.052
32915	  0.383	 -0.301	  0.236	 -0.696	 -0.172	 -9.663	  0.020	  0.044	  2.119	 31.000	 99.592	  0.052
32964	  0.375	 -0.319	  0.233	  0.240	 -0.078	 -9.501	  0.006	 -0.016	  0.263	 31.000	 99.592	  0.052
33015	  0.375	 -0.321	  0.233	 -0.055	  0.318	 -9.589	  0.002	  0.010	  0.008	 31.000	 99.579	  1.254
33065	  0.374	 -0.326	  0.236	 -0.088	  0.300	 -9.504	  0.001	  0.000	  0.010	 31.000	 99.579	  1.254
33115	  0.375	 -0.327	  0.236	 -0.040	  0.308	 -9.517	  0.002	 -0.006	  0.011	 31.000	 99.604	 -1.057
33165	  0.376	 -0.335	  0.242	  0.107	  0.320	 -9.491	  0.002	 -0.000	  0.010	 31.000	 99.604	 -1.057
33215	  0.374	 -0.326	  0.237	  0.005	  0.290	 -9.501	  0.003	 -0.001	  0.011	 31.000	 99.592	  0.052
33265	  0.374	 -0.312	  0.240	  0.018	  0.311	 -9.472	  0.002	 -0.003	  0.009	 31.000	 99.592	  0.052
33315	  0.374	 -0.326	  0.240	  0.068	  0.312	 -9.441	  0.002	  0.000	  0.009	 31.000	 99.592	  0.052
33365	  0.374	 -0.330	  0.236	  0.011	  0.309	 -9.478	  0.003	 -0.001	  0.010	 31.000	 99.592	  0.052
33415	  0.373	 -0.326	  0.233	  0.092	  0.309	 -9.501	  0.003	 -0.001	  0.009	 31.000	 99.584	  0.792
33465	  0.374	 -0.330	  0.239	  0.008	  0.313	 -9.460	  0.003	 -0.000	  0.009	 31.000	 99.579	  1.254
33515	  0.373	 -0.327	  0.229	  0.105	  0.290	 -9.484	  0.003	  0.000	  0.010	 31.000	 99.592	  0.052
33565	  0.373	 -0.331	  0.236	 -0.002	  0.325	 -9.494	  0.003	 -0.002	  0.011	 31.000	 99.592	  0.052
33615	  0.376	 -0.324	  0.240	  0.076	  0.272	 -9.467	  0.003	 -0.001	  0.011	 31.000	 99.579	  1.254
33665	  0.374	 -0.324	  0.231	 -0.002	  0.290	 -9.498	  0.003	 -0.002	  0.010	 31.000	 99.592	  0.052
33715	  0.375	 -0.313	  0.237	  0.068	  0.300	 -9.500	  0.003	  0.000	  0.010	 31.000	 99.592	  0.052
33765	  0.374	 -0.324	  0.240	  0.023	  0.335	 -9.490	  0.002	 -0.000	  0.010	 31.000	 99.592	  0.052
33815	  0.380	 -0.329	  0.238	  0.072	  0.301	 -9.467	  0.004	 -0.000	  0.011	 31.000	 99.592	  0.052
33865	  0.379	 -0.325	  0.229	  0.057	  0.307	 -9.492	  0.002	 -0.000	  0.009	 31.000	 99.592	  0.052
33915	  0.375	 -0.325	  0.236	  0.045	  0.319	 -9.489	  0.002	 -0.001	  0.010	 31.000	 99.592	  0.052
33965	  0.377	 -0.327	  0.232	 -0.008	  0.324	 -9.480	  0.003	  0.000	  0.010	 31.000	 99.592	  0.052
34015	  0.376	 -0.327	  0.229	  0.020	  0.291	 -9.474	  0.003	 -0.003	  0.010	 31.000	 99.592	  0.052
34065	  0.377	 -0.329	  0.232	  0.111	  0.302	 -9.454	  0.002	 -0.002	  0.011	 31.000	 99.604	 -1.057
34115	  0.376	 -0.326	  0.225	 -0.007	  0.309	 -9.514	  0.002	 -0.002	  0.010	 31.000	 99.592	  0.052
34164	  0.375	 -0.329	  0.223	  0.046	  0.320	 -9.471	  0.002	 -0.005	  0.018	 31.000	 99.592	  0.052
34215	  0.376	 -0.333	  0.230	  0.757	  0.438	 -9.311	  0.003	 -0.007	  0.256	 31.000	 99.592	  0.052
34265	  0.370	 -0.344	  0.227	  0.182	 -1.186	 -9.902	  0.002	  0.024	  0.871	 31.000	 99.579	  1.254
34315	  0.357	 -0.348	  0.231	  1.779	 -1.028	 -9.721	  0.005	 -0.027	  0.221	 31.000	 99.608	 -1.426
34365	  0.352	 -0.343	  0.236	  0.497	  0.042	 -9.422	  0.006	 -0.023	 -0.080	 31.000	 99.579	  1.254
34414	  0.338	 -0.350	  0.250	  2.187	 -0.489	 -9.560	  0.006	  0.033	  0.317	 31.000	 99.592	  0.052
34464	  0.324	 -0.350	  0.269	  2.538	 -0.030	 -8.928	  0.010	  0.011	  0.345	 31.000	 99.579	  1.254
34514	  0.310	 -0.352	  0.276	  0.088	  0.283	 -9.602	  0.008	  0.002	  0.338	 31.000	 99.592	  0.052
34564	  0.288	 -0.357	  0.296	  0.173	  0.225	 -9.360	  0.014	 -0.036	  0.627	 31.000	 99.592	  0.052
34614	  0.273	 -0.355	  0.309	 -0.133	  0.103	 -9.671	  0.005	  0.002	  0.427	 31.000	 99.592	  0.052
34664	  0.258	 -0.352	  0.314	 -0.520	  0.748	 -9.361	  0.006	 -0.011	  0.202	 31.000	 99.592	  0.052
34714	  0.250	 -0.347	  0.325	 -0.708	  0.919	 -9.588	  0.013	 -0.033	  0.324	 31.000	 99.596	 -0.317
34764	  0.237	 -0.349	  0.333	 -0.316	  1.051	 -9.308	  0.013	  0.002	  0.699	 31.000	 99.592	  0.052
34814	  0.224	 -0.343	  0.331	 -0.270	  0.775	 -9.481	  0.013	 -0.033	  0.607	 31.000	 99.579	  1.254
34864	  0.212	 -0.359	  0.338	 -0.180	  0.865	 -9.371	 -0.003	  0.001	  0.370	 31.000	 99.592	  0.052
34914	  0.206	 -0.343	  0.347	 -0.583	  0.835	 -9.715	  0.020	 -0.034	  0.248	 31.000	 99.604	 -1.057
34964	  0.200	 -0.357	  0.349	 -0.593	  0.778	 -9.398	 -0.041	 -0.019	  0.201	 31.000	 99.596	 -0.317
35014	  0.196	 -0.348	  0.346	 -0.219	 -0.360	 -9.440	 -0.022	  0.001	 -0.002	 31.000	 99.596	 -0.317
35064	  0.194	 -0.354	  0.342	 -1.175	  0.868	 -9.245	 -0.023	  0.000	  0.046	 31.000	 99.596	 -0.317
35114	  0.194	 -0.361	  0.349	 -0.527	  1.103	 -9.297	 -0.187	 -0.386	  0.449	 31.000	 99.608	 -1.426
35164	  0.201	 -0.370	  0.332	  0.555	  0.308	 -9.467	 -0.354	 -0.760	  0.339	 31.000	 99.592	  0.052
35214	  0.216	 -0.386	  0.315	  0.774	  2.874	 -5.206	 -0.635	 -0.750	  0.082	 31.000	 99.592	  0.052
35264	  0.225	 -0.393	  0.298	 -2.247	  2.155	 -8.788	 -0.063	 -0.074	  0.101	 31.000	 99.604	 -1.057
35314	  0.218	 -0.385	  0.310	 -1.728	  2.025	 -8.785	  0.536	  0.613	 -0.112	 31.000	 99.592	  0.052
35364	  0.209	 -0.382	  0.325	 -0.688	  0.603	 -9.593	  0.259	  0.481	  0.048	 31.000	 99.579	  1.254
35414	  0.195	 -0.368	  0.337	 -0.082	  0.380	 -9.468	  0.246	  0.461	  0.033	 31.000	 99.592	  0.052
35464	  0.187	 -0.376	  0.343	  0.228	  0.275	 -9.438	  0.194	  0.359	  0.025	 31.000	 99.579	  1.254
35514	  0.178	 -0.375	  0.352	  0.644	  0.003	 -9.511	  0.091	  0.168	  0.037	 31.000	 99.579	  1.254
35564	  0.180	 -0.371	  0.350	  0.348	  0.221	 -9.375	 -0.069	 -0.136	  0.021	 31.000	 99.592	  0.052
35614	  0.180	 -0.372	  0.345	 -0.128	  0.464	 -9.420	 -0.087	 -0.167	  0.210	 31.000	 99.592	  0.052
35664	  0.182	 -0.380	  0.345	  0.031	  0.415	 -9.477	 -0.073	 -0.131	  0.295	 31.000	 99.604	 -1.057
35714	  0.181	 -0.386	  0.337	 -0.049	  0.530	 -9.424	 -0.100	 -0.185	  0.357	 31.000	 99.592	  0.052
35764	  0.176	 -0.390	  0.338	  0.057	  0.274	 -9.402	 -0.082	 -0.126	  0.505	 31.000	 99.596	 -0.317
35814	  0.171	 -0.395	  0.332	 -0.005	  0.194	 -9.407	 -0.243	 -0.361	  0.440	 31.000	 99.592	  0.052
35864	  0.174	 -0.422	  0.322	 -0.279	  0.662	 -9.361	 -0.370	 -0.508	  0.431	 31.000	 99.592	  0.052
35914	  0.181	 -0.415	  0.308	 -1.766	  0.447	 -10.072	 -0.484	 -0.496	 -0.120	 31.000	 99.600	 -0.687
35964	  0.196	 -0.431	  0.295	 -1.383	  1.702	 -9.130	 -0.113	 -0.099	 -0.568	 31.000	 99.592	  0.052
36014	  0.205	 -0.409	  0.301	 -1.826	  2.003	 -9.110	  0.163	  0.144	 -0.329	 31.000	 99.592	  0.052
36064	  0.186	 -0.413	  0.310	 -1.710	  0.077	 -9.754	  0.361	  0.542	  1.231	 31.000	 99.596	 -0.317
36114	  0.157	 -0.428	  0.310	 -0.251	  0.256	 -9.363	  0.254	  0.435	  1.159	 31.000	 99.592	  0.052
36164	  0.137	 -0.436	  0.319	  0.505	  0.109	 -9.063	 -0.204	 -0.204	  0.597	 31.000	 99.592	  0.052
36214	  0.136	 -0.450	  0.315	 -0.958	  0.660	 -10.241	 -0.454	 -0.392	  0.641	 31.000	 99.592	  0.052
36264	  0.121	 -0.461	  0.297	 -1.341	 -0.043	 -10.135	 -0.300	 -0.233	  1.018	 31.000	 99.592	  0.052
36314	  0.100	 -0.467	  0.301	 -1.105	  0.534	 -9.704	  0.099	 -0.141	  1.332	 31.000	 99.579	  1.254
36364	  0.075	 -0.474	  0.304	 -1.167	  0.522	 -9.649	  0.311	 -0.313	  1.265	 31.000	 99.579	  1.254
36414	  0.060	 -0.481	  0.315	 -1.472	 -0.009	 -10.009	 -0.233	 -0.528	  0.899	 31.000	 99.592	  0.052
36464	  0.048	 -0.482	  0.296	 -2.428	  0.759	 -7.949	 -0.797	 -0.463	  1.251	 31.000	 99.592	  0.052
36514	  0.029	 -0.519	  0.287	 -1.051	  1.220	 -8.941	 -1.021	 -0.476	  1.350	 31.000	 99.592	  0.052
36564	  0.006	 -0.537	  0.260	 -2.052	  3.105	 -7.948	 -1.067	 -0.586	  1.335	 31.000	 99.592	  0.052
36614	 -0.017	 -0.546	  0.254	 -2.151	  4.058	 -7.367	 -0.022	 -0.266	  1.299	 31.000	 99.592	  0.052
36664	 -0.041	 -0.530	  0.265	 -1.110	  2.997	 -7.702	  0.364	 -0.134	  1.051	 31.000	 99.592	  0.052
36714	 -0.066	 -0.509	  0.297	 -1.102	  2.985	 -8.155	  0.489	  0.093	  0.856	 31.000	 99.604	 -1.057
36764	 -0.083	 -0.493	  0.315	 -0.893	  2.963	 -9.112	  0.347	  0.206	  0.814	 31.000	 99.579	  1.254
36814	 -0.103	 -0.470	  0.329	 -0.057	  2.365	 -10.054	  0.118	 -0.160	  0.815	 31.000	 99.592	  0.052
36864	 -0.108	 -0.469	  0.337	 -0.519	  3.782	 -9.347	  0.309	 -0.457	  0.618	 31.000	 99.592	  0.052
36914	 -0.114	 -0.449	  0.354	 -1.399	  3.823	 -9.024	  1.082	  0.083	  0.513	 31.000	 99.596	 -0.317
36964	 -0.128	 -0.405	  0.393	  0.016	  1.316	 -11.062	  2.175	  0.502	  0.970	 31.000	 99.596	 -0.317
37014	 -0.167	 -0.358	  0.421	  2.001	 -1.387	 -11.772	  1.264	  0.451	  1.564	 31.000	 99.592	  0.052
37064	 -0.188	 -0.311	  0.437	  0.638	 -0.518	 -11.427	  1.164	 -0.067	  0.968	 31.000	 99.596	 -0.317
37114	 -0.188	 -0.274	  0.450	 -0.699	 -0.273	 -11.160	  0.523	 -0.113	  0.395	 31.000	 99.592	  0.052
37164	 -0.193	 -0.270	  0.456	 -1.435	  0.366	 -10.867	  0.013	  0.340	  0.480	 31.000	 99.592	  0.052
37214	 -0.215	 -0.254	  0.444	 -0.606	  0.387	 -10.267	  0.320	  0.326	  0.878	 31.000	 99.592	  0.052
37264	 -0.221	 -0.242	  0.451	  0.217	 -1.533	 -11.325	 -0.060	  0.065	  0.882	 31.000	 99.604	 -1.057
37314	 -0.229	 -0.235	  0.444	  0.255	 -1.322	 -10.913	 -0.116	  0.114	  0.816	 31.000	 99.592	  0.052
37364	 -0.233	 -0.214	  0.442	 -0.418	 -0.647	 -9.180	 -0.177	 -0.027	  0.702	 31.000	 99.592	  0.052
37414	 -0.238	 -0.206	  0.432	 -1.080	 -0.638	 -9.233	  0.024	  0.006	  0.719	 31.000	 99.592	  0.052
37464	 -0.244	 -0.199	  0.437	  0.051	 -0.647	 -9.114	  0.294	  0.221	  0.760	 31.000	 99.579	  1.254
37514	 -0.243	 -0.185	  0.439	 -0.257	 -0.801	 -8.942	  0.245	 -0.241	  0.548	 31.000	 99.579	  1.254
37564	 -0.250	 -0.165	  0.440	  0.648	 -0.650	 -9.520	  0.598	  0.402	  0.443	 31.000	 99.596	 -0.317
37614	 -0.252	 -0.155	  0.437	  0.906	 -2.140	 -9.103	  0.148	 -0.033	  0.247	 31.000	 99.592	  0.052
37664	 -0.248	 -0.150	  0.433	  0.483	 -0.303	 -8.307	  0.065	 -0.056	  0.320	 31.000	 99.592	  0.052
37714	 -0.246	 -0.149	  0.437	  0.175	 -0.586	 -8.337	  0.081	 -0.008	  0.163	 31.000	 99.604	 -1.057
37764	 -0.242	 -0.133	  0.444	  0.175	 -0.241	 -8.477	  0.030	 -0.209	  0.245	 31.000	 99.579	  1.254
37815	 -0.231	 -0.134	  0.443	 -0.019	 -0.030	 -8.172	 -0.057	 -0.465	  0.456	 31.000	 99.592	  0.052
37864	 -0.220	 -0.118	  0.451	 -0.169	 -0.362	 -8.130	  0.205	 -0.626	  0.407	 31.000	 99.592	  0.052
37915	 -0.205	 -0.119	  0.454	 -1.267	 -0.077	 -8.231	  0.120	 -0.343	  0.572	 31.000	 99.579	  1.254
37965	 -0.203	 -0.106	  0.446	 -0.373	 -1.048	 -9.208	  0.069	 -0.028	  0.727	 31.000	 99.579	  1.254
38015	 -0.206	 -0.103	  0.455	 -0.172	 -0.697	 -9.017	  0.098	  0.065	  0.570	 31.000	 99.567	  2.364
38065	 -0.209	 -0.100	  0.447	 -0.186	 -0.453	 -8.828	 -0.085	  0.075	  0.447	 31.000	 99.579	  1.254
38115	 -0.215	 -0.084	  0.452	 -0.525	  0.285	 -8.528	  0.137	  0.193	  0.452	 31.000	 99.584	  0.792
38165	 -0.221	 -0.082	  0.446	 -0.719	 -0.277	 -9.144	  0.109	  0.410	  0.554	 31.000	 99.592	  0.052
38215	 -0.235	 -0.073	  0.441	 -0.469	 -0.281	 -9.356	  0.143	  0.536	  0.514	 31.000	 99.592	  0.052
38265	 -0.245	 -0.071	  0.436	  0.351	 -0.724	 -9.470	 -0.023	  0.330	  0.376	 31.000	 99.584	  0.792
38315	 -0.254	 -0.066	  0.438	  0.050	 -0.137	 -9.221	 -0.132	 -0.167	  0.201	 31.000	 99.592	  0.052
38365	 -0.235	 -0.075	  0.441	 -0.729	 -0.165	 -9.401	 -0.064	 -0.580	  0.134	 31.000	 99.592	  0.052
38415	 -0.223	 -0.077	  0.431	 -2.834	 -0.145	 -9.960	  0.279	 -0.219	  0.177	 31.000	 99.596	 -0.317
38465	 -0.226	 -0.052	  0.437	 -1.722	 -1.567	 -10.626	  0.370	  0.264	  0.378	 31.000	 99.592	  0.052
38515	 -0.227	 -0.051	  0.433	 -0.266	 -1.773	 -10.113	  0.197	  0.181	  0.414	 31.000	 99.592	  0.052
38564	 -0.230	 -0.037	  0.425	 -0.947	 -1.046	 -9.862	  0.214	 -0.249	  0.488	 31.000	 99.579	  1.254
38614	 -0.219	 -0.026	  0.428	 -0.833	 -2.508	 -10.927	  0.057	 -0.151	  0.796	 31.000	 99.592	  0.052
38664	 -0.217	 -0.026	  0.426	 -0.057	 -1.687	 -9.166	 -0.353	 -0.189	  0.519	 31.000	 99.592	  0.052
38714	 -0.203	 -0.033	  0.416	 -1.040	 -1.045	 -8.550	 -0.194	 -0.373	  0.412	 31.000	 99.579	  1.254
38764	 -0.195	 -0.033	  0.427	 -1.549	 -1.443	 -8.560	 -0.088	 -0.091	  0.348	 31.000	 99.592	  0.052
38814	 -0.197	 -0.029	  0.416	 -1.109	 -1.261	 -8.222	 -0.059	  0.076	  0.419	 31.000	 99.592	  0.052
38864	 -0.197	 -0.028	  0.400	 -0.922	 -0.439	 -7.837	 -0.002	  0.007	  0.190	 31.000	 99.579	  1.254
38914	 -0.192	 -0.029	  0.400	 -1.114	 -0.876	 -8.465	 -0.104	 -0.004	 -0.053	 31.000	 99.579	  1.254
38964	 -0.195	 -0.037	  0.384	 -1.922	 -0.076	 -8.705	 -0.057	  0.099	 -0.153	 31.000	 99.596	 -0.317
39014	 -0.192	 -0.053	  0.382	 -3.053	  2.206	 -6.879	 -0.129	  0.129	 -0.228	 31.000	 99.592	  0.052
39064	 -0.197	 -0.057	  0.367	 -1.202	 -0.340	 -9.829	 -0.367	  0.442	 -0.353	 31.000	 99.579	  1.254
39114	 -0.205	 -0.072	  0.370	 -0.557	  0.106	 -9.441	 -0.617	  0.066	 -0.504	 31.000	 99.584	  0.792
39164	 -0.196	 -0.085	  0.353	 -1.029	  0.157	 -9.305	 -0.412	 -0.233	 -0.759	 31.000	 99.579	  1.254
39214	 -0.187	 -0.099	  0.348	 -1.671	 -0.238	 -10.651	 -0.191	 -0.086	 -0.762	 31.000	 99.592	  0.052
39264	 -0.187	 -0.101	  0.345	 -0.888	  0.014	 -10.536	  0.101	  0.183	 -0.627	 31.000	 99.584	  0.792
39314	 -0.191	 -0.097	  0.343	  0.107	 -1.459	 -10.604	  0.577	  0.105	 -0.636	 31.000	 99.584	  0.792
39364	 -0.191	 -0.074	  0.332	 -0.195	 -1.949	 -10.613	  0.320	  0.013	 -0.679	 31.000	 99.579	  1.254
39414	 -0.187	 -0.080	  0.339	 -0.003	 -1.000	 -9.550	  0.159	  0.087	 -0.764	 31.000	 99.579	  1.254
39464	 -0.190	 -0.078	  0.339	 -0.156	 -0.622	 -8.810	  0.154	  0.085	 -0.689	 31.000	 99.592	  0.052
39515	 -0.195	 -0.071	  0.332	  0.191	 -0.570	 -8.447	  0.121	  0.235	 -0.383	 31.000	 99.579	  1.254
39565	 -0.197	 -0.064	  0.322	  0.389	 -0.656	 -8.306	  0.089	  0.211	 -0.405	 31.000	 99.592	  0.052
39615	 -0.201	 -0.074	  0.313	 -0.044	 -0.757	 -8.807	 -0.099	 -0.013	 -0.336	 31.000	 99.579	  1.254
39665	 -0.202	 -0.072	  0.313	  0.096	 -0.534	 -8.986	 -0.216	 -0.133	 -0.235	 31.000	 99.592	  0.052
39715	 -0.199	 -0.078	  0.313	  0.096	 -0.369	 -9.402	 -0.154	 -0.084	 -0.266	 31.000	 99.584	  0.792
39765	 -0.202	 -0.083	  0.312	  0.059	 -0.358	 -9.692	 -0.100	 -0.030	 -0.089	 31.000	 99.592	  0.052
39815	 -0.204	 -0.082	  0.308	  0.346	 -1.349	 -10.360	  0.019	 -0.107	  0.016	 31.000	 99.592	  0.052
39865	 -0.202	 -0.087	  0.292	  0.232	 -0.895	 -10.020	 -0.188	 -0.223	 -0.199	 31.000	 99.579	  1.254
39915	 -0.196	 -0.083	  0.301	 -0.003	 -0.396	 -10.399	  0.269	 -0.150	 -0.117	 31.000	 99.592	  0.052
39965	 -0.196	 -0.087	  0.308	  0.547	 -2.212	 -10.658	  0.124	  0.024	 -0.195	 31.000	 99.596	 -0.317
40015	 -0.198	 -0.069	  0.301	  0.131	 -0.747	 -9.283	  0.203	  0.060	 -0.430	 31.000	 99.579	  1.254
40065	 -0.202	 -0.079	  0.294	 -0.007	 -0.728	 -8.929	  0.287	  0.038	 -0.281	 31.000	 99.579	  1.254
40115	 -0.202	 -0.055	  0.295	  0.019	 -1.166	 -8.501	  0.311	  0.135	 -0.344	 31.000	 99.592	  0.052
40165	 -0.207	 -0.067	  0.292	  0.003	 -1.616	 -8.326	  0.218	  0.264	 -0.510	 31.000	 99.579	  1.254
40215	 -0.212	 -0.056	  0.285	  0.273	 -1.440	 -8.289	 -0.020	  0.342	 -0.695	 31.000	 99.596	 -0.317
40265	 -0.219	 -0.081	  0.276	  0.526	 -0.862	 -8.112	 -0.097	  0.334	 -0.962	 31.000	 99.579	  1.254
40315	 -0.222	 -0.090	  0.277	  0.755	 -0.526	 -8.484	 -0.063	  0.132	 -1.054	 31.000	 99.592	  0.052
40365	 -0.223	 -0.095	  0.260	  1.182	 -0.621	 -9.467	 -0.067	 -0.211	 -1.038	 31.000	 99.592	  0.052
40415	 -0.209	 -0.106	  0.265	  1.512	 -0.928	 -9.968	 -0.114	 -0.608	 -1.173	 31.000	 99.579	  1.254
40465	 -0.197	 -0.111	  0.269	  1.044	 -0.930	 -10.384	 -0.036	 -1.010	 -1.263	 31.000	 99.579	  1.254
40515	 -0.169	 -0.107	  0.270	  0.171	 -1.114	 -11.061	 -0.052	 -1.084	 -1.380	 31.000	 99.592	  0.052
40565	 -0.159	 -0.113	  0.265	 -0.394	 -1.572	 -11.706	  0.082	 -0.647	 -1.133	 31.000	 99.596	 -0.317
40615	 -0.152	 -0.087	  0.264	  0.366	 -1.620	 -10.543	  0.126	 -0.247	 -1.429	 31.000	 99.592	  0.052
40664	 -0.160	 -0.082	  0.250	  0.536	 -1.785	 -10.662	  0.241	 -0.365	 -1.124	 31.000	 99.579	  1.254
40714	 -0.163	 -0.092	  0.251	  1.072	 -1.803	 -9.543	  0.002	 -0.643	 -1.041	 31.000	 99.592	  0.052
40764	 -0.169	 -0.095	  0.244	  0.162	 -1.634	 -9.133	 -0.178	 -0.687	 -1.035	 31.000	 99.584	  0.792
40814	 -0.180	 -0.109	  0.233	 -0.484	 -1.011	 -8.582	 -0.399	 -0.352	 -0.809	 31.000	 99.579	  1.254
40864	 -0.195	 -0.133	  0.236	 -0.435	 -0.726	 -8.143	 -0.421	  0.242	 -0.623	 31.000	 99.592	  0.052
40914	 -0.219	 -0.151	  0.227	 -0.293	 -0.933	 -8.142	 -0.272	  0.550	 -0.614	 31.000	 99.579	  1.254
40964	 -0.236	 -0.177	  0.226	 -0.483	 -0.526	 -8.198	 -0.210	  0.482	 -0.408	 31.000	 99.592	  0.052
41014	 -0.252	 -0.221	  0.218	 -0.498	 -0.482	 -8.687	  0.075	  0.375	 -0.029	 31.000	 99.579	  1.254
41064	 -0.262	 -0.249	  0.224	 -0.029	 -1.235	 -9.584	  0.210	  0.264	  0.270	 31.000	 99.592	  0.052
41114	 -0.263	 -0.259	  0.217	  0.067	 -1.252	 -9.990	  0.287	  0.296	  0.305	 31.000	 99.596	 -0.317
41164	 -0.258	 -0.273	  0.222	 -0.019	 -1.062	 -10.431	  0.472	  0.447	  0.334	 31.000	 99.592	  0.052
41214	 -0.261	 -0.279	  0.235	  0.626	 -2.358	 -11.008	  0.454	  0.638	  0.412	 31.000	 99.596	 -0.317
41264	 -0.251	 -0.274	  0.246	  1.305	 -2.702	 -9.995	  0.093	  0.325	  0.068	 31.000	 99.592	  0.052
41314	 -0.238	 -0.293	  0.250	  0.392	 -1.786	 -9.062	  0.062	 -0.026	 -0.159	 31.000	 99.579	  1.254
41364	 -0.215	 -0.300	  0.270	 -0.117	 -1.769	 -9.075	  0.162	 -0.145	 -0.140	 31.000	 99.592	  0.052
41414	 -0.193	 -0.288	  0.278	 -0.217	 -1.824	 -8.884	 -0.180	 -0.106	 -0.067	 31.000	 99.584	  0.792
41464	 -0.171	 -0.300	  0.288	  0.075	 -1.068	 -8.323	 -0.174	  0.158	 -0.341	 31.000	 99.579	  1.254
41514	 -0.154	 -0.289	  0.295	  0.144	 -0.800	 -8.652	 -0.239	  0.091	 -0.385	 31.000	 99.596	 -0.317
41564	 -0.134	 -0.295	  0.294	  0.576	 -0.468	 -8.627	 -0.150	 -0.167	 -0.285	 31.000	 99.596	 -0.317
41614	 -0.110	 -0.290	  0.302	  0.419	 -0.989	 -9.902	 -0.212	 -0.323	 -0.393	 31.000	 99.592	  0.052
41664	 -0.089	 -0.276	  0.301	  0.929	 -0.899	 -9.911	 -0.347	 -0.241	 -0.578	 31.000	 99.592	  0.052
41714	 -0.070	 -0.283	  0.312	  0.812	 -0.724	 -10.062	 -0.417	 -0.153	 -0.848	 31.000	 99.579	  1.254
41764	 -0.056	 -0.277	  0.314	  1.369	 -1.083	 -10.836	 -0.310	 -0.147	 -0.833	 31.000	 99.579	  1.254
41814	 -0.040	 -0.255	  0.310	  1.388	 -0.663	 -10.943	 -0.217	 -0.183	 -1.212	 31.000	 99.579	  1.254
41864	 -0.022	 -0.246	  0.316	  0.961	 -1.550	 -10.775	  0.041	 -0.201	 -1.035	 31.000	 99.592	  0.052
41914	 -0.010	 -0.242	  0.326	  1.335	 -2.105	 -10.448	  0.042	 -0.270	 -0.981	 31.000	 99.592	  0.052
41964	  0.006	 -0.235	  0.325	  0.242	 -1.163	 -8.827	  0.037	 -0.222	 -1.124	 31.000	 99.596	 -0.317
42014	  0.014	 -0.218	  0.330	 -0.359	 -1.106	 -9.129	  0.410	 -0.047	 -0.639	 31.000	 99.592	  0.052
42064	  0.020	 -0.194	  0.342	  0.328	 -2.200	 -8.764	 -0.065	 -0.143	 -0.505	 31.000	 99.592	  0.052
42114	  0.027	 -0.210	  0.351	  0.270	 -1.419	 -7.405	 -0.507	 -0.245	 -0.639	 31.000	 99.592	  0.052
42164	  0.038	 -0.214	  0.347	 -0.580	 -0.478	 -5.969	 -0.550	 -0.239	 -0.546	 31.000	 99.579	  1.254
42214	  0.048	 -0.228	  0.348	 -0.471	 -0.165	 -7.185	 -0.220	 -0.196	 -0.119	 31.000	 99.592	  0.052
42264	  0.053	 -0.227	  0.350	 -0.333	 -0.377	 -8.107	  0.038	 -0.184	  0.277	 31.000	 99.579	  1.254
42314	  0.052	 -0.228	  0.348	  0.326	 -1.671	 -10.087	  0.453	 -0.062	  0.433	 31.000	 99.579	  1.254
42364	  0.049	 -0.219	  0.361	  0.504	 -2.315	 -10.804	  0.277	  0.094	  0.074	 31.000	 99.584	  0.792
42414	  0.050	 -0.206	  0.361	 -0.285	 -0.890	 -10.579	  0.378	  0.192	 -0.151	 31.000	 99.592	  0.052
42464	  0.043	 -0.201	  0.362	 -0.922	 -0.164	 -11.134	  0.567	  0.460	  0.285	 31.000	 99.592	  0.052
42514	  0.025	 -0.197	  0.371	  0.749	 -2.453	 -11.019	  0.364	  0.545	  0.688	 31.000	 99.604	 -1.057
42564	  0.009	 -0.204	  0.377	  0.942	 -1.952	 -8.303	  0.017	  0.491	  0.004	 31.000	 99.592	  0.052
42614	 -0.001	 -0.210	  0.385	  0.835	 -1.491	 -8.040	  0.088	  0.040	  0.043	 31.000	 99.592	  0.052
42664	  0.002	 -0.210	  0.380	  0.667	 -1.129	 -7.244	 -0.008	 -0.367	 -0.090	 31.000	 99.579	  1.254
42714	  0.012	 -0.209	  0.384	  0.084	 -0.682	 -8.188	  0.109	 -0.105	 -0.439	 31.000	 99.596	 -0.317
42765	  0.012	 -0.203	  0.376	  0.001	 -0.422	 -8.978	  0.056	  0.139	 -0.487	 31.000	 99.579	  1.254
42814	  0.011	 -0.207	  0.377	  0.814	 -0.767	 -9.399	  0.011	  0.056	 -0.560	 31.000	 99.592	  0.052
42864	  0.011	 -0.214	  0.373	  0.942	 -0.958	 -10.268	  0.043	 -0.100	 -0.823	 31.000	 99.592	  0.052
42914	  0.022	 -0.216	  0.367	  0.475	 -1.241	 -10.826	 -0.194	 -0.307	 -0.776	 31.000	 99.604	 -1.057
42964	  0.024	 -0.214	  0.358	  1.776	 -1.691	 -11.203	 -0.141	 -0.373	 -0.874	 31.000	 99.592	  0.052
43014	  0.036	 -0.215	  0.354	  1.352	 -0.802	 -11.520	 -0.099	 -0.363	 -1.312	 31.000	 99.579	  1.254
43064	  0.044	 -0.210	  0.346	  1.542	 -2.051	 -11.750	  0.062	 -0.406	 -1.166	 31.000	 99.579	  1.254
43114	  0.056	 -0.194	  0.338	  1.167	 -1.536	 -10.298	  0.086	 -0.382	 -1.384	 31.000	 99.596	 -0.317
43164	  0.064	 -0.181	  0.336	  0.990	 -1.200	 -9.711	  0.172	 -0.306	 -1.239	 31.000	 99.592	  0.052
43214	  0.072	 -0.162	  0.335	  0.487	 -0.845	 -8.513	  0.320	 -0.144	 -1.186	 31.000	 99.592	  0.052
43264	  0.066	 -0.143	  0.333	  0.640	 -1.260	 -8.302	  0.162	  0.050	 -1.040	 31.000	 99.584	  0.792
43314	  0.067	 -0.134	  0.333	  0.980	 -0.501	 -7.134	 -0.125	 -0.202	 -0.764	 31.000	 99.579	  1.254
43364	  0.069	 -0.113	  0.332	  1.159	 -0.635	 -7.732	 -0.025	 -0.494	 -0.727	 31.000	 99.579	  1.254
43414	  0.073	 -0.106	  0.325	  0.408	 -1.026	 -9.311	 -0.053	 -0.515	 -0.396	 31.000	 99.579	  1.254
43465	  0.082	 -0.098	  0.325	  0.222	 -1.781	 -10.239	 -0.247	 -0.350	 -0.182	 31.000	 99.579	  1.254
43514	  0.077	 -0.094	  0.321	  0.138	 -1.640	 -10.433	 -0.209	 -0.024	 -0.058	 31.000	 99.592	  0.052
43565	  0.072	 -0.092	  0.330	  0.325	 -1.369	 -10.318	 -0.126	  0.364	 -0.004	 31.000	 99.579	  1.254
43615	  0.062	 -0.083	  0.333	  0.406	 -1.062	 -9.855	  0.179	  0.401	  0.023	 31.000	 99.579	  1.254
43665	  0.054	 -0.069	  0.345	  0.797	 -2.290	 -10.061	  0.225	  0.251	  0.101	 31.000	 99.592	  0.052
43715	  0.054	 -0.063	  0.349	  1.057	 -2.230	 -9.088	  0.061	  0.133	 -0.253	 31.000	 99.579	  1.254
43765	  0.051	 -0.053	  0.342	  0.519	 -1.686	 -8.632	 -0.002	 -0.003	 -0.671	 31.000	 99.579	  1.254
43815	  0.056	 -0.036	  0.354	  0.132	 -1.200	 -8.454	  0.077	 -0.208	 -0.616	 31.000	 99.579	  1.254
43865	  0.066	 -0.018	  0.352	  0.089	 -1.481	 -8.644	 -0.173	 -0.385	 -0.502	 31.000	 99.579	  1.254
43915	  0.072	 -0.031	  0.354	  0.158	 -0.593	 -8.226	 -0.219	 -0.154	 -0.649	 31.000	 99.592	  0.052
43965	  0.072	 -0.024	  0.361	  0.139	 -0.537	 -8.570	 -0.250	 -0.015	 -0.697	 31.000	 99.579	  1.254
44015	  0.074	 -0.012	  0.361	  0.498	 -0.471	 -8.771	 -0.288	 -0.144	 -0.676	 31.000	 99.579	  1.254
44065	  0.080	 -0.024	  0.363	  0.516	 -0.611	 -8.967	 -0.266	 -0.202	 -0.743	 31.000	 99.596	 -0.317
44115	  0.084	 -0.019	  0.357	  0.562	 -0.939	 -9.695	 -0.061	 -0.081	 -0.826	 31.000	 99.592	  0.052
44165	  0.084	 -0.010	  0.364	  1.156	 -1.747	 -10.783	 -0.190	 -0.045	 -0.985	 31.000	 99.604	 -1.057
44215	  0.087	  0.001	  0.366	  0.999	 -0.661	 -10.814	 -0.087	  0.106	 -1.330	 31.000	 99.592	  0.052
44265	  0.079	  0.011	  0.363	  1.294	 -1.560	 -11.403	  0.297	  0.081	 -0.940	 31.000	 99.604	 -1.057
44315	  0.076	  0.038	  0.368	  1.799	 -1.889	 -10.331	  0.192	 -0.187	 -1.075	 31.000	 99.588	  0.422
44365	  0.079	  0.043	  0.360	  1.337	 -1.612	 -10.395	  0.305	 -0.195	 -1.075	 31.000	 99.579	  1.254
44415	  0.081	  0.071	  0.358	  1.091	 -1.533	 -9.399	  0.197	 -0.272	 -0.884	 31.000	 99.604	 -1.057
44465	  0.081	  0.073	  0.350	  0.781	 -1.574	 -8.891	  0.040	 -0.164	 -0.760	 31.000	 99.579	  1.254
44515	  0.078	  0.081	  0.352	  0.658	 -0.793	 -7.780	 -0.128	  0.077	 -0.682	 31.000	 99.584	  0.792
44565	  0.072	  0.091	  0.359	  0.772	 -0.274	 -7.817	 -0.085	  0.212	 -0.438	 31.000	 99.575	  1.624
44615	  0.066	  0.096	  0.360	  1.004	 -0.470	 -8.115	 -0.035	  0.069	 -0.178	 31.000	 99.592	  0.052
44665	  0.067	  0.103	  0.359	  1.152	 -0.941	 -9.119	  0.105	 -0.177	  0.004	 31.000	 99.584	  0.792
44715	  0.077	  0.120	  0.354	  0.313	 -1.343	 -9.813	  0.012	 -0.321	  0.086	 31.000	 99.579	  1.254
44765	  0.090	  0.122	  0.360	 -0.018	 -1.296	 -9.958	 -0.069	 -0.127	  0.190	 31.000	 99.592	  0.052
44815	  0.088	  0.120	  0.361	 -0.032	 -1.247	 -9.694	 -0.140	  0.216	  0.092	 31.000	 99.584	  0.792
44865	  0.090	  0.119	  0.372	 -0.056	 -0.627	 -9.552	 -0.155	  0.286	 -0.055	 31.000	 99.596	 -0.317
44915	  0.089	  0.128	  0.373	 -0.392	 -0.429	 -10.676	  0.360	  0.380	  0.307	 31.000	 99.596	 -0.317
44965	  0.093	  0.136	  0.385	  0.367	 -2.937	 -11.469	  0.110	  0.167	  0.542	 31.000	 99.579	  1.254
45015	  0.101	  0.127	  0.389	 -0.247	 -2.709	 -10.808	 -0.234	  0.147	  0.241	 31.000	 99.592	  0.052
45065	  0.099	  0.118	  0.396	 -0.656	 -2.050	 -9.341	 -0.185	  0.186	  0.202	 31.000	 99.592	  0.052
45115	  0.102	  0.109	  0.398	 -0.898	 -2.407	 -8.918	 -0.404	  0.072	  0.274	 31.000	 99.579	  1.254
45165	  0.105	  0.086	  0.411	  0.200	 -1.348	 -7.517	 -0.405	  0.155	  0.038	 31.000	 99.588	  0.422
45215	  0.101	  0.076	  0.410	  0.305	 -0.609	 -7.662	 -0.329	  0.094	  0.143	 31.000	 99.592	  0.052
45265	  0.103	  0.058	  0.409	  0.127	 -0.001	 -7.142	 -0.054	 -0.136	  0.224	 31.000	 99.592	  0.052
45315	  0.111	  0.054	  0.412	 -0.608	 -1.050	 -8.721	  0.047	  0.001	  0.333	 31.000	 99.592	  0.052
45365	  0.110	  0.048	  0.410	 -0.376	 -1.317	 -9.238	 -0.082	  0.304	  0.094	 31.000	 99.596	 -0.317
45415	  0.105	  0.052	  0.408	  0.274	 -0.488	 -8.788	 -0.184	  0.082	  0.048	 31.000	 99.592	  0.052
45465	  0.103	  0.045	  0.408	  0.013	 -0.487	 -10.002	  0.017	 -0.034	  0.014	 31.000	 99.592	  0.052
45515	  0.101	  0.032	  0.393	 -1.082	 -0.127	 -10.917	 -0.010	  0.190	  0.089	 31.000	 99.604	 -1.057
45565	  0.091	  0.036	  0.393	  0.306	 -0.963	 -12.958	  0.605	  0.388	  0.463	 31.000	 99.592	  0.052
45615	  0.085	  0.034	  0.393	  0.598	 -3.438	 -13.708	 -0.048	 -0.067	  0.349	 31.000	 99.592	  0.052
45665	  0.096	  0.036	  0.386	  1.187	 -1.806	 -12.970	 -0.248	 -0.718	  0.213	 31.000	 99.579	  1.254
45715	  0.115	  0.024	  0.371	  0.248	 -1.685	 -14.100	 -0.498	 -1.079	  0.149	 31.000	 99.592	  0.052
45765	  0.131	  0.009	  0.368	 -1.188	 -1.090	 -13.844	 -0.742	 -0.630	  0.313	 31.000	 99.579	  1.254
45815	  0.140	 -0.013	  0.371	 -0.645	 -0.600	 -12.000	 -0.730	 -0.063	  0.389	 31.000	 99.584	  0.792
45865	  0.137	 -0.027	  0.361	  0.880	 -1.375	 -10.097	 -0.257	 -0.302	  0.369	 31.000	 99.592	  0.052
45915	  0.154	 -0.051	  0.368	 -0.627	 -1.944	 -8.460	 -1.174	 -0.996	  0.615	 31.000	 99.592	  0.052
45965	  0.179	 -0.098	  0.360	  0.336	  0.020	 -3.922	 -1.363	 -0.843	  0.970	 31.000	 99.584	  0.792
46015	  0.195	 -0.132	  0.347	  0.884	  0.254	 -1.353	 -0.796	 -1.004	  0.522	 31.000	 99.579	  1.254
46065	  0.219	 -0.161	  0.327	 -0.655	  0.964	 -1.503	 -0.259	 -0.948	  0.438	 31.000	 99.579	  1.254
46115	  0.227	 -0.174	  0.325	 -1.584	  0.984	 -2.695	  0.184	 -0.084	  0.655	 31.000	 99.579	  1.254
46164	  0.216	 -0.183	  0.338	 -1.374	  0.102	 -3.767	  0.232	  0.815	  0.842	 31.000	 99.579	  1.254
46214	  0.183	 -0.185	  0.351	 -0.144	 -0.185	 -5.277	  0.685	  0.905	  1.201	 31.000	 99.584	  0.792
46264	  0.150	 -0.173	  0.384	  1.026	 -0.426	 -6.144	  1.407	  1.163	  1.111	 31.000	 99.579	  1.254
46314	  0.131	 -0.140	  0.405	 -0.029	 -1.439	 -9.918	  1.782	  0.024	  1.038	 31.000	 99.579	  1.254
46364	  0.124	 -0.090	  0.409	 -0.829	 -1.730	 -10.244	  1.635	  0.141	  0.890	 31.000	 99.579	  1.254
46414	  0.119	 -0.037	  0.418	 -1.496	 -1.695	 -13.367	  1.978	  0.392	  0.662	 31.000	 99.579	  1.254
46464	  0.110	  0.032	  0.419	 -1.496	 -2.981	 -17.568	  1.890	  0.437	  0.545	 31.000	 99.579	  1.254
46514	  0.095	  0.069	  0.419	 -2.472	 -2.700	 -21.540	  0.785	  0.755	  0.427	 31.000	 99.592	  0.052
46564	  0.075	  0.064	  0.440	 -1.260	 -1.969	 -18.742	 -0.932	  0.405	  0.435	 31.000	 99.592	  0.052
46614	  0.065	  0.042	  0.459	  0.403	 -1.770	 -15.481	 -0.938	 -0.181	  0.082	 31.000	 99.584	  0.792
46664	  0.062	 -0.025	  0.482	 -0.921	 -2.590	 -12.187	 -1.418	 -0.287	  0.052	 31.000	 99.592	  0.052
46714	  0.052	 -0.095	  0.486	 -0.010	 -2.350	 -9.879	 -1.596	 -0.039	  0.098	 31.000	 99.592	  0.052
46764	  0.050	 -0.171	  0.477	  1.772	 -2.478	 -7.564	 -1.385	 -0.676	  0.058	 31.000	 99.579	  1.254
46814	  0.069	 -0.239	  0.458	  1.656	 -2.093	 -3.728	 -1.442	 -1.417	 -0.227	 31.000	 99.604	 -1.057
46864	  0.107	 -0.283	  0.419	  0.861	 -0.697	 -2.249	 -1.155	 -1.358	 -0.546	 31.000	 99.579	  1.254
46914	  0.139	 -0.307	  0.398	  0.101	  0.263	 -1.916	 -0.685	 -1.021	 -0.722	 31.000	 99.579	  1.254
46964	  0.149	 -0.312	  0.391	 -0.253	  0.589	 -2.367	 -0.001	 -0.052	 -0.775	 31.000	 99.592	  0.052
47014	  0.151	 -0.298	  0.409	  0.190	 -0.496	 -4.710	  0.509	  0.374	 -0.688	 31.000	 99.567	  2.364
47064	  0.138	 -0.270	  0.443	  0.043	 -0.810	 -6.884	  0.738	  0.785	 -0.318	 31.000	 99.567	  2.364
47114	  0.123	 -0.231	  0.493	  0.847	 -0.643	 -7.923	  0.999	  0.515	 -0.425	 31.000	 99.592	  0.052
47164	  0.118	 -0.168	  0.522	  1.162	 -1.076	 -10.837	  1.234	  0.281	 -0.776	 31.000	 99.579	  1.254
47214	  0.127	 -0.092	  0.559	  0.333	 -0.884	 -12.967	  1.015	  0.095	 -1.116	 31.000	 99.567	  2.364
47264	  0.130	 -0.023	  0.581	 -1.316	 -0.036	 -13.791	  1.062	  0.181	 -1.227	 31.000	 99.579	  1.254
47314	  0.120	  0.044	  0.604	 -3.218	  0.784	 -14.484	  0.743	  0.198	 -0.857	 31.000	 99.592	  0.052
47364	  0.112	  0.075	  0.620	 -3.363	  0.457	 -14.581	  0.303	  0.186	 -0.501	 31.000	 99.579	  1.254
47414	  0.103	  0.056	  0.637	 -1.791	  0.023	 -13.350	 -0.469	  0.072	 -0.307	 31.000	 99.592	  0.052
47464	  0.099	 -0.010	  0.649	  0.262	 -0.093	 -10.984	 -0.910	 -0.177	 -0.319	 31.000	 99.579	  1.254
47514	  0.091	 -0.081	  0.653	  1.163	  0.139	 -7.622	 -0.987	 -0.190	 -0.663	 31.000	 99.592	  0.052
47564	  0.095	 -0.151	  0.663	  0.812	  0.573	 -5.160	 -0.418	 -0.338	 -1.043	 31.000	 99.579	  1.254
47614	  0.116	 -0.199	  0.674	  0.405	 -0.195	 -6.732	 -0.416	 -0.865	 -0.792	 31.000	 99.579	  1.254
47664	  0.151	 -0.243	  0.687	 -1.278	 -1.549	 -7.851	  0.061	 -1.047	 -0.721	 31.000	 99.592	  0.052
47714	  0.190	 -0.269	  0.705	 -0.895	 -1.879	 -10.296	 -0.066	 -0.365	 -0.753	 31.000	 99.592	  0.052
47764	  0.194	 -0.319	  0.727	 -1.360	 -1.375	 -10.079	 -0.672	  0.452	 -0.516	 31.000	 99.592	  0.052
47814	  0.181	 -0.369	  0.744	 -1.752	 -0.691	 -8.607	 -0.830	  0.460	 -0.455	 31.000	 99.592	  0.052
47864	  0.169	 -0.420	  0.765	 -1.164	 -0.165	 -8.375	 -0.478	  0.466	 -0.530	 31.000	 99.579	  1.254
47914	  0.166	 -0.437	  0.782	 -0.421	 -0.724	 -8.374	 -0.091	  0.310	 -0.410	 31.000	 99.579	  1.254
47964	  0.172	 -0.418	  0.783	  0.083	 -1.216	 -8.917	  0.084	  0.196	 -0.575	 31.000	 99.579	  1.254
48014	  0.198	 -0.393	  0.791	 -0.188	 -0.696	 -8.751	  0.185	 -0.403	 -0.757	 31.000	 99.592	  0.052
48064	  0.255	 -0.368	  0.780	 -1.954	 -1.043	 -8.917	  0.147	 -0.725	 -0.695	 31.000	 99.592	  0.052
48114	  0.308	 -0.325	  0.766	 -3.165	 -1.811	 -10.430	  0.604	 -0.396	 -0.874	 31.000	 99.592	  0.052
48164	  0.329	 -0.269	  0.754	 -2.002	 -1.860	 -10.669	  0.378	  0.485	 -0.459	 31.000	 99.575	  1.624
48214	  0.308	 -0.245	  0.756	  0.234	 -0.601	 -11.681	  0.691	  0.623	 -0.741	 31.000	 99.579	  1.254
48264	  0.306	 -0.215	  0.771	 -1.892	 -1.607	 -9.648	 -0.296	  0.102	 -0.286	 31.000	 99.596	 -0.317
48314	  0.309	 -0.232	  0.763	 -0.965	 -1.419	 -8.921	 -0.437	 -0.084	 -0.167	 31.000	 99.592	  0.052
48364	  0.320	 -0.232	  0.755	 -1.320	 -0.675	 -8.544	 -0.175	 -0.076	  0.149	 31.000	 99.579	  1.254
48414	  0.318	 -0.257	  0.749	 -1.059	 -0.848	 -9.933	 -0.174	  0.204	  0.137	 31.000	 99.592	  0.052
48464	  0.315	 -0.248	  0.751	 -0.440	  0.381	 -9.153	  0.533	  0.227	 -0.417	 31.000	 99.592	  0.052
48514	  0.315	 -0.193	  0.764	 -2.000	 -0.844	 -9.180	  0.756	  0.278	 -0.511	 31.000	 99.579	  1.254
48564	  0.327	 -0.160	  0.766	 -0.863	 -1.770	 -9.864	  0.579	 -0.157	 -0.415	 31.000	 99.592	  0.052
48614	  0.338	 -0.136	  0.758	 -1.173	 -1.784	 -9.469	  0.157	 -0.076	  0.037	 31.000	 99.592	  0.052
48664	  0.336	 -0.148	  0.760	 -1.722	 -1.515	 -10.065	  0.044	  0.408	  0.520	 31.000	 99.592	  0.052
48714	  0.311	 -0.156	  0.763	  0.071	 -1.821	 -9.581	 -0.005	  0.320	  0.189	 31.000	 99.579	  1.254
48764	  0.311	 -0.159	  0.766	 -0.595	 -1.215	 -10.610	 -0.148	 -0.153	 -0.030	 31.000	 99.592	  0.052
48814	  0.321	 -0.166	  0.763	 -0.538	 -1.576	 -9.010	 -0.219	 -0.303	  0.032	 31.000	 99.592	  0.052
48865	  0.334	 -0.180	  0.761	 -0.517	 -1.054	 -8.719	 -0.105	 -0.390	  0.049	 31.000	 99.592	  0.052
48914	  0.349	 -0.180	  0.754	 -1.991	 -0.526	 -9.097	  0.125	 -0.053	 -0.213	 31.000	 99.592	  0.052
48965	  0.337	 -0.164	  0.764	 -1.533	 -0.797	 -8.610	  0.380	  0.576	 -0.143	 31.000	 99.588	  0.422
49014	  0.315	 -0.128	  0.776	 -0.913	 -1.307	 -8.991	  0.522	  0.720	 -0.334	 31.000	 99.592	  0.052
49064	  0.288	 -0.105	  0.792	 -0.131	 -1.665	 -8.732	  0.279	  0.672	 -0.419	 31.000	 99.588	  0.422
49114	  0.278	 -0.091	  0.790	 -0.564	 -1.789	 -8.958	  0.028	  0.377	 -0.590	 31.000	 99.592	  0.052
49165	  0.278	 -0.085	  0.790	  0.135	 -2.531	 -10.141	 -0.121	 -0.060	 -0.197	 31.000	 99.592	  0.052
49214	  0.285	 -0.100	  0.781	  0.298	 -2.115	 -9.306	 -0.636	 -0.177	 -0.085	 31.000	 99.592	  0.052
49265	  0.305	 -0.137	  0.770	  0.517	 -1.700	 -9.790	 -0.958	 -0.495	  0.062	 31.000	 99.579	  1.254
49315	  0.332	 -0.190	  0.747	 -0.566	 -1.296	 -9.738	 -0.979	 -0.618	  0.610	 31.000	 99.579	  1.254
49365	  0.354	 -0.251	  0.731	 -0.396	 -0.727	 -9.910	 -1.197	 -0.788	  0.572	 31.000	 99.592	  0.052
49415	  0.380	 -0.324	  0.700	 -0.956	  0.719	 -9.274	 -1.464	 -0.840	  0.484	 31.000	 99.579	  1.254
49465	  0.398	 -0.396	  0.661	 -2.130	  1.717	 -9.161	 -1.095	 -0.525	  0.482	 31.000	 99.579	  1.254
49515	  0.392	 -0.444	  0.649	 -1.816	  1.147	 -8.773	 -0.047	  0.024	  0.791	 31.000	 99.579	  1.254
49565	  0.382	 -0.438	  0.659	 -0.693	  1.076	 -8.327	  0.706	  0.315	  0.221	 31.000	 99.575	  1.624
49615	  0.377	 -0.401	  0.678	 -1.631	  1.102	 -8.642	  0.821	  0.297	 -0.377	 31.000	 99.579	  1.254
49665	  0.383	 -0.371	  0.690	 -0.783	  0.667	 -8.236	  0.649	  0.013	 -0.342	 31.000	 99.592	  0.052
49715	  0.412	 -0.334	  0.693	 -1.009	 -0.008	 -8.591	  0.727	 -0.244	 -0.631	 31.000	 99.592	  0.052
49765	  0.447	 -0.297	  0.679	 -1.536	 -0.533	 -10.346	  0.680	 -0.267	 -0.773	 31.000	 99.592	  0.052
49815	  0.470	 -0.261	  0.690	 -2.656	 -0.595	 -11.449	  0.039	  0.267	 -0.450	 31.000	 99.592	  0.052
49865	  0.460	 -0.280	  0.696	 -0.927	 -0.366	 -9.167	 -0.237	  0.368	  0.460	 31.000	 99.579	  1.254
49915	  0.446	 -0.289	  0.700	 -1.036	 -0.603	 -9.637	 -0.126	  0.497	  0.209	 31.000	 99.592	  0.052
49965	  0.431	 -0.315	  0.707	 -1.088	  0.047	 -9.804	 -0.188	  0.276	  0.052	 31.000	 99.592	  0.052
50015	  0.428	 -0.316	  0.711	 -0.892	 -0.167	 -9.047	 -0.009	  0.194	 -0.003	 31.000	 99.579	  1.254
50065	  0.426	 -0.325	  0.711	 -0.352	 -0.541	 -9.784	 -0.200	  0.075	 -0.247	 31.000	 99.604	 -1.057
50115	  0.432	 -0.329	  0.699	 -0.908	  0.272	 -9.529	 -0.179	 -0.029	 -0.196	 31.000	 99.592	  0.052
50165	  0.439	 -0.331	  0.703	 -0.483	 -0.150	 -9.450	 -0.013	 -0.006	  0.140	 31.000	 99.579	  1.254
50215	  0.442	 -0.339	  0.700	 -0.373	 -0.045	 -9.539	  0.187	 -0.148	  0.017	 31.000	 99.592	  0.052
50265	  0.459	 -0.331	  0.693	 -0.820	  0.415	 -9.398	  0.259	 -0.148	 -0.124	 31.000	 99.592	  0.052
50315	  0.463	 -0.317	  0.687	 -0.673	 -0.459	 -10.087	  0.268	 -0.080	 -0.102	 31.000	 99.592	  0.052
50365	  0.472	 -0.301	  0.699	 -1.092	 -0.503	 -9.253	  0.236	  0.039	 -0.176	 31.000	 99.604	 -1.057
50415	  0.474	 -0.278	  0.702	 -0.853	 -0.699	 -9.524	  0.224	 -0.006	 -0.234	 31.000	 99.579	  1.254
50465	  0.476	 -0.282	  0.702	 -0.613	 -0.371	 -9.404	  0.085	 -0.051	 -0.037	 31.000	 99.592	  0.052
50515	  0.480	 -0.269	  0.698	 -1.075	 -0.546	 -9.372	  0.006	 -0.092	  0.071	 31.000	 99.592	  0.052
50565	  0.481	 -0.262	  0.694	 -0.748	 -0.725	 -9.472	  0.018	 -0.007	  0.008	 31.000	 99.579	  1.254
50615	  0.481	 -0.266	  0.698	 -0.838	 -0.623	 -9.448	 -0.007	 -0.002	 -0.047	 31.000	 99.579	  1.254
50665	  0.484	 -0.274	  0.690	 -0.941	 -0.958	 -9.485	  0.003	  0.005	 -0.027	 31.000	 99.592	  0.052
50715	  0.482	 -0.285	  0.693	 -1.145	 -1.098	 -9.427	 -0.367	  0.070	  0.082	 31.000	 99.575	  1.624
50765	  0.478	 -0.301	  0.689	 -0.734	  1.868	 -8.118	 -0.209	  0.102	  0.095	 31.000	 99.592	  0.052
50815	  0.473	 -0.312	  0.691	 -0.801	 -0.345	 -9.446	 -0.066	  0.029	  0.058	 31.000	 99.592	  0.052
50865	  0.473	 -0.310	  0.692	 -1.147	 -1.322	 -9.528	 -0.101	  0.030	  0.003	 31.000	 99.592	  0.052
50914	  0.460	 -0.344	  0.686	 -2.102	 -1.847	 -9.713	 -1.225	  0.717	  0.378	 31.000	 99.592	  0.052
50964	  0.401	 -0.380	  0.707	  4.601	  0.425	 -8.749	 -0.215	  0.857	  0.007	 31.000	 99.575	  1.624
51014	  0.417	 -0.357	  0.707	  1.741	  1.089	 -8.183	  0.264	 -1.043	 -0.260	 31.000	 99.592	  0.052
51064	  0.425	 -0.369	  0.694	 -2.351	 -0.708	 -9.929	 -0.135	  0.351	  0.164	 31.000	 99.579	  1.254
51114	  0.418	 -0.364	  0.703	 -0.588	  0.707	 -8.440	 -0.012	 -0.229	  0.002	 31.000	 99.588	  0.422
51164	  0.414	 -0.369	  0.701	  0.064	  0.190	 -9.667	  0.004	 -0.056	  0.012	 31.000	 99.588	  0.422
51214	  0.418	 -0.362	  0.702	 -0.167	  0.457	 -9.499	  0.002	  0.017	  0.011	 31.000	 99.592	  0.052
