Time	 MagX	 MagY	 MagZ	 AccelX	 AccelY	 AccelZ	 Yaw	 Pitch	 Roll	 Temperature	 Pressure	 Altitude
13283	  0.295	 -0.155	  0.374	  0.243	  0.092	 -9.821	 -0.003	  0.004	 -0.000	 30.400	 99.491	 -99999.000
13333	  0.293	 -0.152	  0.374	  0.222	  0.123	 -9.873	 -0.002	  0.002	  0.001	 30.400	 99.491	 -99999.000
13383	  0.294	 -0.152	  0.371	  0.228	  0.137	 -9.793	 -0.003	  0.003	 -0.001	 30.400	 99.495	 -99999.000
13433	  0.295	 -0.151	  0.370	  0.235	  0.124	 -9.833	 -0.003	  0.002	  0.001	 30.400	 99.502	 -99999.000
13483	  0.294	 -0.153	  0.374	  0.197	  0.147	 -9.803	 -0.004	  0.002	 -0.001	 30.400	 99.491	 -99999.000
13533	  0.295	 -0.156	  0.373	  0.224	  0.118	 -9.862	 -0.003	  0.001	 -0.000	 30.400	 99.495	 -99999.000
13583	  0.296	 -0.151	  0.371	  0.233	  0.128	 -9.828	 -0.002	 -0.001	 -0.001	 30.400	 99.495	 -99999.000
13633	  0.296	 -0.152	  0.375	  0.253	  0.134	 -9.796	 -0.004	  0.002	  0.001	 30.400	 99.491	 -99999.000
13683	  0.297	 -0.150	  0.373	  0.233	  0.114	 -9.838	 -0.003	  0.002	  0.000	 30.400	 99.491	 -99999.000
13733	  0.297	 -0.145	  0.377	  0.221	  0.118	 -9.808	 -0.001	  0.002	  0.001	 30.400	 99.495	 -99999.000
13783	  0.298	 -0.153	  0.375	  0.251	  0.171	 -9.840	 -0.004	  0.001	  0.001	 30.400	 99.506	 -99999.000
13833	  0.298	 -0.154	  0.368	  0.212	  0.142	 -9.842	 -0.003	  0.002	  0.000	 30.400	 99.491	 -99999.000
13883	  0.300	 -0.145	  0.370	  0.414	 -0.031	 -9.863	 -0.004	  0.006	  0.002	 30.400	 99.479	 -99999.000
13933	  0.300	 -0.149	  0.373	  0.295	  0.090	 -9.804	 -0.003	  0.001	 -0.002	 30.400	 99.491	 -99999.000
13983	  0.298	 -0.152	  0.372	  0.165	  0.218	 -9.813	 -0.002	  0.003	  0.002	 30.400	 99.506	 -99999.000
14033	  0.297	 -0.153	  0.373	  0.169	  0.151	 -9.837	 -0.003	  0.001	  0.001	 30.400	 99.495	 -99999.000
14083	  0.300	 -0.151	  0.376	  0.220	  0.138	 -9.815	 -0.002	  0.000	  0.001	 30.400	 99.491	 -99999.000
14133	  0.300	 -0.150	  0.375	  0.215	  0.131	 -9.834	 -0.003	  0.001	  0.000	 30.400	 99.495	 -99999.000
14183	  0.300	 -0.147	  0.375	  0.221	  0.121	 -9.843	 -0.003	  0.001	  0.001	 30.400	 99.491	 -99999.000
14233	  0.301	 -0.142	  0.373	  0.221	  0.118	 -9.817	 -0.003	  0.001	 -0.000	 30.400	 99.491	 -99999.000
14283	  0.300	 -0.155	  0.375	  0.245	  0.130	 -9.831	 -0.003	  0.000	 -0.000	 30.400	 99.491	 -99999.000
14333	  0.300	 -0.146	  0.375	  0.191	  0.128	 -9.820	 -0.003	  0.001	  0.001	 30.400	 99.495	 -99999.000
14383	  0.297	 -0.150	  0.369	  0.203	  0.120	 -9.860	 -0.003	  0.002	  0.001	 30.400	 99.495	 -99999.000
14433	  0.302	 -0.152	  0.375	  0.218	  0.113	 -9.838	 -0.003	  0.002	  0.000	 30.400	 99.495	 -99999.000
14483	  0.296	 -0.151	  0.373	  0.247	  0.129	 -9.839	 -0.003	  0.001	  0.002	 30.400	 99.495	 -99999.000
14533	  0.297	 -0.154	  0.373	  0.215	  0.161	 -9.861	 -0.002	  0.002	  0.001	 30.400	 99.502	 -99999.000
14583	  0.300	 -0.149	  0.369	  0.223	  0.146	 -9.797	 -0.003	  0.002	  0.000	 30.400	 99.491	 -99999.000
14633	  0.299	 -0.150	  0.376	  0.243	  0.123	 -9.819	 -0.002	  0.001	  0.001	 30.400	 99.479	 -99999.000
14683	  0.298	 -0.153	  0.372	  0.206	  0.126	 -9.840	 -0.005	  0.002	  0.001	 30.400	 99.495	 -99999.000
14733	  0.302	 -0.150	  0.374	  0.245	  0.127	 -9.831	 -0.004	  0.000	  0.001	 30.400	 99.491	 -99999.000
14783	  0.299	 -0.149	  0.372	  0.277	  0.160	 -9.810	 -0.004	  0.001	 -0.004	 30.400	 99.506	 -99999.000
14833	  0.302	 -0.152	  0.374	  0.032	  0.301	 -9.808	 -0.007	 -0.008	  0.000	 30.400	 99.491	 -99999.000
14883	  0.300	 -0.150	  0.367	  0.035	  0.324	 -9.804	 -0.003	 -0.005	  0.001	 30.400	 99.495	 -99999.000
14933	  0.297	 -0.151	  0.373	  0.036	  0.187	 -9.861	 -0.003	  0.005	  0.000	 30.400	 99.491	 -99999.000
14983	  0.296	 -0.154	  0.372	  0.043	  0.107	 -9.837	 -0.005	 -0.002	 -0.001	 30.400	 99.491	 -99999.000
15033	  0.298	 -0.146	  0.373	  1.308	  0.326	 -10.242	 -0.024	  0.016	  0.067	 30.400	 99.491	 -99999.000
15083	  0.298	 -0.149	  0.375	  0.266	  0.209	 -9.847	 -0.007	 -0.013	 -0.000	 30.400	 99.491	 -99999.000
15133	  0.297	 -0.155	  0.368	  0.111	  0.320	 -9.791	 -0.003	 -0.002	  0.001	 30.400	 99.495	 -99999.000
15183	  0.301	 -0.152	  0.374	  0.584	 -0.032	 -9.845	 -0.005	 -0.000	 -0.000	 30.400	 99.495	 -99999.000
15233	  0.299	 -0.151	  0.369	  0.153	  0.141	 -9.843	 -0.004	  0.001	  0.000	 30.400	 99.479	 -99999.000
15283	  0.298	 -0.152	  0.370	  0.249	  0.116	 -9.879	 -0.002	  0.003	  0.000	 30.400	 99.491	 -99999.000
15333	  0.300	 -0.152	  0.375	  0.228	  0.132	 -9.800	 -0.004	  0.003	  0.001	 30.400	 99.495	 -99999.000
15383	  0.298	 -0.151	  0.372	  0.205	  0.165	 -9.823	 -0.002	  0.001	  0.002	 30.400	 99.479	 -99999.000
15433	  0.298	 -0.149	  0.373	  0.251	  0.116	 -9.849	 -0.002	  0.000	  0.000	 30.400	 99.502	 -99999.000
15483	  0.303	 -0.152	  0.374	  0.244	  0.148	 -9.806	 -0.002	  0.001	  0.001	 30.400	 99.502	 -99999.000
15533	  0.301	 -0.154	  0.375	  0.197	  0.143	 -9.793	 -0.003	  0.001	  0.001	 30.400	 99.491	 -99999.000
15583	  0.299	 -0.150	  0.372	  0.247	  0.108	 -9.794	 -0.003	  0.001	  0.001	 30.400	 99.495	 -99999.000
15633	  0.299	 -0.145	  0.376	  0.227	  0.107	 -9.835	 -0.003	  0.001	  0.000	 30.400	 99.495	 -99999.000
15683	  0.298	 -0.153	  0.372	  0.224	  0.142	 -9.833	 -0.003	  0.001	  0.001	 30.400	 99.495	 -99999.000
15733	  0.299	 -0.144	  0.369	  0.224	  0.082	 -9.809	 -0.002	  0.002	 -0.001	 30.400	 99.479	 -99999.000
15783	  0.298	 -0.155	  0.375	  0.227	  0.120	 -9.801	 -0.003	  0.001	  0.000	 30.400	 99.491	 -99999.000
15833	  0.299	 -0.150	  0.375	  0.251	  0.108	 -9.792	 -0.002	  0.002	  0.000	 30.400	 99.495	 -99999.000
15883	  0.299	 -0.157	  0.369	  0.227	  0.123	 -9.839	 -0.002	  0.001	  0.000	 30.400	 99.506	 -99999.000
15933	  0.298	 -0.154	  0.371	  0.224	  0.149	 -9.845	 -0.004	  0.002	  0.001	 30.400	 99.491	 -99999.000
15983	  0.309	 -0.144	  0.373	 -0.767	  0.120	 -9.916	  0.002	  0.009	 -0.135	 30.400	 99.495	 -99999.000
16033	  0.297	 -0.152	  0.377	  0.105	  0.296	 -9.789	  0.005	  0.021	  0.001	 30.400	 99.495	 -99999.000
16083	  0.305	 -0.144	  0.368	  0.249	  0.054	 -9.885	  0.003	  0.013	  0.001	 30.400	 99.506	 -99999.000
16133	  0.299	 -0.145	  0.372	  0.104	  0.294	 -9.765	 -0.005	  0.000	  0.001	 30.400	 99.495	 -99999.000
16184	  0.299	 -0.143	  0.376	  0.088	  0.229	 -9.816	 -0.002	  0.003	  0.001	 30.400	 99.491	 -99999.000
16233	  0.297	 -0.143	  0.375	  0.270	  0.086	 -9.846	 -0.004	  0.001	  0.001	 30.400	 99.495	 -99999.000
16284	  0.298	 -0.142	  0.370	  0.277	  0.107	 -9.858	 -0.003	 -0.000	 -0.001	 30.400	 99.502	 -99999.000
16334	  0.301	 -0.144	  0.373	  0.270	  0.126	 -9.833	 -0.004	  0.001	 -0.000	 30.400	 99.495	 -99999.000
16384	  0.300	 -0.147	  0.375	  0.238	  0.133	 -9.798	 -0.004	 -0.000	  0.001	 30.400	 99.479	 -99999.000
16434	  0.300	 -0.140	  0.372	  0.227	  0.131	 -9.850	 -0.002	  0.001	  0.001	 30.400	 99.491	 -99999.000
16484	  0.302	 -0.136	  0.372	  0.216	  0.146	 -9.829	 -0.002	  0.000	  0.000	 30.400	 99.491	 -99999.000
16534	  0.302	 -0.150	  0.374	  0.198	  0.137	 -9.843	 -0.004	  0.002	  0.001	 30.400	 99.495	 -99999.000
16584	  0.304	 -0.146	  0.371	  0.243	  0.122	 -9.844	 -0.003	  0.000	 -0.000	 30.400	 99.495	 -99999.000
16634	  0.301	 -0.144	  0.375	  0.198	  0.134	 -9.810	 -0.003	  0.001	  0.001	 30.400	 99.491	 -99999.000
16684	  0.297	 -0.152	  0.375	  0.219	  0.111	 -9.811	 -0.004	  0.002	  0.001	 30.400	 99.495	 -99999.000
16734	  0.301	 -0.152	  0.369	  0.225	  0.108	 -9.836	 -0.003	  0.001	  0.001	 30.400	 99.483	 -99999.000
16784	  0.301	 -0.145	  0.377	  0.197	  0.127	 -9.831	 -0.002	  0.001	 -0.000	 30.400	 99.495	 -99999.000
16834	  0.301	 -0.143	  0.367	  0.221	  0.123	 -9.801	 -0.003	  0.001	  0.001	 30.400	 99.483	 -99999.000
16884	  0.303	 -0.145	  0.373	  0.267	  0.121	 -9.834	 -0.003	  0.002	  0.001	 30.400	 99.495	 -99999.000
16934	  0.300	 -0.148	  0.370	  0.222	  0.128	 -9.806	 -0.002	  0.002	  0.001	 30.400	 99.495	 -99999.000
16984	  0.302	 -0.147	  0.376	  0.241	  0.134	 -9.842	 -0.003	  0.001	  0.000	 30.400	 99.495	 -99999.000
17034	  0.300	 -0.145	  0.369	  0.240	  0.109	 -9.838	 -0.002	  0.001	  0.000	 30.400	 99.495	 -99999.000
17084	  0.300	 -0.144	  0.372	  0.233	  0.108	 -9.832	 -0.002	  0.002	  0.000	 30.400	 99.479	 -99999.000
17134	  0.301	 -0.147	  0.373	  0.218	  0.106	 -9.819	 -0.003	  0.001	  0.000	 30.400	 99.495	 -99999.000
17184	  0.300	 -0.144	  0.372	  0.221	  0.116	 -9.836	 -0.003	  0.001	  0.000	 30.400	 99.483	 -99999.000
17233	  0.301	 -0.148	  0.373	  0.250	  0.104	 -9.811	 -0.004	  0.003	  0.001	 30.400	 99.495	 -99999.000
17283	  0.302	 -0.144	  0.372	  0.225	  0.122	 -9.817	 -0.003	  0.002	  0.001	 30.400	 99.495	 -99999.000
17333	  0.301	 -0.147	  0.371	  0.249	  0.135	 -9.821	 -0.002	  0.002	  0.000	 30.400	 99.495	 -99999.000
17383	  0.300	 -0.143	  0.373	  0.217	  0.119	 -9.787	 -0.003	  0.002	  0.001	 30.400	 99.483	 -99999.000
17433	  0.301	 -0.142	  0.373	  0.234	  0.110	 -9.817	 -0.003	  0.002	  0.001	 30.400	 99.479	 -99999.000
17483	  0.301	 -0.145	  0.373	  0.263	  0.114	 -9.800	 -0.003	  0.002	  0.000	 30.400	 99.495	 -99999.000
17533	  0.301	 -0.146	  0.373	  0.243	  0.145	 -9.831	 -0.003	  0.000	  0.001	 30.400	 99.506	 -99999.000
17583	  0.301	 -0.148	  0.372	  0.229	  0.125	 -9.830	 -0.002	  0.002	  0.001	 30.400	 99.483	 -99999.000
17633	  0.300	 -0.144	  0.372	  0.215	  0.127	 -9.819	 -0.003	  0.001	  0.002	 30.400	 99.495	 -99999.000
17683	  0.303	 -0.146	  0.369	  0.232	  0.119	 -9.818	 -0.003	  0.002	  0.001	 30.400	 99.506	 -99999.000
17733	  0.302	 -0.146	  0.368	  0.224	  0.106	 -9.840	 -0.002	  0.001	  0.000	 30.400	 99.491	 -99999.000
17783	  0.301	 -0.146	  0.375	  0.230	  0.131	 -9.829	 -0.002	  0.000	  0.000	 30.400	 99.495	 -99999.000
17833	  0.299	 -0.141	  0.373	  0.210	  0.141	 -9.847	 -0.003	  0.001	  0.002	 30.400	 99.495	 -99999.000
17883	  0.300	 -0.146	  0.371	  0.219	  0.107	 -9.835	 -0.002	  0.001	  0.001	 30.400	 99.483	 -99999.000
17933	  0.302	 -0.151	  0.374	  0.218	  0.114	 -9.829	 -0.003	  0.001	  0.000	 30.400	 99.479	 -99999.000
17983	  0.300	 -0.145	  0.372	  0.219	  0.108	 -9.809	 -0.003	  0.001	 -0.001	 30.400	 99.483	 -99999.000
18033	  0.304	 -0.139	  0.376	  0.246	  0.131	 -9.821	 -0.003	  0.001	  0.000	 30.400	 99.495	 -99999.000
18083	  0.299	 -0.140	  0.368	  0.239	  0.130	 -9.801	 -0.003	  0.002	 -0.001	 30.400	 99.495	 -99999.000
18133	  0.302	 -0.152	  0.371	  0.205	  0.133	 -9.857	 -0.003	  0.004	  0.001	 30.400	 99.495	 -99999.000
18183	  0.300	 -0.145	  0.372	  0.210	  0.128	 -9.835	 -0.003	  0.000	  0.001	 30.400	 99.483	 -99999.000
18233	  0.301	 -0.145	  0.373	  0.240	 -0.040	 -9.894	 -0.008	 -0.006	  0.004	 30.400	 99.479	 -99999.000
18283	  0.302	 -0.148	  0.370	  0.645	  0.181	 -9.762	 -0.006	 -0.010	  0.000	 30.400	 99.495	 -99999.000
18333	  0.299	 -0.145	  0.372	  0.039	  0.163	 -9.841	 -0.001	  0.003	  0.001	 30.400	 99.495	 -99999.000
18383	  0.302	 -0.151	  0.373	  0.110	  0.206	 -9.834	 -0.001	  0.004	  0.001	 30.400	 99.495	 -99999.000
18433	  0.301	 -0.140	  0.371	  0.212	  0.128	 -9.844	 -0.003	  0.001	 -0.000	 30.400	 99.491	 -99999.000
18483	  0.304	 -0.150	  0.373	  0.207	  0.132	 -9.860	 -0.002	  0.003	  0.002	 30.400	 99.506	 -99999.000
18533	  0.298	 -0.148	  0.371	  0.205	  0.132	 -9.826	 -0.003	  0.001	 -0.000	 30.400	 99.495	 -99999.000
18583	  0.303	 -0.146	  0.375	  0.222	  0.119	 -9.836	 -0.002	  0.001	  0.000	 30.400	 99.506	 -99999.000
18633	  0.300	 -0.146	  0.373	  0.255	  0.147	 -9.816	 -0.003	  0.002	  0.001	 30.400	 99.495	 -99999.000
18683	  0.302	 -0.137	  0.371	  0.231	  0.117	 -9.813	 -0.002	  0.001	  0.000	 30.400	 99.495	 -99999.000
18733	  0.301	 -0.143	  0.377	  0.366	  0.090	 -9.799	 -0.001	  0.006	 -0.000	 30.400	 99.483	 -99999.000
18783	  0.302	 -0.145	  0.374	  0.298	  0.156	 -9.799	 -0.003	  0.002	 -0.000	 30.400	 99.495	 -99999.000
18833	  0.301	 -0.147	  0.375	  0.226	  0.112	 -9.825	 -0.004	  0.002	 -0.000	 30.400	 99.491	 -99999.000
18883	  0.302	 -0.143	  0.371	  0.240	  0.123	 -9.833	 -0.004	  0.001	  0.001	 30.400	 99.495	 -99999.000
18933	  0.300	 -0.150	  0.371	  0.241	  0.126	 -9.807	 -0.004	  0.000	  0.000	 30.400	 99.483	 -99999.000
18983	  0.302	 -0.142	  0.371	  0.237	  0.133	 -9.846	 -0.002	  0.002	  0.000	 30.400	 99.479	 -99999.000
19033	  0.301	 -0.144	  0.371	  0.203	  0.155	 -9.824	 -0.004	  0.000	  0.000	 30.400	 99.495	 -99999.000
19083	  0.301	 -0.148	  0.370	  0.197	  0.138	 -9.835	 -0.003	  0.002	  0.000	 30.400	 99.479	 -99999.000
19133	  0.301	 -0.147	  0.372	  0.243	  0.127	 -9.822	 -0.002	  0.003	 -0.000	 30.400	 99.495	 -99999.000
19183	  0.303	 -0.148	  0.376	  0.240	  0.114	 -9.833	 -0.003	  0.002	  0.000	 30.400	 99.506	 -99999.000
19233	  0.299	 -0.146	  0.371	  0.219	  0.120	 -9.844	 -0.002	  0.001	 -0.000	 30.400	 99.495	 -99999.000
24434	  0.290	 -0.152	  0.374	  0.205	  0.112	 -9.922	 -0.004	  0.002	  0.001	 30.400	 99.495	 -0.285
24484	  0.290	 -0.150	  0.370	  0.204	  0.111	 -9.827	 -0.003	  0.001	  0.001	 30.400	 99.499	 -0.641
24533	  0.291	 -0.151	  0.374	  0.209	  0.094	 -9.830	 -0.004	  0.001	  0.000	 30.400	 99.488	  0.339
24583	  0.290	 -0.144	  0.379	  0.231	  0.176	 -9.835	 -0.003	  0.002	  0.000	 30.400	 99.495	 -0.285
24633	  0.290	 -0.150	  0.374	  0.225	  0.118	 -9.835	 -0.004	  0.002	  0.000	 30.400	 99.483	  0.783
24683	  0.291	 -0.150	  0.373	  0.232	  0.111	 -9.815	 -0.003	  0.001	  0.001	 30.400	 99.495	 -0.285
24733	  0.290	 -0.144	  0.374	  0.219	  0.119	 -9.806	 -0.003	  0.001	  0.000	 30.400	 99.495	 -0.285
24783	  0.291	 -0.151	  0.370	  0.233	  0.110	 -9.807	 -0.003	  0.002	  0.000	 30.400	 99.495	 -0.285
24833	  0.290	 -0.144	  0.374	  0.226	  0.096	 -9.768	 -0.003	  0.001	  0.000	 30.400	 99.495	 -0.285
24883	  0.294	 -0.151	  0.374	  0.241	  0.122	 -9.822	 -0.003	  0.002	  0.001	 30.400	 99.495	 -0.285
24933	  0.293	 -0.141	  0.372	  0.236	  0.133	 -9.781	 -0.003	  0.001	  0.000	 30.400	 99.495	 -0.285
24983	  0.291	 -0.151	  0.374	  0.210	  0.148	 -9.798	 -0.003	  0.002	 -0.001	 30.400	 99.499	 -0.641
25033	  0.288	 -0.150	  0.379	  0.223	  0.130	 -9.812	 -0.003	  0.003	 -0.000	 30.400	 99.488	  0.339
25083	  0.291	 -0.152	  0.379	  0.231	  0.121	 -9.825	 -0.003	  0.001	  0.001	 30.400	 99.495	 -0.285
25133	  0.289	 -0.147	  0.373	  0.224	  0.134	 -9.832	 -0.002	  0.000	  0.001	 30.400	 99.483	  0.783
25183	  0.289	 -0.140	  0.374	  0.216	  0.111	 -9.837	 -0.002	  0.002	 -0.001	 30.400	 99.483	  0.783
25233	  0.289	 -0.147	  0.375	  0.227	  0.131	 -9.861	 -0.003	  0.002	  0.001	 30.400	 99.483	  0.783
25283	  0.288	 -0.148	  0.371	  0.218	  0.144	 -9.868	 -0.003	  0.001	  0.000	 30.400	 99.499	 -0.641
25333	  0.291	 -0.152	  0.378	  0.221	  0.139	 -9.848	 -0.003	  0.001	  0.001	 30.400	 99.483	  0.783
25383	  0.288	 -0.147	  0.375	  0.233	  0.128	 -9.883	 -0.003	  0.001	  0.001	 30.400	 99.506	 -1.264
25433	  0.291	 -0.148	  0.375	  0.242	  0.146	 -9.891	 -0.002	  0.001	  0.001	 30.400	 99.483	  0.783
25483	  0.289	 -0.146	  0.373	  0.226	  0.149	 -9.827	 -0.003	  0.001	  0.001	 30.400	 99.495	 -0.285
25533	  0.293	 -0.152	  0.375	  0.231	  0.136	 -9.843	 -0.003	  0.003	  0.000	 30.400	 99.495	 -0.285
25583	  0.290	 -0.146	  0.376	  0.240	  0.132	 -9.833	 -0.004	  0.002	 -0.000	 30.400	 99.483	  0.783
25633	  0.290	 -0.146	  0.374	  0.252	  0.131	 -9.782	 -0.003	  0.002	  0.001	 30.400	 99.495	 -0.285
25683	  0.292	 -0.147	  0.373	  0.239	  0.129	 -9.768	 -0.003	  0.002	 -0.001	 30.400	 99.495	 -0.285
25733	  0.291	 -0.147	  0.376	  0.233	  0.112	 -9.794	 -0.003	  0.002	  0.000	 30.400	 99.483	  0.783
25783	  0.294	 -0.149	  0.378	  0.207	  0.094	 -9.789	 -0.003	  0.001	  0.002	 30.400	 99.495	 -0.285
25833	  0.290	 -0.148	  0.373	  0.230	  0.149	 -9.799	 -0.004	  0.001	  0.001	 30.400	 99.483	  0.783
25883	  0.293	 -0.149	  0.374	  0.196	  0.111	 -9.827	 -0.002	  0.001	  0.001	 30.400	 99.495	 -0.285
25933	  0.292	 -0.140	  0.373	  0.218	  0.119	 -9.809	 -0.004	  0.001	  0.000	 30.400	 99.495	 -0.285
25983	  0.293	 -0.150	  0.378	  0.241	  0.136	 -9.840	 -0.004	  0.002	  0.001	 30.400	 99.495	 -0.285
26033	  0.292	 -0.147	  0.377	  0.243	  0.124	 -9.845	 -0.003	  0.002	  0.001	 30.400	 99.495	 -0.285
26083	  0.293	 -0.153	  0.377	  0.218	  0.145	 -9.872	 -0.002	  0.001	 -0.001	 30.400	 99.495	 -0.285
26133	  0.291	 -0.149	  0.373	  0.237	  0.144	 -9.863	 -0.002	  0.000	  0.002	 30.400	 99.483	  0.783
26183	  0.293	 -0.147	  0.374	  0.227	  0.129	 -9.835	 -0.004	  0.002	  0.001	 30.400	 99.495	 -0.285
26233	  0.294	 -0.149	  0.378	  0.231	  0.130	 -9.858	 -0.003	  0.002	  0.000	 30.400	 99.483	  0.783
26283	  0.291	 -0.144	  0.376	  0.236	  0.116	 -9.822	 -0.004	  0.003	  0.002	 30.400	 99.488	  0.339
26333	  0.293	 -0.149	  0.374	  0.213	  0.125	 -9.821	 -0.003	  0.001	  0.001	 30.400	 99.495	 -0.285
26383	  0.292	 -0.145	  0.372	  0.208	  0.122	 -9.797	 -0.004	  0.001	 -0.001	 30.400	 99.499	 -0.641
26433	  0.295	 -0.140	  0.377	  0.245	  0.112	 -9.825	 -0.004	  0.002	  0.001	 30.400	 99.495	 -0.285
26484	  0.292	 -0.146	  0.375	  0.199	  0.117	 -9.787	 -0.003	  0.001	  0.001	 30.400	 99.499	 -0.641
26533	  0.293	 -0.148	  0.374	  0.223	  0.135	 -9.840	 -0.004	  0.000	  0.000	 30.400	 99.499	 -0.641
26583	  0.292	 -0.151	  0.374	  0.210	  0.121	 -9.830	 -0.003	  0.002	  0.000	 30.400	 99.499	 -0.641
26633	  0.293	 -0.148	  0.375	  0.228	  0.112	 -9.819	 -0.002	  0.001	 -0.000	 30.400	 99.488	  0.339
26683	  0.292	 -0.145	  0.375	  0.223	  0.146	 -9.793	 -0.003	  0.001	  0.000	 30.400	 99.499	 -0.641
26733	  0.292	 -0.145	  0.373	  0.224	  0.126	 -9.827	 -0.003	  0.002	  0.001	 30.400	 99.488	  0.339
26783	  0.295	 -0.149	  0.374	  0.231	  0.130	 -9.823	 -0.004	  0.002	  0.001	 30.400	 99.499	 -0.641
26833	  0.290	 -0.147	  0.367	  0.217	  0.148	 -9.842	 -0.002	  0.001	  0.001	 30.400	 99.483	  0.783
26883	  0.291	 -0.149	  0.371	  0.225	  0.137	 -9.820	 -0.003	  0.002	  0.001	 30.400	 99.499	 -0.641
26934	  0.292	 -0.147	  0.370	  0.224	  0.127	 -9.881	 -0.003	  0.000	  0.001	 30.400	 99.499	 -0.641
26983	  0.292	 -0.151	  0.378	  0.222	  0.150	 -9.853	 -0.003	  0.000	  0.001	 30.400	 99.495	 -0.285
27034	  0.291	 -0.146	  0.368	  0.219	  0.146	 -9.858	 -0.003	  0.001	  0.001	 30.400	 99.483	  0.783
27083	  0.291	 -0.148	  0.374	  0.252	  0.116	 -9.833	 -0.003	  0.001	  0.001	 30.400	 99.495	 -0.285
27134	  0.290	 -0.146	  0.374	  0.221	  0.133	 -9.815	 -0.004	  0.002	  0.001	 30.400	 99.483	  0.783
27184	  0.292	 -0.153	  0.373	  0.234	  0.145	 -9.810	 -0.004	  0.002	 -0.001	 30.400	 99.506	 -1.264
27234	  0.293	 -0.150	  0.374	  0.224	  0.131	 -9.809	 -0.004	  0.000	  0.001	 30.400	 99.499	 -0.641
27284	  0.290	 -0.152	  0.373	  0.240	  0.130	 -9.775	 -0.002	  0.002	  0.000	 30.400	 99.495	 -0.285
27334	  0.290	 -0.148	  0.375	  0.245	  0.121	 -9.800	 -0.002	  0.002	 -0.000	 30.400	 99.495	 -0.285
27384	  0.293	 -0.149	  0.373	  0.228	  0.133	 -9.801	 -0.003	  0.001	  0.001	 30.400	 99.495	 -0.285
27434	  0.292	 -0.150	  0.375	  0.214	  0.134	 -9.825	 -0.003	  0.001	  0.000	 30.400	 99.499	 -0.641
27484	  0.290	 -0.150	  0.376	  0.238	  0.121	 -9.828	 -0.003	  0.002	 -0.000	 30.400	 99.488	  0.339
27534	  0.291	 -0.148	  0.377	  0.231	  0.115	 -9.828	 -0.003	  0.002	  0.001	 30.400	 99.495	 -0.285
27584	  0.289	 -0.152	  0.372	  0.216	  0.114	 -9.848	 -0.003	  0.002	  0.000	 30.400	 99.506	 -1.264
27634	  0.289	 -0.152	  0.372	  0.246	  0.134	 -9.860	 -0.003	  0.001	 -0.000	 30.400	 99.483	  0.783
27684	  0.290	 -0.149	  0.375	  0.251	  0.121	 -9.830	 -0.002	 -0.001	 -0.000	 30.400	 99.499	 -0.641
27734	  0.290	 -0.151	  0.376	  0.243	  0.145	 -9.869	 -0.002	  0.001	  0.000	 30.400	 99.488	  0.339
27784	  0.289	 -0.143	  0.374	  0.213	  0.139	 -9.875	 -0.003	  0.002	  0.000	 30.400	 99.488	  0.339
27834	  0.287	 -0.152	  0.376	  0.248	  0.110	 -9.838	 -0.003	  0.002	  0.001	 30.400	 99.499	 -0.641
27884	  0.290	 -0.154	  0.377	  0.219	  0.143	 -9.842	 -0.003	  0.002	  0.000	 30.400	 99.483	  0.783
27934	  0.290	 -0.153	  0.375	  0.224	  0.139	 -9.862	 -0.004	  0.002	  0.001	 30.400	 99.499	 -0.641
27984	  0.292	 -0.150	  0.373	  0.197	  0.131	 -9.809	 -0.003	  0.001	  0.002	 30.400	 99.495	 -0.285
28034	  0.290	 -0.150	  0.375	  0.235	  0.142	 -9.799	 -0.002	  0.003	  0.001	 30.400	 99.495	 -0.285
28084	  0.290	 -0.146	  0.374	  0.211	  0.134	 -9.798	 -0.004	  0.002	 -0.000	 30.400	 99.495	 -0.285
28134	  0.288	 -0.148	  0.375	  0.258	  0.129	 -9.825	 -0.003	  0.001	  0.001	 30.400	 99.488	  0.339
28184	  0.289	 -0.153	  0.375	  0.243	  0.112	 -9.834	 -0.002	  0.002	  0.001	 30.400	 99.483	  0.783
28234	  0.288	 -0.146	  0.373	  0.228	  0.116	 -9.811	 -0.003	  0.002	  0.000	 30.400	 99.483	  0.783
28284	  0.290	 -0.152	  0.375	  0.205	  0.125	 -9.805	 -0.004	  0.001	  0.001	 30.400	 99.499	 -0.641
28334	  0.289	 -0.152	  0.374	  0.222	  0.146	 -9.839	 -0.003	  0.002	  0.001	 30.400	 99.495	 -0.285
28384	  0.291	 -0.152	  0.372	  0.202	  0.140	 -9.818	 -0.003	  0.002	  0.001	 30.400	 99.488	  0.339
28434	  0.288	 -0.154	  0.375	  0.231	  0.108	 -9.858	 -0.002	  0.002	 -0.000	 30.400	 99.488	  0.339
28484	  0.286	 -0.149	  0.374	  0.227	  0.122	 -9.798	 -0.002	  0.001	  0.001	 30.400	 99.483	  0.783
28534	  0.287	 -0.153	  0.375	  0.239	  0.102	 -9.825	 -0.002	  0.002	  0.001	 30.400	 99.499	 -0.641
28584	  0.288	 -0.151	  0.371	  0.200	  0.116	 -9.805	 -0.003	  0.001	  0.001	 30.400	 99.495	 -0.285
28634	  0.287	 -0.152	  0.373	  0.249	  0.133	 -9.826	 -0.004	  0.001	  0.001	 30.400	 99.483	  0.783
28684	  0.288	 -0.149	  0.372	  0.214	  0.132	 -9.867	 -0.003	  0.002	  0.000	 30.400	 99.495	 -0.285
28734	  0.286	 -0.154	  0.379	  0.222	  0.127	 -9.815	 -0.003	  0.001	  0.000	 30.400	 99.483	  0.783
28784	  0.287	 -0.150	  0.376	  0.224	  0.112	 -9.841	 -0.003	  0.002	  0.000	 30.400	 99.495	 -0.285
28834	  0.287	 -0.146	  0.377	  0.241	  0.142	 -9.809	 -0.002	  0.001	  0.000	 30.400	 99.488	  0.339
28884	  0.286	 -0.149	  0.374	  0.250	  0.143	 -9.847	 -0.003	  0.001	  0.001	 30.400	 99.495	 -0.285
28934	  0.289	 -0.145	  0.375	  0.221	  0.107	 -9.852	 -0.003	  0.002	  0.000	 30.400	 99.499	 -0.641
28984	  0.285	 -0.148	  0.374	  0.242	  0.125	 -9.786	 -0.004	  0.003	  0.000	 30.400	 99.499	 -0.641
29034	  0.286	 -0.150	  0.373	  0.226	  0.123	 -9.820	 -0.003	  0.002	 -0.000	 30.400	 99.499	 -0.641
29084	  0.289	 -0.150	  0.376	  0.220	  0.134	 -9.797	 -0.002	  0.001	  0.001	 30.400	 99.499	 -0.641
29134	  0.287	 -0.148	  0.376	  0.221	  0.138	 -9.782	 -0.003	  0.003	 -0.000	 30.400	 99.488	  0.339
29184	  0.287	 -0.144	  0.374	  0.233	  0.108	 -9.818	 -0.003	  0.002	  0.001	 30.400	 99.499	 -0.641
29234	  0.287	 -0.150	  0.371	  0.235	  0.131	 -9.829	 -0.003	  0.002	 -0.000	 30.400	 99.483	  0.783
29284	  0.286	 -0.149	  0.376	  0.232	  0.129	 -9.847	 -0.004	  0.002	  0.002	 30.400	 99.488	  0.339
29334	  0.285	 -0.150	  0.378	  0.240	  0.153	 -9.807	 -0.004	  0.001	  0.001	 30.400	 99.499	 -0.641
29383	  0.286	 -0.149	  0.375	  0.227	  0.136	 -9.853	 -0.002	  0.003	  0.000	 30.400	 99.488	  0.339
29433	  0.287	 -0.143	  0.375	  0.231	  0.118	 -9.818	 -0.003	  0.001	  0.001	 30.400	 99.499	 -0.641
29483	  0.283	 -0.150	  0.373	  0.238	  0.125	 -9.816	 -0.004	  0.002	 -0.000	 30.400	 99.488	  0.339
29533	  0.285	 -0.150	  0.369	  0.212	  0.105	 -9.843	 -0.002	  0.001	  0.001	 30.400	 99.506	 -1.264
29583	  0.287	 -0.144	  0.374	  0.218	  0.139	 -9.867	 -0.003	  0.000	  0.000	 30.400	 99.488	  0.339
29633	  0.283	 -0.150	  0.377	  0.211	  0.132	 -9.807	 -0.003	  0.001	  0.001	 30.400	 99.483	  0.783
29683	  0.288	 -0.152	  0.377	  0.240	  0.111	 -9.816	 -0.003	  0.002	 -0.000	 30.400	 99.488	  0.339
29733	  0.288	 -0.152	  0.373	  0.188	  0.133	 -9.787	 -0.003	  0.002	 -0.000	 30.400	 99.488	  0.339
29783	  0.289	 -0.149	  0.374	  0.251	  0.094	 -9.822	 -0.002	  0.001	  0.001	 30.400	 99.499	 -0.641
29833	  0.289	 -0.153	  0.373	  0.228	  0.105	 -9.791	 -0.004	  0.001	 -0.001	 30.400	 99.499	 -0.641
29883	  0.291	 -0.152	  0.374	  0.221	  0.126	 -9.820	 -0.003	  0.001	 -0.001	 30.400	 99.483	  0.783
29933	  0.290	 -0.139	  0.375	  0.205	  0.130	 -9.800	 -0.003	  0.001	  0.001	 30.400	 99.488	  0.339
29983	  0.292	 -0.151	  0.369	  0.225	  0.123	 -9.784	 -0.002	  0.001	  0.001	 30.400	 99.495	 -0.285
30033	  0.291	 -0.149	  0.375	  0.239	  0.124	 -9.810	 -0.002	  0.000	  0.001	 30.400	 99.499	 -0.641
30083	  0.291	 -0.150	  0.368	  0.217	  0.142	 -9.828	 -0.002	  0.002	  0.001	 30.400	 99.499	 -0.641
30133	  0.291	 -0.148	  0.373	  0.222	  0.106	 -9.847	 -0.002	  0.002	 -0.000	 30.400	 99.495	 -0.285
30183	  0.290	 -0.147	  0.373	  0.235	  0.120	 -9.847	 -0.003	  0.001	 -0.001	 30.400	 99.488	  0.339
30233	  0.290	 -0.153	  0.374	  0.222	  0.127	 -9.873	 -0.002	  0.002	 -0.000	 30.400	 99.495	 -0.285
30283	  0.292	 -0.144	  0.372	  0.242	  0.125	 -9.865	 -0.001	  0.001	 -0.000	 30.400	 99.488	  0.339
30333	  0.290	 -0.149	  0.375	  0.204	  0.118	 -9.863	 -0.003	  0.001	  0.000	 30.400	 99.499	 -0.641
30383	  0.292	 -0.151	  0.372	  0.227	  0.128	 -9.866	 -0.003	  0.002	  0.001	 30.400	 99.499	 -0.641
30433	  0.293	 -0.148	  0.375	  0.233	  0.108	 -9.828	 -0.004	  0.002	  0.001	 30.400	 99.488	  0.339
30483	  0.290	 -0.144	  0.372	  0.222	  0.147	 -9.805	 -0.004	  0.002	  0.000	 30.400	 99.499	 -0.641
30533	  0.293	 -0.152	  0.368	  0.230	  0.124	 -9.807	 -0.005	  0.002	  0.000	 30.400	 99.488	  0.339
30583	  0.292	 -0.149	  0.377	  0.228	  0.106	 -9.839	 -0.003	  0.002	  0.001	 30.400	 99.499	 -0.641
30633	  0.289	 -0.146	  0.374	  0.226	  0.122	 -9.762	 -0.003	  0.001	 -0.001	 30.400	 99.488	  0.339
30683	  0.293	 -0.150	  0.375	  0.214	  0.134	 -9.776	 -0.003	  0.001	  0.001	 30.400	 99.483	  0.783
30733	  0.289	 -0.148	  0.371	  0.236	  0.130	 -9.823	 -0.003	  0.002	  0.001	 30.400	 99.495	 -0.285
30783	  0.291	 -0.145	  0.375	  0.221	  0.148	 -9.830	 -0.002	  0.002	  0.001	 30.400	 99.488	  0.339
30833	  0.288	 -0.150	  0.373	  0.189	  0.121	 -9.809	 -0.003	  0.002	 -0.000	 30.400	 99.488	  0.339
30883	  0.292	 -0.150	  0.377	  0.255	  0.134	 -9.815	 -0.003	  0.002	  0.002	 30.400	 99.499	 -0.641
30933	  0.289	 -0.145	  0.376	  0.211	  0.126	 -9.818	 -0.002	  0.002	  0.002	 30.400	 99.499	 -0.641
30983	  0.291	 -0.151	  0.378	  0.216	  0.130	 -9.824	 -0.003	 -0.000	 -0.000	 30.400	 99.495	 -0.285
31033	  0.292	 -0.146	  0.377	  0.232	  0.136	 -9.787	 -0.004	  0.003	  0.000	 30.400	 99.495	 -0.285
31083	  0.291	 -0.147	  0.373	  0.230	  0.121	 -9.840	 -0.002	  0.002	 -0.000	 30.400	 99.488	  0.339
31133	  0.291	 -0.152	  0.374	  0.198	  0.111	 -9.867	 -0.003	  0.001	  0.000	 30.400	 99.488	  0.339
31183	  0.292	 -0.151	  0.374	  0.233	  0.156	 -9.837	 -0.003	  0.001	 -0.001	 30.400	 99.495	 -0.285
31233	  0.291	 -0.150	  0.373	  0.257	  0.129	 -9.840	 -0.002	  0.002	  0.000	 30.400	 99.488	  0.339
31283	  0.290	 -0.149	  0.373	  0.259	  0.132	 -9.830	 -0.002	  0.002	  0.000	 30.400	 99.499	 -0.641
31333	  0.290	 -0.149	  0.374	  0.217	  0.102	 -9.801	 -0.003	  0.001	 -0.000	 30.400	 99.499	 -0.641
31383	  0.291	 -0.148	  0.374	 -0.471	  0.596	 -9.661	  0.001	  0.007	  0.000	 30.400	 99.488	  0.339
31433	  0.294	 -0.147	  0.373	 -0.247	  0.427	 -9.745	 -0.005	 -0.001	  0.001	 30.400	 99.488	  0.339
31483	  0.289	 -0.149	  0.371	  0.086	  0.153	 -9.832	  0.001	  0.008	  0.002	 30.400	 99.488	  0.339
31533	  0.291	 -0.152	  0.374	  0.024	  0.177	 -9.852	 -0.006	 -0.001	  0.064	 30.400	 99.488	  0.339
31583	  0.293	 -0.151	  0.372	  0.317	  0.446	 -9.813	 -0.005	 -0.007	  0.170	 30.400	 99.488	  0.339
31633	  0.292	 -0.154	  0.374	  0.192	  0.001	 -9.777	 -0.010	 -0.002	  0.228	 30.400	 99.488	  0.339
31683	  0.289	 -0.161	  0.370	  0.434	 -0.110	 -9.930	 -0.009	  0.003	  0.182	 30.400	 99.499	 -0.641
31733	  0.292	 -0.162	  0.373	  0.108	  0.002	 -9.916	 -0.011	  0.005	  0.247	 30.400	 99.488	  0.339
31783	  0.287	 -0.170	  0.378	  0.233	  0.088	 -10.056	 -0.059	  0.193	  0.265	 30.400	 99.488	  0.339
31833	  0.278	 -0.164	  0.377	  0.089	  0.266	 -10.247	  0.008	  0.363	  0.102	 30.400	 99.488	  0.339
31883	  0.268	 -0.172	  0.383	  1.104	 -0.241	 -10.270	 -0.046	  0.305	 -0.072	 30.400	 99.499	 -0.641
31933	  0.265	 -0.175	  0.387	  1.301	 -0.012	 -10.214	 -0.207	 -0.073	  0.012	 30.400	 99.499	 -0.641
31983	  0.269	 -0.180	  0.379	  1.431	  0.527	 -9.729	 -0.144	 -0.459	  0.202	 30.400	 99.488	  0.339
32033	  0.281	 -0.180	  0.370	 -0.074	  0.362	 -9.873	  0.000	 -0.595	  0.174	 30.400	 99.488	  0.339
32083	  0.288	 -0.185	  0.361	 -0.165	 -0.107	 -10.056	  0.073	 -0.327	  0.090	 30.400	 99.503	 -0.997
32133	  0.289	 -0.180	  0.357	  0.131	 -0.153	 -9.954	 -0.057	 -0.118	 -0.094	 30.400	 99.499	 -0.641
32183	  0.291	 -0.179	  0.352	  0.212	  0.601	 -9.837	 -0.131	 -0.263	 -0.040	 30.400	 99.488	  0.339
32233	  0.297	 -0.181	  0.348	 -0.421	  0.427	 -9.647	 -0.173	 -0.249	  0.045	 30.400	 99.499	 -0.641
32283	  0.295	 -0.175	  0.349	 -0.775	 -0.001	 -10.464	 -0.194	 -0.087	  0.104	 30.400	 99.488	  0.339
32333	  0.293	 -0.191	  0.344	 -0.409	 -0.053	 -10.123	 -0.485	  0.016	 -0.034	 30.400	 99.488	  0.339
32383	  0.287	 -0.183	  0.342	 -0.280	  0.573	 -9.197	 -0.418	  0.354	 -0.493	 30.400	 99.483	  0.783
32433	  0.280	 -0.176	  0.351	 -0.651	  1.848	 -8.906	 -0.026	  0.210	 -1.053	 30.400	 99.488	  0.339
32483	  0.282	 -0.158	  0.350	 -0.033	  1.862	 -8.407	  0.016	 -0.170	 -0.918	 30.400	 99.488	  0.339
32534	  0.287	 -0.139	  0.352	 -1.872	  1.899	 -9.622	  0.016	 -0.127	 -0.482	 30.400	 99.483	  0.783
32583	  0.287	 -0.143	  0.355	 -1.504	  1.417	 -9.511	  0.037	  0.054	  0.553	 30.400	 99.488	  0.339
32634	  0.282	 -0.156	  0.355	 -0.834	  1.015	 -10.127	 -0.193	  0.413	  0.429	 30.400	 99.488	  0.339
32684	  0.271	 -0.166	  0.362	  0.248	  0.825	 -9.745	 -0.189	  0.410	 -0.100	 30.400	 99.476	  1.407
32734	  0.267	 -0.157	  0.361	  0.454	  2.553	 -9.924	  0.195	  0.222	 -0.067	 30.400	 99.492	 -0.018
32784	  0.270	 -0.163	  0.366	  1.064	  1.190	 -9.746	  0.240	 -0.289	  0.281	 30.400	 99.488	  0.339
32834	  0.277	 -0.158	  0.361	 -0.364	  1.161	 -10.054	  0.489	 -0.397	  0.434	 30.400	 99.488	  0.339
32883	  0.283	 -0.159	  0.357	 -1.115	 -0.108	 -10.387	  0.571	 -0.249	  0.667	 30.400	 99.488	  0.339
32932	  0.283	 -0.158	  0.357	 -0.263	 -1.695	 -10.686	  0.156	  0.111	  0.323	 30.400	 99.499	 -0.641
32983	  0.278	 -0.155	  0.359	  0.229	  0.113	 -10.595	 -0.098	  0.417	 -0.286	 30.400	 99.488	  0.339
33034	  0.266	 -0.153	  0.367	 -0.481	  0.793	 -11.263	 -0.248	  0.251	 -0.726	 30.400	 99.499	 -0.641
33084	  0.265	 -0.144	  0.354	  0.679	  0.396	 -10.805	 -0.316	 -0.317	 -0.258	 30.400	 99.488	  0.339
33134	  0.265	 -0.153	  0.353	 -0.459	 -1.067	 -8.671	 -0.697	 -0.419	  0.326	 30.400	 99.488	  0.339
33184	  0.268	 -0.177	  0.343	  0.170	  0.258	 -4.134	 -0.671	 -0.265	 -0.013	 30.400	 99.488	  0.339
33234	  0.274	 -0.176	  0.344	 -1.657	  3.410	 -3.969	 -0.010	  0.257	 -0.326	 30.400	 99.488	  0.339
33284	  0.273	 -0.158	  0.355	 -2.076	  7.168	 -11.040	  0.774	  0.551	 -0.089	 30.400	 99.499	 -0.641
33333	  0.267	 -0.142	  0.367	  1.475	 -1.435	 -20.529	  1.400	  0.457	  0.414	 30.400	 99.499	 -0.641
33383	  0.261	 -0.150	  0.363	  1.548	 -8.350	 -17.194	 -0.860	 -0.204	  0.081	 30.400	 99.488	  0.339
33433	  0.249	 -0.169	  0.352	 -0.433	 -1.059	 -4.343	 -1.585	  0.212	 -0.506	 30.400	 99.488	  0.339
33483	  0.243	 -0.183	  0.347	 -0.147	  5.611	  4.096	 -0.631	 -0.101	 -0.035	 30.400	 99.488	  0.339
33533	  0.248	 -0.189	  0.350	 -2.249	  7.890	 -3.949	  0.951	  0.379	  0.756	 30.400	 99.492	 -0.018
33583	  0.246	 -0.165	  0.372	  1.533	  0.665	 -24.486	  1.687	  0.657	 -0.199	 30.400	 99.510	 -1.621
33633	  0.232	 -0.154	  0.375	  5.671	 -11.114	 -22.000	 -0.597	 -0.003	 -0.174	 30.400	 99.488	  0.339
33683	  0.230	 -0.184	  0.356	  1.587	 -4.915	  2.212	 -2.236	 -0.871	 -0.085	 30.400	 99.488	  0.339
33733	  0.243	 -0.217	  0.340	 -5.571	 12.624	  8.126	 -0.540	 -0.266	  0.352	 30.400	 99.488	  0.339
33783	  0.239	 -0.198	  0.361	 -1.090	 12.434	 -12.200	  2.534	  1.521	 -0.092	 30.400	 99.488	  0.339
33833	  0.224	 -0.143	  0.384	 11.378	 -16.293	 -30.444	  1.393	  0.353	 -0.331	 30.400	 99.499	 -0.641
33883	  0.238	 -0.157	  0.358	  5.303	 -10.273	 -6.905	 -2.780	 -2.671	  0.169	 30.400	 99.483	  0.783
33933	  0.276	 -0.198	  0.315	 -7.804	 10.904	 12.651	 -1.353	 -0.974	 -0.468	 30.400	 99.488	  0.339
33983	  0.263	 -0.193	  0.342	 -6.166	 12.654	 -3.724	  2.085	  2.423	  0.384	 30.400	 99.488	  0.339
34033	  0.240	 -0.155	  0.384	  7.289	 -2.524	 -20.289	  2.134	  1.062	 -0.035	 30.400	 99.488	  0.339
34083	  0.248	 -0.138	  0.375	  8.154	 -12.554	 -27.798	 -0.328	 -1.473	  0.552	 30.400	 99.499	 -0.641
34133	  0.272	 -0.169	  0.340	 -2.486	 -2.190	 -2.019	 -2.601	 -1.663	 -0.440	 30.400	 99.499	 -0.641
34183	  0.276	 -0.193	  0.323	 -7.360	  9.364	 11.882	 -0.915	  0.422	 -0.368	 30.400	 99.488	  0.339
34233	  0.265	 -0.191	  0.345	 -1.670	 10.462	 -7.791	  2.486	  1.888	  0.867	 30.400	 99.499	 -0.641
34283	  0.244	 -0.148	  0.379	  8.707	 -10.147	 -31.196	  1.110	  0.428	 -0.783	 30.400	 99.499	 -0.641
34333	  0.260	 -0.159	  0.358	  3.988	 -9.922	 -11.500	 -2.603	 -2.483	  0.487	 30.400	 99.499	 -0.641
34383	  0.282	 -0.196	  0.317	 -6.530	  6.513	 12.394	 -1.715	 -0.513	 -0.577	 30.400	 99.499	 -0.641
34433	  0.266	 -0.204	  0.344	 -7.297	 16.838	  3.246	  1.688	  2.613	  0.786	 30.400	 99.488	  0.339
34483	  0.237	 -0.162	  0.396	  9.956	 -3.688	 -29.477	  2.890	  1.361	 -0.212	 30.400	 99.499	 -0.641
34533	  0.232	 -0.134	  0.387	 10.002	 -14.670	 -30.595	 -1.057	 -1.415	  0.238	 30.400	 99.488	  0.339
34583	  0.255	 -0.192	  0.339	 -3.445	 -6.841	  1.702	 -3.704	 -1.930	 -0.319	 30.400	 99.488	  0.339
34634	  0.252	 -0.231	  0.314	 -6.877	 10.238	 18.328	 -0.851	  0.681	  0.143	 30.400	 99.476	  1.407
34684	  0.245	 -0.215	  0.341	 -0.216	 14.153	 -0.570	  2.703	  0.868	  0.348	 30.400	 99.488	  0.339
34734	  0.257	 -0.148	  0.378	  5.663	 -10.933	 -37.536	  3.131	  0.330	  0.118	 30.400	 99.488	  0.339
34784	  0.254	 -0.151	  0.363	  1.276	 -6.579	 -28.911	 -1.797	 -0.723	  0.068	 30.400	 99.476	  1.407
34834	  0.247	 -0.199	  0.331	  4.069	 -7.669	  1.307	 -3.237	 -1.267	 -0.030	 30.400	 99.488	  0.339
34884	  0.262	 -0.239	  0.296	  0.230	  6.738	 21.152	 -1.275	 -0.853	 -0.418	 30.400	 99.488	  0.339
34934	  0.272	 -0.223	  0.309	 -7.914	 10.923	  2.903	  2.107	  0.898	 -0.209	 30.400	 99.499	 -0.641
34984	  0.272	 -0.161	  0.356	  0.146	 -0.263	 -25.826	  3.768	  1.457	  0.473	 30.400	 99.499	 -0.641
35034	  0.265	 -0.134	  0.370	  5.422	 -9.622	 -38.471	 -0.515	 -0.110	  0.157	 30.400	 99.488	  0.339
35084	  0.260	 -0.177	  0.332	  1.237	 -8.579	 -17.166	 -2.895	 -1.220	 -0.184	 30.400	 99.488	  0.339
35134	  0.257	 -0.225	  0.299	 -0.054	 -3.101	 14.721	 -2.947	 -0.722	  0.150	 30.400	 99.488	  0.339
35184	  0.256	 -0.253	  0.287	  1.063	  8.301	 18.667	  0.422	 -0.088	 -0.092	 30.400	 99.481	  0.961
35234	  0.267	 -0.227	  0.317	 -7.476	 14.749	 -3.367	  3.322	  1.534	  0.005	 30.400	 99.488	  0.339
35284	  0.261	 -0.163	  0.370	  3.938	 -8.642	 -35.782	  2.646	  1.032	  0.387	 30.400	 99.499	 -0.641
35334	  0.254	 -0.151	  0.361	  7.695	 -13.647	 -37.160	 -1.178	 -0.755	  0.076	 30.400	 99.499	 -0.641
35384	  0.257	 -0.205	  0.320	  1.089	 -0.853	 -3.780	 -3.530	 -1.841	  0.092	 30.400	 99.514	 -1.977
35434	  0.262	 -0.245	  0.281	 -2.067	  0.471	 17.436	 -1.597	 -0.284	 -0.409	 30.400	 99.481	  0.961
35484	  0.260	 -0.246	  0.286	 -4.767	  8.724	 13.719	  0.655	  0.843	  0.302	 30.400	 99.488	  0.339
35534	  0.261	 -0.214	  0.332	  2.615	  6.620	 -12.679	  3.485	  1.058	  0.096	 30.400	 99.488	  0.339
35583	  0.275	 -0.169	  0.359	  2.321	 -6.121	 -38.245	  2.426	 -0.004	  0.253	 30.400	 99.510	 -1.621
35634	  0.279	 -0.155	  0.345	  0.884	 -7.741	 -30.027	 -1.717	 -0.971	 -0.234	 30.400	 99.499	 -0.641
35683	  0.269	 -0.204	  0.310	  1.136	 -6.319	 -6.330	 -3.059	 -0.593	  0.456	 30.400	 99.488	  0.339
35733	  0.258	 -0.252	  0.279	 -0.773	  2.732	 16.541	 -2.462	 -0.270	 -0.297	 30.400	 99.488	  0.339
35783	  0.259	 -0.257	  0.283	  1.507	 10.447	 13.313	  1.246	 -0.022	  0.032	 30.400	 99.492	 -0.018
35833	  0.281	 -0.224	  0.305	 -3.441	  5.854	 -6.046	  3.517	  0.522	 -0.239	 30.400	 99.488	  0.339
35883	  0.295	 -0.161	  0.338	  0.979	 -7.277	 -26.250	  2.660	  0.469	  0.181	 30.400	 99.488	  0.339
35933	  0.306	 -0.140	  0.343	  0.837	 -8.330	 -30.776	 -0.242	 -0.323	 -0.105	 30.400	 99.492	 -0.018
35983	  0.302	 -0.160	  0.322	 -1.946	 -3.230	 -15.599	 -2.158	 -0.403	 -0.062	 30.400	 99.488	  0.339
36033	  0.294	 -0.202	  0.303	 -2.077	  0.682	  4.654	 -2.590	 -0.500	  0.139	 30.400	 99.476	  1.407
36083	  0.282	 -0.231	  0.292	 -0.487	  6.703	  2.555	  0.106	  0.604	  0.232	 30.400	 99.492	 -0.018
36133	  0.284	 -0.213	  0.318	 -0.494	  4.240	 -7.673	  1.278	  0.304	 -0.164	 30.400	 99.488	  0.339
36183	  0.290	 -0.197	  0.327	 -0.557	  0.551	 -13.019	  0.949	  0.043	  0.196	 30.400	 99.488	  0.339
36233	  0.292	 -0.187	  0.331	 -0.398	 -1.915	 -14.449	  0.357	  0.114	 -0.052	 30.400	 99.499	 -0.641
36283	  0.294	 -0.189	  0.333	 -0.859	  0.732	 -12.301	 -0.410	  0.072	  0.143	 30.400	 99.488	  0.339
36333	  0.287	 -0.202	  0.329	 -0.447	  1.775	 -9.916	 -0.422	  0.059	  0.215	 30.400	 99.488	  0.339
36383	  0.281	 -0.210	  0.329	 -0.499	  1.638	 -9.112	 -0.287	  0.039	  0.205	 30.400	 99.488	  0.339
36433	  0.276	 -0.212	  0.326	 -0.406	  2.168	 -8.994	 -0.202	  0.062	  0.215	 30.400	 99.488	  0.339
36483	  0.274	 -0.219	  0.323	 -0.117	  2.043	 -8.647	 -0.092	  0.041	  0.049	 30.400	 99.499	 -0.641
36533	  0.272	 -0.223	  0.332	 -0.471	  1.987	 -8.989	 -0.017	  0.011	  0.231	 30.400	 99.488	  0.339
36583	  0.270	 -0.221	  0.325	  0.017	  2.048	 -9.253	  0.077	  0.021	  0.361	 30.400	 99.488	  0.339
36633	  0.269	 -0.233	  0.326	 -0.382	  1.635	 -9.624	  0.121	  0.066	  0.025	 30.400	 99.499	 -0.641
36683	  0.270	 -0.224	  0.330	 -0.162	  1.857	 -9.784	  0.091	  0.182	  0.031	 30.400	 99.492	 -0.018
36733	  0.267	 -0.226	  0.333	  0.206	  1.848	 -9.704	  0.163	  0.060	 -0.033	 30.400	 99.492	 -0.018
36783	  0.265	 -0.223	  0.333	  0.035	  1.693	 -9.891	  0.180	 -0.131	  0.025	 30.400	 99.488	  0.339
36833	  0.271	 -0.212	  0.331	 -0.429	  1.236	 -9.795	  0.161	 -0.173	  0.106	 30.400	 99.488	  0.339
36883	  0.276	 -0.220	  0.330	 -0.568	  1.152	 -9.825	  0.103	 -0.113	  0.063	 30.400	 99.499	 -0.641
36933	  0.278	 -0.216	  0.326	 -0.586	  1.178	 -9.732	  0.075	  0.039	 -0.004	 30.400	 99.481	  0.961
36983	  0.278	 -0.216	  0.331	 -0.298	  1.399	 -9.676	  0.046	  0.114	 -0.018	 30.400	 99.488	  0.339
37033	  0.273	 -0.218	  0.333	 -0.072	  1.335	 -9.681	  0.082	  0.105	 -0.007	 30.400	 99.488	  0.339
37083	  0.273	 -0.216	  0.333	  0.080	  1.344	 -9.778	  0.077	  0.046	 -0.043	 30.400	 99.503	 -0.997
37133	  0.273	 -0.201	  0.337	 -0.012	  1.346	 -9.598	  0.119	 -0.038	 -0.008	 30.400	 99.488	  0.339
37183	  0.276	 -0.208	  0.339	 -0.144	  1.332	 -9.587	  0.141	 -0.116	  0.037	 30.400	 99.488	  0.339
37233	  0.281	 -0.210	  0.331	 -0.225	  1.172	 -9.814	  0.198	 -0.139	  0.072	 30.400	 99.481	  0.961
37283	  0.284	 -0.204	  0.337	 -0.396	  0.757	 -9.897	  0.164	 -0.133	  0.055	 30.400	 99.476	  1.407
37333	  0.284	 -0.204	  0.335	 -0.472	  0.740	 -9.956	  0.093	 -0.060	 -0.011	 30.400	 99.492	 -0.018
37383	  0.287	 -0.204	  0.333	 -0.447	  0.840	 -9.959	  0.063	  0.005	 -0.038	 30.400	 99.488	  0.339
37433	  0.288	 -0.198	  0.336	 -0.351	  0.839	 -9.941	  0.062	 -0.026	  0.019	 30.400	 99.488	  0.339
37483	  0.289	 -0.204	  0.337	 -0.493	  0.897	 -9.944	  0.025	 -0.079	  0.208	 30.400	 99.488	  0.339
37533	  0.291	 -0.206	  0.334	 -0.460	  0.718	 -9.961	  0.051	 -0.107	  0.241	 30.400	 99.488	  0.339
37583	  0.289	 -0.207	  0.327	 -0.816	  0.807	 -10.062	 -0.064	 -0.143	  0.387	 30.400	 99.488	  0.339
37633	  0.290	 -0.223	  0.328	 -0.673	  1.162	 -9.720	 -0.123	 -0.282	  0.877	 30.400	 99.492	 -0.018
37683	  0.290	 -0.244	  0.320	 -0.688	  1.077	 -9.835	 -0.031	 -0.416	  1.249	 30.400	 99.476	  1.407
37733	  0.290	 -0.266	  0.309	 -0.790	  0.714	 -9.885	 -0.074	 -0.439	  1.243	 30.400	 99.488	  0.339
37784	  0.287	 -0.292	  0.308	 -1.289	  0.942	 -9.716	 -0.087	 -0.408	  1.095	 30.400	 99.492	 -0.018
37833	  0.283	 -0.310	  0.296	 -1.311	  0.728	 -9.872	 -0.096	 -0.175	  0.771	 30.400	 99.476	  1.407
37883	  0.277	 -0.314	  0.291	 -1.530	  0.908	 -9.647	 -0.170	  0.078	  0.325	 30.400	 99.488	  0.339
37933	  0.270	 -0.322	  0.296	 -1.221	  1.310	 -9.398	 -0.171	  0.334	 -0.124	 30.400	 99.488	  0.339
37983	  0.268	 -0.310	  0.300	 -1.182	  1.382	 -9.470	 -0.088	  0.564	 -0.578	 30.400	 99.488	  0.339
38033	  0.262	 -0.306	  0.308	 -0.791	  1.050	 -9.400	 -0.115	  0.696	 -0.838	 30.400	 99.499	 -0.641
38084	  0.259	 -0.287	  0.318	 -0.703	  1.134	 -9.888	 -0.170	  0.576	 -0.949	 30.400	 99.499	 -0.641
38133	  0.255	 -0.285	  0.322	 -0.787	  1.245	 -9.784	 -0.265	  0.627	 -0.683	 30.400	 99.488	  0.339
38183	  0.243	 -0.279	  0.330	  0.009	  2.672	 -9.080	 -0.247	  0.684	 -0.320	 30.400	 99.488	  0.339
38234	  0.232	 -0.280	  0.333	  0.468	  2.674	 -9.313	  0.014	  0.546	 -0.128	 30.400	 99.488	  0.339
38283	  0.224	 -0.270	  0.338	  1.099	  2.868	 -8.835	  0.475	  0.690	 -0.299	 30.400	 99.488	  0.339
38334	  0.214	 -0.256	  0.351	  1.848	  1.314	 -9.213	  0.436	  0.633	 -0.388	 30.400	 99.488	  0.339
38384	  0.209	 -0.243	  0.356	  2.257	  1.273	 -9.847	  0.245	  0.139	 -0.329	 30.400	 99.488	  0.339
38434	  0.212	 -0.235	  0.356	  1.839	  1.759	 -9.777	  0.357	 -0.260	 -0.553	 30.400	 99.488	  0.339
38484	  0.223	 -0.219	  0.355	  1.243	  1.427	 -9.877	  0.451	 -0.258	 -0.343	 30.400	 99.481	  0.961
38534	  0.230	 -0.201	  0.357	  1.102	  0.916	 -10.001	  0.559	 -0.140	 -0.447	 30.400	 99.499	 -0.641
38584	  0.233	 -0.186	  0.357	  1.132	  0.738	 -9.434	  0.523	 -0.070	 -0.275	 30.400	 99.488	  0.339
38634	  0.236	 -0.176	  0.351	  0.602	  0.007	 -9.649	  0.523	 -0.074	 -0.163	 30.400	 99.499	 -0.641
38684	  0.235	 -0.158	  0.359	  0.797	 -0.689	 -9.026	  0.374	  0.114	 -0.364	 30.400	 99.499	 -0.641
38734	  0.237	 -0.142	  0.359	  1.490	 -0.089	 -8.858	  0.202	  0.027	 -0.330	 30.400	 99.492	 -0.018
38784	  0.244	 -0.143	  0.364	  1.659	 -0.485	 -9.677	  0.125	 -0.244	 -0.401	 30.400	 99.488	  0.339
38834	  0.253	 -0.132	  0.361	  2.224	 -0.704	 -9.793	  0.108	 -0.599	 -0.345	 30.400	 99.499	 -0.641
38884	  0.275	 -0.126	  0.350	 -0.121	 -0.235	 -10.857	  0.062	 -0.874	 -0.246	 30.400	 99.488	  0.339
38934	  0.289	 -0.126	  0.343	 -1.166	 -0.367	 -10.674	 -0.088	 -0.589	 -0.038	 30.400	 99.488	  0.339
38984	  0.298	 -0.122	  0.331	 -1.902	  0.198	 -10.093	 -0.162	 -0.134	 -0.065	 30.400	 99.488	  0.339
39034	  0.296	 -0.126	  0.338	 -1.702	  0.592	 -9.641	 -0.120	  0.287	 -0.067	 30.400	 99.499	 -0.641
39084	  0.289	 -0.130	  0.346	 -0.792	  0.708	 -9.901	 -0.062	  0.543	 -0.026	 30.400	 99.488	  0.339
39134	  0.276	 -0.135	  0.349	 -1.745	  6.403	 -15.333	  0.284	  0.521	  0.445	 30.400	 99.488	  0.339
39184	  0.259	 -0.119	  0.353	  6.649	 -13.386	 -30.059	  1.357	  0.459	  0.402	 30.400	 99.499	 -0.641
39234	  0.231	 -0.141	  0.342	  3.881	 -22.069	 -11.230	 -4.433	 -0.068	 -0.937	 30.400	 99.481	  0.961
39284	  0.212	 -0.210	  0.320	 -2.668	  8.849	 21.539	 -3.521	 -0.380	 -0.458	 30.400	 99.492	 -0.018
39334	  0.225	 -0.234	  0.302	 -5.791	 16.861	 16.360	  1.236	 -0.673	  0.537	 30.400	 99.481	  0.961
39384	  0.235	 -0.200	  0.329	 -3.894	  4.046	 -6.020	  3.537	  0.918	  0.285	 30.400	 99.488	  0.339
39434	  0.234	 -0.146	  0.358	  5.136	 -12.334	 -25.262	  1.773	  0.709	  0.223	 30.400	 99.499	 -0.641
39484	  0.239	 -0.137	  0.364	  2.277	 -0.874	 -18.675	 -0.125	  0.062	  0.181	 30.400	 99.492	 -0.018
39534	  0.239	 -0.150	  0.365	  3.279	 -3.084	 -13.133	 -0.747	 -0.509	 -0.013	 30.400	 99.488	  0.339
39584	  0.248	 -0.167	  0.353	  0.077	  1.651	 -8.039	 -0.652	 -0.398	  0.046	 30.400	 99.488	  0.339
39634	  0.249	 -0.177	  0.344	 -0.039	  0.392	 -7.453	 -0.360	 -0.274	 -0.085	 30.400	 99.492	 -0.018
39684	  0.251	 -0.172	  0.342	 -0.777	  2.145	 -7.626	 -0.070	  0.101	 -0.078	 30.400	 99.488	  0.339
39734	  0.250	 -0.169	  0.349	  0.146	  1.324	 -8.631	  0.346	  0.247	 -0.021	 30.400	 99.488	  0.339
39784	  0.254	 -0.163	  0.350	  0.731	  0.724	 -9.518	  0.303	  0.045	  0.026	 30.400	 99.492	 -0.018
39834	  0.255	 -0.157	  0.357	  0.593	  0.109	 -10.173	  0.354	  0.101	 -0.031	 30.400	 99.503	 -0.997
39884	  0.252	 -0.149	  0.358	  0.313	 -0.110	 -10.472	  0.243	  0.058	 -0.022	 30.400	 99.488	  0.339
39934	  0.252	 -0.149	  0.362	  0.833	 -0.066	 -10.350	  0.160	  0.085	  0.017	 30.400	 99.488	  0.339
39984	  0.252	 -0.144	  0.364	  0.598	  0.467	 -10.247	  0.100	 -0.023	  0.035	 30.400	 99.499	 -0.641
40034	  0.257	 -0.142	  0.363	  0.643	  0.132	 -10.107	  0.086	 -0.056	  0.023	 30.400	 99.499	 -0.641
40084	  0.259	 -0.142	  0.365	  0.502	  0.212	 -9.993	  0.090	 -0.052	 -0.012	 30.400	 99.499	 -0.641
40134	  0.257	 -0.141	  0.366	  0.593	 -0.186	 -10.037	  0.042	 -0.060	  0.000	 30.400	 99.492	 -0.018
40184	  0.261	 -0.137	  0.358	  0.509	 -0.099	 -9.781	  0.033	 -0.094	  0.011	 30.400	 99.499	 -0.641
40234	  0.262	 -0.133	  0.361	  0.328	  0.109	 -9.762	  0.028	 -0.108	 -0.017	 30.400	 99.488	  0.339
40284	  0.269	 -0.128	  0.361	  0.252	  0.167	 -9.614	  0.075	 -0.100	  0.012	 30.400	 99.503	 -0.997
40334	  0.270	 -0.134	  0.361	  0.266	 -0.082	 -9.740	  0.098	 -0.091	  0.019	 30.400	 99.481	  0.961
40384	  0.272	 -0.134	  0.359	  0.220	 -0.259	 -9.687	  0.079	 -0.048	 -0.024	 30.400	 99.503	 -0.997
40434	  0.274	 -0.122	  0.360	  0.061	 -0.243	 -9.342	  0.105	 -0.037	 -0.049	 30.400	 99.481	  0.961
40484	  0.276	 -0.127	  0.363	  0.112	 -0.211	 -9.134	  0.098	  0.013	 -0.011	 30.400	 99.492	 -0.018
40534	  0.277	 -0.124	  0.363	 -0.134	  0.414	 -9.131	  0.180	  0.086	 -0.045	 30.400	 99.492	 -0.018
40584	  0.279	 -0.115	  0.370	 -0.010	  1.806	 -9.855	  0.362	  0.257	 -0.089	 30.400	 99.492	 -0.018
40634	  0.271	 -0.106	  0.373	  0.134	  5.688	 -20.125	  1.449	  0.246	  0.254	 30.400	 99.499	 -0.641
40684	  0.267	 -0.083	  0.360	  8.549	 -28.286	 -33.072	 -0.337	 -0.327	 -0.904	 30.400	 99.503	 -0.997
40734	  0.250	 -0.143	  0.335	  0.581	 -5.563	 -0.079	 -5.579	 -1.268	  0.131	 30.400	 99.488	  0.339
40784	  0.252	 -0.213	  0.295	 -3.104	 11.162	 22.679	 -2.404	 -1.247	 -0.625	 30.400	 99.499	 -0.641
40834	  0.267	 -0.198	  0.293	 -7.302	 17.926	 20.029	  1.937	  0.270	 -0.126	 30.400	 99.469	  2.031
40884	  0.273	 -0.144	  0.331	 -3.700	  2.733	 -9.072	  4.859	  2.035	  0.121	 30.400	 99.476	  1.407
40934	  0.266	 -0.075	  0.370	  9.688	 -24.564	 -40.010	  2.660	  1.390	  0.250	 30.400	 99.503	 -0.997
40984	  0.243	 -0.069	  0.369	  7.569	 -16.729	 -38.983	 -2.166	 -0.276	 -0.076	 30.400	 99.492	 -0.018
41034	  0.230	 -0.144	  0.333	  4.550	 -6.883	 -9.956	 -4.548	 -1.790	  0.111	 30.400	 99.503	 -0.997
41084	  0.235	 -0.214	  0.278	  1.207	 -1.133	 19.045	 -3.096	 -1.612	 -0.368	 30.400	 99.492	 -0.018
41134	  0.256	 -0.223	  0.259	 -1.967	 11.176	 30.798	 -0.383	 -0.640	 -0.607	 30.400	 99.476	  1.407
41184	  0.269	 -0.185	  0.294	 -10.191	 12.673	  9.714	  4.759	  1.633	  0.196	 30.400	 99.481	  0.961
41234	  0.273	 -0.096	  0.348	  2.820	 -12.453	 -31.529	  4.954	  2.367	  0.370	 30.400	 99.492	 -0.018
41284	  0.249	 -0.054	  0.375	 10.966	 -21.075	 -49.013	  0.175	  0.941	  0.027	 30.400	 99.499	 -0.641
41333	  0.228	 -0.089	  0.358	 10.695	 -17.309	 -34.956	 -3.308	 -1.053	 -0.349	 30.400	 99.492	 -0.018
41383	  0.229	 -0.176	  0.300	 -0.348	  0.011	  7.254	 -4.952	 -2.518	  0.051	 30.400	 99.488	  0.339
41433	  0.237	 -0.221	  0.256	 -0.077	 -1.798	 22.368	 -2.030	 -0.997	 -0.548	 30.400	 99.492	 -0.018
41483	  0.240	 -0.231	  0.257	 -2.555	  9.767	 16.452	  0.636	  0.680	 -0.014	 30.400	 99.488	  0.339
41533	  0.238	 -0.202	  0.278	 -4.254	  6.042	 -2.618	  2.414	  0.988	  0.012	 30.400	 99.492	 -0.018
41583	  0.234	 -0.163	  0.320	  3.840	 -1.352	 -17.443	  2.372	  1.213	  0.095	 30.400	 99.492	 -0.018
41633	  0.242	 -0.124	  0.341	  3.386	 -6.369	 -21.402	  1.143	  0.034	  0.217	 30.400	 99.488	  0.339
41683	  0.252	 -0.127	  0.342	 -0.259	 -0.822	 -17.004	 -0.339	 -0.656	  0.246	 30.400	 99.499	 -0.641
41733	  0.266	 -0.135	  0.331	 -0.942	  0.537	 -11.247	 -0.591	 -0.475	 -0.404	 30.400	 99.499	 -0.641
41783	  0.271	 -0.142	  0.327	 -1.754	  1.564	 -8.972	 -0.398	 -0.236	  0.043	 30.400	 99.488	  0.339
41833	  0.268	 -0.147	  0.324	 -0.946	  1.269	 -8.718	 -0.264	  0.123	 -0.156	 30.400	 99.488	  0.339
41883	  0.266	 -0.144	  0.323	 -0.268	  1.432	 -8.648	  0.019	  0.018	  0.071	 30.400	 99.488	  0.339
41933	  0.272	 -0.145	  0.324	 -0.475	  1.252	 -9.030	  0.110	  0.003	  0.033	 30.400	 99.499	 -0.641
41983	  0.270	 -0.145	  0.326	 -0.421	  0.964	 -9.166	  0.200	  0.034	 -0.030	 30.400	 99.492	 -0.018
42033	  0.274	 -0.139	  0.326	 -0.655	  0.645	 -9.275	  0.283	  0.116	  0.063	 30.400	 99.492	 -0.018
42083	  0.272	 -0.133	  0.325	 -0.230	  0.305	 -9.845	  0.234	  0.077	  0.095	 30.400	 99.499	 -0.641
42133	  0.276	 -0.135	  0.332	 -0.383	  0.368	 -9.912	  0.252	  0.154	  0.104	 30.400	 99.492	 -0.018
42183	  0.276	 -0.134	  0.332	  0.003	  0.125	 -9.993	  0.238	  0.072	  0.085	 30.400	 99.488	  0.339
42233	  0.276	 -0.131	  0.337	 -0.264	  0.202	 -10.052	  0.190	  0.076	  0.030	 30.400	 99.492	 -0.018
42283	  0.279	 -0.126	  0.336	 -0.377	  0.288	 -10.116	  0.219	  0.065	  0.120	 30.400	 99.499	 -0.641
42333	  0.280	 -0.126	  0.341	 -0.164	 -0.172	 -10.309	  0.153	  0.081	  0.116	 30.400	 99.488	  0.339
42383	  0.282	 -0.125	  0.346	 -0.228	 -0.165	 -10.322	  0.116	  0.123	  0.013	 30.400	 99.488	  0.339
42433	  0.277	 -0.115	  0.347	  0.000	 -0.450	 -10.432	  0.056	  0.143	 -0.010	 30.400	 99.488	  0.339
42483	  0.274	 -0.121	  0.346	 -0.190	 -0.224	 -10.281	 -0.033	  0.153	 -0.034	 30.400	 99.503	 -0.997
42533	  0.271	 -0.120	  0.352	 -0.097	 -0.381	 -10.194	 -0.083	  0.213	 -0.045	 30.400	 99.499	 -0.641
42583	  0.269	 -0.122	  0.352	  0.023	 -0.131	 -9.931	 -0.145	  0.258	 -0.041	 30.400	 99.481	  0.961
42633	  0.259	 -0.125	  0.352	  0.187	  0.234	 -9.690	 -0.146	  0.294	 -0.059	 30.400	 99.492	 -0.018
42683	  0.252	 -0.127	  0.362	 -0.101	  0.505	 -9.649	 -0.067	  0.360	  0.008	 30.400	 99.488	  0.339
42733	  0.244	 -0.129	  0.364	  0.519	  0.317	 -9.693	  0.030	  0.492	 -0.004	 30.400	 99.492	 -0.018
42783	  0.232	 -0.129	  0.369	  0.772	  0.424	 -9.428	  0.015	  0.512	 -0.004	 30.400	 99.492	 -0.018
42833	  0.223	 -0.128	  0.372	  0.980	  0.225	 -9.613	  0.068	  0.415	  0.185	 30.400	 99.488	  0.339
42883	  0.217	 -0.130	  0.367	  1.340	 -0.205	 -10.088	  0.080	  0.223	  0.100	 30.400	 99.488	  0.339
42933	  0.210	 -0.121	  0.375	  1.324	 -0.241	 -10.010	 -0.003	  0.463	  0.006	 30.400	 99.488	  0.339
42983	  0.196	 -0.127	  0.385	  2.047	 -0.028	 -9.351	  0.016	  0.769	 -0.292	 30.400	 99.492	 -0.018
43033	  0.182	 -0.128	  0.389	  2.277	  0.390	 -9.156	 -0.097	  0.691	 -0.132	 30.400	 99.492	 -0.018
43083	  0.170	 -0.123	  0.393	  3.349	  0.655	 -9.060	 -0.076	  0.181	  0.333	 30.400	 99.476	  1.407
43133	  0.175	 -0.135	  0.393	  3.041	  0.661	 -8.964	 -0.004	 -0.285	  0.407	 30.400	 99.492	 -0.018
43183	  0.182	 -0.136	  0.382	  2.637	  0.457	 -9.149	  0.184	 -0.480	  0.318	 30.400	 99.492	 -0.018
43233	  0.197	 -0.143	  0.383	  1.962	 -0.553	 -9.913	  0.185	 -0.487	  0.458	 30.400	 99.503	 -0.997
43283	  0.207	 -0.142	  0.378	  2.199	 -0.165	 -9.751	  0.102	 -0.392	  0.385	 30.400	 99.481	  0.961
43333	  0.211	 -0.140	  0.376	  1.936	 -0.426	 -9.902	  0.113	 -0.249	  0.176	 30.400	 99.492	 -0.018
43383	  0.221	 -0.133	  0.370	  1.887	 -0.316	 -9.597	  0.146	 -0.217	  0.048	 30.400	 99.492	 -0.018
43433	  0.228	 -0.140	  0.370	  1.615	 -0.671	 -9.749	  0.128	 -0.318	 -0.057	 30.400	 99.503	 -0.997
43483	  0.235	 -0.127	  0.364	  1.338	 -0.358	 -9.602	  0.068	 -0.406	 -0.033	 30.400	 99.492	 -0.018
43533	  0.248	 -0.133	  0.370	  0.952	 -0.828	 -9.941	  0.074	 -0.431	 -0.026	 30.400	 99.488	  0.339
43583	  0.255	 -0.136	  0.355	  1.174	 -0.748	 -9.233	 -0.316	 -0.221	  0.079	 30.400	 99.488	  0.339
43634	  0.258	 -0.137	  0.356	  0.488	 -0.364	 -9.465	 -0.251	 -0.205	 -0.165	 30.400	 99.503	 -0.997
43683	  0.264	 -0.135	  0.358	  0.015	  0.106	 -9.412	 -0.179	 -0.235	  0.100	 30.400	 99.499	 -0.641
43734	  0.265	 -0.152	  0.354	  0.017	  0.019	 -9.005	 -0.264	 -0.066	  0.202	 30.400	 99.492	 -0.018
43784	  0.270	 -0.154	  0.351	  0.347	 -0.354	 -9.432	 -0.234	  0.002	  0.106	 30.400	 99.503	 -0.997
43834	  0.270	 -0.161	  0.354	  0.456	 -0.035	 -10.014	 -0.240	  0.027	  0.103	 30.400	 99.492	 -0.018
43884	  0.270	 -0.162	  0.354	  0.718	  0.493	 -9.507	 -0.074	 -0.182	  0.133	 30.400	 99.503	 -0.997
43934	  0.274	 -0.167	  0.350	  0.353	 -0.417	 -9.945	 -0.163	 -0.252	  0.168	 30.400	 99.488	  0.339
43984	  0.279	 -0.178	  0.346	  0.223	  0.426	 -9.911	 -0.145	 -0.178	  0.083	 30.400	 99.492	 -0.018
44034	  0.282	 -0.176	  0.344	 -0.021	  0.746	 -10.125	 -0.020	 -0.228	  0.012	 30.400	 99.488	  0.339
44084	  0.285	 -0.172	  0.340	 -0.666	  0.337	 -10.666	  0.037	 -0.083	  0.075	 30.400	 99.492	 -0.018
44133	  0.284	 -0.182	  0.342	 -0.176	  0.107	 -10.624	 -0.050	  0.076	 -0.021	 30.400	 99.488	  0.339
44184	  0.280	 -0.174	  0.342	 -0.142	  0.733	 -10.376	  0.072	  0.093	 -0.266	 30.400	 99.488	  0.339
44234	  0.278	 -0.166	  0.339	 -0.506	  0.305	 -10.304	  0.200	  0.132	 -0.288	 30.400	 99.492	 -0.018
44284	  0.268	 -0.159	  0.340	 -0.361	 -0.046	 -9.796	  0.087	  0.299	 -0.272	 30.400	 99.492	 -0.018
44334	  0.260	 -0.160	  0.340	  0.945	 -1.102	 -9.245	  0.121	  0.253	 -0.372	 30.400	 99.492	 -0.018
44384	  0.252	 -0.148	  0.340	 -0.047	 -0.846	 -9.333	 -0.182	  0.323	 -0.344	 30.400	 99.492	 -0.018
44434	  0.242	 -0.151	  0.344	  0.303	  0.399	 -9.057	 -0.292	  0.337	 -0.055	 30.400	 99.488	  0.339
44484	  0.236	 -0.156	  0.348	  1.364	  0.509	 -8.699	 -0.075	  0.240	  0.025	 30.400	 99.492	 -0.018
44534	  0.230	 -0.156	  0.349	  0.934	  0.424	 -8.993	 -0.121	  0.173	  0.124	 30.400	 99.499	 -0.641
44584	  0.228	 -0.159	  0.345	  1.480	  0.623	 -9.008	  0.065	  0.144	  0.078	 30.400	 99.492	 -0.018
44634	  0.224	 -0.157	  0.342	  1.020	  0.413	 -9.583	  0.111	  0.181	  0.107	 30.400	 99.488	  0.339
44684	  0.221	 -0.158	  0.353	  1.562	 -0.002	 -9.637	  0.076	  0.232	 -0.066	 30.400	 99.492	 -0.018
44734	  0.220	 -0.154	  0.363	  1.573	  0.434	 -9.349	  0.279	  0.216	 -0.109	 30.400	 99.488	  0.339
44784	  0.218	 -0.142	  0.364	  1.626	 -0.358	 -9.814	  0.366	  0.088	 -0.150	 30.400	 99.492	 -0.018
44834	  0.219	 -0.129	  0.361	  1.373	 -0.852	 -10.278	  0.295	 -0.026	 -0.208	 30.400	 99.492	 -0.018
44884	  0.223	 -0.118	  0.366	  1.499	 -0.339	 -9.864	  0.223	 -0.088	 -0.140	 30.400	 99.492	 -0.018
44934	  0.225	 -0.116	  0.368	  1.200	 -0.593	 -10.132	  0.004	 -0.040	 -0.007	 30.400	 99.481	  0.961
44984	  0.229	 -0.112	  0.368	  1.195	  0.259	 -9.642	  0.087	 -0.182	 -0.004	 30.400	 99.492	 -0.018
45034	  0.235	 -0.114	  0.366	  1.068	  0.212	 -9.598	  0.030	 -0.226	  0.035	 30.400	 99.488	  0.339
45084	  0.238	 -0.105	  0.353	  0.690	 -0.124	 -9.716	  0.113	 -0.137	  0.191	 30.400	 99.492	 -0.018
45134	  0.239	 -0.111	  0.359	  1.070	 -0.513	 -9.820	  0.075	 -0.040	  0.209	 30.400	 99.492	 -0.018
45184	  0.241	 -0.114	  0.360	  1.172	 -0.813	 -10.081	 -0.102	 -0.009	  0.074	 30.400	 99.488	  0.339
45234	  0.243	 -0.117	  0.359	  0.889	 -0.067	 -9.698	 -0.144	 -0.011	  0.041	 30.400	 99.503	 -0.997
45284	  0.241	 -0.118	  0.368	  1.135	 -0.211	 -9.779	 -0.132	  0.079	  0.096	 30.400	 99.488	  0.339
45334	  0.241	 -0.128	  0.363	  1.166	 -0.203	 -9.726	 -0.079	  0.083	  0.120	 30.400	 99.488	  0.339
45384	  0.243	 -0.120	  0.366	  1.190	 -0.216	 -9.372	 -0.049	 -0.021	  0.094	 30.400	 99.488	  0.339
45434	  0.246	 -0.135	  0.362	  1.870	  0.066	 -10.477	  0.078	 -0.199	  0.028	 30.400	 99.488	  0.339
45484	  0.253	 -0.128	  0.363	  0.949	 -0.763	 -9.937	  0.050	 -0.388	  0.159	 30.400	 99.503	 -0.997
45534	  0.262	 -0.132	  0.358	  0.699	 -0.439	 -9.626	  0.024	 -0.389	  0.121	 30.400	 99.503	 -0.997
45584	  0.273	 -0.132	  0.353	  0.333	 -0.340	 -9.736	 -0.009	 -0.394	  0.171	 30.400	 99.488	  0.339
45634	  0.281	 -0.140	  0.350	  0.347	 -0.409	 -9.895	 -0.003	 -0.360	  0.234	 30.400	 99.503	 -0.997
45684	  0.283	 -0.143	  0.346	 -0.141	 -0.221	 -9.740	 -0.144	 -0.192	  0.158	 30.400	 99.492	 -0.018
45734	  0.290	 -0.148	  0.344	 -0.196	 -0.104	 -9.565	 -0.092	 -0.077	  0.119	 30.400	 99.488	  0.339
45784	  0.288	 -0.154	  0.349	 -0.308	 -0.017	 -9.659	 -0.074	 -0.013	  0.076	 30.400	 99.499	 -0.641
45834	  0.291	 -0.147	  0.345	 -0.249	 -0.120	 -9.879	 -0.001	  0.029	  0.071	 30.400	 99.499	 -0.641
45884	  0.286	 -0.152	  0.341	 -0.155	 -0.349	 -9.833	  0.014	  0.053	  0.064	 30.400	 99.481	  0.961
45934	  0.286	 -0.161	  0.347	  0.229	 -0.279	 -9.529	 -0.056	  0.025	  0.123	 30.400	 99.492	 -0.018
45984	  0.283	 -0.160	  0.346	  0.178	 -0.465	 -9.808	 -0.066	 -0.023	  0.088	 30.400	 99.492	 -0.018
46034	  0.288	 -0.165	  0.349	  0.065	 -0.129	 -9.877	 -0.079	 -0.055	  0.007	 30.400	 99.499	 -0.641
46084	  0.286	 -0.164	  0.343	 -0.221	 -0.056	 -9.820	 -0.042	 -0.014	  0.088	 30.400	 99.492	 -0.018
46134	  0.287	 -0.165	  0.345	 -0.117	 -0.213	 -9.843	 -0.067	  0.020	  0.076	 30.400	 99.476	  1.407
46183	  0.287	 -0.168	  0.345	 -0.106	 -0.105	 -9.899	 -0.060	  0.042	  0.053	 30.400	 99.492	 -0.018
46233	  0.284	 -0.170	  0.346	  0.251	  0.085	 -9.779	 -0.063	  0.030	  0.036	 30.400	 99.499	 -0.641
46283	  0.284	 -0.176	  0.341	  0.015	  0.086	 -9.792	 -0.056	  0.006	 -0.020	 30.400	 99.492	 -0.018
46333	  0.285	 -0.181	  0.346	  0.260	  0.384	 -9.885	 -0.013	  0.008	  0.002	 30.400	 99.492	 -0.018
46384	  0.284	 -0.171	  0.344	 -0.070	 -0.009	 -9.844	 -0.003	  0.017	 -0.026	 30.400	 99.492	 -0.018
46434	  0.285	 -0.170	  0.345	 -0.060	  0.006	 -9.868	 -0.004	  0.058	  0.066	 30.400	 99.492	 -0.018
46484	  0.278	 -0.176	  0.349	 -0.350	 -0.359	 -10.046	 -0.001	  0.331	  0.101	 30.400	 99.492	 -0.018
46534	  0.271	 -0.178	  0.353	  0.046	  0.492	 -9.745	 -0.019	  0.371	  0.057	 30.400	 99.488	  0.339
46584	  0.262	 -0.179	  0.359	  0.763	  0.041	 -9.795	 -0.015	  0.317	  0.034	 30.400	 99.492	 -0.018
46634	  0.255	 -0.179	  0.358	  1.058	  0.038	 -9.759	 -0.012	  0.222	  0.040	 30.400	 99.492	 -0.018
46684	  0.251	 -0.171	  0.363	  1.116	  0.148	 -9.779	 -0.009	  0.136	  0.023	 30.400	 99.492	 -0.018
46734	  0.253	 -0.181	  0.360	  0.653	  0.098	 -9.966	 -0.010	  0.104	  0.019	 30.400	 99.492	 -0.018
46783	  0.250	 -0.182	  0.369	  0.872	 -0.177	 -9.900	 -0.040	  0.201	 -0.016	 30.400	 99.488	  0.339
46833	  0.249	 -0.172	  0.369	  1.810	 -0.376	 -8.935	 -0.224	 -0.105	  0.060	 30.400	 99.476	  1.407
46883	  0.250	 -0.193	  0.361	  1.047	 -0.120	 -9.683	 -0.475	 -0.213	  0.057	 30.400	 99.488	  0.339
46933	  0.255	 -0.197	  0.356	 -0.115	 -0.191	 -10.250	 -0.059	 -0.146	  0.004	 30.400	 99.492	 -0.018
46983	  0.256	 -0.195	  0.358	  0.002	  0.498	 -9.732	  0.005	  0.016	 -0.001	 30.400	 99.488	  0.339
47033	  0.256	 -0.194	  0.362	  0.323	  0.411	 -9.791	  0.050	  0.125	  0.004	 30.400	 99.488	  0.339
47084	  0.251	 -0.191	  0.359	  0.791	  1.348	 -9.265	  0.073	  0.187	  0.050	 30.400	 99.503	 -0.997
47133	  0.250	 -0.198	  0.360	  2.817	  3.389	 -8.198	 -0.018	 -0.122	  0.148	 30.400	 99.488	  0.339
47183	  0.250	 -0.201	  0.358	  1.595	 -0.376	 -9.898	 -0.020	 -0.020	  0.005	 30.400	 99.492	 -0.018
47233	  0.251	 -0.191	  0.366	  0.864	 -0.067	 -9.809	  0.010	  0.014	 -0.022	 30.400	 99.503	 -0.997
47283	  0.251	 -0.201	  0.365	  0.789	 -0.136	 -9.764	 -0.000	  0.003	 -0.005	 30.400	 99.492	 -0.018
47333	  0.251	 -0.198	  0.363	  1.133	 -0.046	 -9.735	 -0.041	 -0.080	 -0.033	 30.400	 99.492	 -0.018
47383	  0.256	 -0.204	  0.356	  0.980	  0.004	 -9.736	 -0.098	 -0.208	  0.020	 30.400	 99.503	 -0.997
47433	  0.263	 -0.202	  0.354	  0.676	  0.102	 -9.749	 -0.140	 -0.304	  0.098	 30.400	 99.503	 -0.997
