Time	 MagX	 MagY	 MagZ	 AccelX	 AccelY	 AccelZ	 Yaw	 Pitch	 Roll	 Temperature	 Pressure	 Altitude
1253	  0.031	  0.637	  1.032	 -0.264	 -0.122	 -9.487	  0.003	 -0.001	  0.017	 30.400	 99.513	 -99999.000
1302	  0.032	  0.639	  1.038	 -0.211	 -0.112	 -9.515	  0.002	 -0.001	  0.019	 30.400	 99.525	 -99999.000
1352	  0.032	  0.643	  1.023	 -0.266	 -0.113	 -9.500	  0.001	 -0.001	  0.018	 30.400	 99.505	 -99999.000
1403	  0.032	  0.639	  1.037	 -0.290	 -0.122	 -9.504	  0.002	 -0.001	  0.019	 30.400	 99.513	 -99999.000
1453	  0.032	  0.639	  1.028	 -0.257	 -0.107	 -9.534	  0.001	 -0.001	  0.017	 30.400	 99.513	 -99999.000
1502	  0.030	  0.635	  1.036	 -0.248	 -0.110	 -9.505	  0.002	 -0.000	  0.018	 30.400	 99.529	 -99999.000
1552	  0.029	  0.635	  1.033	 -0.234	 -0.096	 -9.513	  0.002	 -0.001	  0.018	 30.400	 99.513	 -99999.000
1602	  0.031	  0.642	  1.037	 -0.295	 -0.120	 -9.490	  0.004	 -0.001	  0.018	 30.400	 99.513	 -99999.000
1652	  0.029	  0.639	  1.031	 -0.233	 -0.120	 -9.482	  0.003	 -0.001	  0.017	 30.400	 99.513	 -99999.000
1702	  0.029	  0.643	  1.031	 -0.307	 -0.102	 -9.489	  0.003	 -0.002	  0.017	 30.400	 99.513	 -99999.000
1752	  0.031	  0.641	  1.036	 -0.214	 -0.133	 -9.512	  0.002	 -0.001	  0.019	 30.400	 99.500	 -99999.000
1802	  0.030	  0.643	  1.031	 -0.303	 -0.107	 -9.502	  0.002	  0.001	  0.019	 30.400	 99.513	 -99999.000
1852	  0.033	  0.649	  1.033	 -0.219	 -0.137	 -9.512	  0.003	 -0.001	  0.017	 30.400	 99.517	 -99999.000
1902	  0.026	  0.639	  1.021	 -0.279	 -0.096	 -9.478	  0.003	 -0.001	  0.020	 30.400	 99.525	 -99999.000
1952	  0.032	  0.638	  1.034	 -0.238	 -0.098	 -9.517	  0.002	 -0.002	  0.017	 30.400	 99.513	 -99999.000
2002	  0.031	  0.638	  1.026	 -0.241	 -0.099	 -9.487	  0.002	  0.000	  0.018	 30.400	 99.513	 -99999.000
2052	  0.030	  0.642	  1.037	 -0.266	 -0.105	 -9.521	  0.002	 -0.002	  0.016	 30.400	 99.513	 -99999.000
2102	  0.031	  0.637	  1.030	 -0.227	 -0.095	 -9.511	  0.002	 -0.002	  0.017	 30.400	 99.513	 -99999.000
2152	  0.029	  0.635	  1.026	 -0.284	 -0.104	 -9.474	  0.002	 -0.001	  0.017	 30.400	 99.513	 -99999.000
2202	  0.027	  0.642	  1.027	 -0.223	 -0.116	 -9.492	  0.003	 -0.001	  0.019	 30.400	 99.500	 -99999.000
2252	  0.030	  0.641	  1.031	 -0.291	 -0.092	 -9.488	  0.002	 -0.002	  0.017	 30.400	 99.513	 -99999.000
2302	  0.027	  0.637	  1.030	 -0.254	 -0.121	 -9.505	  0.003	 -0.002	  0.018	 30.400	 99.525	 -99999.000
2352	  0.030	  0.638	  1.036	 -0.254	 -0.106	 -9.474	  0.004	 -0.001	  0.018	 30.400	 99.513	 -99999.000
2402	  0.029	  0.639	  1.026	 -0.276	 -0.107	 -9.498	  0.001	 -0.001	  0.018	 30.400	 99.525	 -99999.000
2452	  0.030	  0.642	  1.027	 -0.242	 -0.085	 -9.483	  0.002	 -0.001	  0.017	 30.400	 99.513	 -99999.000
2502	  0.030	  0.643	  1.030	 -0.277	 -0.092	 -9.505	  0.003	 -0.000	  0.019	 30.400	 99.513	 -99999.000
2552	  0.030	  0.653	  1.035	 -0.253	 -0.115	 -9.522	  0.003	 -0.001	  0.017	 30.400	 99.513	 -99999.000
2602	  0.030	  0.641	  1.029	 -0.293	 -0.088	 -9.518	  0.002	 -0.001	  0.019	 30.400	 99.500	 -99999.000
2652	  0.030	  0.660	  1.034	 -0.212	 -0.120	 -9.509	  0.003	 -0.001	  0.018	 30.400	 99.513	 -99999.000
2702	  0.027	  0.641	  1.034	 -0.305	 -0.080	 -9.485	  0.003	 -0.000	  0.017	 30.400	 99.500	 -99999.000
2752	  0.032	  0.655	  1.031	 -0.216	 -0.140	 -9.521	  0.003	 -0.000	  0.018	 30.400	 99.513	 -99999.000
2802	  0.031	  0.642	  1.026	 -0.306	 -0.103	 -9.528	  0.002	 -0.003	  0.018	 30.400	 99.500	 -99999.000
2852	  0.027	  0.641	  1.031	 -0.232	 -0.129	 -9.490	  0.002	 -0.000	  0.018	 30.400	 99.513	 -99999.000
2902	  0.027	  0.642	  1.034	 -0.312	 -0.104	 -9.502	  0.003	 -0.002	  0.018	 30.400	 99.513	 -99999.000
2952	  0.031	  0.635	  1.033	 -0.219	 -0.121	 -9.490	  0.002	 -0.000	  0.018	 30.400	 99.513	 -99999.000
3002	  0.032	  0.646	  1.033	 -0.259	 -0.098	 -9.475	  0.003	 -0.001	  0.018	 30.400	 99.505	 -99999.000
3052	  0.030	  0.644	  1.031	 -0.291	 -0.104	 -9.502	  0.002	 -0.000	  0.018	 30.400	 99.513	 -99999.000
3102	  0.027	  0.641	  1.026	 -0.269	 -0.123	 -9.459	  0.002	 -0.001	  0.019	 30.400	 99.513	 -99999.000
3152	  0.029	  0.637	  1.029	 -0.290	 -0.097	 -9.477	  0.003	 -0.001	  0.018	 30.400	 99.500	 -99999.000
3202	  0.030	  0.641	  1.031	 -0.216	 -0.113	 -9.449	  0.003	 -0.001	  0.018	 30.400	 99.513	 -99999.000
3252	  0.029	  0.646	  1.033	 -0.306	 -0.103	 -9.483	  0.003	 -0.001	  0.018	 30.400	 99.529	 -99999.000
3302	  0.033	  0.647	  1.036	 -0.186	 -0.125	 -9.483	  0.003	 -0.002	  0.017	 30.400	 99.513	 -99999.000
3352	  0.032	  0.637	  1.037	 -0.311	 -0.086	 -9.484	  0.003	 -0.000	  0.018	 30.400	 99.513	 -99999.000
3402	  0.030	  0.649	  1.030	 -0.223	 -0.201	 -9.549	  0.002	 -0.002	  0.018	 30.400	 99.513	 -99999.000
3452	  0.030	  0.637	  1.025	 -0.268	 -0.191	 -9.536	 -0.002	 -0.003	  0.019	 30.400	 99.500	 -99999.000
3502	  0.029	  0.642	  1.030	 -0.232	 -0.090	 -9.459	  0.001	 -0.001	  0.019	 30.400	 99.513	 -99999.000
3552	  0.030	  0.643	  1.029	 -0.285	 -0.074	 -9.512	  0.002	 -0.001	  0.018	 30.400	 99.513	 -99999.000
3602	  0.027	  0.647	  1.029	 -0.245	 -0.122	 -9.487	  0.003	 -0.002	  0.017	 30.400	 99.513	 -99999.000
3652	  0.029	  0.643	  1.034	 -0.256	 -0.098	 -9.548	  0.001	 -0.002	  0.018	 30.400	 99.525	 -99999.000
3702	  0.030	  0.648	  1.034	 -0.308	 -0.109	 -9.484	  0.003	 -0.000	  0.019	 30.400	 99.517	 -99999.000
3752	  0.029	  0.639	  1.031	 -0.243	 -0.142	 -9.495	  0.003	  0.001	  0.018	 30.400	 99.500	 -99999.000
3802	  0.030	  0.634	  1.030	 -0.297	 -0.124	 -9.514	  0.003	 -0.001	  0.017	 30.400	 99.525	 -99999.000
3853	  0.029	  0.643	  1.034	 -0.200	 -0.121	 -9.521	  0.003	 -0.002	  0.019	 30.400	 99.513	 -99999.000
3902	  0.027	  0.641	  1.034	 -0.280	 -0.079	 -9.480	  0.003	 -0.002	  0.018	 30.400	 99.513	 -99999.000
3952	  0.032	  0.639	  1.037	 -0.199	 -0.121	 -9.523	  0.003	 -0.001	  0.018	 30.400	 99.513	 -99999.000
4002	  0.031	  0.639	  1.034	 -0.308	 -0.087	 -9.492	  0.002	 -0.000	  0.019	 30.400	 99.500	 -99999.000
4052	  0.031	  0.633	  1.026	 -0.245	 -0.122	 -9.470	  0.002	 -0.001	  0.018	 30.400	 99.513	 -99999.000
4102	  0.030	  0.641	  1.034	 -0.277	 -0.098	 -9.477	  0.003	 -0.001	  0.019	 30.400	 99.513	 -99999.000
4152	  0.030	  0.635	  1.030	 -0.272	 -0.127	 -9.491	  0.003	  0.000	  0.018	 30.400	 99.513	 -99999.000
4202	  0.030	  0.638	  1.032	 -0.254	 -0.099	 -9.510	  0.003	  0.000	  0.018	 30.400	 99.517	 -99999.000
5253	  0.031	  0.643	  1.029	 -0.172	 -0.114	 -9.438	  0.003	 -0.000	  0.019	 30.400	 99.500	 -99999.000
5303	  0.032	  0.647	  1.037	 -0.320	 -0.099	 -9.507	  0.002	 -0.001	  0.018	 30.400	 99.500	 -99999.000
5353	  0.031	  0.638	  1.029	 -0.208	 -0.134	 -9.506	  0.001	 -0.001	  0.018	 30.400	 99.500	 -99999.000
5403	  0.029	  0.642	  1.029	 -0.304	 -0.104	 -9.493	  0.003	 -0.001	  0.017	 30.400	 99.525	 -99999.000
5453	  0.030	  0.639	  1.031	 -0.255	 -0.103	 -9.469	  0.003	 -0.001	  0.017	 30.400	 99.513	 -99999.000
5503	  0.031	  0.642	  1.037	 -0.259	 -0.105	 -9.509	  0.003	 -0.002	  0.018	 30.400	 99.505	 -99999.000
5553	  0.030	  0.642	  1.031	 -0.227	 -0.110	 -9.450	  0.003	 -0.001	  0.017	 30.400	 99.513	 -99999.000
5603	  0.034	  0.642	  1.033	 -0.232	 -0.132	 -9.510	  0.003	 -0.000	  0.018	 30.400	 99.505	 -99999.000
5653	  0.032	  0.641	  1.030	 -0.301	 -0.093	 -9.523	  0.003	 -0.001	  0.017	 30.400	 99.517	 -99999.000
5703	  0.031	  0.641	  1.025	 -0.213	 -0.110	 -9.430	  0.002	 -0.002	  0.016	 30.400	 99.525	 -99999.000
5753	  0.031	  0.638	  1.034	 -0.302	 -0.102	 -9.513	  0.003	 -0.000	  0.019	 30.400	 99.517	 -99999.000
5803	  0.029	  0.639	  1.031	 -0.223	 -0.120	 -9.483	  0.002	 -0.001	  0.017	 30.400	 99.513	 -99999.000
5853	  0.029	  0.647	  1.034	 -0.344	 -0.081	 -9.510	  0.002	 -0.002	  0.018	 30.400	 99.513	 -99999.000
5903	  0.027	  0.646	  1.029	 -0.211	 -0.141	 -9.434	  0.003	 -0.000	  0.018	 30.400	 99.513	 -99999.000
5953	  0.030	  0.660	  1.035	 -0.317	 -0.134	 -9.471	  0.003	 -0.002	  0.020	 30.400	 99.500	 -99999.000
6003	  0.029	  0.643	  1.022	 -0.193	 -0.119	 -9.465	  0.002	 -0.001	  0.017	 30.400	 99.529	 -99999.000
6053	  0.031	  0.635	  1.028	 -0.266	 -0.114	 -9.505	  0.003	 -0.002	  0.018	 30.400	 99.517	 -99999.000
6103	  0.030	  0.641	  1.030	 -0.254	 -0.115	 -9.497	  0.003	  0.000	  0.018	 30.400	 99.500	 -99999.000
6153	  0.029	  0.644	  1.036	 -0.231	 -0.117	 -9.506	  0.001	 -0.001	  0.017	 30.400	 99.517	 -99999.000
6203	  0.031	  0.652	  1.034	 -0.274	 -0.127	 -9.502	  0.003	 -0.002	  0.018	 30.400	 99.525	 -99999.000
6253	  0.032	  0.641	  1.036	 -0.231	 -0.112	 -9.515	  0.003	 -0.001	  0.019	 30.400	 99.517	 -99999.000
6303	  0.032	  0.651	  1.033	 -0.270	 -0.090	 -9.501	  0.004	 -0.002	  0.017	 30.400	 99.513	 -99999.000
6353	  0.031	  0.641	  1.030	 -0.215	 -0.130	 -9.528	  0.002	 -0.000	  0.018	 30.400	 99.513	 -99999.000
6403	  0.026	  0.637	  1.025	 -0.300	 -0.104	 -9.483	  0.003	 -0.000	  0.018	 30.400	 99.517	 -99999.000
6453	  0.031	  0.638	  1.030	 -0.206	 -0.152	 -9.538	  0.002	 -0.000	  0.017	 30.400	 99.500	 -99999.000
6503	  0.032	  0.637	  1.029	 -0.319	 -0.083	 -9.459	  0.003	 -0.001	  0.017	 30.400	 99.513	 -99999.000
6553	  0.029	  0.656	  1.028	 -0.226	 -0.081	 -9.552	  0.003	 -0.002	  0.018	 30.400	 99.513	 -99999.000
6603	  0.029	  0.647	  1.029	 -0.279	 -0.076	 -9.477	  0.002	 -0.000	  0.018	 30.400	 99.505	 -99999.000
6653	  0.031	  0.652	  1.030	 -0.252	 -0.095	 -9.502	  0.003	 -0.002	  0.017	 30.400	 99.525	 -99999.000
6703	  0.031	  0.642	  1.033	 -0.259	 -0.085	 -9.498	  0.002	  0.000	  0.017	 30.400	 99.513	 -99999.000
6753	  0.026	  0.637	  1.034	 -0.273	 -0.123	 -9.482	  0.004	  0.000	  0.019	 30.400	 99.529	 -99999.000
6803	  0.030	  0.642	  1.028	 -0.241	 -0.115	 -9.487	  0.003	 -0.001	  0.019	 30.400	 99.513	 -99999.000
6853	  0.027	  0.651	  1.038	 -0.267	 -0.097	 -9.509	  0.002	 -0.001	  0.017	 30.400	 99.500	 -99999.000
6903	  0.030	  0.646	  1.030	 -0.225	 -0.107	 -9.506	  0.001	 -0.000	  0.017	 30.400	 99.505	 -99999.000
6953	  0.029	  0.638	  1.031	 -0.281	 -0.097	 -9.487	  0.004	 -0.001	  0.018	 30.400	 99.517	 -99999.000
7003	  0.030	  0.641	  1.030	 -0.229	 -0.119	 -9.499	  0.003	  0.000	  0.019	 30.400	 99.529	 -99999.000
7053	  0.030	  0.638	  1.033	 -0.283	 -0.090	 -9.454	  0.002	 -0.001	  0.018	 30.400	 99.513	 -99999.000
7103	  0.031	  0.639	  1.030	 -0.203	 -0.106	 -9.502	  0.002	 -0.002	  0.018	 30.400	 99.525	 -99999.000
7153	  0.027	  0.647	  1.031	 -0.310	 -0.103	 -9.531	  0.002	 -0.001	  0.018	 30.400	 99.500	 -99999.000
7203	  0.030	  0.653	  1.030	 -0.202	 -0.116	 -9.518	  0.003	 -0.002	  0.019	 30.400	 99.513	 -99999.000
7253	  0.032	  0.638	  1.032	 -0.266	 -0.080	 -9.500	  0.002	 -0.002	  0.019	 30.400	 99.513	 -99999.000
7303	  0.031	  0.643	  1.028	 -0.264	 -0.131	 -9.480	  0.003	 -0.001	  0.018	 30.400	 99.513	 -99999.000
7353	  0.032	  0.652	  1.029	 -0.247	 -0.110	 -9.514	  0.003	 -0.002	  0.018	 30.400	 99.517	 -99999.000
7403	  0.027	  0.644	  1.031	 -0.278	 -0.094	 -9.513	  0.002	 -0.002	  0.018	 30.400	 99.513	 -99999.000
7453	  0.027	  0.639	  1.031	 -0.222	 -0.121	 -9.478	  0.002	 -0.002	  0.018	 30.400	 99.500	 -99999.000
7503	  0.027	  0.641	  1.031	 -0.299	 -0.102	 -9.505	  0.002	 -0.000	  0.018	 30.400	 99.513	 -99999.000
7553	  0.031	  0.646	  1.033	 -0.218	 -0.122	 -9.515	  0.003	 -0.001	  0.018	 30.400	 99.500	 -99999.000
7603	  0.029	  0.641	  1.029	 -0.315	 -0.121	 -9.519	  0.003	 -0.002	  0.018	 30.400	 99.513	 -99999.000
7653	  0.026	  0.647	  1.033	 -0.212	 -0.116	 -9.510	  0.002	 -0.001	  0.018	 30.400	 99.505	 -99999.000
7703	  0.030	  0.638	  1.030	 -0.310	 -0.095	 -9.493	  0.002	 -0.001	  0.018	 30.400	 99.529	 -99999.000
7753	  0.029	  0.642	  1.025	 -0.230	 -0.105	 -9.478	  0.003	 -0.001	  0.018	 30.400	 99.517	 -99999.000
7803	  0.026	  0.638	  1.029	 -0.280	 -0.083	 -9.509	  0.003	 -0.001	  0.018	 30.400	 99.513	 -99999.000
7853	  0.029	  0.642	  1.026	 -0.252	 -0.114	 -9.509	  0.004	 -0.001	  0.017	 30.400	 99.505	 -99999.000
7903	  0.031	  0.653	  1.034	 -0.253	 -0.115	 -9.480	  0.002	 -0.002	  0.019	 30.400	 99.500	 -99999.000
7953	  0.031	  0.641	  1.025	 -0.281	 -0.110	 -9.473	  0.002	 -0.001	  0.018	 30.400	 99.517	 -99999.000
8003	  0.027	  0.638	  1.030	 -0.242	 -0.093	 -9.498	  0.003	 -0.001	  0.019	 30.400	 99.525	 -99999.000
8053	  0.027	  0.638	  1.031	 -0.293	 -0.093	 -9.488	  0.003	 -0.000	  0.018	 30.400	 99.529	 -99999.000
8103	  0.032	  0.641	  1.037	 -0.215	 -0.125	 -9.496	  0.001	 -0.001	  0.017	 30.400	 99.529	 -99999.000
8153	  0.026	  0.638	  1.031	 -0.307	 -0.105	 -9.504	  0.002	 -0.000	  0.017	 30.400	 99.517	 -99999.000
8203	  0.030	  0.646	  1.036	 -0.204	 -0.139	 -9.496	  0.002	 -0.000	  0.018	 30.400	 99.500	 -99999.000
12903	  0.043	  0.647	  1.040	 -0.300	 -0.112	 -9.534	  0.002	 -0.001	  0.017	 30.400	 99.517	 -0.356
12953	  0.043	  0.647	  1.036	 -0.344	 -0.076	 -9.453	  0.002	 -0.000	  0.017	 30.400	 99.529	 -1.463
13002	  0.042	  0.647	  1.037	 -0.228	 -0.133	 -9.508	  0.002	 -0.001	  0.018	 30.400	 99.517	 -0.356
13052	  0.044	  0.641	  1.032	 -0.275	 -0.094	 -9.480	  0.002	 -0.002	  0.019	 30.400	 99.529	 -1.463
13102	  0.047	  0.658	  1.041	 -0.234	 -0.108	 -9.481	  0.002	 -0.002	  0.019	 30.400	 99.517	 -0.356
13152	  0.043	  0.641	  1.031	 -0.222	 -0.096	 -9.545	  0.003	 -0.000	  0.017	 30.400	 99.529	 -1.463
13202	  0.043	  0.653	  1.036	 -0.287	 -0.083	 -9.499	  0.002	 -0.001	  0.018	 30.400	 99.505	  0.749
13252	  0.042	  0.658	  1.036	 -0.196	 -0.125	 -9.516	  0.002	 -0.000	  0.017	 30.400	 99.517	 -0.356
13302	  0.044	  0.656	  1.041	 -0.321	 -0.077	 -9.502	  0.003	 -0.002	  0.017	 30.400	 99.517	 -0.356
13352	  0.042	  0.644	  1.035	 -0.222	 -0.137	 -9.507	  0.003	 -0.001	  0.018	 30.400	 99.517	 -0.356
13402	  0.044	  0.646	  1.028	 -0.322	 -0.100	 -9.515	  0.004	  0.000	  0.017	 30.400	 99.500	  1.210
13452	  0.047	  0.648	  1.029	 -0.229	 -0.108	 -9.472	  0.001	 -0.001	  0.018	 30.400	 99.505	  0.749
13502	  0.045	  0.643	  1.031	 -0.292	 -0.088	 -9.517	  0.003	 -0.001	  0.018	 30.400	 99.517	 -0.356
13552	  0.045	  0.644	  1.035	 -0.237	 -0.134	 -9.484	  0.003	 -0.002	  0.017	 30.400	 99.505	  0.749
13602	  0.043	  0.639	  1.035	 -0.270	 -0.089	 -9.509	  0.002	 -0.002	  0.017	 30.400	 99.513	  0.012
13652	  0.044	  0.643	  1.036	 -0.288	 -0.133	 -9.500	  0.002	 -0.001	  0.016	 30.400	 99.505	  0.749
13702	  0.045	  0.646	  1.036	 -0.243	 -0.119	 -9.517	  0.003	  0.000	  0.018	 30.400	 99.513	  0.012
13752	  0.045	  0.647	  1.040	 -0.288	 -0.109	 -9.530	  0.002	 -0.001	  0.018	 30.400	 99.500	  1.210
13802	  0.047	  0.658	  1.037	 -0.196	 -0.127	 -9.480	  0.004	 -0.001	  0.018	 30.400	 99.517	 -0.356
13852	  0.043	  0.642	  1.037	 -0.318	 -0.106	 -9.518	  0.003	 -0.002	  0.018	 30.400	 99.505	  0.749
13902	  0.041	  0.643	  1.035	 -0.184	 -0.138	 -9.483	  0.002	 -0.001	  0.017	 30.400	 99.517	 -0.356
13952	  0.041	  0.644	  1.031	 -0.286	 -0.098	 -9.509	  0.003	 -0.001	  0.017	 30.400	 99.517	 -0.356
14002	  0.044	  0.643	  1.033	 -0.210	 -0.147	 -9.463	  0.002	  0.000	  0.018	 30.400	 99.513	  0.012
14052	  0.043	  0.644	  1.035	 -0.281	 -0.089	 -9.495	  0.004	 -0.002	  0.019	 30.400	 99.517	 -0.356
14102	  0.043	  0.647	  1.036	 -0.229	 -0.129	 -9.454	  0.002	 -0.001	  0.018	 30.400	 99.505	  0.749
14152	  0.044	  0.644	  1.031	 -0.239	 -0.093	 -9.495	  0.002	 -0.001	  0.018	 30.400	 99.529	 -1.463
14202	  0.043	  0.642	  1.028	 -0.259	 -0.094	 -9.452	  0.003	 -0.000	  0.017	 30.400	 99.505	  0.749
14252	  0.042	  0.639	  1.033	 -0.232	 -0.131	 -9.508	  0.004	 -0.001	  0.018	 30.400	 99.517	 -0.356
14302	  0.042	  0.639	  1.027	 -0.284	 -0.121	 -9.481	  0.003	 -0.000	  0.018	 30.400	 99.513	  0.012
14352	  0.043	  0.643	  1.036	 -0.204	 -0.150	 -9.499	  0.001	 -0.000	  0.018	 30.400	 99.525	 -1.094
14402	  0.041	  0.642	  1.036	 -0.310	 -0.106	 -9.503	  0.004	 -0.001	  0.018	 30.400	 99.517	 -0.356
14452	  0.042	  0.651	  1.029	 -0.234	 -0.141	 -9.509	  0.002	 -0.000	  0.017	 30.400	 99.505	  0.749
14502	  0.042	  0.638	  1.023	 -0.304	 -0.089	 -9.505	  0.004	 -0.001	  0.017	 30.400	 99.513	  0.012
14552	  0.044	  0.644	  1.029	 -0.216	 -0.126	 -9.445	  0.002	  0.000	  0.018	 30.400	 99.517	 -0.356
14602	  0.043	  0.651	  1.035	 -0.273	 -0.080	 -9.515	  0.002	 -0.002	  0.017	 30.400	 99.505	  0.749
14652	  0.045	  0.641	  1.029	 -0.246	 -0.118	 -9.518	  0.003	 -0.001	  0.018	 30.400	 99.513	  0.012
14702	  0.044	  0.644	  1.029	 -0.292	 -0.115	 -9.511	  0.002	 -0.000	  0.018	 30.400	 99.505	  0.749
14752	  0.045	  0.638	  1.032	 -0.252	 -0.113	 -9.507	  0.003	 -0.002	  0.018	 30.400	 99.517	 -0.356
14802	  0.044	  0.641	  1.032	 -0.226	 -0.113	 -9.491	  0.001	 -0.002	  0.018	 30.400	 99.500	  1.210
14852	  0.044	  0.651	  1.032	 -0.289	 -0.081	 -9.506	  0.002	  0.001	  0.019	 30.400	 99.517	 -0.356
14903	  0.045	  0.642	  1.028	 -0.226	 -0.123	 -9.535	  0.001	 -0.001	  0.018	 30.400	 99.517	 -0.356
14952	  0.043	  0.639	  1.031	 -0.242	 -0.101	 -9.485	  0.002	 -0.001	  0.018	 30.400	 99.517	 -0.356
15002	  0.047	  0.652	  1.032	 -0.201	 -0.105	 -9.494	  0.003	 -0.001	  0.018	 30.400	 99.505	  0.749
15052	  0.045	  0.639	  1.031	 -0.297	 -0.157	 -9.508	  0.002	 -0.001	  0.017	 30.400	 99.517	 -0.356
15102	  0.047	  0.643	  1.028	 -0.208	 -0.116	 -9.470	  0.002	 -0.000	  0.018	 30.400	 99.517	 -0.356
15152	  0.046	  0.632	  1.030	 -0.309	 -0.110	 -9.462	  0.003	 -0.001	  0.018	 30.400	 99.500	  1.210
15202	  0.044	  0.641	  1.031	 -0.248	 -0.129	 -9.478	  0.003	 -0.001	  0.018	 30.400	 99.517	 -0.356
15252	  0.044	  0.651	  1.033	 -0.282	 -0.076	 -9.504	  0.003	 -0.001	  0.017	 30.400	 99.517	 -0.356
15302	  0.041	  0.639	  1.032	 -0.271	 -0.129	 -9.437	  0.003	 -0.001	  0.018	 30.400	 99.517	 -0.356
15352	  0.047	  0.642	  1.032	 -0.266	 -0.105	 -9.498	  0.002	 -0.001	  0.018	 30.400	 99.517	 -0.356
15402	  0.044	  0.636	  1.030	 -0.264	 -0.086	 -9.488	  0.002	 -0.000	  0.018	 30.400	 99.517	 -0.356
15452	  0.048	  0.639	  1.027	 -0.236	 -0.121	 -9.504	  0.002	 -0.001	  0.018	 30.400	 99.517	 -0.356
15502	  0.046	  0.637	  1.035	 -0.280	 -0.095	 -9.483	  0.002	 -0.002	  0.018	 30.400	 99.505	  0.749
15553	  0.045	  0.641	  1.027	 -0.240	 -0.110	 -9.483	  0.003	 -0.001	  0.018	 30.400	 99.517	 -0.356
15602	  0.045	  0.651	  1.025	 -0.279	 -0.101	 -9.493	  0.003	 -0.001	  0.019	 30.400	 99.517	 -0.356
15653	  0.045	  0.644	  1.032	 -0.229	 -0.144	 -9.460	  0.001	 -0.002	  0.018	 30.400	 99.505	  0.749
15702	  0.047	  0.643	  1.031	 -0.306	 -0.102	 -9.485	  0.003	  0.001	  0.019	 30.400	 99.517	 -0.356
15753	  0.045	  0.648	  1.027	 -0.204	 -0.117	 -9.476	  0.002	 -0.001	  0.019	 30.400	 99.529	 -1.463
15803	  0.047	  0.652	  1.028	 -0.321	 -0.091	 -9.518	  0.002	 -0.000	  0.018	 30.400	 99.517	 -0.356
15853	  0.047	  0.652	  1.031	 -0.214	 -0.110	 -9.497	  0.002	 -0.002	  0.018	 30.400	 99.505	  0.749
15903	  0.047	  0.642	  1.028	 -0.305	 -0.072	 -9.503	  0.002	 -0.001	  0.018	 30.400	 99.517	 -0.356
15953	  0.048	  0.641	  1.026	 -0.209	 -0.142	 -9.501	  0.002	 -0.000	  0.017	 30.400	 99.505	  0.749
16003	  0.048	  0.641	  1.031	 -0.285	 -0.098	 -9.511	  0.004	 -0.002	  0.017	 30.400	 99.500	  1.210
16053	  0.045	  0.641	  1.027	 -0.235	 -0.159	 -9.480	  0.003	  0.000	  0.018	 30.400	 99.517	 -0.356
16103	  0.048	  0.639	  1.024	 -0.255	 -0.077	 -9.520	  0.003	 -0.001	  0.018	 30.400	 99.517	 -0.356
16153	  0.049	  0.657	  1.031	 -0.234	 -0.085	 -9.451	  0.002	 -0.000	  0.019	 30.400	 99.517	 -0.356
16203	  0.044	  0.644	  1.025	 -0.239	 -0.109	 -9.512	  0.003	 -0.000	  0.019	 30.400	 99.517	 -0.356
16253	  0.048	  0.642	  1.031	 -0.290	 -0.108	 -9.505	  0.003	 -0.001	  0.017	 30.400	 99.505	  0.749
16303	  0.048	  0.641	  1.025	 -0.202	 -0.121	 -9.463	  0.003	 -0.003	  0.018	 30.400	 99.505	  0.749
16353	  0.048	  0.644	  1.031	 -0.312	 -0.071	 -9.482	  0.003	 -0.002	  0.019	 30.400	 99.505	  0.749
16403	  0.045	  0.641	  1.027	 -0.217	 -0.158	 -9.478	  0.002	 -0.002	  0.018	 30.400	 99.505	  0.749
16453	  0.047	  0.641	  1.027	 -0.315	 -0.078	 -9.492	  0.002	 -0.002	  0.018	 30.400	 99.517	 -0.356
16503	  0.052	  0.639	  1.028	 -0.210	 -0.127	 -9.481	  0.002	 -0.002	  0.018	 30.400	 99.517	 -0.356
16553	  0.049	  0.644	  1.027	 -0.323	 -0.097	 -9.475	  0.002	 -0.002	  0.019	 30.400	 99.517	 -0.356
16603	  0.053	  0.643	  1.030	 -0.220	 -0.128	 -9.492	  0.002	 -0.000	  0.017	 30.400	 99.521	 -0.726
16653	  0.055	  0.644	  1.032	 -0.286	 -0.059	 -9.513	  0.002	 -0.001	  0.018	 30.400	 99.509	  0.380
16703	  0.049	  0.646	  1.029	 -0.238	 -0.118	 -9.470	  0.002	 -0.002	  0.019	 30.400	 99.505	  0.749
16753	  0.052	  0.646	  1.024	 -0.255	 -0.097	 -9.481	  0.002	 -0.001	  0.018	 30.400	 99.513	  0.012
16803	  0.053	  0.651	  1.031	 -0.262	 -0.116	 -9.462	  0.002	 -0.002	  0.017	 30.400	 99.517	 -0.356
16853	  0.047	  0.642	  1.024	 -0.228	 -0.119	 -9.514	  0.002	 -0.001	  0.018	 30.400	 99.509	  0.380
16903	  0.049	  0.647	  1.031	 -0.282	 -0.108	 -9.526	  0.003	 -0.001	  0.018	 30.400	 99.517	 -0.356
16953	  0.050	  0.644	  1.027	 -0.222	 -0.129	 -9.496	  0.002	  0.000	  0.017	 30.400	 99.517	 -0.356
17003	  0.044	  0.643	  1.031	 -0.304	 -0.100	 -9.474	  0.003	 -0.002	  0.019	 30.400	 99.517	 -0.356
17053	  0.045	  0.639	  1.027	 -0.245	 -0.116	 -9.481	  0.002	  0.000	  0.018	 30.400	 99.517	 -0.356
17103	  0.044	  0.648	  1.029	 -0.317	 -0.082	 -9.470	  0.002	 -0.001	  0.018	 30.400	 99.505	  0.749
17153	  0.045	  0.642	  1.017	 -0.225	 -0.150	 -9.534	  0.001	 -0.001	  0.018	 30.400	 99.517	 -0.356
17203	  0.047	  0.639	  1.024	 -0.291	 -0.081	 -9.518	  0.002	 -0.001	  0.018	 30.400	 99.517	 -0.356
17253	  0.044	  0.646	  1.023	 -0.234	 -0.094	 -9.492	  0.003	  0.000	  0.017	 30.400	 99.505	  0.749
17303	  0.049	  0.641	  1.031	 -0.251	 -0.119	 -9.482	  0.004	 -0.000	  0.017	 30.400	 99.505	  0.749
17353	  0.047	  0.644	  1.028	 -0.264	 -0.106	 -9.506	  0.002	 -0.001	  0.017	 30.400	 99.505	  0.749
17403	  0.047	  0.647	  1.031	 -0.233	 -0.108	 -9.508	  0.002	 -0.000	  0.017	 30.400	 99.517	 -0.356
17453	  0.045	  0.643	  1.029	 -0.300	 -0.078	 -9.470	  0.003	 -0.000	  0.019	 30.400	 99.517	 -0.356
17503	  0.045	  0.647	  1.025	 -0.214	 -0.127	 -9.514	  0.001	 -0.002	  0.018	 30.400	 99.541	 -2.568
17553	  0.047	  0.643	  1.025	 -0.303	 -0.159	 -9.523	  0.001	  0.000	  0.017	 30.400	 99.517	 -0.356
17603	  0.047	  0.648	  1.024	 -0.226	 -0.134	 -9.477	  0.003	 -0.001	  0.020	 30.400	 99.517	 -0.356
17653	  0.050	  0.647	  1.033	 -0.312	 -0.079	 -9.473	  0.002	 -0.001	  0.018	 30.400	 99.517	 -0.356
17703	  0.044	  0.641	  1.027	 -0.216	 -0.120	 -9.503	  0.002	 -0.001	  0.017	 30.400	 99.517	 -0.356
17753	  0.045	  0.642	  1.019	 -0.325	 -0.086	 -9.468	  0.003	  0.000	  0.019	 30.400	 99.517	 -0.356
17803	  0.043	  0.642	  1.023	 -0.237	 -0.110	 -9.500	  0.003	 -0.002	  0.019	 30.400	 99.529	 -1.463
17853	  0.047	  0.642	  1.028	 -0.297	 -0.040	 -9.468	  0.002	 -0.001	  0.019	 30.400	 99.505	  0.749
17903	  0.046	  0.636	  1.026	 -0.250	 -0.074	 -9.496	  0.000	 -0.002	  0.018	 30.400	 99.517	 -0.356
17953	  0.047	  0.643	  1.027	 -0.260	 -0.100	 -9.494	  0.004	 -0.002	  0.018	 30.400	 99.505	  0.749
18003	  0.043	  0.641	  1.028	 -0.309	 -0.097	 -9.500	  0.003	 -0.001	  0.017	 30.400	 99.513	  0.012
18053	  0.043	  0.646	  1.020	 -0.224	 -0.078	 -9.437	  0.004	 -0.000	  0.018	 30.400	 99.517	 -0.356
18103	  0.045	  0.647	  1.025	 -0.372	 -0.104	 -9.553	  0.002	 -0.001	  0.019	 30.400	 99.529	 -1.463
18153	  0.045	  0.647	  1.024	 -0.189	 -0.153	 -9.480	  0.003	 -0.003	  0.016	 30.400	 99.517	 -0.356
18203	  0.043	  0.642	  1.023	 -0.326	 -0.098	 -9.530	  0.003	 -0.001	  0.018	 30.400	 99.517	 -0.356
18253	  0.047	  0.648	  1.023	 -0.205	 -0.120	 -9.493	  0.002	 -0.003	  0.018	 30.400	 99.517	 -0.356
18303	  0.047	  0.642	  1.024	 -0.297	 -0.071	 -9.498	  0.003	 -0.001	  0.019	 30.400	 99.521	 -0.726
18353	  0.044	  0.642	  1.025	 -0.447	 -0.523	 -9.767	 -0.012	  0.005	  0.014	 30.400	 99.521	 -0.726
18403	  0.044	  0.641	  1.027	 -0.298	 -0.004	 -9.466	  0.003	 -0.002	  0.018	 30.400	 99.505	  0.749
18453	  0.045	  0.647	  1.024	 -0.280	 -0.064	 -9.447	  0.002	 -0.002	  0.018	 30.400	 99.517	 -0.356
18503	  0.042	  0.643	  1.026	 -0.227	 -0.128	 -9.478	  0.003	 -0.002	  0.018	 30.400	 99.517	 -0.356
18553	  0.045	  0.643	  1.021	 -0.273	 -0.111	 -9.490	  0.004	 -0.001	  0.017	 30.400	 99.517	 -0.356
18603	  0.043	  0.644	  1.025	 -0.259	 -0.070	 -9.504	 -0.004	 -0.001	  0.017	 30.400	 99.517	 -0.356
18653	  0.043	  0.641	  1.025	 -0.279	 -0.074	 -9.458	  0.003	 -0.002	  0.018	 30.400	 99.505	  0.749
18703	  0.045	  0.642	  1.023	 -0.210	 -0.073	 -9.497	  0.002	 -0.002	  0.018	 30.400	 99.517	 -0.356
18753	  0.043	  0.642	  1.028	 -0.291	 -0.106	 -9.544	  0.003	 -0.002	  0.019	 30.400	 99.517	 -0.356
18803	  0.045	  0.648	  1.024	 -0.188	 -0.059	 -9.472	  0.005	  0.001	  0.017	 30.400	 99.517	 -0.356
18853	  0.044	  0.642	  1.029	 -0.312	 -0.026	 -9.489	  0.005	 -0.000	  0.017	 30.400	 99.505	  0.749
18903	  0.048	  0.646	  1.017	 -0.203	 -0.165	 -9.517	 -0.000	 -0.001	  0.017	 30.400	 99.517	 -0.356
18953	  0.048	  0.639	  1.028	 -0.296	 -0.130	 -9.501	  0.001	 -0.002	  0.017	 30.400	 99.517	 -0.356
19003	  0.044	  0.647	  1.024	 -0.192	 -0.194	 -9.535	 -0.002	  0.002	  0.018	 30.400	 99.505	  0.749
19053	  0.043	  0.644	  1.024	 -0.275	 -0.174	 -9.507	  0.001	 -0.001	  0.019	 30.400	 99.517	 -0.356
19103	  0.043	  0.647	  1.028	 -0.245	 -0.158	 -9.505	  0.003	 -0.001	  0.018	 30.400	 99.505	  0.749
19153	  0.044	  0.642	  1.024	 -0.231	 -0.114	 -9.484	  0.003	 -0.001	  0.018	 30.400	 99.505	  0.749
19203	  0.044	  0.653	  1.028	 -0.269	 -0.079	 -9.444	  0.002	 -0.002	  0.018	 30.400	 99.517	 -0.356
19253	  0.045	  0.641	  1.031	 -0.229	 -0.073	 -9.480	  0.001	 -0.001	  0.016	 30.400	 99.517	 -0.356
19303	  0.045	  0.647	  1.024	 -0.296	 -0.120	 -9.486	  0.002	 -0.001	  0.018	 30.400	 99.517	 -0.356
19353	  0.045	  0.642	  1.021	 -0.201	 -0.110	 -9.501	  0.002	 -0.001	  0.017	 30.400	 99.517	 -0.356
19403	  0.048	  0.643	  1.027	 -0.306	 -0.126	 -9.466	  0.003	 -0.000	  0.016	 30.400	 99.517	 -0.356
19453	  0.045	  0.643	  1.027	 -0.193	 -0.137	 -9.467	  0.002	 -0.001	  0.017	 30.400	 99.505	  0.749
19503	  0.048	  0.646	  1.028	 -0.310	 -0.093	 -9.493	  0.003	 -0.001	  0.018	 30.400	 99.517	 -0.356
19553	  0.044	  0.644	  1.023	 -0.205	 -0.124	 -9.517	  0.003	 -0.002	  0.016	 30.400	 99.517	 -0.356
19603	  0.048	  0.644	  1.021	 -0.298	 -0.085	 -9.492	  0.002	 -0.002	  0.018	 30.400	 99.517	 -0.356
19653	  0.050	  0.644	  1.024	 -0.249	 -0.109	 -9.524	  0.001	 -0.000	  0.019	 30.400	 99.505	  0.749
19703	  0.048	  0.641	  1.021	 -0.272	 -0.113	 -9.498	  0.003	 -0.001	  0.018	 30.400	 99.529	 -1.463
19753	  0.052	  0.642	  1.024	 -0.247	  0.143	 -9.386	  0.005	 -0.003	  0.018	 30.400	 99.505	  0.749
19803	  0.049	  0.638	  1.027	 -0.234	 -0.022	 -9.466	  0.004	  0.001	  0.019	 30.400	 99.505	  0.749
19853	  0.049	  0.642	  1.031	 -0.274	 -0.026	 -9.470	  0.006	  0.001	  0.019	 30.400	 99.517	 -0.356
19903	  0.045	  0.639	  1.027	 -0.188	 -0.267	 -9.548	 -0.004	 -0.003	  0.018	 30.400	 99.517	 -0.356
19953	  0.045	  0.641	  1.023	 -0.298	 -0.091	 -9.508	  0.004	 -0.001	  0.017	 30.400	 99.521	 -0.726
20003	  0.045	  0.643	  1.023	 -0.196	 -0.065	 -9.465	  0.017	 -0.003	  0.016	 30.400	 99.517	 -0.356
20053	  0.050	  0.647	  1.035	 -0.334	 -0.195	 -9.525	  0.041	 -0.002	  0.015	 30.400	 99.509	  0.380
20103	  0.048	  0.643	  1.024	 -0.212	 -0.314	 -9.562	 -0.006	 -0.002	  0.018	 30.400	 99.505	  0.749
20153	  0.049	  0.646	  1.031	 -0.288	 -0.115	 -9.481	  0.002	 -0.001	  0.018	 30.400	 99.505	  0.749
20203	  0.049	  0.648	  1.024	 -0.237	 -0.194	 -9.483	 -0.000	 -0.002	  0.018	 30.400	 99.517	 -0.356
20253	  0.050	  0.648	  1.029	 -0.274	 -0.091	 -9.493	  0.009	 -0.002	  0.017	 30.400	 99.505	  0.749
20303	  0.050	  0.651	  1.024	 -0.250	 -0.162	 -9.521	  0.007	 -0.002	  0.015	 30.400	 99.517	 -0.356
20353	  0.045	  0.647	  1.027	 -0.229	 -0.634	 -9.713	  0.076	  0.015	  0.016	 30.400	 99.521	 -0.726
20403	  0.048	  0.655	  1.025	 -0.128	 -0.738	 -9.676	 -0.029	 -0.010	  0.018	 30.400	 99.517	 -0.356
20453	  0.049	  0.643	  1.033	 -0.243	  0.275	 -9.330	 -0.010	 -0.000	  0.020	 30.400	 99.509	  0.380
20503	  0.051	  0.653	  1.028	 -0.256	 -0.280	 -9.565	  0.020	  0.002	  0.016	 30.400	 99.517	 -0.356
20553	  0.050	  0.650	  1.029	 -0.242	 -0.314	 -9.620	 -0.052	 -0.007	  0.016	 30.400	 99.517	 -0.356
20603	  0.049	  0.639	  1.023	 -0.312	 -0.006	 -9.426	  0.020	 -0.003	  0.017	 30.400	 99.505	  0.749
20653	  0.050	  0.650	  1.025	 -0.330	 -0.255	 -9.640	  0.135	  0.032	  0.014	 30.400	 99.521	 -0.726
20703	  0.048	  0.652	  1.028	 -0.162	 -0.814	 -9.664	 -0.024	 -0.005	  0.020	 30.400	 99.517	 -0.356
20754	  0.049	  0.646	  1.023	 -0.248	  0.396	 -9.289	  0.001	 -0.001	  0.017	 30.400	 99.517	 -0.356
20803	  0.052	  0.648	  1.031	 -0.299	 -0.026	 -9.466	  0.053	  0.003	  0.016	 30.400	 99.505	  0.749
20854	  0.048	  0.660	  1.024	 -0.290	  0.062	 -9.401	 -0.024	 -0.004	  0.019	 30.400	 99.505	  0.749
20902	  0.050	  0.658	  1.028	 -0.337	 -0.138	 -9.490	  0.166	  0.041	  0.014	 30.400	 99.517	 -0.356
20953	  0.056	  0.639	  1.019	 -2.131	  0.707	 -8.581	 -0.192	 -0.040	  0.384	 30.400	 99.521	 -0.726
21002	  0.078	  0.614	  1.028	 -1.002	  3.746	 -6.648	  0.102	  0.003	  0.260	 30.400	 99.505	  0.749
21052	  0.082	  0.655	  1.024	  0.747	 -3.023	 -10.414	  0.321	  0.154	  0.009	 30.400	 99.517	 -0.356
21102	  0.082	  0.653	  1.026	  0.255	 -1.461	 -9.704	 -0.233	 -0.091	  0.023	 30.400	 99.505	  0.749
21153	  0.085	  0.634	  1.023	  0.607	  0.325	 -10.749	  0.291	  0.047	  0.012	 30.400	 99.505	  0.749
21203	  0.085	  0.633	  1.027	  0.721	  0.518	 -9.195	  0.131	  0.003	  0.018	 30.400	 99.497	  1.486
21252	  0.088	  0.642	  1.017	 -0.335	 -0.108	 -9.471	 -0.032	 -0.001	  0.021	 30.400	 99.505	  0.749
21303	  0.085	  0.627	  1.022	  0.274	 -0.430	 -9.833	  0.097	  0.006	  0.012	 30.400	 99.505	  0.749
21353	  0.085	  0.634	  1.023	 -0.308	  0.014	 -9.400	  0.036	 -0.001	  0.023	 30.400	 99.517	 -0.356
21403	  0.085	  0.645	  1.021	 -0.223	 -0.297	 -9.594	  0.002	  0.000	  0.018	 30.400	 99.517	 -0.356
21452	  0.083	  0.636	  1.027	 -0.279	 -0.054	 -9.468	  0.001	 -0.001	  0.018	 30.400	 99.500	  1.210
21503	  0.085	  0.632	  1.023	 -0.292	 -0.095	 -9.478	  0.002	 -0.001	  0.016	 30.400	 99.505	  0.749
21553	  0.085	  0.628	  1.027	 -0.234	 -0.067	 -9.480	  0.002	 -0.001	  0.018	 30.400	 99.505	  0.749
21603	  0.084	  0.631	  1.024	 -0.296	 -0.090	 -9.518	  0.004	 -0.001	  0.017	 30.400	 99.517	 -0.356
21653	  0.085	  0.627	  1.016	 -0.210	 -0.119	 -9.517	  0.002	 -0.002	  0.018	 30.400	 99.517	 -0.356
21703	  0.083	  0.632	  1.024	 -0.314	 -0.138	 -9.482	  0.003	 -0.000	  0.019	 30.400	 99.517	 -0.356
21753	  0.085	  0.627	  1.026	 -0.211	 -0.101	 -9.492	  0.004	 -0.001	  0.017	 30.400	 99.529	 -1.463
21803	  0.084	  0.632	  1.027	 -0.301	 -0.097	 -9.509	  0.003	 -0.001	  0.018	 30.400	 99.509	  0.380
21853	  0.085	  0.628	  1.024	 -0.224	 -0.129	 -9.474	  0.002	 -0.002	  0.017	 30.400	 99.529	 -1.463
21903	  0.082	  0.632	  1.016	 -0.311	 -0.062	 -9.484	  0.003	 -0.001	  0.018	 30.400	 99.517	 -0.356
21953	  0.080	  0.631	  1.021	 -0.223	 -0.126	 -9.509	  0.003	 -0.002	  0.017	 30.400	 99.517	 -0.356
22003	  0.085	  0.634	  1.027	 -0.272	 -0.068	 -9.471	  0.003	 -0.001	  0.018	 30.400	 99.517	 -0.356
22053	  0.085	  0.631	  1.023	 -0.169	 -0.149	 -9.471	  0.004	 -0.000	  0.018	 30.400	 99.517	 -0.356
22103	  0.084	  0.631	  1.027	 -0.237	 -0.027	 -9.467	  0.003	 -0.000	  0.017	 30.400	 99.505	  0.749
22153	  0.082	  0.634	  1.021	 -0.278	 -0.137	 -9.472	  0.003	 -0.002	  0.017	 30.400	 99.517	 -0.356
22203	  0.085	  0.631	  1.023	 -0.313	 -0.114	 -9.494	  0.002	 -0.003	  0.017	 30.400	 99.517	 -0.356
22253	  0.089	  0.628	  1.023	 -0.243	 -0.115	 -9.516	  0.001	 -0.002	  0.017	 30.400	 99.521	 -0.726
22303	  0.085	  0.627	  1.024	 -0.230	 -0.077	 -9.511	  0.002	 -0.002	  0.017	 30.400	 99.517	 -0.356
22353	  0.085	  0.628	  1.024	 -0.311	 -0.026	 -9.466	  0.012	  0.000	  0.016	 30.400	 99.505	  0.749
22403	  0.088	  0.636	  1.027	 -0.206	 -0.002	 -9.434	  0.060	 -0.003	  0.017	 30.400	 99.509	  0.380
22453	  0.087	  0.631	  1.020	 -0.323	 -0.062	 -9.506	 -0.068	  0.001	  0.018	 30.400	 99.509	  0.380
22503	  0.087	  0.631	  1.027	 -0.184	 -0.755	 -9.755	 -0.015	 -0.004	  0.020	 30.400	 99.505	  0.749
22553	  0.084	  0.631	  1.027	 -0.291	 -0.275	 -9.607	  0.011	  0.001	  0.017	 30.400	 99.517	 -0.356
22603	  0.085	  0.632	  1.024	 -0.254	 -0.076	 -9.500	 -0.000	 -0.000	  0.018	 30.400	 99.505	  0.749
22653	  0.085	  0.631	  1.028	 -0.255	 -0.115	 -9.486	  0.002	 -0.002	  0.018	 30.400	 99.517	 -0.356
22703	  0.083	  0.636	  1.016	 -0.220	 -0.159	 -9.527	  0.003	 -0.002	  0.017	 30.400	 99.517	 -0.356
22753	  0.084	  0.629	  1.032	 -0.223	 -0.184	 -9.501	  0.002	 -0.003	  0.018	 30.400	 99.517	 -0.356
22803	  0.085	  0.633	  1.026	 -0.272	 -0.088	 -9.479	  0.004	 -0.001	  0.018	 30.400	 99.529	 -1.463
22853	  0.084	  0.637	  1.027	 -0.208	 -0.150	 -9.537	  0.003	 -0.000	  0.016	 30.400	 99.517	 -0.356
22903	  0.084	  0.629	  1.022	 -0.322	 -0.113	 -9.491	  0.003	  0.000	  0.018	 30.400	 99.505	  0.749
22953	  0.086	  0.641	  1.020	 -0.218	 -0.120	 -9.505	  0.003	 -0.001	  0.018	 30.400	 99.505	  0.749
23003	  0.084	  0.631	  1.026	 -0.294	 -0.086	 -9.505	  0.003	 -0.002	  0.018	 30.400	 99.521	 -0.726
23053	  0.083	  0.631	  1.026	 -0.209	 -0.120	 -9.494	  0.001	 -0.001	  0.017	 30.400	 99.517	 -0.356
23103	  0.084	  0.627	  1.028	 -0.294	 -0.075	 -9.515	  0.003	 -0.001	  0.018	 30.400	 99.521	 -0.726
23153	  0.084	  0.629	  1.022	 -0.218	 -0.120	 -9.502	  0.003	 -0.001	  0.019	 30.400	 99.521	 -0.726
23203	  0.087	  0.632	  1.027	 -0.302	 -0.013	 -9.441	  0.004	 -0.002	  0.018	 30.400	 99.509	  0.380
23253	  0.083	  0.633	  1.024	 -0.224	 -0.119	 -9.465	  0.002	 -0.001	  0.018	 30.400	 99.529	 -1.463
23303	  0.085	  0.624	  1.026	 -0.262	 -0.092	 -9.495	  0.003	 -0.000	  0.018	 30.400	 99.505	  0.749
23353	  0.087	  0.632	  1.016	 -0.275	 -0.098	 -9.450	  0.004	 -0.002	  0.017	 30.400	 99.517	 -0.356
23403	  0.085	  0.628	  1.022	 -0.254	 -0.100	 -9.489	  0.003	 -0.001	  0.017	 30.400	 99.492	  1.948
23453	  0.085	  0.634	  1.024	 -0.287	 -0.088	 -9.478	  0.004	 -0.001	  0.018	 30.400	 99.505	  0.749
23503	  0.085	  0.634	  1.030	 -0.207	 -0.110	 -9.481	  0.002	 -0.002	  0.018	 30.400	 99.517	 -0.356
23553	  0.083	  0.642	  1.021	 -0.303	 -0.054	 -9.491	  0.003	 -0.002	  0.018	 30.400	 99.517	 -0.356
23603	  0.085	  0.632	  1.024	 -0.206	 -0.137	 -9.504	  0.002	 -0.001	  0.019	 30.400	 99.517	 -0.356
23653	  0.085	  0.632	  1.022	 -0.291	 -0.087	 -9.500	  0.002	 -0.003	  0.016	 30.400	 99.529	 -1.463
23703	  0.084	  0.636	  1.026	 -0.211	 -0.127	 -9.489	  0.002	 -0.001	  0.016	 30.400	 99.517	 -0.356
23753	  0.085	  0.632	  1.027	 -0.285	 -0.089	 -9.494	  0.003	  0.000	  0.018	 30.400	 99.517	 -0.356
23803	  0.084	  0.641	  1.030	 -0.239	 -0.125	 -9.493	  0.003	 -0.001	  0.017	 30.400	 99.509	  0.380
23853	  0.085	  0.628	  1.026	 -0.304	 -0.103	 -9.493	  0.002	 -0.001	  0.019	 30.400	 99.505	  0.749
23903	  0.085	  0.632	  1.019	 -0.267	 -0.116	 -9.487	  0.003	 -0.003	  0.018	 30.400	 99.517	 -0.356
23953	  0.085	  0.633	  1.030	 -0.241	 -0.100	 -9.495	  0.003	 -0.001	  0.018	 30.400	 99.505	  0.749
24003	  0.084	  0.629	  1.022	 -0.263	 -0.129	 -9.508	  0.003	 -0.002	  0.017	 30.400	 99.533	 -1.831
24053	  0.084	  0.629	  1.027	 -0.241	 -0.101	 -9.488	  0.003	 -0.001	  0.019	 30.400	 99.517	 -0.356
24103	  0.084	  0.631	  1.022	 -0.313	 -0.117	 -9.503	  0.002	 -0.001	  0.017	 30.400	 99.521	 -0.726
24153	  0.088	  0.629	  1.030	 -0.223	 -0.112	 -9.497	  0.003	 -0.002	  0.019	 30.400	 99.492	  1.948
24203	  0.083	  0.636	  1.015	 -0.331	 -0.076	 -9.483	  0.003	 -0.001	  0.017	 30.400	 99.505	  0.749
24253	  0.087	  0.628	  1.023	 -0.196	 -0.130	 -9.478	  0.002	 -0.002	  0.017	 30.400	 99.517	 -0.356
24303	  0.085	  0.636	  1.026	 -0.301	 -0.100	 -9.514	  0.003	 -0.001	  0.018	 30.400	 99.517	 -0.356
24353	  0.085	  0.627	  1.024	 -0.216	 -0.140	 -9.483	  0.002	 -0.001	  0.017	 30.400	 99.517	 -0.356
24403	  0.087	  0.631	  1.022	 -0.288	 -0.066	 -9.506	  0.002	 -0.003	  0.018	 30.400	 99.517	 -0.356
24453	  0.085	  0.629	  1.030	 -0.239	 -0.123	 -9.477	  0.001	 -0.000	  0.019	 30.400	 99.517	 -0.356
24503	  0.083	  0.634	  1.024	 -0.256	 -0.084	 -9.486	  0.002	 -0.001	  0.018	 30.400	 99.517	 -0.356
24553	  0.087	  0.632	  1.023	 -0.292	 -0.109	 -9.465	  0.002	 -0.001	  0.017	 30.400	 99.517	 -0.356
24602	  0.084	  0.629	  1.026	 -0.208	 -0.119	 -9.501	  0.002	 -0.001	  0.019	 30.400	 99.517	 -0.356
24652	  0.085	  0.636	  1.024	 -0.319	 -0.089	 -9.485	  0.003	 -0.003	  0.017	 30.400	 99.505	  0.749
24702	  0.084	  0.632	  1.023	 -0.236	 -0.120	 -9.483	  0.003	 -0.000	  0.019	 30.400	 99.505	  0.749
24752	  0.085	  0.632	  1.026	 -0.310	 -0.096	 -9.504	  0.002	 -0.001	  0.018	 30.400	 99.505	  0.749
24802	  0.088	  0.641	  1.031	 -0.237	 -0.116	 -9.468	  0.002	 -0.003	  0.018	 30.400	 99.521	 -0.726
24852	  0.084	  0.645	  1.025	 -0.283	 -0.099	 -9.505	  0.002	 -0.001	  0.018	 30.400	 99.517	 -0.356
24902	  0.084	  0.627	  1.018	 -0.255	 -0.113	 -9.490	  0.002	 -0.001	  0.017	 30.400	 99.505	  0.749
24958	  0.084	  0.628	  1.027	 -0.246	 -0.096	 -9.467	  0.002	 -0.001	  0.018	 30.400	 99.517	 -0.356
25003	  0.084	  0.628	  1.019	 -0.331	 -0.091	 -9.504	  0.004	 -0.000	  0.018	 30.400	 99.517	 -0.356
25052	  0.087	  0.628	  1.024	 -0.276	 -0.095	 -9.484	  0.002	 -0.000	  0.018	 30.400	 99.517	 -0.356
25102	  0.086	  0.636	  1.022	 -0.243	 -0.200	 -9.550	  0.003	 -0.001	  0.020	 30.400	 99.517	 -0.356
25152	  0.084	  0.627	  1.026	 -0.231	 -0.090	 -9.497	 -0.001	  0.003	  0.019	 30.400	 99.529	 -1.463
25202	  0.084	  0.633	  1.023	 -0.321	 -0.147	 -9.562	  0.003	 -0.001	  0.017	 30.400	 99.521	 -0.726
25252	  0.088	  0.643	  1.024	 -0.208	 -0.103	 -9.473	  0.002	 -0.001	  0.018	 30.400	 99.517	 -0.356
25302	  0.084	  0.629	  1.019	 -0.296	 -0.084	 -9.456	  0.001	 -0.001	  0.018	 30.400	 99.505	  0.749
25352	  0.085	  0.633	  1.019	 -0.243	 -0.121	 -9.466	  0.003	 -0.001	  0.018	 30.400	 99.517	 -0.356
25402	  0.086	  0.633	  1.027	 -0.270	 -0.104	 -9.452	  0.002	 -0.001	  0.018	 30.400	 99.517	 -0.356
25452	  0.083	  0.631	  1.030	 -0.250	 -0.086	 -9.473	  0.003	  0.000	  0.018	 30.400	 99.505	  0.749
25502	  0.085	  0.634	  1.021	 -0.280	 -0.080	 -9.488	  0.002	 -0.002	  0.016	 30.400	 99.505	  0.749
25552	  0.085	  0.627	  1.023	 -0.261	 -0.107	 -9.472	  0.001	 -0.001	  0.017	 30.400	 99.505	  0.749
25602	  0.085	  0.633	  1.016	 -0.220	 -0.171	 -9.511	  0.002	 -0.002	  0.018	 30.400	 99.517	 -0.356
25652	  0.089	  0.626	  1.026	 -0.310	 -0.049	 -9.505	  0.002	 -0.002	  0.017	 30.400	 99.505	  0.749
25702	  0.083	  0.628	  1.024	 -0.194	 -0.100	 -9.500	  0.004	 -0.001	  0.018	 30.400	 99.521	 -0.726
25752	  0.085	  0.628	  1.026	 -0.271	  0.014	 -9.433	  0.012	 -0.002	  0.016	 30.400	 99.529	 -1.463
25802	  0.087	  0.631	  1.020	 -0.202	 -0.268	 -9.539	  0.037	 -0.003	  0.017	 30.400	 99.517	 -0.356
25852	  0.085	  0.627	  1.023	 -0.353	 -0.379	 -9.631	 -0.094	  0.002	  0.021	 30.400	 99.517	 -0.356
25902	  0.085	  0.634	  1.019	 -0.002	 -0.729	 -9.741	  0.038	 -0.005	  0.019	 30.400	 99.509	  0.380
25952	  0.083	  0.631	  1.026	 -0.332	  0.277	 -9.345	  0.002	 -0.001	  0.018	 30.400	 99.517	 -0.356
26002	  0.082	  0.641	  1.028	 -0.275	 -0.001	 -9.432	  0.008	 -0.000	  0.019	 30.400	 99.517	 -0.356
26052	  0.089	  0.631	  1.025	 -0.229	 -0.319	 -9.556	 -0.002	 -0.004	  0.018	 30.400	 99.517	 -0.356
26102	  0.086	  0.640	  1.026	 -0.292	 -0.138	 -9.523	  0.002	  0.001	  0.018	 30.400	 99.505	  0.749
26152	  0.084	  0.629	  1.028	 -0.245	 -0.088	 -9.496	  0.002	 -0.002	  0.018	 30.400	 99.521	 -0.726
26202	  0.085	  0.626	  1.023	 -0.319	 -0.059	 -9.475	  0.002	  0.000	  0.018	 30.400	 99.505	  0.749
26252	  0.086	  0.634	  1.026	 -0.249	 -0.133	 -9.504	 -0.002	 -0.000	  0.016	 30.400	 99.509	  0.380
26302	  0.082	  0.628	  1.024	 -0.336	 -0.229	 -9.545	  0.003	 -0.000	  0.017	 30.400	 99.517	 -0.356
26352	  0.088	  0.629	  1.026	 -0.216	 -0.097	 -9.476	  0.002	  0.000	  0.018	 30.400	 99.509	  0.380
26402	  0.082	  0.639	  1.025	 -0.292	 -0.087	 -9.486	  0.017	 -0.002	  0.017	 30.400	 99.521	 -0.726
26452	  0.086	  0.633	  1.022	 -0.290	 -0.610	 -9.750	 -0.004	 -0.000	  0.018	 30.400	 99.517	 -0.356
26502	  0.085	  0.628	  1.023	 -0.264	 -0.015	 -9.431	  0.005	 -0.001	  0.020	 30.400	 99.509	  0.380
26552	  0.087	  0.632	  1.024	 -0.205	 -0.280	 -9.583	  0.003	 -0.000	  0.018	 30.400	 99.517	 -0.356
26603	  0.085	  0.631	  1.027	 -0.256	  0.030	 -9.415	  0.004	  0.002	  0.016	 30.400	 99.505	  0.749
26653	  0.084	  0.632	  1.026	 -0.230	 -0.103	 -9.512	  0.005	 -0.003	  0.019	 30.400	 99.517	 -0.356
26704	  0.088	  0.646	  1.023	 -0.309	 -0.114	 -9.512	  0.003	 -0.002	  0.021	 30.400	 99.521	 -0.726
26753	  0.085	  0.629	  1.023	 -0.252	 -0.104	 -9.455	  0.003	 -0.002	  0.017	 30.400	 99.509	  0.380
26802	  0.085	  0.627	  1.023	 -0.299	 -0.090	 -9.496	  0.004	 -0.002	  0.016	 30.400	 99.505	  0.749
26854	  0.084	  0.629	  1.024	 -0.271	 -0.079	 -9.515	  0.005	  0.000	  0.020	 30.400	 99.521	 -0.726
26904	  0.085	  0.632	  1.020	 -0.257	 -0.040	 -9.472	 -0.003	  0.002	  0.019	 30.400	 99.505	  0.749
26954	  0.089	  0.626	  1.027	 -0.320	  0.012	 -9.449	 -0.001	 -0.003	  0.020	 30.400	 99.517	 -0.356
27003	  0.085	  0.633	  1.024	 -0.138	 -0.914	 -9.933	 -0.009	 -0.005	  0.017	 30.400	 99.521	 -0.726
27053	  0.087	  0.633	  1.026	 -0.319	 -0.210	 -9.544	  0.003	 -0.001	  0.015	 30.400	 99.505	  0.749
27103	  0.087	  0.629	  1.015	 -0.062	 -0.250	 -9.427	  0.035	 -0.002	 -0.038	 30.400	 99.505	  0.749
27153	  0.084	  0.632	  1.020	 -0.261	 -0.439	 -9.627	 -0.007	 -0.001	  0.021	 30.400	 99.509	  0.380
27203	  0.084	  0.631	  1.023	 -0.214	 -0.100	 -9.468	  0.001	  0.001	  0.017	 30.400	 99.505	  0.749
27253	  0.084	  0.632	  1.024	 -0.363	  0.265	 -9.310	  0.005	  0.002	  0.016	 30.400	 99.517	 -0.356
27303	  0.082	  0.628	  1.018	 -0.235	 -0.141	 -9.497	  0.005	 -0.001	  0.016	 30.400	 99.517	 -0.356
27353	  0.080	  0.638	  1.017	 -0.326	 -0.136	 -9.514	  0.050	 -0.004	 -0.158	 30.400	 99.505	  0.749
27403	  0.080	  0.648	  1.025	 -0.225	 -0.388	 -9.608	 -0.007	 -0.002	  0.020	 30.400	 99.505	  0.749
27453	  0.083	  0.629	  1.019	 -0.211	 -0.728	 -9.851	  0.000	 -0.005	  0.020	 30.400	 99.509	  0.380
27503	  0.082	  0.643	  1.018	 -0.287	 -0.116	 -9.495	  0.004	  0.000	  0.017	 30.400	 99.509	  0.380
27553	  0.080	  0.642	  1.024	 -0.271	 -0.101	 -9.479	  0.006	  0.000	  0.012	 30.400	 99.505	  0.749
27603	  0.079	  0.632	  1.025	 -0.309	 -0.065	 -9.477	  0.006	 -0.003	 -0.076	 30.400	 99.521	 -0.726
27653	  0.073	  0.632	  1.023	 -0.290	 -0.333	 -9.642	 -0.025	  0.001	 -0.156	 30.400	 99.517	 -0.356
27703	  0.070	  0.627	  1.014	 -0.387	  0.187	 -9.344	 -0.001	  0.001	  0.022	 30.400	 99.509	  0.380
27753	  0.072	  0.632	  1.017	 -0.174	 -0.171	 -9.502	  0.001	 -0.002	  0.020	 30.400	 99.517	 -0.356
27803	  0.071	  0.631	  1.021	 -0.304	 -0.082	 -9.477	  0.003	  0.001	  0.017	 30.400	 99.521	 -0.726
27853	  0.072	  0.624	  1.028	 -0.242	 -0.109	 -9.497	  0.002	 -0.002	  0.016	 30.400	 99.505	  0.749
27903	  0.072	  0.636	  1.020	 -0.250	 -0.245	 -9.446	  0.003	 -0.004	 -0.211	 30.400	 99.505	  0.749
27953	  0.064	  0.636	  1.023	 -0.287	  0.250	 -9.479	 -0.005	 -0.001	  0.007	 30.400	 99.517	 -0.356
28003	  0.062	  0.641	  1.017	 -0.256	 -0.064	 -9.493	  0.002	 -0.003	  0.020	 30.400	 99.505	  0.749
28053	  0.066	  0.633	  1.025	 -0.283	 -0.094	 -9.501	  0.004	 -0.001	  0.017	 30.400	 99.509	  0.380
28103	  0.065	  0.634	  1.023	 -0.221	 -0.071	 -9.445	  0.001	 -0.001	  0.016	 30.400	 99.517	 -0.356
28153	  0.066	  0.633	  1.010	 -0.279	  0.042	 -9.388	  0.037	 -0.001	 -0.001	 30.400	 99.517	 -0.356
28203	  0.062	  0.639	  1.022	 -0.208	 -0.232	 -9.555	  0.008	 -0.003	  0.019	 30.400	 99.509	  0.380
28253	  0.066	  0.633	  1.024	 -0.329	 -0.012	 -9.469	 -0.024	 -0.002	  0.017	 30.400	 99.517	 -0.356
28303	  0.062	  0.637	  1.025	 -0.194	  0.127	 -9.356	  0.016	 -0.002	  0.017	 30.400	 99.505	  0.749
28353	  0.066	  0.643	  1.011	 -0.304	 -0.253	 -9.548	  0.051	 -0.003	  0.018	 30.400	 99.505	  0.749
28403	  0.064	  0.639	  1.023	 -0.227	 -0.094	 -9.470	  0.003	 -0.000	  0.016	 30.400	 99.517	 -0.356
28453	  0.065	  0.648	  1.020	 -0.283	 -0.273	 -9.583	 -0.058	  0.005	  0.020	 30.400	 99.509	  0.380
28503	  0.061	  0.634	  1.025	 -0.266	  0.425	 -9.218	  0.012	 -0.003	  0.019	 30.400	 99.517	 -0.356
28553	  0.064	  0.643	  1.019	  0.170	 -0.538	 -9.553	 -0.032	 -0.008	  0.012	 30.400	 99.521	 -0.726
28603	  0.065	  0.638	  1.023	 -0.530	 -1.401	 -10.163	  0.026	  0.000	  0.091	 30.400	 99.521	 -0.726
28653	  0.066	  0.636	  1.020	 -0.457	  0.235	 -9.367	  0.056	  0.009	  0.021	 30.400	 99.505	  0.749
28703	  0.068	  0.634	  1.026	 -0.300	 -0.095	 -9.495	  0.007	 -0.002	  0.019	 30.400	 99.521	 -0.726
28753	  0.066	  0.633	  1.017	 -0.200	  0.069	 -9.383	  0.039	 -0.002	  0.016	 30.400	 99.517	 -0.356
28803	  0.066	  0.634	  1.022	 -0.395	  0.138	 -9.454	 -0.032	 -0.003	  0.018	 30.400	 99.521	 -0.726
28853	  0.065	  0.637	  1.017	 -0.256	  0.546	 -9.186	  0.028	 -0.001	  0.018	 30.400	 99.517	 -0.356
28903	  0.064	  0.639	  1.022	 -0.450	 -0.826	 -9.875	 -0.031	 -0.000	  0.016	 30.400	 99.517	 -0.356
28953	  0.065	  0.636	  1.021	 -0.388	 -0.912	 -9.723	  0.004	  0.000	  0.022	 30.400	 99.505	  0.749
29003	  0.066	  0.637	  1.029	 -0.430	  1.829	 -8.468	  0.006	 -0.001	  0.017	 30.400	 99.505	  0.749
29053	  0.066	  0.636	  1.022	 -0.349	 -0.569	 -9.751	 -0.007	 -0.002	  0.018	 30.400	 99.509	  0.380
29103	  0.067	  0.636	  1.021	 -0.258	  0.041	 -9.418	 -0.002	  0.000	  0.018	 30.400	 99.517	 -0.356
29153	  0.066	  0.641	  1.021	 -0.250	 -0.108	 -9.475	  0.004	 -0.000	  0.019	 30.400	 99.505	  0.749
29203	  0.068	  0.645	  1.022	 -0.219	 -0.108	 -9.470	  0.000	  0.000	  0.018	 30.400	 99.521	 -0.726
29253	  0.066	  0.634	  1.025	 -0.291	 -0.097	 -9.485	  0.002	  0.000	  0.017	 30.400	 99.505	  0.749
29303	  0.067	  0.638	  1.018	 -0.200	 -0.091	 -9.493	  0.004	 -0.001	  0.018	 30.400	 99.521	 -0.726
29353	  0.070	  0.637	  1.026	 -0.321	 -0.107	 -9.509	  0.002	 -0.000	  0.017	 30.400	 99.505	  0.749
29403	  0.071	  0.647	  1.019	 -0.194	 -0.123	 -9.509	  0.001	 -0.002	  0.018	 30.400	 99.509	  0.380
29453	  0.066	  0.633	  1.020	 -0.320	 -0.069	 -9.486	  0.003	  0.000	  0.018	 30.400	 99.505	  0.749
29503	  0.065	  0.632	  1.024	 -0.214	 -0.119	 -9.523	  0.002	 -0.001	  0.017	 30.400	 99.521	 -0.726
29553	  0.068	  0.638	  1.029	 -0.318	 -0.094	 -9.507	  0.002	 -0.001	  0.018	 30.400	 99.509	  0.380
29603	  0.068	  0.632	  1.022	 -0.212	 -0.114	 -9.460	  0.002	 -0.001	  0.017	 30.400	 99.517	 -0.356
29653	  0.067	  0.637	  1.015	 -0.298	 -0.103	 -9.516	  0.000	 -0.002	  0.017	 30.400	 99.509	  0.380
29703	  0.067	  0.646	  1.023	 -0.242	 -0.118	 -9.493	  0.003	 -0.001	  0.018	 30.400	 99.505	  0.749
29753	  0.068	  0.646	  1.022	 -0.282	 -0.096	 -9.516	  0.002	 -0.001	  0.019	 30.400	 99.517	 -0.356
29803	  0.066	  0.651	  1.026	 -0.265	 -0.106	 -9.485	  0.002	 -0.000	  0.017	 30.400	 99.517	 -0.356
29853	  0.065	  0.634	  1.022	 -0.217	 -0.104	 -9.477	  0.002	 -0.003	  0.017	 30.400	 99.521	 -0.726
29903	  0.066	  0.637	  1.020	 -0.286	 -0.085	 -9.520	  0.002	 -0.002	  0.018	 30.400	 99.505	  0.749
29953	  0.067	  0.637	  1.017	 -0.196	 -0.097	 -9.465	  0.003	 -0.001	  0.018	 30.400	 99.505	  0.749
30003	  0.065	  0.633	  1.022	 -0.307	 -0.096	 -9.473	  0.003	 -0.001	  0.017	 30.400	 99.509	  0.380
30053	  0.067	  0.636	  1.022	 -0.224	 -0.132	 -9.469	  0.002	 -0.001	  0.018	 30.400	 99.509	  0.380
30103	  0.066	  0.633	  1.020	 -0.304	 -0.081	 -9.517	  0.001	 -0.000	  0.018	 30.400	 99.505	  0.749
30153	  0.065	  0.643	  1.023	 -0.211	 -0.112	 -9.455	  0.003	 -0.001	  0.019	 30.400	 99.517	 -0.356
30203	  0.065	  0.636	  1.025	 -0.300	 -0.098	 -9.508	  0.003	  0.000	  0.018	 30.400	 99.509	  0.380
30253	  0.068	  0.632	  1.022	 -0.224	 -0.127	 -9.467	  0.002	 -0.002	  0.017	 30.400	 99.505	  0.749
30303	  0.065	  0.632	  1.022	 -0.248	 -0.109	 -9.483	  0.002	 -0.001	  0.016	 30.400	 99.521	 -0.726
30353	  0.066	  0.632	  1.022	 -0.281	 -0.104	 -9.491	  0.002	 -0.001	  0.017	 30.400	 99.509	  0.380
30403	  0.066	  0.638	  1.022	 -0.227	 -0.090	 -9.498	  0.003	 -0.002	  0.018	 30.400	 99.521	 -0.726
30453	  0.067	  0.645	  1.025	 -0.287	 -0.102	 -9.497	  0.002	 -0.001	  0.018	 30.400	 99.505	  0.749
30503	  0.066	  0.642	  1.025	 -0.219	 -0.105	 -9.463	  0.004	 -0.001	  0.018	 30.400	 99.521	 -0.726
30553	  0.065	  0.641	  1.022	 -0.303	 -0.088	 -9.503	  0.002	 -0.001	  0.019	 30.400	 99.497	  1.486
30603	  0.064	  0.638	  1.017	 -0.225	 -0.138	 -9.496	  0.002	 -0.001	  0.018	 30.400	 99.509	  0.380
30653	  0.065	  0.637	  1.023	 -0.304	 -0.070	 -9.490	  0.001	 -0.000	  0.017	 30.400	 99.521	 -0.726
30703	  0.066	  0.644	  1.021	 -0.207	 -0.127	 -9.489	  0.003	 -0.002	  0.019	 30.400	 99.505	  0.749
30753	  0.065	  0.636	  1.023	 -0.297	 -0.103	 -9.532	  0.003	 -0.002	  0.018	 30.400	 99.517	 -0.356
30803	  0.065	  0.639	  1.017	 -0.229	 -0.113	 -9.500	  0.002	 -0.002	  0.019	 30.400	 99.521	 -0.726
30853	  0.065	  0.638	  1.025	 -0.269	 -0.098	 -9.476	  0.002	 -0.000	  0.018	 30.400	 99.505	  0.749
30903	  0.067	  0.641	  1.017	 -0.264	 -0.115	 -9.492	  0.002	 -0.002	  0.019	 30.400	 99.517	 -0.356
30953	  0.064	  0.632	  1.028	 -0.234	 -0.088	 -9.506	  0.002	 -0.002	  0.016	 30.400	 99.521	 -0.726
31003	  0.061	  0.633	  1.021	 -0.208	 -0.151	 -9.502	 -0.003	 -0.002	  0.018	 30.400	 99.505	  0.749
31053	  0.064	  0.634	  1.021	 -0.241	 -0.157	 -9.549	 -0.001	 -0.002	  0.018	 30.400	 99.505	  0.749
31103	  0.066	  0.637	  1.025	 -0.314	 -0.065	 -9.475	  0.003	  0.000	  0.017	 30.400	 99.505	  0.749
31153	  0.066	  0.632	  1.020	 -0.199	 -0.096	 -9.505	  0.003	 -0.001	  0.018	 30.400	 99.517	 -0.356
31203	  0.065	  0.629	  1.017	 -0.320	 -0.136	 -9.520	  0.002	 -0.001	  0.018	 30.400	 99.521	 -0.726
31253	  0.065	  0.650	  1.022	 -0.235	 -0.113	 -9.479	  0.002	 -0.003	  0.019	 30.400	 99.509	  0.380
31303	  0.065	  0.634	  1.025	 -0.316	 -0.086	 -9.490	  0.002	 -0.000	  0.017	 30.400	 99.517	 -0.356
31353	  0.066	  0.638	  1.021	 -0.205	 -0.134	 -9.482	  0.003	 -0.001	  0.018	 30.400	 99.509	  0.380
31403	  0.061	  0.633	  1.022	 -0.280	 -0.093	 -9.502	  0.001	 -0.002	  0.018	 30.400	 99.509	  0.380
31453	  0.064	  0.631	  1.022	 -0.254	 -0.122	 -9.487	  0.002	 -0.001	  0.017	 30.400	 99.521	 -0.726
31503	  0.062	  0.634	  1.021	 -0.257	 -0.084	 -9.489	  0.001	 -0.001	  0.018	 30.400	 99.517	 -0.356
31553	  0.061	  0.633	  1.025	 -0.271	 -0.125	 -9.517	  0.002	 -0.000	  0.016	 30.400	 99.517	 -0.356
31603	  0.067	  0.632	  1.028	 -0.245	 -0.118	 -9.539	  0.002	 -0.001	  0.018	 30.400	 99.517	 -0.356
31653	  0.064	  0.629	  1.017	 -0.165	 -0.016	 -9.527	 -0.235	 -0.065	  0.027	 30.400	 99.521	 -0.726
31703	  0.067	  0.641	  1.021	 -0.569	  1.182	 -8.769	  0.421	  0.109	  0.008	 30.400	 99.517	 -0.356
31753	  0.064	  0.632	  1.022	 -0.862	  1.445	 -8.416	 -0.098	 -0.022	  0.019	 30.400	 99.509	  0.380
31803	  0.064	  0.639	  1.013	 -0.243	 -1.223	 -9.959	 -0.084	 -0.002	  0.016	 30.400	 99.521	 -0.726
31853	  0.064	  0.646	  1.022	 -0.321	 -0.791	 -9.826	 -0.050	  0.002	  0.016	 30.400	 99.509	  0.380
31903	  0.065	  0.648	  1.018	 -0.111	  0.002	 -9.458	  0.050	 -0.000	  0.023	 30.400	 99.517	 -0.356
31953	  0.066	  0.637	  1.025	 -0.311	 -0.267	 -9.628	 -0.017	  0.001	  0.019	 30.400	 99.509	  0.380
32003	  0.065	  0.631	  1.020	 -0.223	 -0.002	 -9.413	  0.006	 -0.000	  0.018	 30.400	 99.509	  0.380
32053	  0.066	  0.639	  1.023	 -0.264	 -0.133	 -9.495	  0.002	  0.000	  0.018	 30.400	 99.509	  0.380
32103	  0.061	  0.633	  1.023	 -0.252	 -0.087	 -9.479	  0.002	 -0.003	  0.019	 30.400	 99.505	  0.749
32153	  0.064	  0.633	  1.026	 -0.240	 -0.098	 -9.498	  0.002	 -0.001	  0.017	 30.400	 99.509	  0.380
32203	  0.065	  0.634	  1.021	 -0.284	 -0.109	 -9.537	  0.002	 -0.001	  0.017	 30.400	 99.509	  0.380
32253	  0.065	  0.633	  1.028	 -0.212	 -0.122	 -9.495	  0.004	 -0.001	  0.018	 30.400	 99.521	 -0.726
32303	  0.065	  0.637	  1.017	 -0.290	 -0.084	 -9.500	  0.003	 -0.002	  0.018	 30.400	 99.509	  0.380
32353	  0.065	  0.631	  1.022	 -0.225	 -0.114	 -9.503	  0.003	 -0.001	  0.019	 30.400	 99.521	 -0.726
32403	  0.065	  0.631	  1.028	 -0.287	 -0.088	 -9.512	  0.003	 -0.003	  0.019	 30.400	 99.517	 -0.356
32454	  0.062	  0.638	  1.015	 -0.218	 -0.120	 -9.500	  0.004	 -0.001	  0.018	 30.400	 99.509	  0.380
32503	  0.064	  0.646	  1.023	 -0.310	 -0.091	 -9.477	  0.004	 -0.001	  0.019	 30.400	 99.505	  0.749
32554	  0.064	  0.637	  1.019	 -0.237	 -0.100	 -9.475	  0.003	  0.000	  0.019	 30.400	 99.521	 -0.726
32603	  0.062	  0.633	  1.026	 -0.270	 -0.107	 -9.518	  0.002	 -0.002	  0.017	 30.400	 99.509	  0.380
32652	  0.064	  0.636	  1.018	 -0.297	 -0.105	 -9.496	  0.002	 -0.002	  0.019	 30.400	 99.521	 -0.726
32702	  0.062	  0.632	  1.020	 -0.193	 -0.179	 -9.515	 -0.003	  0.000	  0.016	 30.400	 99.521	 -0.726
32752	  0.062	  0.642	  1.022	 -0.284	 -0.009	 -9.419	  0.070	 -0.002	  0.016	 30.400	 99.521	 -0.726
32803	  0.066	  0.633	  1.024	 -0.186	 -0.376	 -9.601	 -0.091	 -0.002	  0.021	 30.400	 99.509	  0.380
32853	  0.064	  0.638	  1.019	 -0.131	 -1.005	 -9.965	  0.023	 -0.002	  0.014	 30.400	 99.505	  0.749
32903	  0.064	  0.647	  1.026	 -0.228	 -0.103	 -9.512	  0.013	 -0.000	  0.019	 30.400	 99.517	 -0.356
32952	  0.060	  0.637	  1.025	 -0.303	 -0.164	 -9.512	 -0.000	 -0.002	  0.018	 30.400	 99.521	 -0.726
33003	  0.062	  0.633	  1.014	 -0.243	 -0.096	 -9.464	  0.002	 -0.001	  0.018	 30.400	 99.509	  0.380
33053	  0.064	  0.637	  1.023	 -0.317	 -0.081	 -9.493	  0.002	  0.000	  0.018	 30.400	 99.505	  0.749
33103	  0.066	  0.629	  1.022	 -0.218	 -0.130	 -9.525	  0.002	 -0.001	  0.019	 30.400	 99.497	  1.486
33153	  0.065	  0.634	  1.022	 -0.290	 -0.101	 -9.466	  0.002	 -0.002	  0.018	 30.400	 99.509	  0.380
33203	  0.064	  0.632	  1.018	 -0.478	  0.895	 -8.984	  0.023	  0.003	  0.021	 30.400	 99.517	 -0.356
33253	  0.064	  0.634	  1.025	 -0.285	 -0.255	 -9.557	  0.003	 -0.001	  0.018	 30.400	 99.521	 -0.726
33303	  0.066	  0.633	  1.024	 -0.268	 -0.063	 -9.479	  0.002	 -0.002	  0.018	 30.400	 99.521	 -0.726
33353	  0.064	  0.633	  1.013	 -0.235	 -0.090	 -9.513	  0.003	 -0.000	  0.019	 30.400	 99.509	  0.380
33403	  0.065	  0.633	  1.020	 -0.278	 -0.085	 -9.490	  0.004	 -0.001	  0.018	 30.400	 99.521	 -0.726
33454	  0.064	  0.642	  1.025	 -0.209	 -0.173	 -9.516	  0.004	 -0.001	  0.018	 30.400	 99.517	 -0.356
33503	  0.062	  0.636	  1.022	 -0.323	 -0.072	 -9.474	  0.003	 -0.002	  0.018	 30.400	 99.509	  0.380
33553	  0.064	  0.633	  1.025	 -0.204	 -0.113	 -9.523	  0.003	 -0.001	  0.017	 30.400	 99.521	 -0.726
33603	  0.065	  0.633	  1.021	 -0.296	 -0.056	 -9.508	  0.002	 -0.001	  0.018	 30.400	 99.509	  0.380
33653	  0.062	  0.636	  1.023	 -0.206	 -0.142	 -9.503	  0.002	 -0.001	  0.017	 30.400	 99.509	  0.380
33703	  0.064	  0.637	  1.025	 -0.313	 -0.081	 -9.485	  0.002	 -0.001	  0.019	 30.400	 99.509	  0.380
33753	  0.061	  0.641	  1.023	 -0.228	 -0.136	 -9.495	  0.002	 -0.001	  0.019	 30.400	 99.517	 -0.356
33803	  0.061	  0.634	  1.023	 -0.271	 -0.119	 -9.498	  0.003	 -0.002	  0.016	 30.400	 99.509	  0.380
33853	  0.064	  0.637	  1.018	 -0.266	 -0.104	 -9.467	  0.003	 -0.001	  0.019	 30.400	 99.521	 -0.726
33903	  0.065	  0.639	  1.026	 -0.246	 -0.113	 -9.486	  0.001	 -0.000	  0.018	 30.400	 99.509	  0.380
33953	  0.064	  0.634	  1.022	 -0.267	 -0.130	 -9.503	  0.003	  0.000	  0.017	 30.400	 99.509	  0.380
34003	  0.065	  0.643	  1.021	 -0.225	 -0.062	 -9.483	  0.001	 -0.001	  0.018	 30.400	 99.505	  0.749
34053	  0.062	  0.637	  1.015	 -0.317	 -0.127	 -9.493	  0.003	 -0.001	  0.018	 30.400	 99.509	  0.380
34103	  0.064	  0.634	  1.025	 -0.204	 -0.109	 -9.519	  0.002	 -0.001	  0.018	 30.400	 99.509	  0.380
34153	  0.064	  0.641	  1.025	 -0.305	 -0.094	 -9.510	  0.003	 -0.000	  0.017	 30.400	 99.521	 -0.726
34203	  0.061	  0.632	  1.019	 -0.185	  0.008	 -9.423	  0.000	 -0.002	  0.018	 30.400	 99.505	  0.749
34253	  0.064	  0.632	  1.020	 -0.289	  0.202	 -9.417	  0.009	  0.001	  0.020	 30.400	 99.505	  0.749
34303	  0.064	  0.638	  1.022	 -0.215	 -0.112	 -9.513	  0.002	  0.001	  0.017	 30.400	 99.497	  1.486
34353	  0.062	  0.633	  1.021	 -0.278	 -0.101	 -9.493	  0.003	 -0.002	  0.018	 30.400	 99.521	 -0.726
34403	  0.062	  0.629	  1.021	 -0.246	 -0.134	 -9.486	  0.004	  0.000	  0.018	 30.400	 99.505	  0.749
34453	  0.065	  0.632	  1.028	 -0.267	 -0.133	 -9.473	  0.002	 -0.002	  0.018	 30.400	 99.521	 -0.726
34503	  0.062	  0.637	  1.018	 -0.283	 -0.084	 -9.509	  0.002	 -0.002	  0.018	 30.400	 99.529	 -1.463
34553	  0.060	  0.631	  1.023	 -0.247	 -0.134	 -9.472	  0.001	 -0.001	  0.018	 30.400	 99.505	  0.749
34603	  0.062	  0.634	  1.013	 -0.264	 -0.118	 -9.497	  0.002	  0.000	  0.018	 30.400	 99.509	  0.380
34653	  0.064	  0.632	  1.017	 -0.213	 -0.078	 -9.455	  0.003	 -0.001	  0.019	 30.400	 99.509	  0.380
34703	  0.065	  0.647	  1.019	 -0.291	 -0.069	 -9.488	  0.002	 -0.001	  0.019	 30.400	 99.521	 -0.726
34753	  0.061	  0.632	  1.015	 -0.202	 -0.097	 -9.495	  0.002	 -0.001	  0.018	 30.400	 99.509	  0.380
34803	  0.062	  0.633	  1.021	 -0.746	  1.245	 -8.548	  0.011	 -0.002	  0.022	 30.400	 99.517	 -0.356
34853	  0.064	  0.645	  1.026	 -0.209	 -0.091	 -9.528	  0.003	 -0.002	  0.017	 30.400	 99.509	  0.380
34903	  0.062	  0.644	  1.021	 -0.292	 -0.056	 -9.507	  0.003	 -0.001	  0.018	 30.400	 99.521	 -0.726
34953	  0.065	  0.632	  1.025	 -0.240	 -0.126	 -9.519	  0.001	 -0.001	  0.018	 30.400	 99.509	  0.380
35003	  0.064	  0.634	  1.026	 -0.274	 -0.059	 -9.482	  0.002	 -0.001	  0.017	 30.400	 99.509	  0.380
35053	  0.061	  0.629	  1.020	 -0.250	 -0.126	 -9.493	  0.002	 -0.001	  0.018	 30.400	 99.521	 -0.726
35103	  0.064	  0.637	  1.017	 -0.272	 -0.115	 -9.481	  0.002	 -0.001	  0.017	 30.400	 99.505	  0.749
35153	  0.065	  0.637	  1.021	 -0.293	 -0.101	 -9.522	  0.003	 -0.000	  0.018	 30.400	 99.505	  0.749
35203	  0.064	  0.632	  1.028	 -0.208	 -0.102	 -9.496	  0.003	 -0.002	  0.018	 30.400	 99.521	 -0.726
35253	  0.062	  0.642	  1.021	 -0.291	 -0.089	 -9.484	  0.004	 -0.001	  0.018	 30.400	 99.521	 -0.726
35303	  0.060	  0.629	  1.019	 -0.221	 -0.131	 -9.504	  0.003	 -0.000	  0.018	 30.400	 99.509	  0.380
35353	  0.062	  0.629	  1.022	 -0.282	 -0.088	 -9.493	  0.002	 -0.001	  0.018	 30.400	 99.521	 -0.726
35403	  0.065	  0.632	  1.024	 -0.204	 -0.120	 -9.485	  0.002	 -0.001	  0.018	 30.400	 99.521	 -0.726
35453	  0.061	  0.632	  1.017	 -0.313	 -0.069	 -9.520	  0.003	 -0.002	  0.017	 30.400	 99.509	  0.380
35503	  0.064	  0.643	  1.023	 -0.232	 -0.112	 -9.519	  0.002	 -0.002	  0.017	 30.400	 99.509	  0.380
35553	  0.066	  0.636	  1.024	 -0.279	 -0.109	 -9.505	  0.002	 -0.001	  0.019	 30.400	 99.497	  1.486
35603	  0.065	  0.638	  1.026	 -0.278	 -0.036	 -9.489	  0.002	 -0.001	  0.017	 30.400	 99.521	 -0.726
35653	  0.061	  0.636	  1.029	 -0.227	 -0.177	 -9.534	  0.004	 -0.000	  0.017	 30.400	 99.509	  0.380
35703	  0.065	  0.634	  1.022	 -0.287	 -0.086	 -9.502	  0.002	 -0.002	  0.017	 30.400	 99.509	  0.380
35753	  0.064	  0.628	  1.024	 -0.232	 -0.101	 -9.494	  0.003	 -0.001	  0.018	 30.400	 99.521	 -0.726
35803	  0.060	  0.634	  1.018	 -0.305	 -0.085	 -9.486	  0.002	 -0.001	  0.018	 30.400	 99.513	  0.012
35853	  0.065	  0.645	  1.022	 -0.219	 -0.112	 -9.515	  0.003	 -0.002	  0.018	 30.400	 99.521	 -0.726
35903	  0.065	  0.631	  1.015	 -0.300	 -0.087	 -9.511	  0.002	 -0.001	  0.018	 30.400	 99.513	  0.012
35953	  0.064	  0.634	  1.021	 -0.238	 -0.143	 -9.502	  0.003	 -0.001	  0.018	 30.400	 99.521	 -0.726
36003	  0.060	  0.633	  1.021	 -0.278	 -0.103	 -9.478	  0.003	 -0.000	  0.018	 30.400	 99.517	 -0.356
