Time	 MagX	 MagY	 MagZ	 AccelX	 AccelY	 AccelZ	 Yaw	 Pitch	 Roll	 Temperature	 Pressure	 Altitude
15256	  0.415	  0.300	  0.510	 -0.252	 -0.118	 -9.517	  0.003	 -0.001	  0.020	 29.600	 99.290	 -99999.000
15306	  0.414	  0.309	  0.516	 -0.323	 -0.087	 -9.505	  0.002	 -0.000	  0.020	 29.600	 99.290	 -99999.000
15356	  0.418	  0.298	  0.514	 -0.243	 -0.120	 -9.489	  0.005	 -0.002	  0.020	 29.600	 99.298	 -99999.000
15406	  0.415	  0.300	  0.510	 -0.314	 -0.080	 -9.512	  0.003	 -0.001	  0.021	 29.600	 99.290	 -99999.000
15456	  0.415	  0.310	  0.512	 -0.254	 -0.099	 -9.460	  0.003	 -0.001	  0.019	 29.600	 99.278	 -99999.000
15506	  0.416	  0.309	  0.511	 -0.301	 -0.100	 -9.494	  0.002	 -0.000	  0.020	 29.600	 99.290	 -99999.000
15556	  0.420	  0.315	  0.515	 -0.257	 -0.079	 -9.496	  0.002	 -0.001	  0.021	 29.600	 99.290	 -99999.000
15606	  0.418	  0.295	  0.512	 -0.295	 -0.095	 -9.514	  0.002	 -0.001	  0.019	 29.600	 99.302	 -99999.000
15656	  0.418	  0.296	  0.511	 -0.293	 -0.077	 -9.487	  0.003	 -0.002	  0.019	 29.600	 99.302	 -99999.000
15706	  0.418	  0.298	  0.506	 -0.280	 -0.128	 -9.481	  0.002	 -0.000	  0.020	 29.600	 99.298	 -99999.000
15756	  0.418	  0.299	  0.514	 -0.323	 -0.098	 -9.496	  0.002	 -0.001	  0.020	 29.600	 99.290	 -99999.000
15806	  0.415	  0.299	  0.511	 -0.240	 -0.108	 -9.453	  0.003	 -0.001	  0.020	 29.600	 99.273	 -99999.000
15856	  0.419	  0.298	  0.514	 -0.320	 -0.084	 -9.490	  0.003	 -0.001	  0.019	 29.600	 99.286	 -99999.000
15906	  0.417	  0.300	  0.515	 -0.253	 -0.125	 -9.520	  0.002	 -0.000	  0.018	 29.600	 99.290	 -99999.000
15956	  0.415	  0.298	  0.511	 -0.345	 -0.077	 -9.500	  0.003	 -0.001	  0.020	 29.600	 99.290	 -99999.000
16006	  0.418	  0.300	  0.511	 -0.246	 -0.114	 -9.485	  0.002	 -0.002	  0.020	 29.600	 99.290	 -99999.000
16056	  0.415	  0.302	  0.513	 -0.335	 -0.083	 -9.503	  0.003	 -0.003	  0.019	 29.600	 99.286	 -99999.000
16106	  0.415	  0.298	  0.513	 -0.237	 -0.110	 -9.483	  0.003	 -0.001	  0.019	 29.600	 99.286	 -99999.000
16156	  0.413	  0.314	  0.509	 -0.330	 -0.072	 -9.473	  0.002	 -0.002	  0.020	 29.600	 99.290	 -99999.000
16206	  0.418	  0.300	  0.510	 -0.262	 -0.114	 -9.494	  0.002	 -0.001	  0.020	 29.600	 99.286	 -99999.000
16256	  0.417	  0.300	  0.510	 -0.338	 -0.076	 -9.538	  0.002	 -0.000	  0.020	 29.600	 99.286	 -99999.000
16306	  0.415	  0.295	  0.514	 -0.262	 -0.098	 -9.487	  0.003	 -0.001	  0.019	 29.600	 99.286	 -99999.000
16356	  0.417	  0.296	  0.512	 -0.288	 -0.088	 -9.509	  0.003	 -0.002	  0.020	 29.600	 99.278	 -99999.000
16406	  0.417	  0.304	  0.503	 -0.286	 -0.088	 -9.488	  0.003	 -0.001	  0.019	 29.600	 99.302	 -99999.000
16456	  0.418	  0.298	  0.514	 -0.278	 -0.118	 -9.509	  0.003	 -0.002	  0.020	 29.600	 99.298	 -99999.000
16506	  0.419	  0.294	  0.514	 -0.284	 -0.070	 -9.463	  0.002	 -0.001	  0.019	 29.600	 99.286	 -99999.000
16556	  0.418	  0.299	  0.504	 -0.257	 -0.140	 -9.515	  0.003	 -0.000	  0.020	 29.600	 99.278	 -99999.000
16606	  0.418	  0.299	  0.515	 -0.306	 -0.089	 -9.534	  0.002	 -0.002	  0.020	 29.600	 99.290	 -99999.000
16656	  0.417	  0.305	  0.505	 -0.229	 -0.119	 -9.537	  0.002	 -0.001	  0.020	 29.600	 99.290	 -99999.000
16706	  0.415	  0.298	  0.503	 -0.348	 -0.064	 -9.502	  0.002	 -0.001	  0.018	 29.600	 99.286	 -99999.000
16756	  0.417	  0.295	  0.506	 -0.241	 -0.099	 -9.472	  0.002	  0.000	  0.020	 29.600	 99.286	 -99999.000
16806	  0.415	  0.303	  0.509	 -0.347	 -0.103	 -9.532	  0.002	 -0.001	  0.019	 29.600	 99.286	 -99999.000
16856	  0.420	  0.300	  0.515	 -0.229	 -0.102	 -9.511	  0.002	 -0.000	  0.020	 29.600	 99.290	 -99999.000
16906	  0.417	  0.296	  0.511	 -0.322	 -0.065	 -9.533	  0.003	 -0.002	  0.019	 29.600	 99.286	 -99999.000
16956	  0.419	  0.293	  0.512	 -0.262	 -0.091	 -9.486	  0.002	 -0.000	  0.020	 29.600	 99.290	 -99999.000
17006	  0.418	  0.294	  0.512	 -0.361	 -0.090	 -9.507	  0.002	 -0.001	  0.021	 29.600	 99.286	 -99999.000
17056	  0.415	  0.302	  0.511	 -0.277	 -0.099	 -9.449	  0.002	 -0.002	  0.020	 29.600	 99.298	 -99999.000
17106	  0.420	  0.302	  0.516	 -0.333	 -0.096	 -9.531	  0.003	 -0.001	  0.019	 29.600	 99.290	 -99999.000
17156	  0.419	  0.295	  0.514	 -0.229	 -0.085	 -9.469	  0.002	 -0.001	  0.019	 29.600	 99.290	 -99999.000
17206	  0.418	  0.299	  0.506	 -0.329	 -0.093	 -9.511	  0.003	 -0.001	  0.019	 29.600	 99.298	 -99999.000
17256	  0.418	  0.305	  0.519	 -0.264	 -0.105	 -9.487	  0.002	 -0.001	  0.022	 29.600	 99.286	 -99999.000
17306	  0.419	  0.302	  0.518	 -0.315	 -0.082	 -9.521	  0.002	  0.000	  0.017	 29.600	 99.278	 -99999.000
17356	  0.417	  0.304	  0.515	 -0.285	 -0.120	 -9.519	  0.003	 -0.001	  0.017	 29.600	 99.290	 -99999.000
17406	  0.421	  0.298	  0.519	 -0.306	 -0.112	 -9.490	  0.003	 -0.001	  0.023	 29.600	 99.286	 -99999.000
17455	  0.420	  0.302	  0.512	 -0.309	 -0.075	 -9.511	  0.003	  0.000	  0.018	 29.600	 99.290	 -99999.000
17505	  0.419	  0.297	  0.520	 -0.274	 -0.124	 -9.537	  0.002	  0.000	  0.019	 29.600	 99.290	 -99999.000
17555	  0.419	  0.300	  0.518	 -0.302	 -0.076	 -9.454	  0.003	 -0.001	  0.018	 29.600	 99.298	 -99999.000
17605	  0.417	  0.295	  0.512	 -0.280	 -0.124	 -9.488	  0.003	 -0.000	  0.018	 29.600	 99.273	 -99999.000
17655	  0.415	  0.300	  0.507	 -0.301	 -0.106	 -9.518	  0.003	 -0.001	  0.020	 29.600	 99.298	 -99999.000
17705	  0.414	  0.295	  0.516	 -0.243	 -0.113	 -9.528	  0.002	 -0.002	  0.019	 29.600	 99.290	 -99999.000
17755	  0.419	  0.305	  0.513	 -0.328	 -0.069	 -9.481	  0.004	 -0.002	  0.020	 29.600	 99.290	 -99999.000
17805	  0.415	  0.296	  0.519	 -0.262	 -0.089	 -9.499	  0.001	 -0.000	  0.020	 29.600	 99.290	 -99999.000
17855	  0.417	  0.292	  0.516	 -0.346	 -0.076	 -9.496	  0.004	 -0.001	  0.020	 29.600	 99.298	 -99999.000
17905	  0.420	  0.298	  0.515	 -0.247	 -0.115	 -9.494	  0.002	 -0.002	  0.020	 29.600	 99.290	 -99999.000
17955	  0.419	  0.293	  0.516	 -0.336	 -0.085	 -9.511	  0.003	 -0.001	  0.019	 29.600	 99.278	 -99999.000
18006	  0.417	  0.299	  0.510	 -0.236	 -0.092	 -9.480	  0.003	 -0.001	  0.020	 29.600	 99.286	 -99999.000
18055	  0.418	  0.295	  0.510	 -0.277	 -0.093	 -9.504	  0.003	 -0.001	  0.020	 29.600	 99.278	 -99999.000
18105	  0.418	  0.299	  0.518	 -0.253	 -0.103	 -9.473	  0.002	 -0.000	  0.019	 29.600	 99.286	 -99999.000
18155	  0.419	  0.296	  0.508	 -0.291	 -0.088	 -9.540	  0.003	  0.000	  0.019	 29.600	 99.290	 -99999.000
18205	  0.417	  0.296	  0.516	 -0.291	 -0.110	 -9.486	  0.003	  0.001	  0.020	 29.600	 99.286	 -99999.000
20707	  0.415	  0.299	  0.512	 -0.247	 -0.108	 -9.572	 -0.000	 -0.001	  0.020	 29.600	 99.278	  0.991
20756	  0.416	  0.312	  0.517	 -0.307	 -0.056	 -9.503	  0.003	 -0.001	  0.023	 29.600	 99.290	 -0.113
20806	  0.418	  0.302	  0.513	 -0.247	 -0.171	 -9.518	  0.003	 -0.002	  0.019	 29.600	 99.273	  1.451
20856	  0.417	  0.295	  0.514	 -0.313	 -0.054	 -9.477	  0.003	 -0.001	  0.019	 29.600	 99.290	 -0.113
20906	  0.418	  0.294	  0.515	 -0.253	 -0.136	 -9.513	  0.002	 -0.000	  0.020	 29.600	 99.286	  0.254
20956	  0.419	  0.312	  0.515	 -0.329	 -0.096	 -9.505	  0.003	 -0.002	  0.019	 29.600	 99.286	  0.254
21006	  0.418	  0.300	  0.514	 -0.237	 -0.111	 -9.477	  0.002	 -0.001	  0.020	 29.600	 99.298	 -0.850
21056	  0.417	  0.300	  0.512	 -0.301	 -0.109	 -9.505	  0.003	 -0.001	  0.020	 29.600	 99.286	  0.254
21106	  0.418	  0.298	  0.511	 -0.262	 -0.109	 -9.513	  0.003	 -0.001	  0.020	 29.600	 99.290	 -0.113
21156	  0.417	  0.296	  0.514	 -0.297	 -0.091	 -9.481	  0.002	 -0.000	  0.020	 29.600	 99.273	  1.451
21206	  0.419	  0.296	  0.503	 -0.288	 -0.093	 -9.492	  0.003	 -0.001	  0.020	 29.600	 99.302	 -1.218
21256	  0.417	  0.296	  0.511	 -0.268	 -0.101	 -9.480	  0.002	 -0.000	  0.020	 29.600	 99.298	 -0.850
21306	  0.417	  0.300	  0.511	 -0.304	 -0.070	 -9.502	  0.002	 -0.001	  0.019	 29.600	 99.286	  0.254
21356	  0.415	  0.296	  0.506	 -0.264	 -0.119	 -9.521	  0.002	 -0.001	  0.021	 29.600	 99.290	 -0.113
21406	  0.418	  0.294	  0.518	 -0.321	 -0.072	 -9.567	  0.002	 -0.000	  0.018	 29.600	 99.286	  0.254
21456	  0.418	  0.296	  0.510	 -0.268	 -0.124	 -9.538	  0.003	 -0.000	  0.019	 29.600	 99.302	 -1.218
21506	  0.419	  0.296	  0.512	 -0.323	 -0.088	 -9.516	  0.003	 -0.001	  0.019	 29.600	 99.290	 -0.113
21556	  0.417	  0.298	  0.511	 -0.247	 -0.121	 -9.486	  0.004	  0.000	  0.020	 29.600	 99.290	 -0.113
21606	  0.419	  0.296	  0.518	 -0.328	 -0.049	 -9.477	  0.002	 -0.001	  0.019	 29.600	 99.278	  0.991
21656	  0.418	  0.310	  0.519	 -0.236	 -0.106	 -9.472	  0.002	 -0.001	  0.019	 29.600	 99.290	 -0.113
21706	  0.417	  0.307	  0.516	 -0.331	 -0.094	 -9.522	  0.001	  0.000	  0.019	 29.600	 99.302	 -1.218
21756	  0.415	  0.302	  0.515	 -0.246	 -0.127	 -9.509	  0.003	  0.000	  0.020	 29.600	 99.298	 -0.850
21805	  0.419	  0.302	  0.508	 -0.330	 -0.085	 -9.511	  0.003	 -0.001	  0.020	 29.600	 99.298	 -0.850
21855	  0.415	  0.294	  0.511	 -0.230	 -0.125	 -9.495	  0.002	 -0.000	  0.019	 29.600	 99.302	 -1.218
21905	  0.417	  0.300	  0.508	 -0.337	 -0.101	 -9.492	  0.002	 -0.002	  0.019	 29.600	 99.286	  0.254
21955	  0.418	  0.294	  0.508	 -0.236	 -0.090	 -9.463	  0.002	 -0.000	  0.020	 29.600	 99.278	  0.991
22005	  0.418	  0.298	  0.515	 -0.314	 -0.110	 -9.527	  0.002	 -0.001	  0.020	 29.600	 99.286	  0.254
22056	  0.417	  0.302	  0.513	 -0.243	 -0.084	 -9.491	  0.002	  0.000	  0.020	 29.600	 99.290	 -0.113
22106	  0.417	  0.302	  0.512	 -0.254	 -0.092	 -9.530	  0.003	 -0.001	  0.019	 29.600	 99.286	  0.254
22156	  0.417	  0.293	  0.510	 -0.326	 -0.057	 -9.488	  0.003	 -0.001	  0.019	 29.600	 99.286	  0.254
22206	  0.416	  0.312	  0.512	 -0.228	 -0.119	 -9.516	  0.002	  0.000	  0.020	 29.600	 99.290	 -0.113
22256	  0.415	  0.303	  0.513	 -0.350	 -0.066	 -9.518	  0.004	 -0.001	  0.020	 29.600	 99.290	 -0.113
22306	  0.417	  0.294	  0.506	 -0.230	 -0.137	 -9.513	  0.003	 -0.001	  0.019	 29.600	 99.286	  0.254
22356	  0.418	  0.295	  0.515	 -0.331	 -0.083	 -9.538	  0.002	 -0.002	  0.020	 29.600	 99.302	 -1.218
22406	  0.417	  0.298	  0.510	 -0.218	 -0.108	 -9.524	  0.003	 -0.001	  0.019	 29.600	 99.290	 -0.113
22456	  0.415	  0.309	  0.511	 -0.356	 -0.079	 -9.522	  0.003	 -0.002	  0.020	 29.600	 99.290	 -0.113
22506	  0.414	  0.299	  0.513	 -0.252	 -0.115	 -9.506	  0.003	 -0.001	  0.020	 29.600	 99.290	 -0.113
22556	  0.415	  0.298	  0.513	 -0.308	 -0.093	 -9.513	  0.004	 -0.001	  0.019	 29.600	 99.273	  1.451
22606	  0.417	  0.303	  0.511	 -0.260	 -0.084	 -9.487	  0.002	 -0.001	  0.021	 29.600	 99.286	  0.254
22656	  0.414	  0.302	  0.513	 -0.314	 -0.093	 -9.482	  0.003	 -0.002	  0.020	 29.600	 99.286	  0.254
22706	  0.419	  0.302	  0.514	 -0.273	 -0.105	 -9.461	  0.003	 -0.001	  0.019	 29.600	 99.273	  1.451
22756	  0.419	  0.307	  0.512	 -0.280	 -0.106	 -9.500	  0.002	 -0.000	  0.020	 29.600	 99.290	 -0.113
22806	  0.417	  0.295	  0.515	 -0.326	 -0.094	 -9.490	  0.002	 -0.000	  0.020	 29.600	 99.298	 -0.850
22856	  0.417	  0.298	  0.508	 -0.267	 -0.108	 -9.520	  0.003	 -0.001	  0.020	 29.600	 99.278	  0.991
22906	  0.415	  0.299	  0.519	 -0.322	 -0.059	 -9.498	  0.002	 -0.001	  0.019	 29.600	 99.298	 -0.850
22956	  0.417	  0.302	  0.513	 -0.269	 -0.123	 -9.508	  0.003	 -0.000	  0.020	 29.600	 99.298	 -0.850
23006	  0.417	  0.303	  0.519	 -0.324	 -0.097	 -9.458	  0.004	 -0.001	  0.020	 29.600	 99.286	  0.254
23056	  0.417	  0.294	  0.518	 -0.236	 -0.108	 -9.529	  0.003	 -0.002	  0.019	 29.600	 99.290	 -0.113
23106	  0.417	  0.303	  0.513	 -0.321	 -0.094	 -9.539	  0.003	 -0.000	  0.019	 29.600	 99.298	 -0.850
23156	  0.418	  0.290	  0.507	 -0.212	 -0.112	 -9.526	  0.002	 -0.001	  0.020	 29.600	 99.273	  1.451
23207	  0.415	  0.296	  0.516	 -0.356	 -0.077	 -9.511	  0.004	 -0.000	  0.021	 29.600	 99.286	  0.254
23256	  0.418	  0.299	  0.511	 -0.257	 -0.111	 -9.454	  0.003	 -0.000	  0.019	 29.600	 99.286	  0.254
23306	  0.417	  0.299	  0.504	 -0.331	 -0.091	 -9.468	  0.002	 -0.001	  0.020	 29.600	 99.286	  0.254
23356	  0.418	  0.302	  0.516	 -0.250	 -0.086	 -9.487	  0.002	 -0.001	  0.018	 29.600	 99.273	  1.451
23406	  0.418	  0.312	  0.513	 -0.327	 -0.098	 -9.514	  0.002	 -0.001	  0.019	 29.600	 99.298	 -0.850
23456	  0.418	  0.302	  0.512	 -0.260	 -0.110	 -9.492	  0.002	 -0.001	  0.019	 29.600	 99.286	  0.254
23506	  0.418	  0.295	  0.514	 -0.286	 -0.087	 -9.468	  0.003	 -0.002	  0.019	 29.600	 99.286	  0.254
23556	  0.417	  0.298	  0.514	 -0.287	 -0.080	 -9.518	  0.003	  0.000	  0.018	 29.600	 99.286	  0.254
23606	  0.415	  0.298	  0.511	 -0.343	 -0.101	 -9.460	  0.003	 -0.000	  0.020	 29.600	 99.290	 -0.113
23656	  0.417	  0.295	  0.515	 -0.316	 -0.062	 -9.471	  0.003	 -0.001	  0.020	 29.600	 99.286	  0.254
23706	  0.415	  0.295	  0.514	 -0.272	 -0.136	 -9.518	  0.003	 -0.001	  0.020	 29.600	 99.278	  0.991
23756	  0.419	  0.295	  0.511	 -0.311	 -0.061	 -9.502	  0.003	 -0.001	  0.019	 29.600	 99.290	 -0.113
23805	  0.419	  0.294	  0.519	 -0.284	 -0.110	 -9.524	  0.001	 -0.001	  0.019	 29.600	 99.298	 -0.850
23856	  0.420	  0.303	  0.512	 -0.327	 -0.071	 -9.511	  0.003	 -0.001	  0.019	 29.600	 99.286	  0.254
23906	  0.417	  0.298	  0.515	 -0.207	 -0.128	 -9.540	  0.004	 -0.002	  0.020	 29.600	 99.278	  0.991
23956	  0.417	  0.302	  0.515	 -0.310	 -0.082	 -9.478	  0.002	 -0.001	  0.020	 29.600	 99.298	 -0.850
24005	  0.420	  0.300	  0.514	 -0.236	 -0.114	 -9.457	  0.004	 -0.001	  0.020	 29.600	 99.286	  0.254
24055	  0.418	  0.294	  0.512	 -0.335	 -0.079	 -9.497	  0.002	 -0.002	  0.020	 29.600	 99.298	 -0.850
24105	  0.418	  0.299	  0.514	 -0.257	 -0.128	 -9.498	  0.003	 -0.000	  0.019	 29.600	 99.302	 -1.218
24156	  0.415	  0.303	  0.515	 -0.335	 -0.078	 -9.534	  0.004	 -0.001	  0.019	 29.600	 99.286	  0.254
24206	  0.418	  0.310	  0.515	 -0.243	 -0.106	 -9.498	  0.002	 -0.002	  0.020	 29.600	 99.302	 -1.218
24256	  0.412	  0.298	  0.509	 -0.315	 -0.103	 -9.492	  0.003	 -0.002	  0.019	 29.600	 99.290	 -0.113
24307	  0.417	  0.299	  0.516	 -0.263	 -0.092	 -9.495	  0.002	 -0.000	  0.019	 29.600	 99.286	  0.254
24356	  0.418	  0.298	  0.514	 -0.299	 -0.098	 -9.472	  0.003	 -0.001	  0.020	 29.600	 99.290	 -0.113
24406	  0.413	  0.294	  0.511	 -0.286	 -0.085	 -9.500	  0.003	 -0.001	  0.020	 29.600	 99.286	  0.254
24456	  0.417	  0.295	  0.515	 -0.264	 -0.111	 -9.501	  0.003	 -0.001	  0.021	 29.600	 99.290	 -0.113
24506	  0.414	  0.298	  0.508	 -0.309	 -0.087	 -9.505	  0.002	 -0.000	  0.021	 29.600	 99.278	  0.991
24556	  0.419	  0.307	  0.512	 -0.243	 -0.098	 -9.476	  0.003	 -0.001	  0.020	 29.600	 99.286	  0.254
24606	  0.417	  0.299	  0.503	 -0.331	 -0.088	 -9.494	  0.003	 -0.001	  0.021	 29.600	 99.286	  0.254
24656	  0.418	  0.298	  0.511	 -0.257	 -0.117	 -9.480	  0.003	 -0.000	  0.021	 29.600	 99.290	 -0.113
24706	  0.417	  0.294	  0.511	 -0.340	 -0.088	 -9.515	  0.002	 -0.001	  0.020	 29.600	 99.286	  0.254
24756	  0.418	  0.296	  0.507	 -0.231	 -0.116	 -9.516	  0.003	 -0.001	  0.019	 29.600	 99.302	 -1.218
24806	  0.414	  0.300	  0.507	 -0.311	 -0.065	 -9.538	  0.002	 -0.001	  0.020	 29.600	 99.286	  0.254
24856	  0.418	  0.299	  0.510	 -0.246	 -0.120	 -9.478	  0.002	 -0.000	  0.019	 29.600	 99.298	 -0.850
24906	  0.415	  0.304	  0.516	 -0.319	 -0.088	 -9.487	  0.003	 -0.002	  0.020	 29.600	 99.290	 -0.113
24956	  0.415	  0.296	  0.512	 -0.264	 -0.122	 -9.502	  0.002	 -0.001	  0.019	 29.600	 99.290	 -0.113
25006	  0.415	  0.294	  0.512	 -0.293	 -0.079	 -9.478	  0.002	 -0.001	  0.021	 29.600	 99.290	 -0.113
25056	  0.415	  0.295	  0.514	 -0.296	 -0.102	 -9.529	  0.002	 -0.002	  0.019	 29.600	 99.290	 -0.113
25106	  0.420	  0.296	  0.514	 -0.285	 -0.094	 -9.514	  0.003	 -0.001	  0.020	 29.600	 99.286	  0.254
25156	  0.414	  0.298	  0.515	 -0.280	 -0.097	 -9.499	  0.003	 -0.001	  0.019	 29.600	 99.273	  1.451
25206	  0.417	  0.299	  0.506	 -0.275	 -0.113	 -9.515	  0.002	 -0.001	  0.019	 29.600	 99.273	  1.451
25256	  0.417	  0.299	  0.510	 -0.258	 -0.113	 -9.516	  0.002	 -0.002	  0.020	 29.600	 99.290	 -0.113
25306	  0.417	  0.298	  0.512	 -0.286	 -0.102	 -9.479	  0.004	 -0.001	  0.019	 29.600	 99.278	  0.991
25356	  0.418	  0.294	  0.508	 -0.320	 -0.099	 -9.526	  0.001	 -0.003	  0.019	 29.600	 99.286	  0.254
25406	  0.418	  0.296	  0.510	 -0.241	 -0.164	 -9.567	  0.006	 -0.000	  0.019	 29.600	 99.310	 -1.955
25456	  0.415	  0.310	  0.512	 -0.336	 -0.031	 -9.407	  0.001	 -0.001	  0.019	 29.600	 99.286	  0.254
25506	  0.417	  0.298	  0.510	 -0.261	 -0.152	 -9.461	  0.005	  0.000	  0.020	 29.600	 99.286	  0.254
25556	  0.415	  0.296	  0.506	 -0.572	  0.213	 -9.318	  0.001	 -0.007	  0.033	 29.600	 99.286	  0.254
25606	  0.416	  0.310	  0.517	 -0.201	 -0.189	 -9.541	 -0.004	  0.001	  0.020	 29.600	 99.286	  0.254
25656	  0.415	  0.296	  0.502	 -0.346	 -0.055	 -9.481	  0.004	 -0.002	  0.020	 29.600	 99.286	  0.254
25706	  0.415	  0.300	  0.515	 -0.243	 -0.134	 -9.496	  0.003	 -0.001	  0.019	 29.600	 99.286	  0.254
25756	  0.418	  0.307	  0.519	 -0.348	 -0.099	 -9.496	  0.003	 -0.002	  0.020	 29.600	 99.290	 -0.113
25806	  0.415	  0.300	  0.513	 -0.218	 -0.114	 -9.463	  0.003	 -0.001	  0.019	 29.600	 99.298	 -0.850
25856	  0.419	  0.300	  0.514	 -0.321	 -0.103	 -9.509	  0.005	  0.000	  0.020	 29.600	 99.286	  0.254
25906	  0.417	  0.301	  0.505	 -0.200	  0.062	 -9.412	  0.041	 -0.003	  0.018	 29.600	 99.290	 -0.113
25956	  0.418	  0.299	  0.514	 -0.272	 -0.548	 -9.671	 -0.073	 -0.000	  0.022	 29.600	 99.298	 -0.850
26006	  0.415	  0.296	  0.507	 -0.317	 -0.231	 -9.709	  0.021	  0.001	  0.018	 29.600	 99.286	  0.254
26056	  0.420	  0.296	  0.507	 -0.235	 -0.205	 -9.524	 -0.001	  0.000	  0.019	 29.600	 99.286	  0.254
26106	  0.415	  0.298	  0.513	 -0.300	 -0.048	 -9.482	  0.004	 -0.001	  0.020	 29.600	 99.286	  0.254
26156	  0.418	  0.313	  0.517	 -0.236	 -0.175	 -9.533	  0.003	 -0.001	  0.020	 29.600	 99.298	 -0.850
26206	  0.418	  0.296	  0.514	 -0.317	 -0.129	 -9.525	  0.003	 -0.000	  0.019	 29.600	 99.286	  0.254
26256	  0.419	  0.300	  0.506	 -0.262	 -0.097	 -9.508	  0.007	 -0.001	  0.018	 29.600	 99.286	  0.254
26306	  0.418	  0.303	  0.508	 -0.310	  0.091	 -9.395	  0.017	 -0.001	  0.017	 29.600	 99.286	  0.254
26356	  0.419	  0.312	  0.509	 -0.100	 -0.771	 -9.682	 -0.010	 -0.002	  0.023	 29.600	 99.286	  0.254
26406	  0.415	  0.296	  0.508	 -0.401	  0.336	 -9.154	  0.051	  0.006	  0.024	 29.600	 99.298	 -0.850
26456	  0.418	  0.296	  0.504	 -0.390	 -0.190	 -9.453	  0.006	 -0.001	  0.064	 29.600	 99.298	 -0.850
26506	  0.420	  0.294	  0.514	 -0.239	 -0.323	 -9.671	 -0.004	 -0.019	  0.184	 29.600	 99.290	 -0.113
26556	  0.429	  0.295	  0.506	  0.787	 -0.475	 -10.366	  0.013	 -0.411	  0.190	 29.600	 99.290	 -0.113
26606	  0.447	  0.287	  0.499	  0.245	 -0.680	 -11.570	 -0.145	 -0.866	  0.044	 29.600	 99.286	  0.254
26656	  0.449	  0.302	  0.491	 -2.040	  0.400	 -12.374	 -0.047	 -0.169	 -0.364	 29.600	 99.302	 -1.218
26706	  0.428	  0.304	  0.494	 -1.875	  0.713	 -8.057	  0.108	  0.185	 -0.191	 29.600	 99.302	 -1.218
26756	  0.403	  0.294	  0.500	 -1.029	 -0.063	 -6.889	  0.074	  0.381	  0.340	 29.600	 99.286	  0.254
26806	  0.393	  0.286	  0.505	 -0.926	 -0.231	 -7.554	  0.112	  0.327	  0.464	 29.600	 99.298	 -0.850
26856	  0.399	  0.276	  0.511	 -0.531	 -0.150	 -7.700	  0.098	  0.008	  0.378	 29.600	 99.298	 -0.850
26906	  0.412	  0.285	  0.510	 -0.781	 -0.387	 -9.572	  0.205	 -0.004	  0.245	 29.600	 99.286	  0.254
26956	  0.414	  0.281	  0.508	 -0.638	 -0.602	 -10.478	  0.328	  0.260	  0.161	 29.600	 99.298	 -0.850
27006	  0.412	  0.283	  0.510	 -0.395	 -0.673	 -10.253	  0.165	  0.018	  0.106	 29.600	 99.286	  0.254
27056	  0.413	  0.283	  0.511	 -0.626	 -0.475	 -9.437	 -0.059	  0.174	  0.058	 29.600	 99.286	  0.254
27106	  0.403	  0.278	  0.516	 -0.182	 -0.386	 -9.420	 -0.041	  0.264	  0.104	 29.600	 99.286	  0.254
27156	  0.403	  0.279	  0.517	 -0.229	 -0.453	 -10.272	  0.109	 -0.057	  0.084	 29.600	 99.286	  0.254
27206	  0.402	  0.298	  0.514	 -0.121	 -0.583	 -10.170	  0.119	 -0.202	  0.059	 29.600	 99.298	 -0.850
27256	  0.407	  0.289	  0.504	 -0.212	 -0.222	 -9.154	 -0.041	 -0.295	 -0.039	 29.600	 99.290	 -0.113
27306	  0.402	  0.281	  0.504	 -0.815	  0.243	 -5.972	 -0.190	  0.478	 -0.030	 29.600	 99.286	  0.254
27356	  0.393	  0.283	  0.530	 -0.452	 -0.290	 -6.849	 -0.201	  0.874	  0.436	 29.600	 99.286	  0.254
27406	  0.400	  0.254	  0.544	  0.938	 -1.280	 -14.437	  0.175	 -0.067	  0.755	 29.600	 99.273	  1.451
27456	  0.422	  0.254	  0.521	  0.112	 -1.219	 -14.742	  0.528	 -0.770	  0.177	 29.600	 99.286	  0.254
27506	  0.425	  0.266	  0.507	  0.170	 -0.468	 -6.625	 -0.085	 -0.472	 -0.330	 29.600	 99.302	 -1.218
27556	  0.418	  0.271	  0.509	 -0.796	  0.444	 -3.300	 -0.611	  0.346	 -0.460	 29.600	 99.290	 -0.113
27606	  0.399	  0.265	  0.546	 -1.613	 -0.191	 -8.873	  0.093	  1.495	  0.297	 29.600	 99.290	 -0.113
27656	  0.396	  0.281	  0.547	  4.580	 -1.829	 -17.551	  1.719	 -0.741	  0.597	 29.600	 99.286	  0.254
27706	  0.418	  0.307	  0.521	 -0.859	 -0.741	 -8.877	  0.472	 -0.642	 -0.220	 29.600	 99.286	  0.254
27756	  0.378	  0.328	  0.537	 -1.451	  0.187	 -0.848	 -0.687	  1.388	 -0.996	 29.600	 99.286	  0.254
27806	  0.380	  0.322	  0.564	  0.092	 -0.286	 -9.596	 -0.495	 -0.750	  0.069	 29.600	 99.290	 -0.113
27856	  0.424	  0.324	  0.546	 -0.956	 -2.452	 -16.111	  1.128	 -0.484	  0.581	 29.600	 99.273	  1.451
27906	  0.440	  0.314	  0.522	 -0.277	 -2.988	 -11.357	 -0.160	 -0.730	  0.130	 29.600	 99.286	  0.254
27956	  0.402	  0.305	  0.528	 -0.174	 -0.340	 -0.971	 -1.017	  1.103	 -0.687	 29.600	 99.286	  0.254
28006	  0.367	  0.290	  0.566	 -0.540	  1.213	 -7.017	 -0.227	  0.793	 -0.002	 29.600	 99.298	 -0.850
28056	  0.389	  0.309	  0.554	  1.992	 -1.472	 -17.206	  1.399	 -0.809	  0.881	 29.600	 99.286	  0.254
28106	  0.413	  0.323	  0.516	 -0.322	 -2.272	 -10.506	  0.382	 -0.243	  0.305	 29.600	 99.286	  0.254
28156	  0.378	  0.317	  0.524	  0.018	  0.919	 -1.218	 -0.887	  1.011	 -0.890	 29.600	 99.286	  0.254
28206	  0.354	  0.309	  0.570	 -0.009	  0.595	 -6.847	 -0.747	  0.575	 -0.279	 29.600	 99.290	 -0.113
28256	  0.397	  0.294	  0.559	 -4.722	  0.364	 -14.036	  0.505	 -1.246	  0.512	 29.600	 99.298	 -0.850
28306	  0.419	  0.279	  0.538	  1.086	 -3.961	 -11.740	  0.297	 -0.032	  0.709	 29.600	 99.290	 -0.113
28356	  0.405	  0.274	  0.543	 -0.083	 -0.875	 -8.133	 -0.361	  0.223	 -0.105	 29.600	 99.286	  0.254
28406	  0.388	  0.266	  0.547	  0.691	 -0.133	 -7.810	 -0.067	 -0.158	 -0.238	 29.600	 99.286	  0.254
28456	  0.396	  0.275	  0.535	 -0.084	 -0.295	 -9.509	  0.175	 -0.648	  0.004	 29.600	 99.298	 -0.850
28506	  0.415	  0.281	  0.504	  0.037	 -0.775	 -10.064	 -0.044	 -0.644	  0.004	 29.600	 99.273	  1.451
28556	  0.431	  0.280	  0.508	 -0.980	 -0.170	 -9.032	 -0.203	 -0.390	 -0.066	 29.600	 99.286	  0.254
28606	  0.432	  0.271	  0.505	 -0.752	 -0.406	 -7.442	 -0.153	  0.130	 -0.004	 29.600	 99.273	  1.451
28656	  0.422	  0.261	  0.512	 -0.761	 -0.588	 -8.824	  0.102	  0.819	  0.187	 29.600	 99.298	 -0.850
28705	  0.414	  0.268	  0.521	  0.679	 -1.818	 -14.280	  0.660	  0.246	  0.471	 29.600	 99.286	  0.254
28755	  0.421	  0.273	  0.516	  1.489	 -2.482	 -14.635	  0.303	 -1.055	  0.249	 29.600	 99.286	  0.254
28805	  0.418	  0.266	  0.489	 -1.108	  0.816	 -3.847	 -0.834	 -0.393	 -0.573	 29.600	 99.290	 -0.113
28855	  0.400	  0.251	  0.519	 -0.876	  1.051	  1.904	 -1.674	  0.388	 -0.968	 29.600	 99.286	  0.254
28905	  0.415	  0.240	  0.548	 -2.281	  0.957	 -9.508	  1.240	  0.409	  0.554	 29.600	 99.286	  0.254
28955	  0.447	  0.282	  0.514	  1.195	 -6.485	 -24.492	  1.631	  0.115	  0.690	 29.600	 99.298	 -0.850
29005	  0.409	  0.290	  0.507	  1.599	 -3.593	 -11.097	 -0.950	 -0.179	 -0.342	 29.600	 99.302	 -1.218
29056	  0.384	  0.246	  0.507	  0.122	  1.040	  2.688	 -2.317	 -0.590	 -1.595	 29.600	 99.286	  0.254
29105	  0.376	  0.231	  0.551	 -2.913	  2.217	 -3.249	  0.180	  0.964	 -0.206	 29.600	 99.273	  1.451
29156	  0.377	  0.278	  0.561	  3.347	 -5.265	 -20.999	  2.496	  1.119	  1.544	 29.600	 99.286	  0.254
29205	  0.368	  0.298	  0.549	  0.096	 -3.088	 -12.717	 -0.015	 -0.110	  0.507	 29.600	 99.286	  0.254
29255	  0.360	  0.276	  0.542	  0.366	  1.167	 -3.706	 -1.629	 -0.895	 -0.492	 29.600	 99.286	  0.254
29305	  0.374	  0.238	  0.529	 -2.016	  2.455	 -2.268	 -0.253	 -0.241	 -0.402	 29.600	 99.290	 -0.113
29355	  0.377	  0.269	  0.553	 -1.939	 -0.335	 -12.056	  1.295	  1.219	  0.626	 29.600	 99.290	 -0.113
29405	  0.361	  0.293	  0.559	  2.947	 -3.982	 -18.562	  1.056	  0.374	  0.724	 29.600	 99.290	 -0.113
29456	  0.373	  0.272	  0.519	  1.356	 -2.111	 -9.516	 -1.201	 -1.732	  0.237	 29.600	 99.286	  0.254
29505	  0.400	  0.227	  0.509	 -0.837	  2.463	  0.930	 -1.918	 -1.298	 -0.763	 29.600	 99.286	  0.254
29555	  0.406	  0.212	  0.524	 -2.452	  1.926	 -6.535	  0.503	  1.671	 -0.087	 29.600	 99.286	  0.254
29606	  0.371	  0.255	  0.559	  5.287	 -4.960	 -19.827	  2.404	  1.315	  1.029	 29.600	 99.290	 -0.113
29656	  0.377	  0.284	  0.537	  1.273	 -3.770	 -13.889	 -0.199	 -0.890	  0.286	 29.600	 99.298	 -0.850
29706	  0.380	  0.241	  0.524	 -0.003	  0.784	 -3.025	 -1.900	 -1.429	 -0.488	 29.600	 99.286	  0.254
29756	  0.400	  0.217	  0.519	 -1.654	  2.387	  1.120	 -0.684	 -0.086	 -0.680	 29.600	 99.298	 -0.850
29806	  0.412	  0.245	  0.549	 -2.014	 -0.678	 -12.529	  1.549	  1.083	  0.413	 29.600	 99.286	  0.254
29856	  0.418	  0.289	  0.546	  0.991	 -5.970	 -21.704	  1.518	  0.240	  0.671	 29.600	 99.286	  0.254
29906	  0.407	  0.270	  0.526	  0.085	 -2.671	 -12.697	 -1.203	 -0.755	  0.086	 29.600	 99.286	  0.254
29956	  0.387	  0.236	  0.515	 -0.746	  1.837	 -1.602	 -1.428	 -0.464	 -0.697	 29.600	 99.273	  1.451
30006	  0.376	  0.223	  0.526	 -0.729	  2.005	  0.167	 -0.191	  0.364	 -0.176	 29.600	 99.286	  0.254
30056	  0.379	  0.228	  0.546	 -2.082	 -2.047	 -12.798	  1.049	  1.545	  0.708	 29.600	 99.286	  0.254
30106	  0.372	  0.261	  0.552	  1.775	 -4.479	 -20.613	  1.045	 -0.233	  0.403	 29.600	 99.286	  0.254
30156	  0.366	  0.256	  0.530	  1.112	 -1.669	 -7.543	 -0.945	 -0.670	 -0.064	 29.600	 99.286	  0.254
30206	  0.361	  0.226	  0.524	 -1.292	  2.806	  1.138	 -1.537	 -0.443	 -0.733	 29.600	 99.298	 -0.850
30256	  0.363	  0.211	  0.555	 -1.977	  0.903	 -5.683	  0.190	  1.616	  0.036	 29.600	 99.286	  0.254
30306	  0.336	  0.235	  0.582	  4.367	 -3.795	 -19.625	  2.047	  1.281	  0.784	 29.600	 99.286	  0.254
30356	  0.339	  0.282	  0.561	  1.189	 -3.035	 -15.973	  0.289	 -1.135	  0.321	 29.600	 99.286	  0.254
30406	  0.347	  0.272	  0.535	  0.948	  0.549	 -6.359	 -1.487	 -1.235	 -0.426	 29.600	 99.286	  0.254
30456	  0.349	  0.226	  0.526	 -2.242	  2.748	  0.226	 -1.189	  0.220	 -0.324	 29.600	 99.286	  0.254
30506	  0.321	  0.185	  0.570	 -1.464	 -0.077	 -5.302	 -0.123	  1.653	  0.637	 29.600	 99.286	  0.254
30556	  0.327	  0.184	  0.585	  3.427	 -4.002	 -20.617	  1.385	  0.171	  1.076	 29.600	 99.286	  0.254
30606	  0.339	  0.209	  0.564	  0.837	 -3.222	 -14.322	  0.338	 -0.861	  0.428	 29.600	 99.273	  1.451
30656	  0.346	  0.199	  0.533	  1.424	  0.599	 -2.676	 -1.315	 -1.251	 -0.904	 29.600	 99.273	  1.451
30706	  0.355	  0.184	  0.525	 -1.816	  3.122	  0.700	 -0.585	  0.222	 -0.964	 29.600	 99.273	  1.451
30756	  0.331	  0.213	  0.571	  1.012	 -1.454	 -13.936	  1.182	  2.604	  0.566	 29.600	 99.273	  1.451
30806	  0.300	  0.241	  0.585	  3.573	 -2.786	 -20.299	  1.016	 -0.186	  0.435	 29.600	 99.286	  0.254
30856	  0.305	  0.241	  0.555	  1.426	 -2.414	 -8.984	 -0.810	 -1.158	 -0.131	 29.600	 99.290	 -0.113
30906	  0.304	  0.210	  0.552	 -0.600	  3.516	  2.691	 -1.439	 -0.517	 -1.077	 29.600	 99.290	 -0.113
30956	  0.301	  0.208	  0.582	 -2.929	  2.972	 -1.615	  0.362	  1.425	 -0.028	 29.600	 99.286	  0.254
31006	  0.301	  0.230	  0.612	  7.166	 -5.528	 -22.986	  1.836	  0.850	  1.378	 29.600	 99.286	  0.254
31056	  0.307	  0.271	  0.596	  1.603	 -4.026	 -18.990	  0.369	 -0.902	  0.301	 29.600	 99.286	  0.254
31106	  0.305	  0.239	  0.561	  1.317	 -0.023	 -2.566	 -2.131	 -1.585	 -0.878	 29.600	 99.281	  0.715
31156	  0.321	  0.209	  0.559	 -4.467	  6.248	  5.597	 -1.211	 -0.224	 -0.767	 29.600	 99.273	  1.451
31206	  0.329	  0.194	  0.592	 -2.638	  0.061	 -7.819	  1.159	  1.997	  0.710	 29.600	 99.286	  0.254
31256	  0.343	  0.235	  0.597	  7.524	 -6.674	 -26.475	  2.456	 -0.274	  0.754	 29.600	 99.298	 -0.850
31306	  0.358	  0.273	  0.555	  0.761	 -4.875	 -15.813	 -0.225	 -0.965	  0.059	 29.600	 99.286	  0.254
31356	  0.334	  0.231	  0.540	  1.598	  0.101	 -2.926	 -2.113	 -0.471	 -0.724	 29.600	 99.278	  0.991
31406	  0.315	  0.188	  0.555	 -2.291	  4.330	  5.061	 -1.098	  0.245	 -0.427	 29.600	 99.294	 -0.482
31456	  0.322	  0.186	  0.574	 -1.570	  0.327	 -12.253	  1.354	  1.378	  0.946	 29.600	 99.286	  0.254
31506	  0.311	  0.243	  0.580	  4.034	 -5.758	 -23.261	  2.238	 -0.020	  0.627	 29.600	 99.286	  0.254
31556	  0.313	  0.268	  0.536	  3.149	 -4.619	 -11.489	 -0.445	 -0.973	  0.055	 29.600	 99.286	  0.254
31606	  0.297	  0.235	  0.525	 -0.771	  2.046	 -0.011	 -1.972	 -0.659	 -1.122	 29.600	 99.286	  0.254
31656	  0.291	  0.208	  0.543	 -1.695	  5.247	  5.316	 -0.579	  0.343	 -0.040	 29.600	 99.290	 -0.113
31706	  0.322	  0.215	  0.564	 -0.630	  0.248	 -8.513	  1.206	  0.250	  0.673	 29.600	 99.286	  0.254
31756	  0.374	  0.264	  0.562	  4.243	 -8.403	 -30.627	  1.977	 -0.026	  0.610	 29.600	 99.286	  0.254
31806	  0.360	  0.284	  0.543	  1.154	 -6.027	 -18.390	 -0.349	  0.111	  0.094	 29.600	 99.290	 -0.113
31856	  0.299	  0.232	  0.539	  0.615	  0.617	 -1.309	 -2.382	 -0.094	 -0.621	 29.600	 99.286	  0.254
31906	  0.283	  0.175	  0.548	 -2.430	  5.404	  9.398	 -1.515	 -0.403	 -0.830	 29.600	 99.281	  0.715
31956	  0.312	  0.178	  0.577	 -3.555	  2.275	 -7.195	  1.207	  0.506	  0.454	 29.600	 99.273	  1.451
32006	  0.305	  0.235	  0.598	  7.100	 -7.671	 -28.918	  2.399	  1.719	  0.405	 29.600	 99.298	 -0.850
32056	  0.277	  0.282	  0.573	  2.584	 -5.330	 -17.160	 -0.516	 -0.687	 -0.073	 29.600	 99.286	  0.254
32106	  0.262	  0.229	  0.561	 -0.647	  2.267	  1.456	 -2.568	 -1.356	 -0.739	 29.600	 99.286	  0.254
32156	  0.288	  0.172	  0.550	 -2.280	  5.279	  6.910	 -0.626	 -0.831	  0.117	 29.600	 99.269	  1.820
32206	  0.309	  0.185	  0.578	 -1.788	 -0.300	 -6.396	  1.492	  1.565	  0.543	 29.600	 99.273	  1.451
32256	  0.314	  0.227	  0.597	  5.027	 -5.780	 -23.111	  1.967	  1.329	  0.808	 29.600	 99.286	  0.254
32306	  0.285	  0.272	  0.595	  2.836	 -3.326	 -17.683	  0.459	  0.271	 -0.022	 29.600	 99.286	  0.254
32356	  0.256	  0.255	  0.595	  0.695	  0.558	 -5.125	 -1.488	 -0.078	 -0.189	 29.600	 99.290	 -0.113
32406	  0.247	  0.204	  0.591	  0.212	  1.536	 -3.294	 -1.093	 -0.466	  0.137	 29.600	 99.273	  1.451
32456	  0.273	  0.189	  0.591	  0.381	  0.895	 -6.257	 -0.082	 -0.580	  0.242	 29.600	 99.286	  0.254
32506	  0.303	  0.180	  0.579	  1.095	 -0.615	 -10.407	  0.477	 -0.319	 -0.055	 29.600	 99.286	  0.254
32556	  0.328	  0.217	  0.570	  0.546	 -0.415	 -10.440	  0.333	 -0.544	 -0.233	 29.600	 99.286	  0.254
32606	  0.354	  0.209	  0.558	  0.296	 -0.464	 -9.528	 -0.131	 -0.519	 -0.074	 29.600	 99.298	 -0.850
32656	  0.370	  0.199	  0.564	 -0.032	 -0.324	 -9.957	 -0.475	  0.067	  0.027	 29.600	 99.290	 -0.113
32706	  0.370	  0.188	  0.569	  0.233	  0.077	 -9.351	 -0.292	  0.232	  0.231	 29.600	 99.286	  0.254
32755	  0.373	  0.175	  0.575	  0.705	 -0.168	 -9.481	 -0.083	  0.155	  0.139	 29.600	 99.302	 -1.218
32805	  0.377	  0.183	  0.575	  0.541	  0.208	 -9.668	  0.109	  0.059	  0.017	 29.600	 99.286	  0.254
32855	  0.391	  0.196	  0.566	  0.527	 -0.298	 -9.428	  0.685	 -0.380	 -0.072	 29.600	 99.302	 -1.218
32905	  0.412	  0.211	  0.549	 -0.101	 -0.080	 -10.024	  0.451	 -0.265	 -0.146	 29.600	 99.298	 -0.850
32955	  0.419	  0.232	  0.546	  0.296	 -0.931	 -9.950	  0.202	 -0.028	 -0.084	 29.600	 99.286	  0.254
33005	  0.418	  0.231	  0.543	  0.401	 -0.866	 -9.428	  0.113	 -0.020	 -0.023	 29.600	 99.286	  0.254
33055	  0.421	  0.237	  0.539	  0.264	 -0.700	 -9.401	  0.057	 -0.104	  0.055	 29.600	 99.286	  0.254
33105	  0.427	  0.237	  0.538	  0.041	 -0.611	 -9.357	  0.078	 -0.155	  0.051	 29.600	 99.298	 -0.850
33155	  0.434	  0.252	  0.531	  0.014	 -0.813	 -9.470	  0.105	 -0.121	 -0.014	 29.600	 99.290	 -0.113
33205	  0.435	  0.244	  0.530	 -0.080	 -0.787	 -9.407	  0.108	 -0.097	 -0.042	 29.600	 99.286	  0.254
33255	  0.440	  0.257	  0.531	 -0.158	 -0.955	 -9.535	  0.088	 -0.112	 -0.011	 29.600	 99.286	  0.254
33305	  0.443	  0.255	  0.530	 -0.236	 -0.971	 -9.544	  0.031	 -0.102	  0.010	 29.600	 99.286	  0.254
33355	  0.448	  0.251	  0.525	 -0.194	 -0.835	 -9.405	  0.007	 -0.124	  0.043	 29.600	 99.286	  0.254
33405	  0.457	  0.247	  0.525	 -0.390	 -0.889	 -9.501	  0.003	 -0.096	  0.059	 29.600	 99.286	  0.254
33455	  0.456	  0.261	  0.520	 -0.271	 -0.815	 -9.372	  0.031	 -0.087	  0.026	 29.600	 99.286	  0.254
33505	  0.465	  0.251	  0.523	 -0.339	 -0.892	 -9.384	  0.067	 -0.098	  0.005	 29.600	 99.286	  0.254
33555	  0.467	  0.257	  0.511	 -0.356	 -0.790	 -9.285	  0.108	 -0.118	  0.032	 29.600	 99.286	  0.254
33605	  0.479	  0.261	  0.507	 -0.211	 -1.028	 -9.265	  0.170	 -0.214	  0.025	 29.600	 99.298	 -0.850
33655	  0.485	  0.269	  0.506	 -0.608	 -1.174	 -9.462	  0.143	 -0.250	 -0.025	 29.600	 99.298	 -0.850
33706	  0.491	  0.282	  0.503	 -0.372	 -1.518	 -9.443	  0.032	  0.023	 -0.012	 29.600	 99.290	 -0.113
33756	  0.489	  0.274	  0.506	  0.215	 -0.213	 -8.706	 -0.096	  0.050	 -0.125	 29.600	 99.286	  0.254
33806	  0.486	  0.284	  0.503	 -0.589	 -1.199	 -9.350	 -0.017	  0.004	  0.018	 29.600	 99.281	  0.715
33856	  0.488	  0.269	  0.501	 -0.553	 -1.129	 -9.400	  0.001	 -0.001	  0.019	 29.600	 99.286	  0.254
33906	  0.486	  0.274	  0.503	 -0.620	 -1.119	 -9.408	  0.004	 -0.003	  0.020	 29.600	 99.286	  0.254
33956	  0.490	  0.274	  0.501	 -0.553	 -1.160	 -9.352	  0.002	 -0.002	  0.021	 29.600	 99.286	  0.254
34006	  0.484	  0.273	  0.503	 -0.682	 -1.102	 -9.375	  0.004	  0.000	  0.019	 29.600	 99.286	  0.254
34056	  0.485	  0.278	  0.504	 -0.574	 -1.106	 -9.361	  0.008	  0.000	  0.021	 29.600	 99.286	  0.254
34106	  0.484	  0.276	  0.500	 -0.640	 -1.105	 -9.374	  0.002	 -0.001	  0.020	 29.600	 99.298	 -0.850
34156	  0.483	  0.274	  0.500	 -0.554	 -1.144	 -9.458	  0.003	 -0.001	  0.019	 29.600	 99.286	  0.254
34206	  0.491	  0.274	  0.502	 -0.653	 -1.117	 -9.452	  0.003	 -0.001	  0.021	 29.600	 99.298	 -0.850
34257	  0.485	  0.273	  0.503	 -0.586	 -1.141	 -9.455	  0.002	 -0.001	  0.020	 29.600	 99.286	  0.254
34306	  0.486	  0.279	  0.502	 -0.646	 -1.102	 -9.386	  0.002	 -0.001	  0.019	 29.600	 99.286	  0.254
34357	  0.488	  0.280	  0.492	 -0.555	 -1.115	 -9.391	  0.004	 -0.000	  0.019	 29.600	 99.298	 -0.850
34406	  0.485	  0.275	  0.500	 -0.638	 -1.119	 -9.399	  0.003	 -0.000	  0.020	 29.600	 99.286	  0.254
34456	  0.485	  0.273	  0.495	 -0.597	 -1.131	 -9.415	  0.003	 -0.001	  0.019	 29.600	 99.286	  0.254
34506	  0.488	  0.285	  0.500	 -0.638	 -1.133	 -9.472	  0.002	 -0.001	  0.019	 29.600	 99.286	  0.254
34556	  0.484	  0.279	  0.498	 -0.637	 -1.122	 -9.391	  0.002	 -0.001	  0.020	 29.600	 99.273	  1.451
34606	  0.490	  0.270	  0.502	 -0.622	 -1.109	 -9.395	  0.003	 -0.002	  0.019	 29.600	 99.298	 -0.850
34656	  0.489	  0.276	  0.504	 -0.656	 -1.115	 -9.410	  0.003	 -0.001	  0.020	 29.600	 99.286	  0.254
34706	  0.486	  0.274	  0.501	 -0.580	 -1.139	 -9.410	  0.003	 -0.000	  0.019	 29.600	 99.286	  0.254
34756	  0.488	  0.278	  0.502	 -0.650	 -1.126	 -9.408	  0.003	 -0.000	  0.019	 29.600	 99.286	  0.254
34806	  0.481	  0.282	  0.499	 -0.561	 -1.155	 -9.441	  0.003	 -0.001	  0.019	 29.600	 99.286	  0.254
34856	  0.491	  0.269	  0.503	 -0.664	 -1.097	 -9.448	  0.002	 -0.001	  0.019	 29.600	 99.298	 -0.850
34906	  0.486	  0.276	  0.492	 -0.602	 -1.162	 -9.384	  0.002	 -0.001	  0.019	 29.600	 99.298	 -0.850
34956	  0.488	  0.270	  0.502	 -0.662	 -1.116	 -9.418	  0.003	 -0.000	  0.020	 29.600	 99.281	  0.715
35006	  0.490	  0.276	  0.495	 -0.592	 -1.157	 -9.387	  0.002	 -0.000	  0.019	 29.600	 99.298	 -0.850
35056	  0.488	  0.273	  0.503	 -0.634	 -1.144	 -9.430	  0.004	  0.000	  0.019	 29.600	 99.286	  0.254
35106	  0.486	  0.269	  0.499	 -0.559	 -1.143	 -9.427	  0.003	  0.000	  0.020	 29.600	 99.286	  0.254
35156	  0.486	  0.273	  0.499	 -0.646	 -1.117	 -9.416	  0.004	 -0.001	  0.020	 29.600	 99.286	  0.254
35207	  0.486	  0.276	  0.506	 -0.596	 -1.113	 -9.425	  0.002	 -0.001	  0.022	 29.600	 99.286	  0.254
35257	  0.484	  0.278	  0.500	 -0.611	 -1.135	 -9.396	  0.002	  0.000	  0.019	 29.600	 99.286	  0.254
35307	  0.485	  0.274	  0.499	 -0.618	 -1.128	 -9.412	  0.004	 -0.002	  0.020	 29.600	 99.298	 -0.850
35357	  0.486	  0.275	  0.503	 -0.578	 -1.161	 -9.385	  0.003	 -0.001	  0.020	 29.600	 99.298	 -0.850
35407	  0.486	  0.278	  0.499	 -0.614	 -1.118	 -9.429	  0.003	 -0.001	  0.020	 29.600	 99.298	 -0.850
35457	  0.488	  0.270	  0.502	 -0.590	 -1.156	 -9.441	  0.003	 -0.001	  0.020	 29.600	 99.286	  0.254
35507	  0.486	  0.274	  0.501	 -0.661	 -1.095	 -9.418	  0.002	 -0.001	  0.020	 29.600	 99.286	  0.254
35557	  0.485	  0.271	  0.503	 -0.570	 -1.143	 -9.403	  0.002	 -0.001	  0.020	 29.600	 99.298	 -0.850
35607	  0.488	  0.274	  0.501	 -0.668	 -1.145	 -9.418	  0.003	 -0.001	  0.020	 29.600	 99.286	  0.254
35657	  0.486	  0.290	  0.499	 -0.565	 -1.138	 -9.405	  0.002	 -0.001	  0.019	 29.600	 99.298	 -0.850
35707	  0.488	  0.279	  0.502	 -0.681	 -1.127	 -9.412	  0.003	 -0.000	  0.021	 29.600	 99.298	 -0.850
35757	  0.486	  0.276	  0.502	 -0.573	 -1.155	 -9.410	  0.002	 -0.001	  0.019	 29.600	 99.298	 -0.850
35807	  0.486	  0.270	  0.503	 -0.632	 -1.112	 -9.427	  0.002	 -0.001	  0.020	 29.600	 99.286	  0.254
35857	  0.486	  0.275	  0.502	 -0.587	 -1.123	 -9.390	  0.002	 -0.002	  0.019	 29.600	 99.286	  0.254
35906	  0.486	  0.274	  0.502	 -0.649	 -1.139	 -9.359	  0.003	 -0.002	  0.020	 29.600	 99.286	  0.254
35956	  0.485	  0.273	  0.503	 -0.585	 -1.131	 -9.426	  0.002	 -0.001	  0.020	 29.600	 99.298	 -0.850
36006	  0.488	  0.273	  0.506	 -0.644	 -1.112	 -9.386	  0.003	 -0.001	  0.019	 29.600	 99.286	  0.254
36056	  0.490	  0.276	  0.501	 -0.602	 -1.117	 -9.417	  0.003	 -0.000	  0.020	 29.600	 99.286	  0.254
36106	  0.484	  0.290	  0.501	 -0.627	 -1.150	 -9.414	  0.002	 -0.001	  0.020	 29.600	 99.286	  0.254
36156	  0.485	  0.278	  0.502	 -0.594	 -1.130	 -9.420	  0.002	 -0.002	  0.019	 29.600	 99.286	  0.254
36206	  0.481	  0.279	  0.495	 -0.592	 -1.130	 -9.382	  0.004	 -0.001	  0.019	 29.600	 99.286	  0.254
36256	  0.486	  0.274	  0.502	 -0.647	 -1.107	 -9.412	  0.003	 -0.001	  0.019	 29.600	 99.286	  0.254
36306	  0.483	  0.287	  0.499	 -0.579	 -1.153	 -9.406	  0.002	 -0.001	  0.020	 29.600	 99.286	  0.254
36356	  0.484	  0.274	  0.504	 -0.674	 -1.113	 -9.450	  0.003	 -0.001	  0.019	 29.600	 99.273	  1.451
36406	  0.488	  0.273	  0.499	 -0.562	 -1.146	 -9.402	  0.003	 -0.000	  0.019	 29.600	 99.298	 -0.850
36456	  0.485	  0.269	  0.494	 -0.669	 -1.145	 -9.400	  0.002	 -0.000	  0.020	 29.600	 99.286	  0.254
36506	  0.484	  0.278	  0.494	 -0.570	 -1.137	 -9.426	  0.003	 -0.001	  0.020	 29.600	 99.286	  0.254
36556	  0.484	  0.273	  0.502	 -0.672	 -1.102	 -9.425	  0.003	 -0.001	  0.019	 29.600	 99.286	  0.254
36606	  0.484	  0.274	  0.503	 -0.549	 -1.129	 -9.391	  0.002	 -0.000	  0.019	 29.600	 99.273	  1.451
36656	  0.489	  0.274	  0.501	 -0.679	 -1.105	 -9.431	  0.004	 -0.003	  0.020	 29.600	 99.286	  0.254
36706	  0.485	  0.274	  0.502	 -0.573	 -1.152	 -9.420	  0.003	 -0.001	  0.019	 29.600	 99.286	  0.254
36756	  0.485	  0.273	  0.502	 -0.651	 -1.119	 -9.399	  0.002	 -0.002	  0.020	 29.600	 99.286	  0.254
36806	  0.488	  0.271	  0.503	 -0.708	 -0.863	 -9.289	 -0.003	 -0.002	  0.022	 29.600	 99.286	  0.254
36856	  0.485	  0.275	  0.504	 -0.659	 -1.065	 -9.553	  0.004	 -0.002	  0.019	 29.600	 99.286	  0.254
36906	  0.488	  0.274	  0.502	 -0.614	 -1.088	 -9.537	  0.003	  0.001	  0.021	 29.600	 99.286	  0.254
36956	  0.484	  0.283	  0.500	 -0.600	 -1.160	 -9.493	  0.001	 -0.000	  0.020	 29.600	 99.281	  0.715
37006	  0.485	  0.276	  0.506	 -0.636	 -1.123	 -9.482	  0.003	 -0.000	  0.020	 29.600	 99.286	  0.254
37056	  0.485	  0.270	  0.501	 -0.583	 -1.149	 -9.460	  0.002	 -0.001	  0.018	 29.600	 99.286	  0.254
37106	  0.485	  0.275	  0.496	 -0.647	 -1.124	 -9.438	  0.003	  0.001	  0.020	 29.600	 99.286	  0.254
37156	  0.485	  0.270	  0.496	 -0.583	 -1.158	 -9.437	  0.003	 -0.001	  0.021	 29.600	 99.281	  0.715
37206	  0.489	  0.287	  0.504	 -0.663	 -1.108	 -9.461	  0.003	 -0.000	  0.019	 29.600	 99.302	 -1.218
37256	  0.485	  0.275	  0.498	 -0.569	 -1.167	 -9.441	  0.003	 -0.001	  0.021	 29.600	 99.298	 -0.850
37306	  0.486	  0.278	  0.502	 -0.653	 -1.134	 -9.466	  0.002	  0.002	  0.019	 29.600	 99.286	  0.254
37356	  0.483	  0.274	  0.499	 -0.555	 -1.147	 -9.451	  0.003	 -0.002	  0.021	 29.600	 99.298	 -0.850
37406	  0.485	  0.273	  0.503	 -0.661	 -1.098	 -9.455	  0.003	 -0.001	  0.019	 29.600	 99.286	  0.254
37456	  0.485	  0.275	  0.500	 -0.567	 -1.126	 -9.424	  0.003	 -0.001	  0.021	 29.600	 99.286	  0.254
37506	  0.482	  0.273	  0.503	 -0.670	 -1.136	 -9.394	  0.003	 -0.001	  0.020	 29.600	 99.294	 -0.482
37556	  0.485	  0.271	  0.499	 -0.584	 -1.118	 -9.412	  0.004	 -0.002	  0.020	 29.600	 99.286	  0.254
37606	  0.488	  0.276	  0.498	 -0.649	 -1.156	 -9.391	  0.003	 -0.002	  0.021	 29.600	 99.286	  0.254
37656	  0.488	  0.275	  0.499	 -0.594	 -1.116	 -9.397	  0.003	 -0.001	  0.020	 29.600	 99.298	 -0.850
37706	  0.484	  0.287	  0.497	 -0.611	 -1.147	 -9.422	  0.002	 -0.001	  0.019	 29.600	 99.298	 -0.850
37756	  0.488	  0.283	  0.502	 -0.616	 -1.113	 -9.435	  0.003	  0.000	  0.019	 29.600	 99.286	  0.254
37806	  0.483	  0.275	  0.503	 -0.598	 -1.166	 -9.466	  0.003	  0.001	  0.019	 29.600	 99.298	 -0.850
37856	  0.489	  0.273	  0.505	 -0.562	 -1.295	 -9.483	 -0.002	  0.001	  0.017	 29.600	 99.298	 -0.850
37906	  0.483	  0.290	  0.507	 -0.778	 -0.626	 -9.152	  0.169	  0.002	  0.007	 29.600	 99.298	 -0.850
37956	  0.489	  0.278	  0.507	 -0.563	  0.244	 -8.881	  0.021	  0.001	  0.012	 29.600	 99.273	  1.451
38006	  0.489	  0.280	  0.504	 -0.562	 -0.719	 -9.267	 -0.005	 -0.000	  0.016	 29.600	 99.286	  0.254
38056	  0.486	  0.278	  0.508	 -0.655	 -0.510	 -9.209	  0.030	  0.000	  0.020	 29.600	 99.286	  0.254
38106	  0.489	  0.282	  0.503	 -0.522	 -1.164	 -9.295	  0.009	 -0.001	  0.021	 29.600	 99.273	  1.451
38156	  0.486	  0.276	  0.500	 -0.516	 -0.523	 -9.739	  0.088	 -0.001	  0.022	 29.600	 99.286	  0.254
38206	  0.486	  0.278	  0.499	 -0.636	 -1.150	 -9.379	  0.055	  0.002	  0.013	 29.600	 99.298	 -0.850
38256	  0.486	  0.279	  0.492	 -0.766	 -0.853	 -9.242	  0.007	 -0.001	  0.020	 29.600	 99.298	 -0.850
38306	  0.489	  0.284	  0.502	 -0.574	 -1.180	 -9.448	  0.002	 -0.000	  0.020	 29.600	 99.298	 -0.850
38356	  0.484	  0.269	  0.499	 -0.646	 -1.125	 -9.380	  0.002	 -0.002	  0.020	 29.600	 99.286	  0.254
38406	  0.488	  0.274	  0.501	 -0.602	 -1.133	 -9.407	  0.003	 -0.002	  0.020	 29.600	 99.286	  0.254
38456	  0.490	  0.289	  0.503	 -0.645	 -1.141	 -9.407	  0.001	 -0.001	  0.020	 29.600	 99.286	  0.254
38506	  0.489	  0.276	  0.496	 -0.809	 -1.164	 -9.385	  0.002	 -0.000	  0.022	 29.600	 99.286	  0.254
38556	  0.485	  0.274	  0.503	 -0.587	 -1.147	 -9.302	  0.004	 -0.001	  0.019	 29.600	 99.286	  0.254
38606	  0.488	  0.276	  0.494	 -0.621	 -1.150	 -9.307	  0.003	 -0.001	  0.019	 29.600	 99.286	  0.254
38656	  0.489	  0.279	  0.500	 -0.602	 -1.107	 -9.365	  0.004	  0.000	  0.020	 29.600	 99.273	  1.451
38706	  0.484	  0.278	  0.496	 -0.642	 -1.121	 -9.365	  0.003	 -0.002	  0.020	 29.600	 99.290	 -0.113
38756	  0.489	  0.282	  0.504	 -0.610	 -1.150	 -9.421	  0.002	 -0.002	  0.020	 29.600	 99.286	  0.254
38806	  0.488	  0.290	  0.504	 -0.643	 -1.091	 -9.349	  0.003	 -0.000	  0.020	 29.600	 99.298	 -0.850
38856	  0.489	  0.279	  0.496	 -0.581	 -1.149	 -9.396	  0.002	 -0.002	  0.020	 29.600	 99.286	  0.254
38906	  0.485	  0.282	  0.500	 -0.675	 -1.090	 -9.420	  0.003	 -0.001	  0.020	 29.600	 99.286	  0.254
38956	  0.489	  0.283	  0.496	 -0.560	 -1.135	 -9.399	  0.004	 -0.001	  0.018	 29.600	 99.286	  0.254
39006	  0.489	  0.279	  0.502	 -0.664	 -1.127	 -9.414	  0.003	  0.000	  0.019	 29.600	 99.298	 -0.850
39056	  0.486	  0.271	  0.491	 -0.579	 -1.132	 -9.428	  0.002	 -0.001	  0.019	 29.600	 99.298	 -0.850
39106	  0.489	  0.280	  0.502	 -0.641	 -1.105	 -9.417	  0.003	 -0.002	  0.020	 29.600	 99.298	 -0.850
39156	  0.486	  0.284	  0.502	 -0.606	 -1.143	 -9.397	  0.003	  0.000	  0.019	 29.600	 99.286	  0.254
39206	  0.488	  0.276	  0.498	 -0.651	 -1.151	 -9.424	  0.001	 -0.001	  0.020	 29.600	 99.286	  0.254
39256	  0.489	  0.280	  0.499	 -0.592	 -1.086	 -9.447	  0.003	 -0.002	  0.019	 29.600	 99.298	 -0.850
39306	  0.489	  0.282	  0.499	 -0.638	 -1.145	 -9.410	  0.003	 -0.001	  0.019	 29.600	 99.286	  0.254
39356	  0.488	  0.275	  0.501	 -0.604	 -1.103	 -9.456	  0.002	 -0.000	  0.020	 29.600	 99.286	  0.254
39406	  0.486	  0.275	  0.503	 -0.628	 -1.152	 -9.443	  0.003	 -0.001	  0.021	 29.600	 99.286	  0.254
39456	  0.486	  0.283	  0.502	 -0.633	 -1.107	 -9.429	  0.003	 -0.001	  0.019	 29.600	 99.286	  0.254
39506	  0.488	  0.274	  0.502	 -0.580	 -1.157	 -9.430	  0.003	 -0.001	  0.019	 29.600	 99.281	  0.715
39556	  0.484	  0.280	  0.495	 -0.658	 -1.100	 -9.438	  0.002	 -0.001	  0.020	 29.600	 99.269	  1.820
39606	  0.488	  0.279	  0.504	 -0.557	 -1.163	 -9.418	  0.004	 -0.001	  0.019	 29.600	 99.273	  1.451
39656	  0.485	  0.275	  0.491	 -0.691	 -1.113	 -9.441	  0.003	  0.000	  0.020	 29.600	 99.298	 -0.850
39706	  0.489	  0.279	  0.498	 -0.575	 -1.134	 -9.419	  0.003	  0.000	  0.020	 29.600	 99.298	 -0.850
39756	  0.489	  0.279	  0.492	 -0.675	 -1.125	 -9.407	  0.003	 -0.003	  0.021	 29.600	 99.298	 -0.850
39806	  0.485	  0.274	  0.500	 -0.565	 -1.152	 -9.388	  0.003	 -0.002	  0.019	 29.600	 99.281	  0.715
39856	  0.489	  0.274	  0.499	 -0.653	 -1.129	 -9.396	  0.003	 -0.001	  0.019	 29.600	 99.286	  0.254
39906	  0.488	  0.279	  0.502	 -0.573	 -1.127	 -9.380	  0.002	 -0.001	  0.019	 29.600	 99.298	 -0.850
39956	  0.488	  0.274	  0.504	 -0.627	 -1.138	 -9.406	  0.003	 -0.001	  0.019	 29.600	 99.286	  0.254
40006	  0.485	  0.278	  0.502	 -0.583	 -1.133	 -9.437	  0.003	 -0.001	  0.020	 29.600	 99.294	 -0.482
40056	  0.489	  0.271	  0.499	 -0.609	 -1.132	 -9.395	  0.003	 -0.001	  0.020	 29.600	 99.286	  0.254
40107	  0.485	  0.289	  0.503	 -0.604	 -1.138	 -9.403	  0.002	 -0.001	  0.018	 29.600	 99.298	 -0.850
40156	  0.488	  0.275	  0.502	 -0.609	 -1.141	 -9.440	  0.002	 -0.001	  0.019	 29.600	 99.281	  0.715
40206	  0.490	  0.278	  0.496	 -0.567	 -1.135	 -9.408	  0.003	 -0.000	  0.019	 29.600	 99.286	  0.254
40256	  0.489	  0.279	  0.506	 -0.598	 -1.148	 -9.422	  0.002	 -0.001	  0.020	 29.600	 99.298	 -0.850
40305	  0.485	  0.279	  0.494	 -0.632	 -1.143	 -9.420	  0.004	 -0.001	  0.020	 29.600	 99.286	  0.254
40355	  0.490	  0.285	  0.503	 -0.604	 -1.148	 -9.385	  0.002	 -0.000	  0.020	 29.600	 99.298	 -0.850
40406	  0.486	  0.274	  0.504	 -0.630	 -1.106	 -9.426	  0.003	 -0.002	  0.019	 29.600	 99.286	  0.254
40455	  0.486	  0.269	  0.496	 -0.558	 -1.144	 -9.444	  0.001	 -0.001	  0.020	 29.600	 99.286	  0.254
40506	  0.491	  0.278	  0.503	 -0.659	 -1.097	 -9.384	  0.003	 -0.001	  0.019	 29.600	 99.298	 -0.850
40555	  0.488	  0.274	  0.506	 -0.584	 -1.141	 -9.389	  0.003	 -0.001	  0.021	 29.600	 99.281	  0.715
40605	  0.489	  0.273	  0.503	 -0.666	 -1.097	 -9.429	  0.002	 -0.002	  0.020	 29.600	 99.286	  0.254
40656	  0.488	  0.275	  0.495	 -0.569	 -1.171	 -9.411	  0.003	 -0.001	  0.018	 29.600	 99.286	  0.254
40705	  0.488	  0.273	  0.505	 -0.650	 -1.099	 -9.408	  0.003	 -0.000	  0.019	 29.600	 99.269	  1.820
40756	  0.490	  0.278	  0.498	 -0.570	 -1.146	 -9.348	  0.003	 -0.001	  0.019	 29.600	 99.286	  0.254
40806	  0.488	  0.287	  0.510	 -0.631	 -1.141	 -9.390	  0.001	 -0.001	  0.020	 29.600	 99.298	 -0.850
40856	  0.488	  0.280	  0.499	 -0.617	 -1.117	 -9.400	  0.003	 -0.001	  0.018	 29.600	 99.298	 -0.850
40906	  0.488	  0.289	  0.508	 -0.612	 -1.157	 -9.409	  0.002	  0.001	  0.020	 29.600	 99.281	  0.715
40956	  0.491	  0.271	  0.497	 -0.629	 -1.125	 -9.412	  0.003	 -0.001	  0.020	 29.600	 99.310	 -1.955
41006	  0.489	  0.275	  0.509	 -0.586	 -1.157	 -9.430	  0.003	 -0.000	  0.020	 29.600	 99.294	 -0.482
41056	  0.489	  0.285	  0.508	 -0.642	 -1.125	 -9.436	  0.003	 -0.001	  0.019	 29.600	 99.298	 -0.850
41106	  0.488	  0.271	  0.507	 -0.564	 -1.158	 -9.393	  0.003	 -0.002	  0.019	 29.600	 99.286	  0.254
41156	  0.484	  0.287	  0.503	 -0.652	 -1.127	 -9.394	  0.002	 -0.001	  0.018	 29.600	 99.286	  0.254
41206	  0.488	  0.274	  0.504	 -0.569	 -1.143	 -9.402	  0.003	  0.001	  0.019	 29.600	 99.281	  0.715
41256	  0.486	  0.287	  0.500	 -0.656	 -1.090	 -9.426	  0.002	 -0.002	  0.020	 29.600	 99.286	  0.254
41306	  0.486	  0.280	  0.506	 -0.572	 -1.126	 -9.422	  0.002	 -0.001	  0.020	 29.600	 99.286	  0.254
41356	  0.490	  0.275	  0.503	 -0.664	 -1.107	 -9.392	  0.002	  0.000	  0.018	 29.600	 99.286	  0.254
41406	  0.488	  0.274	  0.507	 -0.571	 -1.138	 -9.403	  0.002	  0.000	  0.018	 29.600	 99.286	  0.254
41456	  0.488	  0.276	  0.507	 -0.641	 -1.118	 -9.396	  0.004	 -0.001	  0.020	 29.600	 99.286	  0.254
41506	  0.489	  0.278	  0.504	 -0.585	 -1.157	 -9.416	  0.002	 -0.001	  0.019	 29.600	 99.298	 -0.850
41556	  0.486	  0.282	  0.506	 -0.645	 -1.117	 -9.389	  0.003	 -0.000	  0.020	 29.600	 99.286	  0.254
41606	  0.488	  0.274	  0.503	 -0.610	 -1.135	 -9.437	  0.003	 -0.001	  0.021	 29.600	 99.286	  0.254
41656	  0.489	  0.285	  0.502	 -0.616	 -1.148	 -9.406	  0.003	 -0.001	  0.020	 29.600	 99.298	 -0.850
41706	  0.486	  0.273	  0.503	 -0.605	 -1.114	 -9.436	  0.003	  0.000	  0.019	 29.600	 99.298	 -0.850
41756	  0.489	  0.275	  0.498	 -0.605	 -1.138	 -9.440	  0.003	 -0.001	  0.019	 29.600	 99.298	 -0.850
41806	  0.486	  0.278	  0.506	 -0.637	 -1.108	 -9.408	  0.003	 -0.001	  0.020	 29.600	 99.286	  0.254
41856	  0.488	  0.270	  0.503	 -0.576	 -1.149	 -9.400	  0.003	 -0.000	  0.019	 29.600	 99.294	 -0.482
41906	  0.489	  0.288	  0.506	 -0.668	 -1.087	 -9.425	  0.002	  0.000	  0.020	 29.600	 99.281	  0.715
41956	  0.483	  0.279	  0.503	 -0.560	 -1.138	 -9.403	  0.002	 -0.001	  0.020	 29.600	 99.298	 -0.850
42006	  0.486	  0.279	  0.506	 -0.660	 -1.134	 -9.443	  0.002	 -0.001	  0.019	 29.600	 99.286	  0.254
42056	  0.485	  0.287	  0.504	 -0.556	 -1.142	 -9.414	  0.003	 -0.001	  0.020	 29.600	 99.298	 -0.850
42106	  0.490	  0.287	  0.504	 -0.679	 -1.118	 -9.429	  0.003	 -0.000	  0.020	 29.600	 99.286	  0.254
42156	  0.484	  0.280	  0.500	 -0.568	 -1.116	 -9.422	  0.002	 -0.001	  0.019	 29.600	 99.281	  0.715
42206	  0.488	  0.279	  0.503	 -0.653	 -1.112	 -9.412	  0.002	 -0.001	  0.020	 29.600	 99.298	 -0.850
42256	  0.489	  0.283	  0.498	 -0.531	 -1.167	 -9.403	  0.003	 -0.002	  0.018	 29.600	 99.286	  0.254
42306	  0.485	  0.282	  0.503	 -0.633	 -1.103	 -9.372	  0.003	 -0.000	  0.018	 29.600	 99.286	  0.254
42356	  0.484	  0.275	  0.508	 -0.582	 -1.139	 -9.402	  0.003	 -0.002	  0.020	 29.600	 99.286	  0.254
42406	  0.488	  0.276	  0.506	 -0.620	 -1.132	 -9.381	  0.002	 -0.001	  0.020	 29.600	 99.281	  0.715
42456	  0.484	  0.275	  0.500	 -0.606	 -1.098	 -9.432	  0.003	 -0.001	  0.018	 29.600	 99.298	 -0.850
42506	  0.486	  0.279	  0.499	 -0.615	 -1.159	 -9.403	  0.003	 -0.002	  0.020	 29.600	 99.286	  0.254
42556	  0.486	  0.275	  0.498	 -0.660	 -1.066	 -9.406	  0.001	 -0.001	  0.022	 29.600	 99.286	  0.254
42606	  0.485	  0.283	  0.502	 -0.539	 -1.163	 -9.450	  0.005	 -0.002	  0.019	 29.600	 99.286	  0.254
42656	  0.486	  0.275	  0.496	 -0.671	 -1.064	 -9.388	  0.002	  0.000	  0.020	 29.600	 99.298	 -0.850
42706	  0.484	  0.275	  0.495	 -0.559	 -1.159	 -9.425	  0.003	 -0.000	  0.019	 29.600	 99.286	  0.254
42756	  0.485	  0.276	  0.498	 -0.649	 -1.101	 -9.438	  0.004	 -0.001	  0.020	 29.600	 99.294	 -0.482
42806	  0.484	  0.276	  0.494	 -0.557	 -1.174	 -9.417	  0.004	 -0.001	  0.020	 29.600	 99.294	 -0.482
42856	  0.488	  0.276	  0.496	 -0.647	 -1.135	 -9.385	  0.003	 -0.000	  0.020	 29.600	 99.286	  0.254
42906	  0.486	  0.271	  0.498	 -0.565	 -1.143	 -9.414	  0.003	 -0.001	  0.019	 29.600	 99.286	  0.254
42956	  0.484	  0.276	  0.495	 -0.667	 -1.136	 -9.394	  0.003	 -0.001	  0.019	 29.600	 99.298	 -0.850
43006	  0.486	  0.273	  0.499	 -0.563	 -1.120	 -9.431	  0.002	 -0.001	  0.020	 29.600	 99.294	 -0.482
43056	  0.484	  0.275	  0.498	 -0.629	 -1.145	 -9.436	  0.002	  0.000	  0.018	 29.600	 99.298	 -0.850
43106	  0.484	  0.274	  0.496	 -0.580	 -1.093	 -9.417	  0.002	  0.000	  0.019	 29.600	 99.286	  0.254
43156	  0.485	  0.276	  0.503	 -0.634	 -1.283	 -9.517	 -0.001	 -0.001	  0.020	 29.600	 99.281	  0.715
43206	  0.488	  0.273	  0.499	 -0.616	 -1.069	 -9.374	  0.004	  0.000	  0.020	 29.600	 99.298	 -0.850
43256	  0.486	  0.270	  0.506	 -0.588	 -1.180	 -9.438	  0.002	 -0.000	  0.020	 29.600	 99.286	  0.254
43306	  0.486	  0.274	  0.504	 -0.633	 -1.108	 -9.407	  0.003	 -0.001	  0.019	 29.600	 99.286	  0.254
43356	  0.484	  0.273	  0.495	 -0.595	 -1.154	 -9.418	  0.003	 -0.002	  0.020	 29.600	 99.298	 -0.850
43406	  0.485	  0.276	  0.504	 -0.656	 -1.137	 -9.388	  0.003	 -0.001	  0.020	 29.600	 99.298	 -0.850
43456	  0.485	  0.279	  0.495	 -0.582	 -1.176	 -9.405	  0.003	 -0.001	  0.019	 29.600	 99.298	 -0.850
43506	  0.489	  0.285	  0.500	 -0.611	 -1.069	 -9.385	  0.005	 -0.005	  0.025	 29.600	 99.298	 -0.850
43556	  0.483	  0.275	  0.498	 -0.574	 -1.147	 -9.400	  0.001	 -0.001	  0.019	 29.600	 99.294	 -0.482
43606	  0.488	  0.271	  0.499	 -0.682	 -1.111	 -9.424	  0.003	 -0.000	  0.019	 29.600	 99.298	 -0.850
43656	  0.485	  0.275	  0.502	 -0.575	 -1.151	 -9.408	  0.004	 -0.001	  0.020	 29.600	 99.286	  0.254
43706	  0.489	  0.283	  0.504	 -0.643	 -1.107	 -9.404	  0.002	 -0.000	  0.020	 29.600	 99.286	  0.254
43756	  0.489	  0.273	  0.505	 -0.571	 -1.157	 -9.423	  0.003	  0.001	  0.019	 29.600	 99.286	  0.254
43806	  0.483	  0.278	  0.500	 -0.654	 -1.121	 -9.443	  0.002	 -0.001	  0.019	 29.600	 99.298	 -0.850
43856	  0.485	  0.270	  0.502	 -0.583	 -1.131	 -9.410	  0.002	 -0.000	  0.020	 29.600	 99.273	  1.451
43906	  0.483	  0.275	  0.502	 -0.614	 -1.112	 -9.364	  0.002	 -0.002	  0.019	 29.600	 99.294	 -0.482
43955	  0.485	  0.273	  0.502	 -0.566	 -1.138	 -9.444	  0.004	 -0.000	  0.021	 29.600	 99.298	 -0.850
44005	  0.490	  0.279	  0.501	 -0.667	 -1.127	 -9.436	  0.004	  0.000	  0.021	 29.600	 99.286	  0.254
44055	  0.485	  0.273	  0.503	 -0.551	 -1.178	 -9.459	  0.000	 -0.001	  0.019	 29.600	 99.286	  0.254
44105	  0.485	  0.279	  0.503	 -0.661	 -1.118	 -9.409	  0.003	 -0.001	  0.021	 29.600	 99.298	 -0.850
44155	  0.486	  0.274	  0.504	 -0.600	 -1.105	 -9.472	  0.001	 -0.001	  0.019	 29.600	 99.286	  0.254
44205	  0.484	  0.278	  0.496	 -0.640	 -1.098	 -9.410	  0.003	 -0.001	  0.020	 29.600	 99.286	  0.254
44255	  0.486	  0.274	  0.496	 -0.573	 -1.082	 -9.405	  0.004	  0.000	  0.021	 29.600	 99.286	  0.254
44305	  0.484	  0.275	  0.499	 -0.600	 -1.221	 -9.460	  0.001	 -0.001	  0.019	 29.600	 99.273	  1.451
44355	  0.488	  0.278	  0.506	 -0.642	 -1.135	 -9.445	  0.003	 -0.002	  0.019	 29.600	 99.298	 -0.850
44405	  0.488	  0.274	  0.502	 -0.571	 -1.139	 -9.417	  0.004	  0.000	  0.021	 29.600	 99.286	  0.254
44455	  0.484	  0.271	  0.502	 -0.657	 -1.092	 -9.461	  0.004	 -0.001	  0.021	 29.600	 99.281	  0.715
44505	  0.485	  0.278	  0.502	 -0.599	 -1.157	 -9.418	  0.003	 -0.000	  0.019	 29.600	 99.286	  0.254
44555	  0.486	  0.280	  0.502	 -0.644	 -1.128	 -9.408	  0.003	 -0.002	  0.021	 29.600	 99.294	 -0.482
44605	  0.484	  0.279	  0.508	 -0.563	 -1.171	 -9.430	  0.003	 -0.001	  0.020	 29.600	 99.298	 -0.850
44655	  0.484	  0.276	  0.496	 -0.735	 -1.132	 -9.400	  0.002	 -0.001	  0.017	 29.600	 99.286	  0.254
44705	  0.489	  0.273	  0.499	 -0.570	 -1.121	 -9.396	  0.004	 -0.001	  0.020	 29.600	 99.294	 -0.482
44755	  0.490	  0.290	  0.503	 -0.674	 -1.100	 -9.426	  0.002	 -0.001	  0.020	 29.600	 99.286	  0.254
44805	  0.486	  0.276	  0.500	 -0.561	 -1.112	 -9.394	  0.003	 -0.001	  0.020	 29.600	 99.281	  0.715
44855	  0.488	  0.282	  0.503	 -0.647	 -1.134	 -9.418	  0.003	 -0.001	  0.020	 29.600	 99.294	 -0.482
44905	  0.486	  0.274	  0.503	 -0.615	 -1.111	 -9.426	  0.003	 -0.002	  0.020	 29.600	 99.286	  0.254
44955	  0.485	  0.276	  0.503	 -0.624	 -1.131	 -9.403	  0.001	 -0.002	  0.020	 29.600	 99.294	 -0.482
45005	  0.490	  0.279	  0.504	 -0.597	 -1.111	 -9.428	  0.003	 -0.001	  0.018	 29.600	 99.298	 -0.850
45055	  0.488	  0.275	  0.498	 -0.630	 -1.157	 -9.443	  0.003	 -0.001	  0.019	 29.600	 99.286	  0.254
45105	  0.485	  0.279	  0.503	 -0.637	 -1.108	 -9.414	  0.002	 -0.001	  0.020	 29.600	 99.286	  0.254
45155	  0.486	  0.278	  0.502	 -0.597	 -1.157	 -9.412	  0.004	 -0.000	  0.020	 29.600	 99.286	  0.254
45205	  0.484	  0.276	  0.500	 -0.650	 -1.092	 -9.410	  0.002	 -0.001	  0.020	 29.600	 99.294	 -0.482
45255	  0.486	  0.275	  0.503	 -0.591	 -1.161	 -9.422	  0.003	 -0.001	  0.019	 29.600	 99.298	 -0.850
45305	  0.486	  0.279	  0.502	 -0.668	 -1.112	 -9.450	  0.003	 -0.000	  0.019	 29.600	 99.281	  0.715
45355	  0.488	  0.278	  0.500	 -0.594	 -1.144	 -9.421	  0.003	 -0.000	  0.021	 29.600	 99.281	  0.715
45406	  0.484	  0.279	  0.500	 -0.667	 -1.125	 -9.399	  0.001	 -0.000	  0.020	 29.600	 99.286	  0.254
45455	  0.488	  0.274	  0.502	 -0.613	 -1.141	 -9.400	  0.002	 -0.001	  0.021	 29.600	 99.298	 -0.850
45505	  0.486	  0.289	  0.496	 -0.647	 -1.095	 -9.392	  0.002	 -0.001	  0.020	 29.600	 99.298	 -0.850
45555	  0.485	  0.280	  0.496	 -0.569	 -1.138	 -9.393	  0.004	 -0.001	  0.021	 29.600	 99.281	  0.715
45605	  0.486	  0.287	  0.498	 -0.648	 -1.127	 -9.401	  0.003	 -0.001	  0.019	 29.600	 99.281	  0.715
45655	  0.486	  0.271	  0.501	 -0.586	 -1.155	 -9.421	  0.002	  0.000	  0.020	 29.600	 99.286	  0.254
45705	  0.485	  0.285	  0.502	 -0.645	 -1.107	 -9.330	  0.003	 -0.001	  0.020	 29.600	 99.281	  0.715
45755	  0.489	  0.276	  0.496	 -0.527	 -1.235	 -9.473	  0.007	 -0.002	  0.021	 29.600	 99.294	 -0.482
45805	  0.486	  0.279	  0.499	 -0.603	 -1.208	 -9.467	  0.002	 -0.003	  0.021	 29.600	 99.286	  0.254
45856	  0.485	  0.274	  0.499	 -0.657	 -1.222	 -9.638	 -0.007	  0.004	  0.016	 29.600	 99.286	  0.254
45906	  0.486	  0.276	  0.495	 -0.511	 -1.183	 -9.410	  0.003	 -0.002	  0.019	 29.600	 99.281	  0.715
45957	  0.484	  0.273	  0.502	 -0.673	 -1.120	 -9.404	  0.002	 -0.000	  0.019	 29.600	 99.298	 -0.850
46005	  0.488	  0.280	  0.499	 -0.560	 -1.149	 -9.406	  0.003	 -0.001	  0.019	 29.600	 99.286	  0.254
46056	  0.486	  0.282	  0.500	 -0.674	 -1.129	 -9.414	  0.004	 -0.000	  0.020	 29.600	 99.298	 -0.850
46105	  0.485	  0.289	  0.506	 -0.555	 -1.142	 -9.395	  0.002	 -0.002	  0.019	 29.600	 99.298	 -0.850
46155	  0.488	  0.276	  0.494	 -0.679	 -1.103	 -9.436	  0.005	 -0.002	  0.021	 29.600	 99.294	 -0.482
46205	  0.488	  0.271	  0.499	 -0.544	 -1.202	 -9.463	  0.000	 -0.000	  0.019	 29.600	 99.298	 -0.850
46255	  0.484	  0.279	  0.504	 -0.630	 -1.109	 -9.363	  0.004	 -0.001	  0.019	 29.600	 99.286	  0.254
46306	  0.484	  0.279	  0.492	 -0.589	 -1.139	 -9.396	  0.003	 -0.001	  0.020	 29.600	 99.286	  0.254
46356	  0.485	  0.274	  0.502	 -0.607	 -1.109	 -9.389	  0.003	  0.000	  0.018	 29.600	 99.286	  0.254
46406	  0.486	  0.275	  0.500	 -0.631	 -1.122	 -9.412	  0.003	 -0.001	  0.019	 29.600	 99.298	 -0.850
46456	  0.486	  0.280	  0.499	 -0.561	 -1.184	 -9.448	  0.004	 -0.000	  0.018	 29.600	 99.281	  0.715
46506	  0.485	  0.278	  0.499	 -0.646	 -1.094	 -9.436	 -0.001	  0.000	  0.020	 29.600	 99.294	 -0.482
46556	  0.485	  0.280	  0.499	 -0.573	 -1.150	 -9.421	  0.002	 -0.002	  0.020	 29.600	 99.281	  0.715
46606	  0.483	  0.276	  0.503	 -0.652	 -1.102	 -9.410	  0.003	 -0.002	  0.021	 29.600	 99.286	  0.254
46656	  0.485	  0.276	  0.499	 -0.504	 -1.146	 -9.417	 -0.001	  0.001	  0.021	 29.600	 99.298	 -0.850
46706	  0.484	  0.290	  0.493	 -0.694	 -1.035	 -9.369	  0.001	 -0.001	  0.019	 29.600	 99.298	 -0.850
46756	  0.488	  0.278	  0.502	 -0.555	 -1.162	 -9.419	  0.001	 -0.001	  0.018	 29.600	 99.298	 -0.850
46806	  0.486	  0.276	  0.498	 -0.647	 -1.116	 -9.401	  0.004	 -0.002	  0.020	 29.600	 99.273	  1.451
46856	  0.486	  0.276	  0.496	 -0.572	 -1.137	 -9.436	  0.003	 -0.000	  0.020	 29.600	 99.298	 -0.850
