Time	 MagX	 MagY	 MagZ	 AccelX	 AccelY	 AccelZ	 Yaw	 Pitch	 Roll	 Temperature	 Pressure	 Altitude
5264	  0.700	  0.398	  0.678	  0.088	 -0.034	 -9.749	 -0.003	  0.001	 -0.000	 32.700	 99.104	 -99999.000
5310	  0.700	  0.398	  0.679	  0.092	 -0.031	 -9.767	 -0.005	  0.004	 -0.000	 32.700	 99.104	 -99999.000
5360	  0.699	  0.399	  0.677	  0.073	 -0.027	 -9.780	 -0.004	  0.003	  0.001	 32.700	 99.104	 -99999.000
5410	  0.700	  0.397	  0.682	  0.086	 -0.014	 -9.767	 -0.004	  0.001	 -0.000	 32.700	 99.115	 -99999.000
5460	  0.700	  0.400	  0.684	  0.075	 -0.013	 -9.811	 -0.003	  0.002	  0.002	 32.700	 99.104	 -99999.000
5510	  0.698	  0.397	  0.678	  0.065	  0.001	 -9.786	 -0.003	  0.002	 -0.000	 32.700	 99.088	 -99999.000
5560	  0.703	  0.402	  0.683	  0.089	 -0.020	 -9.786	 -0.004	  0.002	 -0.001	 32.700	 99.104	 -99999.000
5610	  0.701	  0.396	  0.675	  0.094	  0.008	 -9.755	 -0.003	  0.002	  0.001	 32.700	 99.093	 -99999.000
5660	  0.700	  0.397	  0.677	  0.103	 -0.036	 -9.745	 -0.003	  0.002	 -0.001	 32.700	 99.104	 -99999.000
5710	  0.700	  0.397	  0.683	  0.068	 -0.028	 -9.775	 -0.002	  0.003	  0.001	 32.700	 99.093	 -99999.000
5760	  0.700	  0.401	  0.681	  0.101	 -0.016	 -9.768	 -0.004	  0.002	  0.000	 32.700	 99.104	 -99999.000
5810	  0.701	  0.403	  0.682	  0.075	 -0.014	 -9.772	 -0.004	  0.002	 -0.001	 32.700	 99.104	 -99999.000
5860	  0.701	  0.399	  0.681	  0.073	 -0.020	 -9.781	 -0.004	  0.002	  0.000	 32.700	 99.104	 -99999.000
5910	  0.701	  0.398	  0.682	  0.074	 -0.003	 -9.778	 -0.004	  0.002	 -0.000	 32.700	 99.104	 -99999.000
5960	  0.701	  0.402	  0.681	  0.090	 -0.012	 -9.767	 -0.004	  0.002	  0.001	 32.700	 99.104	 -99999.000
6010	  0.702	  0.401	  0.682	  0.061	 -0.001	 -9.747	 -0.004	  0.003	  0.001	 32.700	 99.104	 -99999.000
6060	  0.701	  0.398	  0.678	  0.087	 -0.006	 -9.758	 -0.003	  0.003	  0.001	 32.700	 99.093	 -99999.000
6110	  0.702	  0.397	  0.682	  0.095	 -0.025	 -9.771	 -0.003	  0.003	  0.001	 32.700	 99.104	 -99999.000
6160	  0.699	  0.404	  0.679	  0.087	 -0.026	 -9.738	 -0.004	  0.002	 -0.000	 32.700	 99.093	 -99999.000
6210	  0.699	  0.399	  0.681	  0.081	 -0.005	 -9.758	 -0.003	  0.003	 -0.001	 32.700	 99.108	 -99999.000
6260	  0.700	  0.396	  0.682	  0.085	 -0.014	 -9.739	 -0.004	  0.002	 -0.000	 32.700	 99.108	 -99999.000
6310	  0.699	  0.398	  0.677	  0.083	 -0.012	 -9.757	 -0.004	  0.003	  0.000	 32.700	 99.104	 -99999.000
6360	  0.699	  0.397	  0.681	  0.100	 -0.006	 -9.775	 -0.003	  0.003	  0.000	 32.700	 99.104	 -99999.000
6410	  0.697	  0.405	  0.679	  0.067	  0.005	 -9.771	 -0.004	  0.002	  0.001	 32.700	 99.104	 -99999.000
6460	  0.701	  0.399	  0.681	  0.083	 -0.003	 -9.762	 -0.003	  0.004	  0.001	 32.700	 99.104	 -99999.000
6510	  0.700	  0.400	  0.681	  0.087	 -0.002	 -9.718	 -0.004	  0.002	  0.001	 32.700	 99.104	 -99999.000
6560	  0.700	  0.399	  0.678	  0.079	 -0.029	 -9.747	 -0.003	  0.002	 -0.000	 32.700	 99.115	 -99999.000
6610	  0.700	  0.397	  0.678	  0.085	 -0.017	 -9.754	 -0.004	  0.004	  0.000	 32.700	 99.093	 -99999.000
6660	  0.700	  0.400	  0.683	  0.097	  0.000	 -9.754	 -0.003	  0.002	  0.000	 32.700	 99.104	 -99999.000
6710	  0.701	  0.396	  0.682	  0.102	 -0.020	 -9.766	 -0.003	  0.001	 -0.000	 32.700	 99.104	 -99999.000
6760	  0.700	  0.395	  0.680	  0.090	  0.000	 -9.740	 -0.002	  0.002	  0.000	 32.700	 99.093	 -99999.000
6810	  0.700	  0.402	  0.679	  0.092	  0.001	 -9.777	 -0.002	  0.002	  0.000	 32.700	 99.104	 -99999.000
6860	  0.701	  0.406	  0.681	  0.076	 -0.016	 -9.756	 -0.004	  0.002	 -0.000	 32.700	 99.093	 -99999.000
6910	  0.701	  0.397	  0.682	  0.085	 -0.024	 -9.752	 -0.003	  0.003	  0.000	 32.700	 99.104	 -99999.000
6960	  0.699	  0.399	  0.679	  0.078	 -0.015	 -9.736	 -0.003	  0.002	 -0.000	 32.700	 99.093	 -99999.000
7010	  0.703	  0.398	  0.682	  0.072	 -0.017	 -9.772	 -0.002	  0.001	  0.001	 32.700	 99.104	 -99999.000
7060	  0.700	  0.397	  0.678	  0.096	 -0.008	 -9.765	 -0.004	  0.002	 -0.000	 32.700	 99.108	 -99999.000
7110	  0.702	  0.402	  0.683	  0.082	 -0.027	 -9.757	 -0.004	  0.002	 -0.001	 32.700	 99.115	 -99999.000
7160	  0.702	  0.397	  0.681	  0.068	 -0.021	 -9.752	 -0.003	  0.003	  0.000	 32.700	 99.104	 -99999.000
7210	  0.700	  0.396	  0.684	  0.066	 -0.005	 -9.780	 -0.003	  0.002	  0.001	 32.700	 99.104	 -99999.000
7260	  0.701	  0.396	  0.677	  0.094	  0.001	 -9.746	 -0.003	  0.003	 -0.001	 32.700	 99.104	 -99999.000
7310	  0.699	  0.400	  0.679	  0.090	 -0.017	 -9.770	 -0.003	  0.001	  0.001	 32.700	 99.104	 -99999.000
7360	  0.700	  0.399	  0.680	  0.088	 -0.010	 -9.757	 -0.003	  0.004	  0.001	 32.700	 99.104	 -99999.000
7410	  0.701	  0.400	  0.682	  0.053	 -0.002	 -9.790	 -0.003	  0.003	  0.000	 32.700	 99.104	 -99999.000
7460	  0.700	  0.397	  0.682	  0.086	  0.001	 -9.739	 -0.003	  0.002	  0.001	 32.700	 99.115	 -99999.000
7510	  0.701	  0.397	  0.682	  0.083	 -0.019	 -9.778	 -0.003	  0.003	 -0.001	 32.700	 99.104	 -99999.000
7560	  0.701	  0.404	  0.685	  0.094	 -0.001	 -9.767	 -0.005	  0.003	  0.001	 32.700	 99.104	 -99999.000
7610	  0.700	  0.397	  0.678	  0.080	  0.009	 -9.777	 -0.003	  0.001	  0.001	 32.700	 99.108	 -99999.000
7660	  0.700	  0.399	  0.680	  0.085	  0.004	 -9.734	 -0.004	  0.002	  0.000	 32.700	 99.104	 -99999.000
7710	  0.699	  0.398	  0.684	  0.077	  0.018	 -9.739	 -0.004	  0.002	  0.002	 32.700	 99.115	 -99999.000
7760	  0.700	  0.396	  0.680	  0.084	 -0.019	 -9.791	 -0.005	  0.002	  0.000	 32.700	 99.104	 -99999.000
7810	  0.702	  0.396	  0.683	  0.060	 -0.007	 -9.762	 -0.003	  0.002	 -0.000	 32.700	 99.104	 -99999.000
7860	  0.701	  0.399	  0.682	  0.092	  0.010	 -9.760	 -0.004	  0.002	  0.001	 32.700	 99.108	 -99999.000
7910	  0.699	  0.402	  0.683	  0.060	 -0.005	 -9.779	 -0.003	  0.003	  0.001	 32.700	 99.104	 -99999.000
7961	  0.700	  0.398	  0.674	  0.062	 -0.000	 -9.751	 -0.003	  0.002	  0.001	 32.700	 99.115	 -99999.000
8010	  0.699	  0.403	  0.682	  0.075	 -0.003	 -9.741	 -0.003	  0.002	 -0.001	 32.700	 99.108	 -99999.000
8060	  0.700	  0.396	  0.676	  0.094	 -0.005	 -9.747	 -0.003	  0.002	 -0.000	 32.700	 99.104	 -99999.000
8110	  0.700	  0.397	  0.681	  0.059	 -0.006	 -9.764	 -0.004	  0.002	 -0.000	 32.700	 99.108	 -99999.000
8160	  0.700	  0.397	  0.682	  0.085	 -0.003	 -9.756	 -0.004	  0.003	 -0.001	 32.700	 99.104	 -99999.000
8210	  0.701	  0.397	  0.680	  0.082	 -0.006	 -9.797	 -0.003	  0.003	  0.001	 32.700	 99.115	 -99999.000
8260	  0.702	  0.397	  0.677	  0.063	 -0.010	 -9.745	 -0.004	  0.003	 -0.001	 32.700	 99.108	 -99999.000
8310	  0.700	  0.396	  0.684	  0.114	 -0.005	 -9.796	 -0.004	  0.002	  0.001	 32.700	 99.115	 -99999.000
8360	  0.699	  0.398	  0.672	  0.078	 -0.003	 -9.780	 -0.003	  0.003	  0.001	 32.700	 99.093	 -99999.000
8411	  0.699	  0.398	  0.681	  0.090	 -0.004	 -9.759	 -0.003	  0.001	  0.002	 32.700	 99.108	 -99999.000
8460	  0.699	  0.396	  0.685	  0.058	 -0.006	 -9.768	 -0.003	  0.002	 -0.000	 32.700	 99.115	 -99999.000
8511	  0.699	  0.401	  0.681	  0.090	 -0.002	 -9.774	 -0.003	  0.002	 -0.000	 32.700	 99.093	 -99999.000
8560	  0.700	  0.401	  0.684	  0.078	 -0.001	 -9.774	 -0.003	  0.002	  0.001	 32.700	 99.104	 -99999.000
8610	  0.700	  0.399	  0.677	  0.080	 -0.000	 -9.742	 -0.004	  0.003	 -0.000	 32.700	 99.108	 -99999.000
8660	  0.700	  0.396	  0.682	  0.110	  0.005	 -9.747	 -0.003	  0.002	  0.000	 32.700	 99.104	 -99999.000
8711	  0.700	  0.398	  0.678	  0.094	 -0.013	 -9.733	 -0.003	  0.002	  0.000	 32.700	 99.104	 -99999.000
8761	  0.700	  0.401	  0.681	  0.088	  0.008	 -9.745	 -0.003	  0.001	  0.000	 32.700	 99.104	 -99999.000
8811	  0.702	  0.398	  0.683	  0.105	  0.001	 -9.762	 -0.004	  0.003	  0.001	 32.700	 99.104	 -99999.000
8861	  0.698	  0.397	  0.677	  0.095	 -0.013	 -9.785	 -0.003	  0.003	 -0.000	 32.700	 99.104	 -99999.000
8911	  0.701	  0.399	  0.681	  0.068	 -0.001	 -9.771	 -0.004	  0.003	  0.001	 32.700	 99.093	 -99999.000
8961	  0.700	  0.398	  0.677	  0.082	 -0.018	 -9.750	 -0.003	  0.002	  0.000	 32.700	 99.104	 -99999.000
9011	  0.700	  0.395	  0.682	  0.105	  0.010	 -9.765	 -0.003	  0.002	  0.001	 32.700	 99.104	 -99999.000
9061	  0.700	  0.398	  0.673	  0.095	 -0.021	 -9.791	 -0.003	  0.003	  0.000	 32.700	 99.081	 -99999.000
9111	  0.700	  0.404	  0.682	  0.095	 -0.012	 -9.764	 -0.004	  0.003	 -0.000	 32.700	 99.104	 -99999.000
9161	  0.700	  0.404	  0.681	  0.068	  0.025	 -9.776	 -0.003	  0.002	  0.000	 32.700	 99.093	 -99999.000
9211	  0.701	  0.397	  0.684	  0.089	  0.005	 -9.767	 -0.004	  0.003	  0.001	 32.700	 99.108	 -99999.000
9261	  0.700	  0.402	  0.681	  0.081	 -0.014	 -9.786	 -0.004	  0.003	 -0.000	 32.700	 99.119	 -99999.000
9311	  0.699	  0.398	  0.682	  0.082	 -0.008	 -9.802	 -0.003	  0.002	  0.000	 32.700	 99.104	 -99999.000
9361	  0.701	  0.398	  0.683	  0.068	 -0.016	 -9.761	 -0.004	  0.002	  0.001	 32.700	 99.104	 -99999.000
9411	  0.701	  0.396	  0.680	  0.080	 -0.007	 -9.773	 -0.003	  0.004	  0.001	 32.700	 99.115	 -99999.000
9461	  0.700	  0.394	  0.681	  0.093	 -0.030	 -9.749	 -0.004	  0.002	  0.001	 32.700	 99.104	 -99999.000
9511	  0.702	  0.399	  0.675	  0.076	 -0.005	 -9.772	 -0.003	  0.002	 -0.000	 32.700	 99.104	 -99999.000
9561	  0.698	  0.400	  0.684	  0.070	 -0.022	 -9.774	 -0.003	  0.002	 -0.000	 32.700	 99.093	 -99999.000
9611	  0.700	  0.399	  0.674	  0.085	 -0.014	 -9.789	 -0.004	  0.003	  0.001	 32.700	 99.108	 -99999.000
9661	  0.698	  0.398	  0.683	  0.093	 -0.003	 -9.758	 -0.004	  0.003	 -0.000	 32.700	 99.104	 -99999.000
9711	  0.701	  0.402	  0.680	  0.086	 -0.029	 -9.760	 -0.004	  0.002	 -0.001	 32.700	 99.104	 -99999.000
9761	  0.700	  0.398	  0.678	  0.108	 -0.006	 -9.774	 -0.003	  0.002	  0.001	 32.700	 99.104	 -99999.000
9811	  0.698	  0.398	  0.683	  0.101	 -0.007	 -9.758	 -0.004	  0.002	  0.001	 32.700	 99.093	 -99999.000
9861	  0.701	  0.400	  0.676	  0.077	  0.002	 -9.763	 -0.003	  0.003	 -0.000	 32.700	 99.104	 -99999.000
9911	  0.699	  0.398	  0.678	  0.096	  0.004	 -9.776	 -0.004	  0.002	  0.000	 32.700	 99.115	 -99999.000
9961	  0.702	  0.402	  0.680	  0.103	 -0.013	 -9.762	 -0.003	  0.003	 -0.001	 32.700	 99.115	 -99999.000
10011	  0.699	  0.398	  0.678	  0.052	 -0.015	 -9.762	 -0.005	  0.003	  0.001	 32.700	 99.104	 -99999.000
10061	  0.700	  0.402	  0.672	  0.081	 -0.021	 -9.794	 -0.003	  0.002	  0.001	 32.700	 99.104	 -99999.000
10111	  0.701	  0.398	  0.680	  0.081	 -0.015	 -9.756	 -0.003	  0.004	  0.000	 32.700	 99.104	 -99999.000
10161	  0.701	  0.399	  0.680	  0.107	 -0.014	 -9.761	 -0.003	  0.002	 -0.000	 32.700	 99.097	 -99999.000
10211	  0.700	  0.396	  0.684	  0.073	  0.010	 -9.793	 -0.004	  0.003	 -0.000	 32.700	 99.104	 -99999.000
10261	  0.700	  0.399	  0.682	  0.058	  0.009	 -9.783	 -0.004	  0.003	  0.000	 32.700	 99.104	 -99999.000
10311	  0.699	  0.401	  0.676	  0.094	  0.003	 -9.738	 -0.004	  0.002	  0.000	 32.700	 99.104	 -99999.000
10361	  0.700	  0.397	  0.683	  0.083	  0.006	 -9.772	 -0.004	  0.002	 -0.000	 32.700	 99.104	 -99999.000
10411	  0.701	  0.400	  0.680	  0.104	 -0.021	 -9.736	 -0.005	  0.002	  0.000	 32.700	 99.104	 -99999.000
10461	  0.701	  0.397	  0.683	  0.082	 -0.007	 -9.746	 -0.003	  0.002	 -0.000	 32.700	 99.104	 -99999.000
10511	  0.698	  0.400	  0.676	  0.068	 -0.011	 -9.761	 -0.002	  0.003	 -0.001	 32.700	 99.093	 -99999.000
10561	  0.700	  0.398	  0.681	  0.095	 -0.009	 -9.776	 -0.004	  0.002	 -0.001	 32.700	 99.108	 -99999.000
10611	  0.699	  0.402	  0.676	  0.048	  0.014	 -9.757	 -0.003	  0.002	 -0.001	 32.700	 99.093	 -99999.000
10661	  0.700	  0.401	  0.685	  0.072	 -0.031	 -9.840	 -0.004	  0.002	 -0.000	 32.700	 99.119	 -99999.000
10711	  0.701	  0.398	  0.681	  0.106	  0.010	 -9.767	 -0.004	  0.002	  0.001	 32.700	 99.085	 -99999.000
10761	  0.700	  0.395	  0.682	  0.072	 -0.028	 -9.762	 -0.004	  0.003	 -0.000	 32.700	 99.104	 -99999.000
10811	  0.700	  0.399	  0.680	  0.089	  0.009	 -9.762	 -0.004	  0.002	 -0.000	 32.700	 99.108	 -99999.000
10861	  0.700	  0.401	  0.681	  0.088	  0.012	 -9.748	 -0.003	  0.003	  0.001	 32.700	 99.104	 -99999.000
10911	  0.701	  0.399	  0.682	  0.080	 -0.021	 -9.745	 -0.004	  0.002	  0.001	 32.700	 99.104	 -99999.000
10961	  0.700	  0.398	  0.677	  0.120	  0.021	 -9.786	 -0.003	  0.002	  0.001	 32.700	 99.093	 -99999.000
11011	  0.699	  0.399	  0.681	  0.061	 -0.009	 -9.784	 -0.003	  0.002	 -0.001	 32.700	 99.104	 -99999.000
11061	  0.699	  0.397	  0.673	  0.086	 -0.014	 -9.777	 -0.003	  0.003	 -0.000	 32.700	 99.104	 -99999.000
11111	  0.700	  0.399	  0.683	  0.070	  0.001	 -9.751	 -0.003	  0.002	 -0.001	 32.700	 99.104	 -99999.000
11161	  0.700	  0.399	  0.677	  0.075	 -0.015	 -9.755	 -0.003	  0.002	  0.000	 32.700	 99.097	 -99999.000
11211	  0.698	  0.398	  0.683	  0.094	 -0.001	 -9.771	 -0.003	  0.003	  0.000	 32.700	 99.104	 -99999.000
14111	  0.700	  0.401	  0.683	  0.067	  0.001	 -9.748	 -0.003	  0.003	  0.002	 32.700	 99.097	  0.570
14161	  0.700	  0.404	  0.679	  0.082	 -0.016	 -9.757	 -0.005	  0.002	 -0.000	 32.700	 99.104	 -0.064
14211	  0.699	  0.400	  0.678	  0.103	 -0.019	 -9.766	 -0.003	  0.003	 -0.001	 32.700	 99.104	 -0.064
14261	  0.700	  0.400	  0.681	  0.074	 -0.017	 -9.774	 -0.004	  0.002	  0.001	 32.700	 99.108	 -0.427
14311	  0.699	  0.399	  0.682	  0.082	 -0.014	 -9.759	 -0.002	  0.002	  0.000	 32.700	 99.104	 -0.064
14361	  0.701	  0.405	  0.682	  0.060	  0.001	 -9.773	 -0.003	  0.002	  0.000	 32.700	 99.108	 -0.427
14411	  0.700	  0.400	  0.679	  0.094	  0.002	 -9.774	 -0.003	  0.003	 -0.000	 32.700	 99.108	 -0.427
14461	  0.699	  0.398	  0.681	  0.061	  0.002	 -9.802	 -0.003	  0.001	 -0.000	 32.700	 99.097	  0.570
14511	  0.701	  0.399	  0.681	  0.094	  0.010	 -9.774	 -0.004	  0.002	  0.001	 32.700	 99.108	 -0.427
14561	  0.700	  0.399	  0.683	  0.093	  0.014	 -9.757	 -0.003	  0.002	  0.001	 32.700	 99.104	 -0.064
14611	  0.699	  0.398	  0.677	  0.082	 -0.026	 -9.729	 -0.004	  0.003	  0.000	 32.700	 99.093	  0.933
14661	  0.701	  0.396	  0.676	  0.103	 -0.030	 -9.759	 -0.004	  0.002	 -0.000	 32.700	 99.093	  0.933
14711	  0.699	  0.397	  0.679	  0.090	 -0.012	 -9.758	 -0.004	  0.003	  0.001	 32.700	 99.108	 -0.427
14761	  0.702	  0.397	  0.676	  0.067	  0.010	 -9.746	 -0.004	  0.003	 -0.000	 32.700	 99.108	 -0.427
14811	  0.698	  0.395	  0.678	  0.078	  0.000	 -9.757	 -0.003	  0.002	  0.001	 32.700	 99.108	 -0.427
14861	  0.700	  0.399	  0.683	  0.080	  0.008	 -9.750	 -0.004	  0.002	  0.001	 32.700	 99.104	 -0.064
14911	  0.700	  0.399	  0.681	  0.090	 -0.008	 -9.807	 -0.004	  0.002	  0.001	 32.700	 99.097	  0.570
14961	  0.701	  0.396	  0.682	  0.085	 -0.013	 -9.734	 -0.004	  0.003	 -0.001	 32.700	 99.104	 -0.064
15011	  0.700	  0.398	  0.676	  0.072	 -0.006	 -9.753	 -0.004	  0.001	  0.001	 32.700	 99.108	 -0.427
15061	  0.702	  0.396	  0.684	  0.100	 -0.007	 -9.772	 -0.003	  0.003	 -0.001	 32.700	 99.093	  0.933
15111	  0.701	  0.400	  0.682	  0.080	 -0.002	 -9.782	 -0.003	  0.001	 -0.000	 32.700	 99.097	  0.570
15161	  0.701	  0.402	  0.682	  0.091	 -0.002	 -9.743	 -0.003	  0.004	  0.001	 32.700	 99.108	 -0.427
15211	  0.700	  0.402	  0.678	  0.096	 -0.030	 -9.779	 -0.003	  0.002	 -0.000	 32.700	 99.108	 -0.427
15261	  0.701	  0.397	  0.683	  0.071	 -0.021	 -9.732	 -0.002	  0.003	  0.001	 32.700	 99.108	 -0.427
15311	  0.701	  0.397	  0.680	  0.080	 -0.013	 -9.751	 -0.004	  0.001	  0.001	 32.700	 99.093	  0.933
15361	  0.701	  0.398	  0.682	  0.083	 -0.005	 -9.732	 -0.003	  0.003	  0.000	 32.700	 99.119	 -1.425
15411	  0.698	  0.401	  0.682	  0.095	 -0.011	 -9.787	 -0.003	  0.002	 -0.000	 32.700	 99.108	 -0.427
15461	  0.702	  0.396	  0.681	  0.091	 -0.022	 -9.824	 -0.003	  0.004	  0.001	 32.700	 99.108	 -0.427
15511	  0.701	  0.399	  0.680	  0.078	  0.038	 -9.608	 -0.004	  0.004	  0.001	 32.700	 99.108	 -0.427
15561	  0.702	  0.406	  0.678	  0.089	 -0.030	 -9.721	 -0.004	  0.003	  0.001	 32.700	 99.093	  0.933
15611	  0.700	  0.400	  0.683	  0.079	 -0.005	 -9.778	 -0.003	  0.002	  0.000	 32.700	 99.104	 -0.064
15661	  0.698	  0.399	  0.677	  0.080	 -0.004	 -9.775	 -0.005	  0.003	  0.001	 32.700	 99.108	 -0.427
15711	  0.698	  0.400	  0.682	  0.064	  0.018	 -9.728	 -0.002	  0.001	 -0.000	 32.700	 99.093	  0.933
15761	  0.700	  0.401	  0.682	  0.107	  0.018	 -9.741	 -0.004	  0.003	  0.000	 32.700	 99.108	 -0.427
15811	  0.701	  0.398	  0.675	  0.089	 -0.019	 -9.772	 -0.002	  0.001	  0.001	 32.700	 99.108	 -0.427
15861	  0.700	  0.399	  0.680	  0.096	 -0.006	 -9.804	 -0.004	  0.003	  0.000	 32.700	 99.093	  0.933
15911	  0.699	  0.399	  0.683	  0.062	 -0.017	 -9.769	 -0.004	  0.003	 -0.001	 32.700	 99.108	 -0.427
15961	  0.700	  0.398	  0.681	  0.074	 -0.027	 -9.763	 -0.004	  0.003	 -0.000	 32.700	 99.097	  0.570
16011	  0.698	  0.400	  0.679	  0.091	 -0.005	 -9.756	 -0.005	  0.003	 -0.000	 32.700	 99.097	  0.570
16061	  0.699	  0.396	  0.682	  0.077	 -0.017	 -9.760	 -0.004	  0.003	 -0.001	 32.700	 99.108	 -0.427
16111	  0.701	  0.399	  0.682	  0.074	 -0.013	 -9.760	 -0.002	  0.002	  0.000	 32.700	 99.097	  0.570
16161	  0.699	  0.400	  0.681	  0.058	  0.014	 -9.759	 -0.004	  0.002	 -0.000	 32.700	 99.108	 -0.427
16211	  0.700	  0.399	  0.675	  0.085	 -0.011	 -9.790	 -0.004	  0.003	  0.000	 32.700	 99.108	 -0.427
16261	  0.701	  0.396	  0.683	  0.088	 -0.006	 -9.780	 -0.004	  0.002	  0.000	 32.700	 99.104	 -0.064
16311	  0.699	  0.401	  0.674	  0.081	  0.006	 -9.743	 -0.003	  0.003	  0.001	 32.700	 99.101	  0.207
16361	  0.700	  0.402	  0.681	  0.087	 -0.017	 -9.775	 -0.004	  0.000	  0.001	 32.700	 99.108	 -0.427
16411	  0.702	  0.398	  0.678	  0.069	 -0.009	 -9.767	 -0.004	  0.002	 -0.001	 32.700	 99.104	 -0.064
16461	  0.698	  0.397	  0.677	  0.091	 -0.028	 -9.728	 -0.004	  0.002	 -0.000	 32.700	 99.097	  0.570
16511	  0.699	  0.397	  0.677	  0.118	 -0.024	 -9.770	 -0.003	  0.002	 -0.001	 32.700	 99.097	  0.570
16561	  0.699	  0.398	  0.679	  0.072	  0.004	 -9.790	 -0.003	  0.002	 -0.000	 32.700	 99.108	 -0.427
16611	  0.701	  0.400	  0.681	  0.107	 -0.017	 -9.758	 -0.003	  0.002	 -0.000	 32.700	 99.104	 -0.064
16661	  0.700	  0.399	  0.676	  0.075	  0.010	 -9.767	 -0.005	  0.001	  0.001	 32.700	 99.097	  0.570
16711	  0.700	  0.397	  0.681	  0.086	 -0.006	 -9.749	 -0.004	  0.002	  0.000	 32.700	 99.108	 -0.427
16761	  0.702	  0.401	  0.676	  0.078	 -0.008	 -9.765	 -0.005	  0.003	 -0.001	 32.700	 99.108	 -0.427
16811	  0.698	  0.402	  0.684	  0.088	 -0.015	 -9.779	 -0.003	  0.002	  0.001	 32.700	 99.108	 -0.427
16861	  0.699	  0.397	  0.681	  0.073	 -0.020	 -9.736	 -0.003	  0.002	  0.001	 32.700	 99.119	 -1.425
16911	  0.698	  0.395	  0.682	  0.100	 -0.022	 -9.763	 -0.003	  0.003	  0.000	 32.700	 99.108	 -0.427
16960	  0.699	  0.410	  0.682	  0.078	 -0.006	 -9.756	 -0.003	  0.002	 -0.000	 32.700	 99.108	 -0.427
17010	  0.701	  0.404	  0.682	  0.067	 -0.030	 -9.753	 -0.004	  0.002	  0.000	 32.700	 99.108	 -0.427
17060	  0.699	  0.396	  0.679	  0.073	 -0.009	 -9.734	 -0.003	  0.003	 -0.000	 32.700	 99.097	  0.570
17110	  0.700	  0.399	  0.683	  0.083	 -0.001	 -9.769	 -0.004	  0.003	  0.001	 32.700	 99.097	  0.570
17160	  0.697	  0.395	  0.674	  0.080	 -0.023	 -9.792	 -0.003	  0.002	  0.000	 32.700	 99.108	 -0.427
17210	  0.698	  0.399	  0.682	  0.069	  0.014	 -9.749	 -0.004	  0.003	  0.000	 32.700	 99.108	 -0.427
17260	  0.699	  0.397	  0.685	  0.074	 -0.032	 -9.786	 -0.003	  0.002	  0.001	 32.700	 99.108	 -0.427
17310	  0.700	  0.398	  0.681	  0.084	 -0.001	 -9.774	 -0.004	  0.002	 -0.000	 32.700	 99.097	  0.570
17360	  0.699	  0.397	  0.682	  0.090	 -0.007	 -9.757	 -0.004	  0.001	  0.001	 32.700	 99.108	 -0.427
17410	  0.698	  0.399	  0.684	  0.092	 -0.021	 -9.752	 -0.002	  0.002	  0.000	 32.700	 99.108	 -0.427
17460	  0.699	  0.399	  0.679	  0.098	 -0.019	 -9.768	 -0.004	  0.003	  0.001	 32.700	 99.108	 -0.427
17510	  0.700	  0.400	  0.683	  0.065	 -0.006	 -9.765	 -0.004	  0.003	  0.000	 32.700	 99.097	  0.570
17560	  0.700	  0.398	  0.685	  0.097	 -0.014	 -9.742	 -0.003	  0.003	  0.001	 32.700	 99.108	 -0.427
17610	  0.701	  0.396	  0.677	  0.098	  0.002	 -9.748	 -0.003	  0.003	  0.002	 32.700	 99.108	 -0.427
17660	  0.698	  0.396	  0.682	  0.062	 -0.021	 -9.606	 -0.003	  0.001	  0.001	 32.700	 99.108	 -0.427
17710	  0.700	  0.398	  0.678	  0.064	  0.024	 -9.821	 -0.004	  0.002	  0.000	 32.700	 99.108	 -0.427
17760	  0.700	  0.398	  0.680	  0.100	 -0.011	 -9.698	 -0.004	  0.003	  0.001	 32.700	 99.108	 -0.427
17810	  0.701	  0.396	  0.681	  0.070	 -0.019	 -9.776	 -0.003	  0.002	 -0.001	 32.700	 99.097	  0.570
17860	  0.699	  0.395	  0.681	  0.079	  0.012	 -9.755	 -0.002	  0.002	 -0.001	 32.700	 99.097	  0.570
17910	  0.697	  0.398	  0.675	  0.102	 -0.005	 -9.746	 -0.004	  0.002	  0.001	 32.700	 99.108	 -0.427
17960	  0.700	  0.398	  0.683	  0.089	 -0.017	 -9.768	 -0.003	  0.002	  0.001	 32.700	 99.104	 -0.064
18010	  0.701	  0.401	  0.684	  0.083	 -0.016	 -9.770	 -0.004	  0.002	  0.000	 32.700	 99.108	 -0.427
18060	  0.702	  0.401	  0.680	  0.107	 -0.012	 -9.757	 -0.004	  0.001	 -0.000	 32.700	 99.097	  0.570
18110	  0.702	  0.396	  0.683	  0.083	 -0.014	 -9.768	 -0.003	  0.003	 -0.000	 32.700	 99.108	 -0.427
18160	  0.702	  0.398	  0.680	  0.092	  0.005	 -9.783	 -0.004	  0.002	  0.000	 32.700	 99.108	 -0.427
18210	  0.700	  0.398	  0.678	  0.092	 -0.024	 -9.757	 -0.004	  0.002	  0.001	 32.700	 99.097	  0.570
18260	  0.700	  0.403	  0.681	  0.086	 -0.007	 -9.733	 -0.003	  0.003	  0.001	 32.700	 99.097	  0.570
18310	  0.699	  0.399	  0.679	  0.079	  0.009	 -9.753	 -0.003	  0.002	  0.001	 32.700	 99.108	 -0.427
18360	  0.700	  0.396	  0.682	  0.078	  0.004	 -9.779	 -0.003	  0.004	  0.001	 32.700	 99.108	 -0.427
18410	  0.701	  0.401	  0.677	  0.082	 -0.010	 -9.750	 -0.004	  0.002	 -0.001	 32.700	 99.097	  0.570
18460	  0.700	  0.397	  0.678	  0.080	 -0.016	 -9.762	 -0.004	  0.004	  0.001	 32.700	 99.108	 -0.427
18510	  0.702	  0.398	  0.678	  0.071	  0.000	 -9.772	 -0.002	  0.002	 -0.000	 32.700	 99.097	  0.570
18560	  0.701	  0.397	  0.681	  0.111	  0.001	 -9.729	 -0.004	  0.002	 -0.000	 32.700	 99.104	 -0.064
18610	  0.699	  0.406	  0.682	  0.093	 -0.022	 -9.741	 -0.003	  0.002	  0.000	 32.700	 99.108	 -0.427
18660	  0.700	  0.398	  0.684	  0.085	 -0.016	 -9.763	 -0.003	  0.002	 -0.001	 32.700	 99.108	 -0.427
18710	  0.701	  0.399	  0.676	  0.097	  0.002	 -9.756	 -0.004	  0.002	  0.000	 32.700	 99.097	  0.570
18760	  0.700	  0.398	  0.685	  0.064	 -0.015	 -9.761	 -0.004	  0.001	  0.001	 32.700	 99.093	  0.933
18810	  0.701	  0.397	  0.682	  0.074	 -0.024	 -9.786	 -0.004	  0.002	  0.001	 32.700	 99.097	  0.570
18860	  0.702	  0.402	  0.683	  0.078	 -0.012	 -9.768	 -0.002	  0.003	  0.000	 32.700	 99.097	  0.570
18910	  0.698	  0.396	  0.677	  0.067	 -0.004	 -9.765	 -0.004	  0.002	  0.001	 32.700	 99.108	 -0.427
18960	  0.700	  0.397	  0.676	  0.083	 -0.008	 -9.752	 -0.004	  0.002	  0.001	 32.700	 99.108	 -0.427
19010	  0.699	  0.399	  0.681	  0.071	  0.003	 -9.744	 -0.003	  0.002	  0.000	 32.700	 99.097	  0.570
19061	  0.701	  0.397	  0.677	  0.060	 -0.023	 -9.785	 -0.002	  0.003	 -0.001	 32.700	 99.108	 -0.427
19110	  0.700	  0.399	  0.684	  0.083	 -0.002	 -9.739	 -0.003	  0.003	  0.000	 32.700	 99.097	  0.570
19161	  0.701	  0.398	  0.682	  0.086	  0.008	 -9.771	 -0.004	  0.001	  0.000	 32.700	 99.097	  0.570
19210	  0.701	  0.399	  0.682	  0.076	 -0.007	 -9.761	 -0.003	  0.002	 -0.000	 32.700	 99.093	  0.933
19260	  0.701	  0.401	  0.680	  0.067	 -0.006	 -9.769	 -0.003	  0.002	  0.000	 32.700	 99.112	 -0.790
19310	  0.700	  0.395	  0.681	  0.094	 -0.002	 -9.781	 -0.004	  0.002	 -0.000	 32.700	 99.097	  0.570
19360	  0.700	  0.397	  0.683	  0.065	 -0.015	 -9.776	 -0.004	  0.003	 -0.000	 32.700	 99.097	  0.570
19410	  0.700	  0.393	  0.682	  0.087	 -0.004	 -9.724	 -0.004	  0.002	  0.000	 32.700	 99.108	 -0.427
19460	  0.699	  0.397	  0.681	  0.083	 -0.006	 -9.769	 -0.004	  0.003	  0.001	 32.700	 99.108	 -0.427
19511	  0.699	  0.403	  0.683	  0.071	 -0.012	 -9.759	 -0.003	  0.003	  0.000	 32.700	 99.108	 -0.427
19561	  0.700	  0.394	  0.682	  0.103	 -0.025	 -9.774	 -0.004	  0.002	 -0.000	 32.700	 99.097	  0.570
19611	  0.699	  0.402	  0.681	  0.083	 -0.006	 -9.799	 -0.003	  0.002	  0.001	 32.700	 99.119	 -1.425
19661	  0.700	  0.400	  0.685	  0.091	 -0.007	 -9.797	 -0.003	  0.003	 -0.001	 32.700	 99.108	 -0.427
19711	  0.702	  0.399	  0.681	  0.072	 -0.007	 -9.756	 -0.003	  0.003	  0.001	 32.700	 99.108	 -0.427
19761	  0.699	  0.409	  0.683	  0.097	 -0.006	 -9.747	 -0.004	  0.002	 -0.000	 32.700	 99.097	  0.570
19811	  0.701	  0.405	  0.678	  0.093	  0.019	 -9.771	 -0.004	  0.003	  0.000	 32.700	 99.097	  0.570
19861	  0.700	  0.396	  0.674	  0.070	 -0.016	 -9.717	 -0.004	  0.001	 -0.000	 32.700	 99.097	  0.570
19911	  0.698	  0.394	  0.678	  0.109	  0.014	 -9.673	 -0.005	  0.003	  0.001	 32.700	 99.097	  0.570
19961	  0.700	  0.396	  0.683	  0.039	 -0.063	 -9.874	 -0.003	  0.002	 -0.000	 32.700	 99.119	 -1.425
20011	  0.699	  0.400	  0.679	  0.065	  0.028	 -9.542	 -0.005	  0.001	  0.001	 32.700	 99.097	  0.570
20061	  0.700	  0.404	  0.681	  0.080	  0.027	 -9.772	 -0.003	  0.004	 -0.001	 32.700	 99.097	  0.570
20111	  0.700	  0.398	  0.681	  0.082	 -0.006	 -9.720	 -0.003	  0.001	  0.000	 32.700	 99.097	  0.570
20161	  0.701	  0.399	  0.678	  0.065	 -0.011	 -9.852	 -0.004	  0.003	 -0.000	 32.700	 99.104	 -0.064
20211	  0.701	  0.399	  0.684	  0.091	  0.001	 -9.730	 -0.003	  0.002	  0.000	 32.700	 99.097	  0.570
20261	  0.701	  0.396	  0.682	  0.150	 -0.118	 -9.844	  0.003	  0.003	 -0.018	 32.700	 99.108	 -0.427
20311	  0.699	  0.406	  0.685	 -0.874	  0.469	 -9.840	 -0.004	  0.001	 -0.273	 32.700	 99.108	 -0.427
20361	  0.700	  0.410	  0.681	 -0.004	 -0.977	 -9.794	  0.001	  0.010	 -0.029	 32.700	 99.097	  0.570
20411	  0.701	  0.389	  0.675	  1.006	 -0.100	 -9.646	  0.035	  0.045	  0.322	 32.700	 99.097	  0.570
20461	  0.709	  0.382	  0.668	 -0.004	  0.035	 -9.649	  0.022	  0.018	  0.070	 32.700	 99.108	 -0.427
20511	  0.706	  0.378	  0.670	  0.148	 -0.585	 -9.552	 -0.006	  0.032	  0.042	 32.700	 99.112	 -0.790
20561	  0.707	  0.384	  0.670	 -0.200	 -0.322	 -9.764	  0.007	  0.005	 -0.143	 32.700	 99.108	 -0.427
20611	  0.708	  0.401	  0.658	  2.360	 -0.534	 -14.014	  0.508	 -0.877	 -0.488	 32.700	 99.097	  0.570
20661	  0.711	  0.410	  0.629	 -3.728	  2.735	 -10.080	  1.230	 -1.198	  0.774	 32.700	 99.097	  0.570
20711	  0.717	  0.358	  0.571	 -3.463	 -5.323	 -0.409	 -1.569	  0.956	  1.185	 32.700	 99.108	 -0.427
20761	  0.710	  0.250	  0.618	 11.753	  3.231	 -17.037	  0.184	  0.342	 -1.528	 32.700	 99.112	 -0.790
20811	  0.746	  0.349	  0.570	 -6.622	  5.071	 -9.772	  2.126	 -1.023	 -0.496	 32.700	 99.108	 -0.427
20861	  0.685	  0.352	  0.626	  1.236	 -4.887	 -4.020	 -3.571	  1.858	 -0.815	 32.700	 99.108	 -0.427
20911	  0.704	  0.306	  0.640	 -1.134	  3.555	 -16.971	  2.200	 -1.413	  0.682	 32.700	 99.108	 -0.427
20961	  0.696	  0.353	  0.625	 -2.040	 -1.196	 -4.628	 -0.539	  1.155	 -0.083	 32.700	 99.097	  0.570
21011	  0.711	  0.305	  0.649	  3.647	 -3.810	 -20.784	  1.332	 -1.915	 -0.516	 32.700	 99.101	  0.207
21061	  0.723	  0.391	  0.617	 -9.836	  6.532	 -12.467	  1.649	 -0.612	 -0.646	 32.700	 99.119	 -1.425
21111	  0.653	  0.364	  0.639	  5.211	 -2.679	 -0.076	 -3.892	  2.327	  0.667	 32.700	 99.097	  0.570
21161	  0.707	  0.323	  0.652	 -9.761	  2.631	 -10.847	  0.708	 -1.264	 -0.716	 32.700	 99.097	  0.570
21211	  0.673	  0.412	  0.589	  3.090	 -0.758	 -3.849	  3.681	  1.600	 -0.693	 32.700	 99.108	 -0.427
21261	  0.665	  0.415	  0.631	  2.789	  0.884	 -7.870	 -4.457	 -1.344	  0.550	 32.700	 99.108	 -0.427
21311	  0.669	  0.381	  0.662	 -3.198	  2.850	 -8.289	  0.114	 -0.499	 -0.350	 32.700	 99.097	  0.570
21361	  0.638	  0.388	  0.627	 -3.441	  0.573	  0.548	  1.203	  0.788	  0.182	 32.700	 99.097	  0.570
21411	  0.645	  0.354	  0.660	  8.841	 -2.091	 -6.426	 -3.147	 -0.604	  0.606	 32.700	 99.097	  0.570
21461	  0.713	  0.428	  0.618	 -9.752	  1.482	 -12.863	  2.304	 -1.013	 -0.757	 32.700	 99.108	 -0.427
21511	  0.694	  0.436	  0.606	  3.746	 -2.809	 -2.302	 -1.368	  0.910	  0.162	 32.700	 99.108	 -0.427
21561	  0.672	  0.398	  0.669	  6.554	 -3.773	 -6.402	  0.519	  0.411	  0.071	 32.700	 99.097	  0.570
21611	  0.716	  0.447	  0.601	 -2.320	 -1.602	 -14.436	  1.600	 -1.288	 -0.225	 32.700	 99.097	  0.570
21661	  0.670	  0.443	  0.591	  2.317	  0.201	 -1.456	 -2.175	  1.109	  0.382	 32.700	 99.097	  0.570
21711	  0.671	  0.390	  0.662	 12.203	 -8.447	 -12.404	  1.315	  0.622	  0.620	 32.700	 99.101	  0.207
21761	  0.720	  0.509	  0.575	 -8.136	  1.183	 -15.042	  2.267	 -2.033	 -0.331	 32.700	 99.085	  1.659
21811	  0.681	  0.463	  0.581	  4.951	 -0.714	 -4.426	 -3.456	  1.685	  1.076	 32.700	 99.101	  0.207
21861	  0.659	  0.347	  0.681	 17.994	 -3.213	 -18.436	 -0.533	  0.824	  0.722	 32.700	 99.108	 -0.427
21911	  0.686	  0.466	  0.580	 -3.566	 -2.379	 -14.700	  3.530	 -1.502	 -1.235	 32.700	 99.097	  0.570
21961	  0.603	  0.516	  0.567	  2.515	  1.048	  1.161	 -1.919	  1.738	 -0.046	 32.700	 99.097	  0.570
22011	  0.651	  0.382	  0.667	  5.072	  5.940	 -6.371	 -2.308	 -1.021	  0.715	 32.700	 99.112	 -0.790
22061	  0.686	  0.485	  0.623	 -4.472	  1.409	 -17.190	  2.916	 -2.688	 -0.913	 32.700	 99.108	 -0.427
22111	  0.675	  0.513	  0.566	 -2.013	 -0.120	 -7.195	 -1.101	  0.865	  0.207	 32.700	 99.097	  0.570
22161	  0.639	  0.383	  0.656	  6.649	  0.636	 -0.869	 -3.663	  0.870	  0.827	 32.700	 99.108	 -0.427
22211	  0.664	  0.426	  0.642	 -0.497	  2.047	 -9.487	  0.750	 -0.001	 -0.517	 32.700	 99.097	  0.570
22261	  0.663	  0.450	  0.625	 -0.080	 -0.462	 -10.599	  0.244	  0.038	 -0.281	 32.700	 99.112	 -0.790
22311	  0.653	  0.429	  0.639	  0.758	  1.708	 -6.972	 -0.675	 -0.904	  0.032	 32.700	 99.097	  0.570
22361	  0.659	  0.424	  0.634	 -0.157	  0.172	 -9.751	 -0.022	 -0.016	  0.062	 32.700	 99.097	  0.570
22411	  0.656	  0.413	  0.642	  1.683	 -0.792	 -13.272	 -0.817	 -0.031	 -0.027	 32.700	 99.108	 -0.427
22461	  0.636	  0.363	  0.654	 -4.469	  5.095	 -14.171	 -0.522	 -1.333	 -0.003	 32.700	 99.097	  0.570
22511	  0.611	  0.379	  0.582	 -2.889	 -0.692	  3.927	  3.191	  1.179	  0.870	 32.700	 99.097	  0.570
22561	  0.612	  0.414	  0.614	  7.405	 -4.934	  1.654	 -1.558	 -0.712	 -0.635	 32.700	 99.097	  0.570
22611	  0.656	  0.424	  0.645	 -0.366	  3.784	 -20.077	  0.537	 -0.852	 -1.429	 32.700	 99.097	  0.570
22661	  0.660	  0.423	  0.572	 -3.243	 -0.728	 -6.163	  2.022	  0.568	  0.734	 32.700	 99.097	  0.570
22711	  0.608	  0.373	  0.625	  9.836	 -5.401	  1.698	 -3.652	  0.681	 -0.083	 32.700	 99.112	 -0.790
22761	  0.655	  0.390	  0.666	 -0.815	  0.297	 -5.491	  0.391	 -0.693	 -0.690	 32.700	 99.097	  0.570
22811	  0.693	  0.478	  0.583	 -0.811	 -1.925	 -9.401	  2.778	  0.896	  0.531	 32.700	 99.085	  1.659
22861	  0.653	  0.475	  0.626	  4.415	 -4.058	 -8.651	 -4.440	 -0.320	 -0.547	 32.700	 99.108	 -0.427
22911	  0.613	  0.397	  0.680	 -5.573	  6.096	 -4.081	 -0.317	 -1.256	  0.321	 32.700	 99.119	 -1.425
22961	  0.639	  0.451	  0.583	  4.942	 -4.676	 -6.244	  2.949	  0.703	  0.087	 32.700	 99.108	 -0.427
23011	  0.641	  0.439	  0.623	  2.477	 -1.249	 -10.808	 -4.531	 -0.905	 -0.055	 32.700	 99.097	  0.570
23061	  0.621	  0.410	  0.663	 -3.200	  5.176	 -9.280	  1.787	 -0.755	 -0.347	 32.700	 99.097	  0.570
23111	  0.601	  0.481	  0.565	  0.125	 -1.598	 -5.819	  1.103	  0.664	  0.202	 32.700	 99.112	 -0.790
23161	  0.586	  0.381	  0.619	  7.636	 -3.124	 -0.347	 -4.509	  0.342	  1.119	 32.700	 99.108	 -0.427
23211	  0.660	  0.362	  0.664	  0.578	 -3.923	 -24.728	  2.175	 -1.658	 -1.026	 32.700	 99.119	 -1.425
23261	  0.631	  0.534	  0.528	 -4.347	  3.801	 -14.866	  4.173	  2.040	 -0.553	 32.700	 99.108	 -0.427
23311	  0.587	  0.484	  0.567	  6.601	 -5.707	 -4.901	 -4.720	 -1.088	  0.381	 32.700	 99.108	 -0.427
23361	  0.621	  0.319	  0.650	 -4.413	  5.607	 -12.335	 -1.403	  0.060	  0.581	 32.700	 99.097	  0.570
23411	  0.622	  0.386	  0.605	  0.580	 -3.368	 -10.206	  3.621	 -0.615	 -0.530	 32.700	 99.101	  0.207
23461	  0.596	  0.400	  0.603	  0.344	 -0.519	 -4.068	 -3.476	  0.514	  0.594	 32.700	 99.097	  0.570
23511	  0.653	  0.295	  0.651	 -7.420	 -0.069	 -31.007	  2.240	  0.331	 -0.732	 32.700	 99.108	 -0.427
23561	  0.624	  0.441	  0.575	 -3.763	  0.585	 -14.693	  4.247	 -0.263	 -1.315	 32.700	 99.108	 -0.427
23611	  0.546	  0.470	  0.555	  3.222	  2.810	  3.489	 -2.397	  0.879	  1.053	 32.700	 99.108	 -0.427
23661	  0.612	  0.293	  0.647	 -3.326	  3.523	 -17.616	 -4.491	 -0.747	  0.579	 32.700	 99.097	  0.570
23711	  0.668	  0.317	  0.595	 -6.198	 -0.999	 -11.054	  5.547	 -1.093	  0.313	 32.700	 99.108	 -0.427
23761	  0.635	  0.358	  0.584	  5.066	 -3.144	 -2.120	 -3.744	  0.015	  0.020	 32.700	 99.108	 -0.427
23811	  0.712	  0.248	  0.615	 -19.548	 -2.241	 -28.201	  0.744	  2.409	  0.741	 32.700	 99.112	 -0.790
23861	  0.692	  0.366	  0.559	  2.679	 -3.629	 -15.444	  3.209	  0.200	 -0.523	 32.700	 99.097	  0.570
23911	  0.656	  0.318	  0.599	 -2.961	  0.835	 -3.485	 -3.901	 -0.403	  0.432	 32.700	 99.097	  0.570
23961	  0.674	  0.263	  0.624	 -1.341	 -0.643	 -18.514	  1.464	 -0.154	 -0.635	 32.700	 99.108	 -0.427
24011	  0.602	  0.329	  0.618	 -10.855	  5.402	 -5.481	 -0.816	  1.178	 -0.683	 32.700	 99.108	 -0.427
24061	  0.566	  0.250	  0.646	 10.814	 -1.809	 -7.937	 -1.526	 -0.293	  0.864	 32.700	 99.097	  0.570
24111	  0.611	  0.250	  0.657	 -13.567	  8.053	 -11.448	  1.295	  0.105	 -0.574	 32.700	 99.097	  0.570
24161	  0.583	  0.337	  0.632	  7.527	 -4.860	 -5.353	  1.846	  1.215	  0.655	 32.700	 99.097	  0.570
24211	  0.626	  0.338	  0.630	 -3.529	  1.399	 -13.976	 -1.761	 -0.754	 -0.862	 32.700	 99.101	  0.207
24261	  0.589	  0.321	  0.661	 -0.391	  2.795	 -6.745	  0.302	  0.247	  0.071	 32.700	 99.097	  0.570
24311	  0.598	  0.344	  0.647	 -1.384	  0.164	 -11.048	  0.881	  0.297	  0.106	 32.700	 99.097	  0.570
24362	  0.588	  0.362	  0.633	 -1.370	  0.497	 -8.259	  0.466	  0.167	  0.300	 32.700	 99.108	 -0.427
24411	  0.584	  0.371	  0.618	 -0.201	  0.237	 -9.906	  0.584	  0.178	 -0.134	 32.700	 99.108	 -0.427
24461	  0.584	  0.395	  0.593	 -0.370	  0.396	 -9.228	  0.894	 -0.185	 -0.200	 32.700	 99.112	 -0.790
24511	  0.577	  0.426	  0.579	  0.244	 -0.214	 -9.564	  0.447	  0.379	 -0.090	 32.700	 99.124	 -1.878
24560	  0.581	  0.434	  0.574	 -1.271	 -0.502	 -8.884	  0.128	 -0.160	  0.031	 32.700	 99.097	  0.570
24610	  0.592	  0.436	  0.567	  0.482	 -0.579	 -10.458	 -0.077	  0.091	 -0.209	 32.700	 99.119	 -1.425
24660	  0.591	  0.444	  0.567	 -0.968	 -0.270	 -9.485	 -0.064	 -0.005	 -0.065	 32.700	 99.108	 -0.427
24710	  0.601	  0.440	  0.571	  0.485	 -1.021	 -9.979	 -0.223	  0.121	 -0.134	 32.700	 99.101	  0.207
24760	  0.593	  0.444	  0.577	 -0.459	 -0.370	 -9.502	 -0.410	  0.137	 -0.298	 32.700	 99.108	 -0.427
24811	  0.599	  0.443	  0.577	  1.043	 -0.093	 -9.953	 -0.224	 -0.067	 -0.071	 32.700	 99.108	 -0.427
24860	  0.616	  0.448	  0.574	 -1.506	  3.012	 -37.097	 -0.447	  0.930	  0.002	 32.700	 99.119	 -1.425
24911	  0.601	  0.460	  0.582	  0.121	 -0.861	 -11.017	  0.380	  0.400	  0.011	 32.700	 99.108	 -0.427
24961	  0.600	  0.462	  0.586	  0.228	 -0.010	 -9.642	 -0.099	  0.090	 -0.025	 32.700	 99.112	 -0.790
25011	  0.595	  0.456	  0.590	 -0.051	 -0.185	 -9.671	 -0.074	  0.081	  0.045	 32.700	 99.108	 -0.427
25061	  0.592	  0.449	  0.594	  0.120	  0.125	 -9.633	  0.162	  0.100	  0.096	 32.700	 99.112	 -0.790
25111	  0.595	  0.457	  0.591	 -0.008	 -1.104	 -9.253	 -0.034	  0.073	 -0.014	 32.700	 99.108	 -0.427
25161	  0.593	  0.441	  0.599	  0.433	 -0.623	 -8.278	 -0.367	 -0.139	  0.117	 32.700	 99.108	 -0.427
25211	  0.596	  0.447	  0.598	  0.171	 -0.138	 -9.744	 -0.024	 -0.018	  0.015	 32.700	 99.112	 -0.790
25261	  0.597	  0.443	  0.592	  0.070	  0.063	 -9.777	  0.020	  0.025	  0.008	 32.700	 99.108	 -0.427
25311	  0.596	  0.442	  0.595	  0.064	  0.012	 -9.734	 -0.021	 -0.016	  0.000	 32.700	 99.101	  0.207
25361	  0.597	  0.443	  0.599	  0.055	 -0.028	 -9.731	 -0.004	  0.002	 -0.001	 32.700	 99.097	  0.570
25411	  0.598	  0.440	  0.598	  0.145	  0.646	 -9.771	  0.061	 -0.014	  0.009	 32.700	 99.108	 -0.427
25461	  0.597	  0.450	  0.591	  0.103	 -0.362	 -9.890	 -0.155	 -0.084	 -0.012	 32.700	 99.097	  0.570
25512	  0.598	  0.445	  0.600	 -0.142	  0.058	 -9.739	 -0.005	  0.022	  0.006	 32.700	 99.112	 -0.790
25561	  0.599	  0.444	  0.593	  0.312	  0.032	 -9.753	 -0.004	 -0.012	  0.020	 32.700	 99.108	 -0.427
25611	  0.599	  0.447	  0.600	  0.364	  0.275	 -9.402	  0.142	 -0.216	 -0.150	 32.700	 99.097	  0.570
25661	  0.616	  0.462	  0.581	 -1.076	 -0.037	 -10.265	  0.292	 -0.276	  0.119	 32.700	 99.097	  0.570
25711	  0.619	  0.457	  0.579	 -0.390	 -0.630	 -9.950	 -0.006	  0.077	  0.074	 32.700	 99.097	  0.570
25761	  0.611	  0.450	  0.598	  0.037	  0.096	 -9.698	 -0.291	  0.299	 -0.088	 32.700	 99.097	  0.570
25811	  0.605	  0.453	  0.606	  0.179	 -0.034	 -9.727	 -0.003	  0.010	  0.007	 32.700	 99.108	 -0.427
25861	  0.602	  0.444	  0.605	  0.066	 -0.025	 -9.724	 -0.004	 -0.009	 -0.002	 32.700	 99.097	  0.570
25911	  0.605	  0.443	  0.600	  0.186	  0.093	 -9.593	  0.043	 -0.048	  0.051	 32.700	 99.119	 -1.425
25961	  0.610	  0.449	  0.604	  0.068	 -0.045	 -9.737	  0.070	 -0.115	 -0.038	 32.700	 99.097	  0.570
26011	  0.610	  0.451	  0.597	 -0.121	 -0.162	 -9.841	 -0.079	  0.076	 -0.010	 32.700	 99.108	 -0.427
26061	  0.607	  0.446	  0.606	  0.009	 -0.029	 -9.768	 -0.022	  0.028	  0.028	 32.700	 99.108	 -0.427
26111	  0.606	  0.445	  0.598	  0.084	 -0.068	 -9.739	 -0.021	  0.022	  0.031	 32.700	 99.097	  0.570
26161	  0.609	  0.448	  0.604	  0.243	 -0.138	 -9.720	  0.011	 -0.034	 -0.074	 32.700	 99.108	 -0.427
26211	  0.607	  0.447	  0.600	 -0.002	 -0.063	 -9.779	 -0.036	  0.013	 -0.086	 32.700	 99.097	  0.570
26261	  0.609	  0.449	  0.602	  0.349	 -0.017	 -9.785	  0.069	 -0.074	  0.142	 32.700	 99.112	 -0.790
26311	  0.615	  0.442	  0.601	 -0.229	 -0.054	 -9.816	 -0.149	  0.149	  0.211	 32.700	 99.097	  0.570
26361	  0.619	  0.432	  0.612	  0.141	  0.060	 -9.456	 -0.042	  0.065	  0.361	 32.700	 99.112	 -0.790
26411	  0.637	  0.421	  0.608	  3.744	  2.101	 -8.714	  0.140	 -0.860	  1.356	 32.700	 99.108	 -0.427
26461	  0.654	  0.399	  0.628	  1.041	 -1.709	 -3.366	  0.169	  0.293	  0.042	 32.700	 99.112	 -0.790
26511	  0.654	  0.408	  0.631	  0.092	 -0.162	 -9.817	  0.316	 -0.089	 -0.057	 32.700	 99.101	  0.207
26561	  0.655	  0.409	  0.625	  0.010	 -1.129	 -10.415	 -0.553	  0.307	  0.070	 32.700	 99.108	 -0.427
26611	  0.651	  0.396	  0.623	  0.505	 -0.212	 -9.828	  0.000	  0.016	 -0.009	 32.700	 99.112	 -0.790
26661	  0.654	  0.397	  0.623	  0.080	  0.020	 -9.799	 -0.005	  0.001	 -0.017	 32.700	 99.112	 -0.790
26711	  0.655	  0.399	  0.627	  0.091	 -0.067	 -9.761	 -0.003	  0.010	 -0.010	 32.700	 99.101	  0.207
26761	  0.653	  0.398	  0.624	  0.146	 -0.001	 -9.702	  0.001	  0.037	 -0.000	 32.700	 99.112	 -0.790
26811	  0.650	  0.396	  0.623	  0.008	  0.138	 -9.791	 -0.005	  0.006	 -0.042	 32.700	 99.101	  0.207
26861	  0.649	  0.401	  0.619	  0.116	 -0.127	 -9.745	 -0.008	 -0.007	 -0.014	 32.700	 99.108	 -0.427
26911	  0.642	  0.413	  0.615	  0.076	 -0.043	 -9.758	 -0.002	  0.004	 -0.011	 32.700	 99.108	 -0.427
26961	  0.599	  0.449	  0.608	 -0.016	  0.057	 -9.719	  0.005	  0.029	 -0.001	 32.700	 99.108	 -0.427
27011	  0.598	  0.457	  0.602	  0.112	 -0.022	 -9.759	 -0.007	 -0.006	 -0.000	 32.700	 99.093	  0.933
27061	  0.595	  0.459	  0.609	  0.087	 -0.038	 -9.847	 -0.001	  0.064	 -0.024	 32.700	 99.097	  0.570
27111	  0.596	  0.461	  0.601	  0.227	  0.074	 -9.595	 -0.014	 -0.078	 -0.074	 32.700	 99.112	 -0.790
27161	  0.594	  0.461	  0.608	 -0.275	 -0.138	 -9.790	 -0.003	 -0.004	 -0.094	 32.700	 99.097	  0.570
27211	  0.594	  0.464	  0.596	  0.001	  0.010	 -9.760	 -0.001	  0.019	  0.114	 32.700	 99.108	 -0.427
27261	  0.597	  0.458	  0.604	 -0.597	 -0.011	 -9.921	 -0.054	 -0.070	  0.426	 32.700	 99.101	  0.207
27311	  0.605	  0.440	  0.597	  0.840	 -0.348	 -9.661	 -0.011	 -0.003	  0.172	 32.700	 99.097	  0.570
27361	  0.603	  0.445	  0.599	 -0.551	  0.131	 -11.049	  0.077	  0.136	 -0.276	 32.700	 99.097	  0.570
27411	  0.600	  0.452	  0.606	  0.135	  0.106	 -9.726	 -0.002	 -0.001	 -0.137	 32.700	 99.108	 -0.427
27461	  0.596	  0.456	  0.603	  0.188	  0.178	 -9.695	  0.002	  0.003	 -0.183	 32.700	 99.108	 -0.427
27511	  0.597	  0.457	  0.602	  0.007	 -0.131	 -9.766	 -0.003	  0.006	 -0.005	 32.700	 99.097	  0.570
27561	  0.594	  0.464	  0.596	 -0.413	  0.464	 -9.791	  0.005	  0.015	 -0.160	 32.700	 99.112	 -0.790
27611	  0.593	  0.461	  0.603	  0.030	 -0.073	 -9.760	  0.004	  0.008	 -0.122	 32.700	 99.108	 -0.427
27661	  0.587	  0.477	  0.599	  0.094	 -0.180	 -9.796	 -0.001	  0.003	 -0.554	 32.700	 99.108	 -0.427
27711	  0.580	  0.490	  0.607	 -0.007	  0.033	 -9.753	 -0.000	  0.003	 -0.294	 32.700	 99.108	 -0.427
27761	  0.575	  0.491	  0.604	 -0.028	  0.121	 -9.719	  0.005	  0.008	  0.006	 32.700	 99.112	 -0.790
27811	  0.578	  0.492	  0.609	  0.050	 -0.060	 -9.763	 -0.013	 -0.011	  0.073	 32.700	 99.108	 -0.427
27861	  0.578	  0.489	  0.604	  0.039	  0.014	 -9.759	 -0.004	  0.001	 -0.000	 32.700	 99.108	 -0.427
27911	  0.580	  0.490	  0.604	  0.317	 -0.080	 -9.753	 -0.001	  0.010	 -0.071	 32.700	 99.097	  0.570
27961	  0.575	  0.499	  0.608	 -0.159	 -0.061	 -9.772	  0.003	  0.005	 -0.361	 32.700	 99.097	  0.570
28011	  0.566	  0.511	  0.609	  0.163	 -0.011	 -9.777	 -0.005	  0.003	 -0.281	 32.700	 99.101	  0.207
28061	  0.561	  0.517	  0.608	 -3.040	  3.824	 -9.782	  0.014	  0.002	  0.051	 32.700	 99.097	  0.570
28111	  0.627	  0.418	  0.595	  0.255	  2.034	 -9.665	 -0.071	 -0.047	  4.514	 32.700	 99.101	  0.207
28161	  0.679	  0.309	  0.583	  1.680	 -5.494	 -9.580	  1.183	 -0.034	  1.313	 32.700	 99.108	 -0.427
28211	  0.690	  0.311	  0.580	 -0.860	 -2.411	 -10.131	 -0.965	 -0.083	 -0.189	 32.700	 99.108	 -0.427
28261	  0.686	  0.289	  0.596	 -2.481	  2.854	 -13.979	  0.187	  0.018	 -0.512	 32.700	 99.112	 -0.790
28311	  0.682	  0.294	  0.594	  0.233	 -0.049	 -9.786	 -0.005	  0.007	  0.204	 32.700	 99.108	 -0.427
28361	  0.680	  0.285	  0.598	  0.055	 -0.012	 -9.768	 -0.005	  0.004	 -0.007	 32.700	 99.101	  0.207
28411	  0.680	  0.294	  0.594	  0.067	  0.008	 -9.774	  0.004	  0.016	 -0.107	 32.700	 99.101	  0.207
28461	  0.678	  0.296	  0.598	  0.087	  0.110	 -9.719	  0.001	  0.010	 -0.173	 32.700	 99.101	  0.207
28511	  0.679	  0.300	  0.601	  0.078	 -0.000	 -9.770	 -0.003	  0.003	 -0.000	 32.700	 99.101	  0.207
28561	  0.678	  0.296	  0.598	  0.065	  0.002	 -9.766	 -0.002	  0.003	  0.000	 32.700	 99.097	  0.570
28611	  0.679	  0.296	  0.599	  0.098	  0.010	 -9.741	 -0.003	  0.003	 -0.000	 32.700	 99.097	  0.570
28661	  0.678	  0.295	  0.598	  0.054	 -0.001	 -9.775	 -0.005	  0.001	  0.001	 32.700	 99.108	 -0.427
28711	  0.678	  0.295	  0.600	  0.075	  0.015	 -9.748	 -0.003	  0.001	  0.001	 32.700	 99.097	  0.570
28761	  0.680	  0.302	  0.596	  0.067	  0.007	 -9.766	 -0.003	  0.004	 -0.000	 32.700	 99.101	  0.207
28811	  0.679	  0.300	  0.600	  0.088	  0.011	 -9.792	 -0.003	  0.002	  0.001	 32.700	 99.097	  0.570
28861	  0.680	  0.299	  0.595	  0.068	 -0.019	 -9.764	 -0.004	  0.003	  0.001	 32.700	 99.097	  0.570
28911	  0.678	  0.296	  0.599	  0.007	  0.173	 -9.712	  0.013	  0.009	  0.015	 32.700	 99.112	 -0.790
28961	  0.682	  0.282	  0.597	  0.154	 -0.045	 -9.727	  0.073	  0.039	  0.792	 32.700	 99.101	  0.207
29011	  0.688	  0.261	  0.593	  0.199	 -0.352	 -9.668	  0.228	  0.025	  0.405	 32.700	 99.108	 -0.427
29061	  0.693	  0.257	  0.589	  0.000	  0.342	 -9.746	  0.234	  0.055	  0.456	 32.700	 99.101	  0.207
29111	  0.699	  0.236	  0.588	  0.283	 -0.640	 -10.260	  0.320	  0.055	  0.605	 32.700	 99.097	  0.570
29161	  0.713	  0.226	  0.577	 -0.367	 -1.017	 -9.908	  0.604	 -0.156	  0.822	 32.700	 99.097	  0.570
29211	  0.731	  0.210	  0.564	  0.594	 -2.700	 -9.264	  0.691	 -0.551	  0.661	 32.700	 99.112	 -0.790
29261	  0.760	  0.207	  0.540	 -0.655	 -0.433	 -10.086	  0.117	 -0.554	  0.702	 32.700	 99.101	  0.207
29311	  0.767	  0.193	  0.526	 -1.251	 -2.120	 -9.773	 -0.461	 -0.139	 -0.046	 32.700	 99.097	  0.570
29361	  0.763	  0.164	  0.534	 -0.130	 -1.028	 -9.207	 -0.125	  0.372	  1.154	 32.700	 99.097	  0.570
29411	  0.778	  0.127	  0.527	 -0.226	 -0.156	 -9.722	  0.006	 -0.625	  0.157	 32.700	 99.112	 -0.790
29461	  0.796	  0.137	  0.530	 -1.067	 -1.373	 -9.411	  0.195	 -0.127	  0.267	 32.700	 99.108	 -0.427
29511	  0.818	  0.155	  0.522	 -0.574	 -0.845	 -9.221	  1.595	 -0.207	  0.849	 32.700	 99.097	  0.570
29561	  0.836	  0.205	  0.522	 -0.970	 -4.474	 -9.112	  2.303	  0.223	 -0.041	 32.700	 99.101	  0.207
29611	  0.831	  0.269	  0.557	 -1.004	 -1.746	 -9.174	  0.728	  0.535	 -0.173	 32.700	 99.101	  0.207
29660	  0.837	  0.286	  0.574	 -0.925	 -2.864	 -9.210	  0.086	 -0.393	  0.303	 32.700	 99.108	 -0.427
29719	  0.869	  0.276	  0.552	 -0.755	 -2.098	 -9.572	 -0.525	 -0.798	  0.513	 32.700	 99.097	  0.570
29761	  0.885	  0.241	  0.556	 -1.480	 -2.688	 -9.934	 -0.064	  0.737	  0.499	 32.700	 99.097	  0.570
29810	  0.864	  0.238	  0.592	 -0.477	 -3.260	 -9.220	  0.708	  0.685	  0.825	 32.700	 99.108	 -0.427
29861	  0.869	  0.252	  0.596	 -0.630	 -3.320	 -9.274	  0.900	 -0.100	  0.618	 32.700	 99.108	 -0.427
29910	  0.896	  0.279	  0.599	 -0.539	 -4.230	 -10.299	  0.547	 -0.327	  0.291	 32.700	 99.108	 -0.427
29960	  0.892	  0.320	  0.618	 -1.052	 -4.211	 -9.924	 -0.224	  0.420	  0.069	 32.700	 99.101	  0.207
30010	  0.841	  0.364	  0.671	 -1.227	 -3.093	 -8.772	 -0.701	  0.520	  0.087	 32.700	 99.101	  0.207
30060	  0.792	  0.382	  0.696	 -1.993	 -2.161	 -9.470	 -0.593	  0.410	  0.215	 32.700	 99.097	  0.570
30110	  0.749	  0.371	  0.732	  0.260	 -3.181	 -8.732	 -0.875	  0.903	  0.384	 32.700	 99.085	  1.659
30160	  0.689	  0.372	  0.778	 -0.545	 -1.829	 -7.847	 -0.930	  0.784	  0.208	 32.700	 99.097	  0.570
30210	  0.669	  0.385	  0.810	 -0.457	 -0.693	 -8.911	 -0.219	  0.081	  0.203	 32.700	 99.097	  0.570
30260	  0.694	  0.411	  0.825	 -0.450	 -1.181	 -10.780	 -0.061	 -0.067	  0.445	 32.700	 99.101	  0.207
30310	  0.693	  0.399	  0.839	 -0.033	 -1.824	 -11.108	 -0.503	  0.238	  0.556	 32.700	 99.112	 -0.790
30360	  0.677	  0.365	  0.848	  0.684	 -1.478	 -11.769	 -0.871	  0.136	  0.236	 32.700	 99.101	  0.207
30411	  0.648	  0.303	  0.834	  0.786	 -1.943	 -10.653	 -1.220	 -0.188	  0.250	 32.700	 99.097	  0.570
30461	  0.617	  0.225	  0.817	 -0.305	 -0.393	 -9.906	 -1.157	 -0.139	  0.271	 32.700	 99.101	  0.207
30511	  0.576	  0.182	  0.795	 -0.456	 -0.036	 -8.418	 -0.679	  0.086	  0.124	 32.700	 99.090	  1.205
30561	  0.553	  0.158	  0.772	 -0.286	  0.161	 -9.386	 -0.414	 -0.158	  0.290	 32.700	 99.101	  0.207
30611	  0.539	  0.134	  0.754	 -0.433	  0.763	 -9.668	 -0.557	 -0.369	  0.044	 32.700	 99.093	  0.933
30661	  0.526	  0.112	  0.733	 -1.061	  1.159	 -10.247	 -0.807	 -0.292	  0.006	 32.700	 99.097	  0.570
30711	  0.511	  0.073	  0.704	 -1.087	  1.640	 -9.848	 -0.819	 -0.262	  0.029	 32.700	 99.097	  0.570
30761	  0.503	  0.040	  0.678	 -0.467	  1.990	 -9.416	 -0.606	 -0.374	  0.049	 32.700	 99.112	 -0.790
30811	  0.497	  0.015	  0.647	 -0.611	  2.281	 -9.299	 -0.619	 -0.312	 -0.143	 32.700	 99.112	 -0.790
30861	  0.491	 -0.000	  0.622	 -1.645	  2.775	 -8.110	 -0.207	 -0.203	 -0.170	 32.700	 99.101	  0.207
30911	  0.487	  0.002	  0.618	 -0.965	  2.829	 -9.141	  0.246	 -0.036	 -0.245	 32.700	 99.108	 -0.427
30961	  0.486	  0.011	  0.604	 -1.643	  2.794	 -9.209	  0.391	 -0.138	 -0.090	 32.700	 99.101	  0.207
31011	  0.486	  0.016	  0.599	 -1.035	  2.399	 -9.585	  0.313	  0.046	 -0.222	 32.700	 99.112	 -0.790
31061	  0.482	  0.016	  0.596	 -1.155	  2.276	 -9.610	  0.089	 -0.092	 -0.308	 32.700	 99.112	 -0.790
31111	  0.485	  0.012	  0.589	 -1.535	  2.212	 -9.843	 -0.041	 -0.121	 -0.496	 32.700	 99.101	  0.207
31161	  0.488	  0.003	  0.577	 -2.025	  2.079	 -10.184	  0.027	 -0.210	 -0.534	 32.700	 99.097	  0.570
31211	  0.489	 -0.005	  0.561	 -2.009	  1.997	 -10.105	 -0.174	 -0.212	 -0.444	 32.700	 99.112	 -0.790
31261	  0.486	 -0.020	  0.535	 -1.959	  1.986	 -10.120	 -0.283	 -0.100	 -0.355	 32.700	 99.101	  0.207
31311	  0.479	 -0.033	  0.513	 -2.170	  2.521	 -10.503	 -0.196	 -0.019	 -0.428	 32.700	 99.097	  0.570
31361	  0.465	 -0.045	  0.487	 -1.729	  2.610	 -10.301	 -0.178	 -0.020	 -0.462	 32.700	 99.108	 -0.427
31411	  0.454	 -0.051	  0.457	 -1.298	  2.123	 -10.093	 -0.077	 -0.102	 -0.583	 32.700	 99.101	  0.207
31461	  0.441	 -0.048	  0.436	 -1.594	  1.009	 -10.171	 -0.284	  0.124	 -0.810	 32.700	 99.097	  0.570
31511	  0.418	 -0.043	  0.416	 -1.956	  1.635	 -9.331	 -0.551	  0.694	 -0.727	 32.700	 99.101	  0.207
31561	  0.393	 -0.037	  0.410	 -1.781	  1.164	 -8.029	 -0.369	  0.459	 -0.660	 32.700	 99.112	 -0.790
31611	  0.380	 -0.026	  0.402	 -1.385	  1.308	 -8.181	  0.088	  0.282	 -0.415	 32.700	 99.112	 -0.790
31661	  0.371	 -0.008	  0.401	 -1.550	  1.220	 -8.584	  0.194	  0.236	 -0.205	 32.700	 99.097	  0.570
31711	  0.360	  0.009	  0.397	 -1.544	  1.179	 -9.718	  0.417	  0.510	 -0.012	 32.700	 99.097	  0.570
31761	  0.349	  0.037	  0.402	 -1.330	  1.422	 -9.632	  0.324	  0.560	  0.276	 32.700	 99.101	  0.207
31811	  0.341	  0.057	  0.399	 -0.940	  1.406	 -9.241	  0.180	  0.292	  0.065	 32.700	 99.097	  0.570
31861	  0.331	  0.052	  0.398	 -0.809	  1.598	 -9.357	  0.229	  0.125	 -0.032	 32.700	 99.101	  0.207
31911	  0.324	  0.054	  0.387	 -0.706	  1.719	 -9.582	  0.294	 -0.057	 -0.029	 32.700	 99.097	  0.570
31961	  0.322	  0.041	  0.383	 -0.747	  0.966	 -8.895	  0.295	 -0.179	 -0.075	 32.700	 99.112	 -0.790
32011	  0.320	  0.032	  0.374	 -1.133	  0.991	 -7.274	 -0.022	 -0.433	 -0.058	 32.700	 99.097	  0.570
32061	  0.334	  0.033	  0.374	 -1.298	  0.666	 -6.993	  0.243	 -0.385	 -0.091	 32.700	 99.097	  0.570
32111	  0.340	  0.033	  0.371	 -1.558	  0.658	 -8.818	  0.351	 -0.283	  0.245	 32.700	 99.101	  0.207
32161	  0.340	  0.028	  0.368	 -1.573	  0.354	 -9.890	 -0.144	  0.340	  0.377	 32.700	 99.090	  1.205
32211	  0.337	  0.015	  0.382	 -0.554	  0.353	 -7.192	 -0.268	  0.089	  0.301	 32.700	 99.101	  0.207
32261	  0.351	  0.020	  0.385	 -0.670	  1.196	 -7.846	  0.282	 -0.429	  0.116	 32.700	 99.112	 -0.790
32311	  0.365	  0.024	  0.394	 -1.433	  1.836	 -7.767	  0.724	 -0.537	  0.300	 32.700	 99.097	  0.570
32361	  0.387	  0.044	  0.405	 -1.695	  1.568	 -10.522	  0.796	 -0.028	  0.483	 32.700	 99.112	 -0.790
32411	  0.394	  0.049	  0.419	 -1.918	  1.172	 -10.917	  0.207	  0.427	  0.582	 32.700	 99.097	  0.570
32461	  0.394	  0.042	  0.448	 -0.919	  0.724	 -10.299	 -0.098	  0.487	  0.425	 32.700	 99.097	  0.570
32511	  0.394	  0.033	  0.479	 -0.844	  0.822	 -10.565	  0.100	  0.524	  0.149	 32.700	 99.101	  0.207
32561	  0.390	  0.026	  0.505	 -0.645	  1.006	 -10.365	 -0.246	  0.235	  0.227	 32.700	 99.112	 -0.790
32611	  0.401	  0.016	  0.522	 -0.272	  1.511	 -9.488	 -0.181	 -0.078	  0.145	 32.700	 99.097	  0.570
32661	  0.413	 -0.013	  0.543	  0.232	  1.498	 -10.241	 -0.160	  0.121	  0.130	 32.700	 99.101	  0.207
32711	  0.411	 -0.032	  0.568	  0.671	  1.497	 -10.895	 -0.823	  0.695	 -0.002	 32.700	 99.101	  0.207
32761	  0.384	 -0.078	  0.603	  1.504	  0.899	 -9.845	 -0.841	  1.239	 -0.438	 32.700	 99.097	  0.570
32811	  0.332	 -0.127	  0.630	  0.049	  1.390	 -9.580	 -0.913	  1.784	 -1.016	 32.700	 99.085	  1.659
32861	  0.277	 -0.166	  0.666	  0.754	  1.923	 -8.174	 -0.110	  1.374	 -0.851	 32.700	 99.101	  0.207
32911	  0.249	 -0.182	  0.697	  1.662	  2.083	 -8.547	  0.804	  0.506	 -0.846	 32.700	 99.097	  0.570
32961	  0.247	 -0.174	  0.729	  2.373	  1.280	 -11.165	  0.961	  0.157	 -0.930	 32.700	 99.108	 -0.427
33011	  0.245	 -0.172	  0.747	  2.284	  1.673	 -10.270	  0.339	  0.007	 -0.638	 32.700	 99.101	  0.207
33061	  0.245	 -0.186	  0.749	  2.767	  0.665	 -10.658	  0.468	 -0.066	 -0.848	 32.700	 99.112	 -0.790
33111	  0.242	 -0.177	  0.748	  0.952	  1.920	 -13.406	  0.286	 -0.349	 -0.991	 32.700	 99.101	  0.207
33161	  0.233	 -0.156	  0.730	  1.549	  0.816	 -10.470	  0.076	 -0.011	 -1.034	 32.700	 99.101	  0.207
33211	  0.217	 -0.144	  0.709	  1.508	  1.341	 -10.365	 -0.196	  0.304	 -1.008	 32.700	 99.108	 -0.427
33261	  0.192	 -0.133	  0.688	  1.859	  1.108	 -9.137	 -0.022	  0.213	 -1.041	 32.700	 99.097	  0.570
33311	  0.178	 -0.112	  0.676	  1.809	  0.984	 -9.061	  0.227	 -0.316	 -1.015	 32.700	 99.112	 -0.790
33361	  0.176	 -0.091	  0.658	  1.210	  0.814	 -10.319	  0.146	 -0.322	 -0.977	 32.700	 99.112	 -0.790
33411	  0.164	 -0.084	  0.638	  0.728	  1.233	 -10.382	  0.028	 -0.217	 -0.877	 32.700	 99.097	  0.570
33461	  0.157	 -0.082	  0.619	  1.281	  0.324	 -10.453	 -0.083	 -0.163	 -0.886	 32.700	 99.112	 -0.790
33511	  0.153	 -0.074	  0.583	  0.583	 -0.502	 -10.121	 -0.041	 -0.350	 -0.820	 32.700	 99.112	 -0.790
33561	  0.162	 -0.060	  0.563	 -0.110	 -0.918	 -10.209	 -0.247	 -0.365	 -0.687	 32.700	 99.112	 -0.790
33611	  0.162	 -0.056	  0.536	 -0.725	 -0.552	 -9.709	 -0.481	 -0.196	 -0.626	 32.700	 99.112	 -0.790
33661	  0.156	 -0.050	  0.525	 -0.764	 -0.161	 -9.920	 -0.306	 -0.136	 -0.213	 32.700	 99.097	  0.570
33711	  0.156	 -0.044	  0.509	 -0.984	 -0.064	 -9.738	 -0.272	 -0.255	 -0.090	 32.700	 99.108	 -0.427
33761	  0.162	 -0.037	  0.503	 -0.821	  0.200	 -9.177	 -0.095	 -0.346	  0.261	 32.700	 99.112	 -0.790
33811	  0.172	 -0.028	  0.497	 -1.049	  0.454	 -9.662	  0.224	 -0.616	  0.544	 32.700	 99.101	  0.207
33861	  0.191	 -0.014	  0.493	 -1.325	 -0.047	 -9.661	  0.159	 -0.645	  0.750	 32.700	 99.101	  0.207
33911	  0.212	 -0.003	  0.495	 -1.396	  0.194	 -9.678	  0.168	 -0.670	  0.973	 32.700	 99.097	  0.570
33961	  0.232	 -0.002	  0.487	 -1.316	  0.247	 -9.151	  0.128	 -0.479	  1.243	 32.700	 99.097	  0.570
34011	  0.252	 -0.002	  0.489	 -1.069	  0.447	 -9.130	  0.354	 -0.552	  1.451	 32.700	 99.108	 -0.427
34061	  0.277	  0.009	  0.481	 -1.097	  0.590	 -9.108	  0.466	 -0.769	  1.648	 32.700	 99.108	 -0.427
34111	  0.301	  0.016	  0.480	 -0.684	  0.671	 -9.310	  0.266	 -0.480	  1.745	 32.700	 99.112	 -0.790
34161	  0.323	  0.014	  0.475	 -1.240	  0.639	 -9.465	  0.348	 -0.554	  1.855	 32.700	 99.101	  0.207
34211	  0.340	  0.006	  0.464	 -1.026	  0.575	 -10.052	  0.041	 -0.294	  2.014	 32.700	 99.101	  0.207
34261	  0.353	 -0.006	  0.443	 -0.815	  0.659	 -9.045	 -0.277	 -0.317	  1.928	 32.700	 99.101	  0.207
34311	  0.364	 -0.021	  0.424	 -1.199	  0.928	 -8.816	 -0.198	 -0.326	  1.885	 32.700	 99.101	  0.207
34361	  0.369	 -0.043	  0.393	 -0.982	  1.464	 -8.412	 -0.165	 -0.408	  1.871	 32.700	 99.101	  0.207
34411	  0.374	 -0.061	  0.365	 -1.110	  1.610	 -8.337	  0.298	 -0.535	  1.816	 32.700	 99.097	  0.570
34461	  0.377	 -0.074	  0.342	 -1.322	  2.053	 -8.958	  0.390	 -0.369	  1.778	 32.700	 99.101	  0.207
34511	  0.375	 -0.086	  0.309	 -1.130	  2.270	 -8.520	  0.357	 -0.585	  1.785	 32.700	 99.101	  0.207
34561	  0.372	 -0.109	  0.282	 -0.570	  2.391	 -8.186	  0.345	 -0.690	  1.797	 32.700	 99.112	 -0.790
34611	  0.372	 -0.122	  0.251	 -0.481	  2.570	 -8.962	  0.429	 -0.773	  1.438	 32.700	 99.101	  0.207
34661	  0.366	 -0.143	  0.229	 -1.456	  2.752	 -9.534	  0.467	 -0.602	  1.179	 32.700	 99.101	  0.207
34711	  0.354	 -0.158	  0.211	 -1.332	  2.588	 -10.518	  0.238	 -0.090	  1.106	 32.700	 99.101	  0.207
34761	  0.336	 -0.178	  0.202	 -1.508	  2.094	 -11.167	  0.054	  0.182	  0.942	 32.700	 99.112	 -0.790
34811	  0.312	 -0.200	  0.194	 -0.627	  2.537	 -11.017	 -0.038	  0.331	  0.970	 32.700	 99.101	  0.207
34861	  0.289	 -0.215	  0.193	 -0.487	  1.951	 -11.897	  0.146	  0.294	  0.874	 32.700	 99.108	 -0.427
34911	  0.268	 -0.221	  0.203	 -0.036	  1.404	 -11.721	  0.506	 -0.052	  0.966	 32.700	 99.097	  0.570
34961	  0.248	 -0.226	  0.200	 -0.491	  1.550	 -12.613	  0.358	 -0.186	  0.963	 32.700	 99.112	 -0.790
35011	  0.233	 -0.227	  0.210	 -0.998	  0.857	 -12.797	  0.217	  0.279	  0.799	 32.700	 99.112	 -0.790
35061	  0.207	 -0.227	  0.215	 -0.988	  1.901	 -12.124	  0.282	  0.761	  0.863	 32.700	 99.101	  0.207
35111	  0.182	 -0.231	  0.229	  0.581	  1.575	 -10.654	  0.409	  0.649	  1.063	 32.700	 99.101	  0.207
35161	  0.160	 -0.221	  0.238	  0.738	  1.252	 -10.032	  0.555	  0.318	  0.585	 32.700	 99.101	  0.207
35211	  0.145	 -0.211	  0.253	  0.065	  1.444	 -10.080	  0.577	  0.492	  0.428	 32.700	 99.101	  0.207
35261	  0.130	 -0.208	  0.261	 -0.263	  1.668	 -9.022	  0.463	  0.405	  0.474	 32.700	 99.112	 -0.790
35311	  0.114	 -0.203	  0.269	  0.316	  1.572	 -8.925	  0.354	  0.639	  0.388	 32.700	 99.101	  0.207
35361	  0.092	 -0.187	  0.275	  0.801	  1.351	 -7.727	  0.485	  0.471	  0.256	 32.700	 99.090	  1.205
35411	  0.077	 -0.181	  0.281	  0.637	  1.123	 -8.417	  0.448	  0.580	  0.147	 32.700	 99.112	 -0.790
35461	  0.061	 -0.181	  0.288	  0.552	  1.636	 -8.568	  0.382	  0.358	  0.293	 32.700	 99.097	  0.570
35512	  0.058	 -0.164	  0.293	  0.622	  1.896	 -8.691	  0.294	  0.301	  0.354	 32.700	 99.090	  1.205
35561	  0.050	 -0.165	  0.298	  2.156	  1.701	 -7.936	  0.169	  0.374	  0.607	 32.700	 99.112	 -0.790
35611	  0.046	 -0.155	  0.300	  1.251	  0.899	 -8.076	  0.499	 -0.223	  0.092	 32.700	 99.101	  0.207
35661	  0.052	 -0.150	  0.308	  1.567	  1.749	 -9.391	  0.188	 -0.232	  0.418	 32.700	 99.090	  1.205
35711	  0.049	 -0.147	  0.306	  1.126	  0.415	 -9.097	  0.082	  0.044	 -0.138	 32.700	 99.097	  0.570
35761	  0.051	 -0.141	  0.309	  0.774	  1.143	 -9.689	 -0.144	 -0.100	 -0.018	 32.700	 99.090	  1.205
35811	  0.053	 -0.146	  0.305	  0.718	  1.257	 -8.701	 -0.468	 -0.229	  0.082	 32.700	 99.101	  0.207
35861	  0.058	 -0.157	  0.301	  0.905	  1.467	 -8.431	 -0.196	 -0.604	 -0.015	 32.700	 99.097	  0.570
35911	  0.075	 -0.158	  0.300	  0.433	  1.055	 -9.460	  0.159	 -0.868	 -0.164	 32.700	 99.101	  0.207
35962	  0.089	 -0.144	  0.299	  0.247	  0.719	 -10.726	  0.294	 -0.462	 -0.143	 32.700	 99.101	  0.207
36011	  0.098	 -0.144	  0.298	  0.804	 -0.485	 -9.588	  0.118	 -0.399	 -0.449	 32.700	 99.101	  0.207
36062	  0.106	 -0.134	  0.298	  0.903	  0.018	 -10.820	  0.352	 -0.304	 -0.576	 32.700	 99.097	  0.570
36112	  0.108	 -0.123	  0.301	  1.076	 -0.206	 -11.392	 -0.003	  0.055	 -0.520	 32.700	 99.101	  0.207
36162	  0.103	 -0.126	  0.297	  2.767	 -0.767	 -11.137	 -0.152	  0.336	 -0.450	 32.700	 99.097	  0.570
36212	  0.103	 -0.124	  0.302	  2.870	 -0.609	 -9.159	 -0.079	  0.077	 -0.816	 32.700	 99.090	  1.205
36262	  0.110	 -0.115	  0.299	  2.103	 -0.363	 -8.981	  0.271	 -0.271	 -1.255	 32.700	 99.101	  0.207
36312	  0.121	 -0.105	  0.304	  1.103	  0.085	 -9.311	  0.033	 -0.457	 -1.306	 32.700	 99.101	  0.207
36362	  0.133	 -0.102	  0.295	  1.285	 -0.113	 -8.487	 -0.432	 -0.305	 -1.476	 32.700	 99.101	  0.207
36412	  0.143	 -0.105	  0.286	  0.842	  0.451	 -7.647	 -0.779	 -0.098	 -1.630	 32.700	 99.101	  0.207
36462	  0.150	 -0.102	  0.291	  1.036	  0.672	 -8.585	  0.077	 -0.075	 -1.607	 32.700	 99.101	  0.207
36512	  0.157	 -0.081	  0.292	  1.277	  0.327	 -10.232	  0.289	 -0.047	 -1.603	 32.700	 99.101	  0.207
36562	  0.160	 -0.067	  0.291	  0.814	 -0.020	 -9.837	  0.068	  0.025	 -1.777	 32.700	 99.101	  0.207
36612	  0.162	 -0.061	  0.283	  1.055	  0.490	 -10.432	 -0.342	  0.312	 -1.815	 32.700	 99.090	  1.205
36662	  0.160	 -0.054	  0.291	  2.153	  0.135	 -10.080	 -0.186	  0.087	 -1.700	 32.700	 99.097	  0.570
36712	  0.167	 -0.040	  0.288	  2.518	 -0.012	 -10.312	  0.025	 -0.430	 -1.772	 32.700	 99.101	  0.207
36762	  0.179	 -0.022	  0.287	  2.047	  0.038	 -10.739	  0.085	 -0.533	 -2.139	 32.700	 99.090	  1.205
36812	  0.184	 -0.005	  0.279	  1.229	  0.753	 -10.910	  0.001	 -0.115	 -2.200	 32.700	 99.112	 -0.790
36862	  0.178	  0.017	  0.282	  1.569	  0.217	 -10.570	  0.205	  0.216	 -1.877	 32.700	 99.097	  0.570
36912	  0.172	  0.031	  0.285	  1.431	  0.247	 -9.768	 -0.013	  0.303	 -1.833	 32.700	 99.108	 -0.427
36961	  0.159	  0.043	  0.290	  0.965	  0.252	 -8.728	 -0.133	  0.431	 -1.856	 32.700	 99.112	 -0.790
37011	  0.149	  0.054	  0.287	  0.204	  0.641	 -8.568	  0.023	  0.366	 -1.624	 32.700	 99.097	  0.570
37061	  0.133	  0.063	  0.289	  0.216	  0.639	 -9.394	  0.095	  0.335	 -1.435	 32.700	 99.097	  0.570
37111	  0.123	  0.072	  0.293	 -0.002	  0.968	 -9.197	  0.249	  0.354	 -1.042	 32.700	 99.101	  0.207
37161	  0.111	  0.083	  0.292	  0.366	  0.749	 -9.680	  0.121	  0.041	 -0.831	 32.700	 99.101	  0.207
