Time	 MagX	 MagY	 MagZ	 AccelX	 AccelY	 AccelZ	 Yaw	 Pitch	 Roll	 Temperature	 Pressure	 Altitude
16320	 -0.040	  0.002	  0.364	  0.036	 -0.085	 -9.810	 -0.001	 -0.001	  0.003	 31.300	 99.452	 -99999.000
16369	 -0.040	  0.005	  0.364	  0.057	 -0.116	 -9.828	 -0.003	  0.001	  0.003	 31.200	 99.448	 -99999.000
16419	 -0.039	  0.013	  0.359	  0.043	 -0.096	 -9.844	 -0.003	  0.001	  0.000	 31.300	 99.452	 -99999.000
16469	 -0.041	  0.001	  0.359	  0.072	 -0.077	 -9.820	 -0.003	  0.001	  0.001	 31.300	 99.452	 -99999.000
16520	 -0.040	  0.005	  0.358	  0.031	 -0.091	 -9.817	 -0.002	  0.002	  0.001	 31.200	 99.448	 -99999.000
16570	 -0.040	  0.009	  0.359	 -0.026	 -0.161	 -9.833	 -0.001	  0.002	  0.001	 31.200	 99.448	 -99999.000
16620	 -0.041	  0.012	  0.364	  0.040	 -0.091	 -9.790	 -0.005	  0.003	  0.001	 31.300	 99.463	 -99999.000
16670	 -0.042	  0.015	  0.363	  0.079	 -0.082	 -9.832	 -0.003	  0.001	  0.001	 31.300	 99.452	 -99999.000
16720	 -0.040	  0.002	  0.360	  0.024	 -0.110	 -9.817	 -0.004	  0.002	  0.001	 31.300	 99.463	 -99999.000
16770	 -0.042	  0.007	  0.363	  0.050	 -0.115	 -9.877	 -0.003	  0.002	  0.001	 31.300	 99.448	 -99999.000
16820	 -0.042	  0.009	  0.366	  0.064	 -0.058	 -9.840	 -0.002	  0.001	  0.001	 31.300	 99.452	 -99999.000
16870	 -0.042	  0.004	  0.365	  0.044	 -0.123	 -9.827	 -0.003	  0.002	  0.001	 31.300	 99.463	 -99999.000
16920	 -0.040	  0.005	  0.366	 -0.009	 -0.132	 -9.838	 -0.003	  0.002	  0.001	 31.300	 99.452	 -99999.000
16970	 -0.041	  0.001	  0.365	  0.057	 -0.103	 -9.831	 -0.002	  0.002	 -0.000	 31.300	 99.452	 -99999.000
17020	 -0.040	  0.005	  0.361	  0.054	 -0.087	 -9.847	 -0.003	  0.001	  0.001	 31.300	 99.452	 -99999.000
17070	 -0.041	  0.003	  0.365	 -0.009	 -0.129	 -9.851	 -0.003	  0.002	  0.002	 31.300	 99.452	 -99999.000
17120	 -0.041	  0.003	  0.356	  0.046	 -0.109	 -9.819	 -0.004	  0.002	  0.001	 31.200	 99.448	 -99999.000
17170	 -0.041	 -0.000	  0.363	  0.054	 -0.084	 -9.833	 -0.003	  0.002	  0.002	 31.300	 99.441	 -99999.000
17220	 -0.039	  0.005	  0.365	  0.030	 -0.115	 -9.801	 -0.003	  0.002	  0.002	 31.200	 99.448	 -99999.000
17270	 -0.040	 -0.000	  0.363	  0.042	 -0.079	 -9.821	 -0.003	  0.002	  0.001	 31.300	 99.452	 -99999.000
17320	 -0.040	  0.010	  0.365	  0.048	 -0.090	 -9.808	 -0.003	  0.001	  0.001	 31.300	 99.452	 -99999.000
17370	 -0.038	  0.003	  0.364	  0.053	 -0.102	 -9.834	 -0.002	  0.002	  0.002	 31.300	 99.441	 -99999.000
17420	 -0.041	  0.003	  0.363	  0.022	 -0.103	 -9.836	 -0.002	  0.002	 -0.000	 31.200	 99.448	 -99999.000
17470	 -0.041	  0.007	  0.359	  0.037	 -0.080	 -9.783	 -0.003	  0.002	  0.000	 31.200	 99.452	 -99999.000
17520	 -0.041	  0.002	  0.367	  0.022	 -0.097	 -9.846	 -0.002	  0.002	  0.002	 31.200	 99.448	 -99999.000
17570	 -0.043	  0.011	  0.357	  0.040	 -0.096	 -9.800	 -0.003	  0.002	 -0.000	 31.300	 99.463	 -99999.000
17620	 -0.041	  0.006	  0.361	  0.048	 -0.072	 -9.816	 -0.003	  0.001	  0.003	 31.300	 99.452	 -99999.000
17670	 -0.043	  0.004	  0.363	  0.029	 -0.089	 -9.847	 -0.002	  0.002	  0.002	 31.300	 99.463	 -99999.000
17721	 -0.039	  0.005	  0.365	  0.042	 -0.124	 -9.831	 -0.003	  0.001	  0.002	 31.300	 99.441	 -99999.000
17772	 -0.040	  0.006	  0.361	  0.062	 -0.086	 -9.857	 -0.003	  0.002	  0.001	 31.300	 99.456	 -99999.000
17821	 -0.040	  0.001	  0.360	  0.040	 -0.095	 -9.852	 -0.003	  0.002	  0.001	 31.300	 99.452	 -99999.000
17871	 -0.041	  0.012	  0.363	  0.044	 -0.106	 -9.825	 -0.003	  0.001	  0.001	 31.300	 99.452	 -99999.000
17921	 -0.040	  0.008	  0.363	  0.026	 -0.114	 -9.828	 -0.003	  0.001	  0.001	 31.300	 99.463	 -99999.000
17971	 -0.040	  0.008	  0.360	  0.062	 -0.130	 -9.832	 -0.002	  0.002	  0.001	 31.300	 99.452	 -99999.000
18021	 -0.039	  0.008	  0.365	  0.044	 -0.108	 -9.842	 -0.003	  0.001	  0.001	 31.300	 99.456	 -99999.000
18071	 -0.040	  0.001	  0.361	  0.033	 -0.101	 -9.877	 -0.003	  0.002	  0.001	 31.300	 99.452	 -99999.000
18122	 -0.041	  0.004	  0.368	  0.027	 -0.095	 -9.827	 -0.003	  0.002	  0.002	 31.300	 99.463	 -99999.000
18171	 -0.039	  0.004	  0.364	  0.054	 -0.097	 -9.847	 -0.003	  0.002	  0.001	 31.300	 99.452	 -99999.000
18221	 -0.042	  0.005	  0.361	  0.055	 -0.126	 -9.826	 -0.004	  0.002	  0.001	 31.300	 99.452	 -99999.000
18271	 -0.041	  0.004	  0.365	  0.057	 -0.081	 -9.826	 -0.003	  0.002	  0.000	 31.300	 99.441	 -99999.000
18322	 -0.038	  0.004	  0.363	  0.028	 -0.115	 -9.834	 -0.002	  0.001	  0.001	 31.300	 99.452	 -99999.000
18372	 -0.038	  0.011	  0.364	  0.044	 -0.106	 -9.874	 -0.002	  0.002	  0.001	 31.300	 99.452	 -99999.000
18421	 -0.039	  0.012	  0.361	  0.032	 -0.107	 -9.839	 -0.003	  0.002	  0.002	 31.300	 99.452	 -99999.000
18472	 -0.039	  0.004	  0.364	 -0.004	 -0.087	 -9.821	 -0.002	  0.002	 -0.000	 31.300	 99.452	 -99999.000
18521	 -0.038	  0.005	  0.362	  0.056	 -0.104	 -9.770	 -0.002	  0.000	  0.001	 31.300	 99.463	 -99999.000
18572	 -0.040	  0.004	  0.366	  0.042	 -0.079	 -9.864	 -0.003	  0.000	 -0.000	 31.300	 99.452	 -99999.000
18622	 -0.040	  0.002	  0.364	  0.058	 -0.114	 -9.838	 -0.003	  0.001	  0.002	 31.300	 99.463	 -99999.000
18672	 -0.040	  0.002	  0.363	  0.048	 -0.104	 -9.808	 -0.004	  0.002	  0.001	 31.300	 99.452	 -99999.000
18722	 -0.041	  0.008	  0.363	  0.033	 -0.100	 -9.832	 -0.004	  0.001	  0.001	 31.300	 99.452	 -99999.000
18772	 -0.041	  0.010	  0.363	  0.032	 -0.102	 -9.823	 -0.004	  0.003	  0.001	 31.300	 99.452	 -99999.000
18822	 -0.040	  0.010	  0.355	  0.030	 -0.087	 -9.807	 -0.004	  0.003	  0.001	 31.300	 99.452	 -99999.000
18873	 -0.040	  0.011	  0.363	  0.041	 -0.101	 -9.832	 -0.002	  0.000	  0.002	 31.300	 99.452	 -99999.000
18923	 -0.040	  0.004	  0.365	  0.017	 -0.111	 -9.803	 -0.003	  0.001	  0.001	 31.300	 99.452	 -99999.000
18973	 -0.040	  0.002	  0.363	  0.032	 -0.135	 -9.857	 -0.004	  0.001	  0.001	 31.300	 99.463	 -99999.000
19023	 -0.039	  0.005	  0.359	  0.046	 -0.108	 -9.843	 -0.003	  0.002	  0.002	 31.300	 99.452	 -99999.000
19073	 -0.042	  0.008	  0.356	  0.038	 -0.142	 -9.844	 -0.003	  0.001	  0.001	 31.300	 99.463	 -99999.000
19123	 -0.040	  0.003	  0.365	  0.043	 -0.107	 -9.786	 -0.003	  0.002	  0.001	 31.300	 99.441	 -99999.000
19173	 -0.042	  0.003	  0.363	  0.048	 -0.105	 -9.814	 -0.003	  0.001	  0.002	 31.300	 99.456	 -99999.000
19223	 -0.040	  0.008	  0.366	  0.004	 -0.116	 -9.868	 -0.002	  0.001	  0.001	 31.300	 99.452	 -99999.000
19273	 -0.039	  0.005	  0.358	  0.043	 -0.115	 -9.813	 -0.002	  0.001	  0.001	 31.300	 99.452	 -99999.000
19323	 -0.042	  0.009	  0.361	  0.035	 -0.089	 -9.799	 -0.003	  0.001	 -0.000	 31.300	 99.456	 -99999.000
19373	 -0.038	  0.001	  0.357	  0.046	 -0.104	 -9.829	 -0.002	  0.001	  0.002	 31.300	 99.441	 -99999.000
19423	 -0.040	  0.014	  0.363	  0.043	 -0.111	 -9.803	 -0.002	  0.002	  0.000	 31.300	 99.463	 -99999.000
19473	 -0.042	  0.006	  0.359	  0.041	 -0.079	 -9.807	 -0.003	  0.001	  0.001	 31.300	 99.452	 -99999.000
19523	 -0.040	  0.002	  0.366	  0.059	 -0.096	 -9.834	 -0.003	  0.001	  0.002	 31.300	 99.452	 -99999.000
19573	 -0.042	  0.006	  0.364	  0.040	 -0.075	 -9.836	 -0.004	  0.001	  0.001	 31.300	 99.452	 -99999.000
19623	 -0.041	  0.005	  0.365	  0.066	 -0.083	 -9.829	 -0.003	  0.001	  0.002	 31.300	 99.452	 -99999.000
19673	 -0.040	  0.003	  0.361	  0.054	 -0.100	 -9.810	 -0.002	  0.003	  0.002	 31.300	 99.452	 -99999.000
19723	 -0.040	  0.006	  0.361	  0.030	 -0.071	 -9.794	 -0.003	  0.001	  0.001	 31.300	 99.452	 -99999.000
19773	 -0.040	  0.003	  0.358	  0.052	 -0.095	 -9.835	 -0.004	  0.001	  0.001	 31.300	 99.463	 -99999.000
19823	 -0.038	  0.003	  0.363	  0.036	 -0.098	 -9.826	 -0.003	  0.002	 -0.000	 31.300	 99.452	 -99999.000
19873	 -0.040	  0.002	  0.364	  0.050	 -0.097	 -9.843	 -0.004	  0.001	  0.001	 31.300	 99.445	 -99999.000
19923	 -0.041	  0.004	  0.366	  0.027	 -0.090	 -9.807	 -0.003	  0.000	  0.001	 31.300	 99.452	 -99999.000
19973	 -0.040	  0.005	  0.367	  0.073	 -0.103	 -9.835	 -0.004	  0.001	  0.001	 31.300	 99.456	 -99999.000
20023	 -0.042	  0.006	  0.363	  0.027	 -0.109	 -9.828	 -0.004	  0.002	  0.001	 31.300	 99.452	 -99999.000
20073	 -0.041	  0.006	  0.365	  0.039	 -0.102	 -9.805	 -0.003	  0.000	  0.001	 31.300	 99.452	 -99999.000
20124	 -0.041	  0.013	  0.360	  0.020	 -0.113	 -9.843	 -0.004	  0.001	  0.002	 31.300	 99.456	 -99999.000
20174	 -0.042	  0.009	  0.361	  0.050	 -0.116	 -9.826	 -0.003	  0.002	  0.003	 31.300	 99.441	 -99999.000
20224	 -0.041	  0.004	  0.363	  0.043	 -0.107	 -9.783	 -0.004	  0.002	  0.002	 31.300	 99.452	 -99999.000
20274	 -0.040	  0.012	  0.363	  0.054	 -0.131	 -9.848	 -0.003	  0.002	  0.001	 31.300	 99.445	 -99999.000
20324	 -0.040	  0.005	  0.361	  0.047	 -0.089	 -9.853	 -0.002	  0.001	  0.001	 31.300	 99.456	 -99999.000
20374	 -0.040	  0.003	  0.366	  0.039	 -0.108	 -9.875	 -0.003	  0.002	  0.002	 31.300	 99.452	 -99999.000
20424	 -0.040	  0.001	  0.367	  0.030	 -0.118	 -9.793	 -0.003	  0.001	  0.002	 31.300	 99.467	 -99999.000
20474	 -0.040	  0.009	  0.364	  0.036	 -0.110	 -9.850	 -0.003	  0.001	  0.002	 31.300	 99.463	 -99999.000
20524	 -0.041	  0.005	  0.365	  0.016	 -0.120	 -9.807	 -0.003	  0.000	  0.001	 31.300	 99.452	 -99999.000
20574	 -0.044	  0.005	  0.361	  0.034	 -0.078	 -9.846	 -0.002	  0.002	  0.002	 31.300	 99.441	 -99999.000
20624	 -0.042	  0.007	  0.366	  0.028	 -0.076	 -9.819	 -0.002	  0.001	  0.001	 31.300	 99.452	 -99999.000
20674	 -0.040	  0.012	  0.361	  0.023	 -0.093	 -9.838	 -0.004	  0.002	  0.001	 31.300	 99.452	 -99999.000
20724	 -0.041	 -0.001	  0.361	  0.048	 -0.099	 -9.824	 -0.003	  0.001	  0.001	 31.300	 99.456	 -99999.000
20774	 -0.042	  0.005	  0.366	  0.056	 -0.060	 -9.852	 -0.003	  0.002	  0.001	 31.300	 99.456	 -99999.000
20824	 -0.037	  0.012	  0.365	  0.048	 -0.103	 -9.858	 -0.003	  0.002	  0.001	 31.300	 99.441	 -99999.000
20874	 -0.037	  0.008	  0.365	  0.041	 -0.122	 -9.849	 -0.003	  0.002	  0.002	 31.300	 99.452	 -99999.000
20924	 -0.039	  0.005	  0.358	  0.042	 -0.116	 -9.886	 -0.004	  0.002	  0.000	 31.300	 99.445	 -99999.000
20974	 -0.039	  0.007	  0.365	  0.045	 -0.080	 -9.830	 -0.004	  0.001	  0.001	 31.300	 99.452	 -99999.000
21024	 -0.041	  0.010	  0.364	  0.025	 -0.088	 -9.838	 -0.002	  0.002	  0.002	 31.300	 99.441	 -99999.000
21074	 -0.041	  0.010	  0.365	  0.065	 -0.099	 -9.836	 -0.004	  0.002	  0.000	 31.300	 99.456	 -99999.000
21125	 -0.043	  0.002	  0.366	  0.023	 -0.098	 -9.813	 -0.003	  0.002	  0.001	 31.300	 99.456	 -99999.000
21175	 -0.040	  0.003	  0.361	  0.013	 -0.117	 -9.820	 -0.004	  0.002	  0.001	 31.300	 99.456	 -99999.000
21225	 -0.040	  0.007	  0.366	  0.042	 -0.083	 -9.801	 -0.003	  0.001	  0.000	 31.300	 99.456	 -99999.000
21275	 -0.040	  0.004	  0.363	  0.044	 -0.102	 -9.854	 -0.002	  0.002	  0.002	 31.300	 99.441	 -99999.000
21325	 -0.039	  0.007	  0.363	  0.022	 -0.128	 -9.841	 -0.003	  0.003	  0.000	 31.300	 99.452	 -99999.000
21375	 -0.043	  0.008	  0.360	  0.057	 -0.116	 -9.839	 -0.003	  0.003	  0.001	 31.300	 99.441	 -99999.000
21425	 -0.040	  0.014	  0.360	  0.040	 -0.085	 -9.856	 -0.002	  0.002	  0.002	 31.300	 99.441	 -99999.000
21475	 -0.042	  0.005	  0.363	  0.048	 -0.095	 -9.819	 -0.002	  0.002	  0.001	 31.300	 99.445	 -99999.000
21525	 -0.040	  0.006	  0.366	  0.063	 -0.104	 -9.829	 -0.002	  0.000	  0.000	 31.300	 99.456	 -99999.000
21575	 -0.040	  0.001	  0.365	  0.048	 -0.078	 -9.796	 -0.003	  0.001	  0.000	 31.300	 99.445	 -99999.000
21625	 -0.038	  0.008	  0.361	  0.043	 -0.110	 -9.806	 -0.002	  0.002	  0.001	 31.300	 99.452	 -99999.000
21675	 -0.038	  0.007	  0.363	  0.041	 -0.079	 -9.828	 -0.003	  0.002	  0.000	 31.300	 99.456	 -99999.000
21725	 -0.040	  0.005	  0.363	  0.033	 -0.107	 -9.836	 -0.003	  0.002	  0.002	 31.300	 99.456	 -99999.000
21775	 -0.038	  0.005	  0.368	  0.043	 -0.090	 -9.767	 -0.003	  0.002	  0.000	 31.300	 99.456	 -99999.000
21825	 -0.041	  0.006	  0.363	  0.047	 -0.105	 -9.829	 -0.004	  0.002	  0.001	 31.300	 99.452	 -99999.000
21875	 -0.039	  0.008	  0.360	  0.058	 -0.095	 -9.853	 -0.003	  0.002	  0.001	 31.300	 99.445	 -99999.000
21925	 -0.040	  0.004	  0.361	  0.031	 -0.088	 -9.814	 -0.003	  0.001	  0.001	 31.300	 99.456	 -99999.000
21975	 -0.042	  0.004	  0.364	  0.034	 -0.108	 -9.830	 -0.002	  0.001	  0.001	 31.300	 99.445	 -99999.000
22025	 -0.041	  0.003	  0.364	  0.026	 -0.106	 -9.843	 -0.002	  0.001	  0.001	 31.300	 99.467	 -99999.000
22075	 -0.040	  0.008	  0.366	  0.033	 -0.114	 -9.807	 -0.003	  0.003	  0.001	 31.300	 99.460	 -99999.000
22125	 -0.038	  0.004	  0.366	  0.036	 -0.112	 -9.813	 -0.004	  0.003	  0.001	 31.300	 99.456	 -99999.000
22175	 -0.038	  0.005	  0.352	  0.052	 -0.079	 -9.807	 -0.002	  0.002	  0.001	 31.300	 99.456	 -99999.000
22225	 -0.040	  0.017	  0.359	  0.025	 -0.133	 -9.803	 -0.003	  0.002	  0.002	 31.300	 99.445	 -99999.000
22275	 -0.039	  0.003	  0.363	  0.014	 -0.125	 -9.827	 -0.002	  0.002	  0.002	 31.300	 99.456	 -99999.000
25479	 -0.040	  0.011	  0.361	  0.079	 -0.217	 -9.864	 -0.005	  0.001	  0.000	 31.300	 99.449	  0.266
25529	 -0.039	  0.010	  0.360	  0.078	 -0.141	 -9.894	 -0.004	  0.000	  0.001	 31.300	 99.445	  0.623
25579	 -0.039	  0.004	  0.361	  0.031	 -0.076	 -9.791	 -0.003	  0.002	  0.002	 31.300	 99.456	 -0.360
25629	 -0.040	  0.012	  0.363	  0.017	 -0.074	 -9.807	 -0.004	  0.002	  0.001	 31.300	 99.460	 -0.718
25679	 -0.041	  0.010	  0.361	  0.027	 -0.131	 -9.867	 -0.002	  0.001	  0.001	 31.300	 99.449	  0.266
25729	 -0.040	  0.008	  0.360	  0.013	 -0.178	 -9.827	 -0.004	  0.002	  0.000	 31.300	 99.445	  0.623
25779	 -0.038	  0.006	  0.352	  0.068	 -0.108	 -9.818	 -0.004	  0.003	 -0.002	 31.300	 99.445	  0.623
25829	 -0.042	  0.007	  0.361	  0.090	 -0.053	 -9.815	 -0.004	  0.002	  0.001	 31.300	 99.456	 -0.360
25879	 -0.041	  0.006	  0.364	 -0.006	 -0.123	 -9.862	 -0.003	  0.000	  0.001	 31.300	 99.449	  0.266
25929	 -0.041	  0.004	  0.361	  0.037	 -0.124	 -9.846	 -0.004	  0.002	 -0.000	 31.300	 99.460	 -0.718
25979	 -0.040	  0.003	  0.363	  0.079	 -0.042	 -9.834	 -0.002	  0.001	  0.001	 31.300	 99.449	  0.266
26029	 -0.038	  0.005	  0.361	  0.008	 -0.119	 -9.832	 -0.003	  0.001	  0.002	 31.300	 99.460	 -0.718
26079	 -0.040	  0.010	  0.366	  0.031	 -0.097	 -9.864	 -0.003	  0.001	  0.002	 31.300	 99.445	  0.623
26129	 -0.040	  0.006	  0.361	  0.035	 -0.054	 -9.798	 -0.000	  0.001	  0.001	 31.300	 99.433	  1.697
26179	 -0.039	  0.006	  0.361	  0.063	 -0.122	 -9.805	 -0.003	  0.002	  0.001	 31.300	 99.467	 -1.344
26229	 -0.042	  0.012	  0.361	  0.008	 -0.116	 -9.808	 -0.002	  0.002	  0.000	 31.300	 99.456	 -0.360
26279	 -0.038	  0.007	  0.365	  0.049	 -0.106	 -9.855	 -0.003	  0.002	  0.001	 31.300	 99.456	 -0.360
26329	 -0.038	  0.004	  0.364	  0.105	 -0.067	 -9.820	 -0.003	  0.001	  0.002	 31.300	 99.456	 -0.360
26379	 -0.040	  0.003	  0.364	 -0.019	 -0.128	 -9.819	 -0.005	  0.001	  0.001	 31.300	 99.456	 -0.360
26429	 -0.038	  0.005	  0.364	  0.047	 -0.114	 -9.849	 -0.004	  0.002	  0.001	 31.300	 99.449	  0.266
26479	 -0.039	  0.005	  0.358	  0.043	 -0.084	 -9.840	 -0.005	  0.002	  0.001	 31.300	 99.449	  0.266
26529	 -0.038	  0.005	  0.359	  0.063	 -0.083	 -9.820	 -0.004	  0.002	  0.001	 31.300	 99.445	  0.623
26579	 -0.042	  0.006	  0.364	  0.061	 -0.136	 -9.810	 -0.003	  0.001	  0.001	 31.300	 99.445	  0.623
26629	 -0.039	  0.005	  0.354	 -0.030	 -0.112	 -9.853	 -0.004	  0.004	  0.001	 31.300	 99.456	 -0.360
26679	 -0.041	  0.004	  0.363	  0.072	 -0.079	 -9.813	 -0.001	  0.000	  0.001	 31.300	 99.445	  0.623
26729	 -0.039	  0.004	  0.362	  0.059	 -0.211	 -9.825	 -0.003	  0.001	  0.001	 31.300	 99.449	  0.266
26779	 -0.038	  0.005	  0.366	  0.007	 -0.096	 -9.825	 -0.002	  0.001	  0.002	 31.300	 99.460	 -0.718
26829	 -0.038	  0.006	  0.364	 -0.063	  0.311	 -9.760	  0.002	  0.004	  0.002	 31.300	 99.449	  0.266
26880	 -0.039	  0.011	  0.363	  0.009	 -0.173	 -9.864	 -0.004	 -0.000	  0.004	 31.300	 99.460	 -0.718
26930	 -0.041	  0.007	  0.352	 -0.032	 -0.150	 -9.838	 -0.003	  0.001	  0.001	 31.300	 99.456	 -0.360
26980	 -0.038	  0.004	  0.364	  0.061	 -0.046	 -9.858	 -0.004	  0.003	  0.001	 31.300	 99.460	 -0.718
27030	 -0.038	  0.014	  0.363	  0.055	 -0.104	 -9.806	 -0.005	  0.004	  0.001	 31.300	 99.445	  0.623
27080	 -0.038	  0.006	  0.356	  0.005	 -0.129	 -9.873	 -0.004	 -0.000	  0.002	 31.300	 99.449	  0.266
27130	 -0.038	  0.008	  0.358	  0.109	 -0.096	 -9.827	 -0.010	 -0.001	  0.019	 31.300	 99.449	  0.266
27180	 -0.036	  0.007	  0.362	  0.092	 -0.306	 -9.904	 -0.042	 -0.012	  0.005	 31.300	 99.445	  0.623
27230	 -0.034	  0.004	  0.358	 -0.106	 -0.602	 -10.016	 -0.123	 -0.029	  0.089	 31.300	 99.449	  0.266
27280	 -0.036	 -0.003	  0.356	  0.002	 -0.589	 -10.201	 -0.266	 -0.074	  0.090	 31.300	 99.460	 -0.718
27330	 -0.034	 -0.011	  0.371	  1.092	 -0.983	 -10.231	 -0.533	 -0.168	  0.099	 31.300	 99.449	  0.266
27380	 -0.028	 -0.032	  0.373	  0.144	 -0.472	 -10.198	 -0.817	 -0.244	 -0.011	 31.300	 99.449	  0.266
27430	 -0.024	 -0.053	  0.378	 -0.387	  0.758	 -9.439	 -0.965	 -0.250	 -0.126	 31.300	 99.460	 -0.718
27480	 -0.019	 -0.075	  0.382	 -0.824	  2.752	 -8.791	 -0.760	 -0.166	 -0.058	 31.300	 99.449	  0.266
27530	 -0.017	 -0.092	  0.384	 -1.266	  3.218	 -8.849	 -0.491	 -0.127	 -0.068	 31.300	 99.460	 -0.718
27580	 -0.015	 -0.097	  0.385	 -1.059	  3.181	 -8.982	 -0.065	 -0.027	  0.033	 31.300	 99.449	  0.266
27630	 -0.016	 -0.091	  0.385	 -0.657	  2.457	 -9.331	  0.197	  0.046	  0.085	 31.300	 99.460	 -0.718
27680	 -0.018	 -0.086	  0.386	  0.023	  1.503	 -9.656	  0.289	  0.061	  0.077	 31.300	 99.449	  0.266
27730	 -0.016	 -0.078	  0.383	  0.787	  0.442	 -10.308	  0.103	 -0.037	  0.041	 31.300	 99.460	 -0.718
27780	 -0.014	 -0.083	  0.381	 -0.256	  1.237	 -10.058	 -0.179	 -0.164	 -0.329	 31.300	 99.449	  0.266
27830	 -0.007	 -0.088	  0.383	 -0.597	  2.155	 -9.451	 -0.158	 -0.214	 -0.192	 31.300	 99.456	 -0.360
27880	 -0.005	 -0.090	  0.387	 -1.147	  1.897	 -9.240	 -0.035	 -0.063	 -0.210	 31.300	 99.449	  0.266
27930	 -0.007	 -0.093	  0.386	 -2.867	  3.470	 -10.250	 -0.124	  0.032	  0.338	 31.300	 99.449	  0.266
27980	 -0.007	 -0.097	  0.388	 -1.730	  2.264	 -8.783	 -0.154	  0.242	  0.778	 31.300	 99.460	 -0.718
28030	 -0.017	 -0.093	  0.390	  0.649	  1.708	 -9.635	  0.398	  0.352	  0.245	 31.300	 99.449	  0.266
28080	 -0.022	 -0.082	  0.385	 -0.621	  0.639	 -9.849	  0.371	  0.178	  0.166	 31.300	 99.449	  0.266
28130	 -0.026	 -0.075	  0.381	  0.980	  0.900	 -10.108	  0.090	  0.060	 -0.085	 31.300	 99.445	  0.623
28180	 -0.024	 -0.074	  0.379	  0.072	  1.790	 -9.095	  0.255	 -0.086	 -0.405	 31.300	 99.449	  0.266
28230	 -0.021	 -0.062	  0.388	 -0.401	  1.222	 -11.582	  0.338	 -0.325	 -0.225	 31.300	 99.449	  0.266
28280	 -0.014	 -0.040	  0.376	  0.184	  0.908	 -10.193	  0.310	 -0.274	 -0.237	 31.300	 99.460	 -0.718
28330	 -0.009	 -0.046	  0.378	 -1.466	  1.070	 -10.219	  0.315	 -0.150	 -0.106	 31.300	 99.449	  0.266
28380	 -0.006	 -0.038	  0.375	 -1.932	  0.993	 -10.289	  0.339	  0.051	  0.013	 31.300	 99.449	  0.266
28430	 -0.014	 -0.028	  0.375	 -1.389	  0.911	 -10.261	  0.385	  0.390	  0.277	 31.300	 99.449	  0.266
28480	 -0.023	 -0.019	  0.367	 -0.378	  0.554	 -10.787	  0.357	  0.460	  0.277	 31.300	 99.449	  0.266
28530	 -0.030	 -0.013	  0.367	  0.411	 -0.073	 -11.379	  0.160	  0.340	  0.028	 31.300	 99.449	  0.266
28580	 -0.035	 -0.008	  0.366	  0.273	 -0.048	 -11.495	 -0.179	  0.100	 -0.256	 31.300	 99.460	 -0.718
28630	 -0.039	 -0.021	  0.364	 -0.167	  0.938	 -8.739	 -0.311	  0.043	 -0.072	 31.300	 99.471	 -1.701
28680	 -0.039	 -0.025	  0.370	  0.532	  0.987	 -8.967	 -0.147	  0.123	  0.145	 31.300	 99.449	  0.266
28730	 -0.039	 -0.021	  0.366	  0.557	  1.400	 -7.115	  0.295	  0.119	 -0.127	 31.300	 99.449	  0.266
28780	 -0.048	 -0.011	  0.365	  0.098	  0.931	 -8.556	  0.697	  0.404	  0.027	 31.300	 99.453	 -0.092
28830	 -0.056	  0.008	  0.352	  0.853	  0.007	 -9.069	  0.787	  0.464	  0.460	 31.300	 99.460	 -0.718
28880	 -0.058	  0.024	  0.350	  1.074	 -0.870	 -11.601	  0.411	  0.044	  0.324	 31.300	 99.438	  1.249
28930	 -0.054	  0.038	  0.341	 -0.009	 -1.681	 -12.523	  0.046	 -0.231	  0.163	 31.300	 99.449	  0.266
28980	 -0.047	  0.030	  0.351	  0.336	 -0.512	 -12.352	 -0.534	 -0.508	  0.162	 31.300	 99.449	  0.266
29030	 -0.030	  0.016	  0.348	 -0.849	 -0.528	 -10.112	 -0.708	 -0.692	  0.047	 31.300	 99.449	  0.266
29080	 -0.020	 -0.001	  0.356	 -1.772	  0.911	 -8.426	 -0.505	 -0.001	  0.390	 31.300	 99.453	 -0.092
29130	 -0.022	 -0.017	  0.358	 -1.644	  0.189	 -7.279	 -0.134	  0.610	  1.000	 31.300	 99.442	  0.891
29180	 -0.037	 -0.008	  0.355	  0.832	 -0.787	 -7.898	  0.110	  0.800	  1.734	 31.300	 99.449	  0.266
29231	 -0.028	 -0.013	  0.359	  2.218	 -0.742	 -9.413	 -0.369	 -0.024	  1.728	 31.300	 99.460	 -0.718
29281	 -0.017	 -0.020	  0.359	  2.035	 -0.059	 -9.154	 -0.371	 -0.291	  0.406	 31.300	 99.460	 -0.718
29331	 -0.003	 -0.032	  0.361	 -0.829	  1.321	 -9.626	  0.009	 -0.378	  0.845	 31.300	 99.460	 -0.718
29381	  0.010	 -0.025	  0.357	  1.965	 -0.052	 -11.207	  0.057	 -0.414	  0.335	 31.300	 99.449	  0.266
29431	  0.025	 -0.028	  0.362	  0.056	 -0.044	 -12.563	 -0.185	 -0.658	 -0.007	 31.300	 99.449	  0.266
29481	  0.041	 -0.037	  0.357	 -0.359	  0.551	 -12.026	 -0.531	 -0.709	  0.717	 31.300	 99.449	  0.266
29531	  0.056	 -0.052	  0.360	 -1.241	  1.201	 -10.918	 -0.545	 -0.350	  0.685	 31.300	 99.449	  0.266
29581	  0.066	 -0.065	  0.361	 -1.129	  2.013	 -10.631	 -0.394	 -0.239	  0.701	 31.300	 99.449	  0.266
29631	  0.073	 -0.080	  0.361	 -1.514	  0.750	 -11.140	 -0.304	 -0.316	  0.564	 31.300	 99.438	  1.249
29682	  0.079	 -0.082	  0.363	 -0.161	  2.127	 -9.488	 -0.197	 -0.072	  0.156	 31.300	 99.460	 -0.718
29731	  0.084	 -0.092	  0.361	 -2.619	  1.048	 -10.060	 -0.370	 -0.014	  0.677	 31.300	 99.449	  0.266
29782	  0.079	 -0.109	  0.364	 -1.471	  0.369	 -9.913	 -0.781	  0.402	  1.047	 31.300	 99.438	  1.249
29831	  0.068	 -0.136	  0.362	 -0.105	  1.063	 -9.010	 -1.035	  0.406	  0.934	 31.300	 99.449	  0.266
29881	  0.060	 -0.172	  0.365	 -0.062	  1.580	 -8.951	 -1.265	  0.366	  0.617	 31.300	 99.449	  0.266
29931	  0.049	 -0.203	  0.361	  0.297	  3.023	 -8.338	 -1.258	  0.200	  0.250	 31.300	 99.438	  1.249
29981	  0.044	 -0.230	  0.357	 -0.314	  2.340	 -8.868	 -1.428	  0.131	  0.331	 31.300	 99.449	  0.266
30032	  0.036	 -0.269	  0.352	  0.132	  3.533	 -7.994	 -1.716	  0.086	  0.408	 31.300	 99.449	  0.266
30082	  0.034	 -0.320	  0.329	  0.982	  4.457	 -7.541	 -1.736	  0.103	  0.332	 31.300	 99.449	  0.266
30132	  0.028	 -0.363	  0.321	  0.416	  5.570	 -6.764	 -1.811	  0.041	  0.055	 31.300	 99.438	  1.249
30182	  0.026	 -0.397	  0.303	  0.777	  6.571	 -6.050	 -1.550	  0.025	  0.208	 31.300	 99.449	  0.266
30232	  0.025	 -0.427	  0.282	  0.447	  7.267	 -5.540	 -1.385	 -0.092	  0.064	 31.300	 99.453	 -0.092
30282	  0.024	 -0.451	  0.262	  0.711	  7.446	 -5.277	 -1.089	 -0.121	  0.127	 31.300	 99.449	  0.266
30332	  0.026	 -0.476	  0.245	  0.902	  8.173	 -4.774	 -0.807	 -0.151	  0.074	 31.300	 99.449	  0.266
30382	  0.030	 -0.472	  0.234	  0.934	  7.876	 -5.106	 -0.794	 -0.196	 -0.100	 31.300	 99.449	  0.266
30432	  0.032	 -0.503	  0.223	  0.724	  7.910	 -5.113	 -0.815	 -0.037	 -0.191	 31.300	 99.449	  0.266
30482	  0.035	 -0.513	  0.205	  0.397	  8.509	 -4.943	 -0.887	  0.238	 -0.217	 31.300	 99.449	  0.266
30532	  0.031	 -0.530	  0.191	  0.925	  8.241	 -4.558	 -1.133	  0.355	 -0.266	 31.300	 99.449	  0.266
30582	  0.034	 -0.546	  0.172	 -0.109	  9.006	 -3.549	 -1.273	  0.391	 -0.178	 31.300	 99.449	  0.266
30632	  0.026	 -0.563	  0.142	 -0.092	  9.189	 -2.586	 -1.318	  0.580	 -0.032	 31.300	 99.449	  0.266
30682	  0.020	 -0.589	  0.115	  0.331	  9.126	 -2.099	 -1.267	  0.734	 -0.147	 31.300	 99.453	 -0.092
30732	  0.017	 -0.598	  0.091	 -0.156	  9.294	 -1.585	 -1.386	  0.769	 -0.326	 31.300	 99.449	  0.266
30782	  0.015	 -0.608	  0.063	  0.062	  9.303	 -0.919	 -1.326	  0.841	 -0.149	 31.300	 99.453	 -0.092
30832	  0.007	 -0.623	  0.033	  0.128	  9.464	 -0.333	 -1.397	  0.667	  0.030	 31.300	 99.453	 -0.092
30882	 -0.000	 -0.637	 -0.001	  0.209	  9.836	  0.492	 -1.394	  0.563	  0.253	 31.300	 99.449	  0.266
30932	 -0.014	 -0.646	 -0.038	  0.708	  9.589	  0.554	 -1.342	  0.502	  0.478	 31.300	 99.449	  0.266
30983	 -0.023	 -0.653	 -0.068	  1.545	  9.827	  1.558	 -1.182	  0.506	  0.216	 31.300	 99.449	  0.266
31033	 -0.030	 -0.653	 -0.097	  1.297	  9.574	  1.918	 -1.158	  0.363	  0.026	 31.300	 99.438	  1.249
31083	 -0.029	 -0.655	 -0.124	  1.061	  9.047	  2.458	 -1.113	  0.326	  0.053	 31.300	 99.449	  0.266
31133	 -0.030	 -0.660	 -0.155	  1.292	  8.725	  2.781	 -1.171	  0.284	 -0.078	 31.300	 99.438	  1.249
31183	 -0.027	 -0.658	 -0.184	  0.955	  8.747	  3.683	 -1.244	  0.221	 -0.116	 31.300	 99.438	  1.249
31233	 -0.021	 -0.650	 -0.214	  0.455	  8.829	  4.035	 -1.081	  0.161	 -0.265	 31.300	 99.438	  1.249
31283	 -0.014	 -0.644	 -0.238	  0.069	  8.567	  4.724	 -0.938	  0.112	 -0.284	 31.300	 99.453	 -0.092
31333	 -0.007	 -0.641	 -0.263	 -0.030	  8.228	  5.144	 -0.881	  0.250	 -0.208	 31.300	 99.442	  0.891
31383	 -0.004	 -0.633	 -0.285	 -0.145	  7.878	  5.752	 -0.863	  0.229	  0.104	 31.300	 99.453	 -0.092
31433	 -0.006	 -0.631	 -0.305	  0.041	  6.935	  5.496	 -0.968	  0.111	  0.042	 31.300	 99.453	 -0.092
31483	 -0.005	 -0.619	 -0.331	 -0.556	  7.676	  6.623	 -1.083	  0.035	 -0.001	 31.300	 99.449	  0.266
31533	 -0.006	 -0.613	 -0.358	 -0.123	  6.783	  6.801	 -1.129	  0.129	  0.133	 31.300	 99.449	  0.266
31583	 -0.004	 -0.597	 -0.382	 -0.077	  6.651	  7.598	 -1.283	  0.111	  0.076	 31.300	 99.453	 -0.092
31633	 -0.010	 -0.574	 -0.416	 -0.531	  6.348	  7.848	 -1.348	  0.097	  0.322	 31.300	 99.438	  1.249
31683	 -0.013	 -0.565	 -0.444	  0.019	  5.828	  8.415	 -1.340	  0.179	  0.094	 31.300	 99.460	 -0.718
31733	 -0.014	 -0.542	 -0.467	 -0.201	  5.624	  8.271	 -1.092	  0.214	  0.321	 31.300	 99.449	  0.266
31783	 -0.014	 -0.528	 -0.491	  0.302	  4.567	  8.529	 -0.931	  0.149	  0.202	 31.300	 99.453	 -0.092
31833	 -0.014	 -0.510	 -0.504	  0.066	  4.325	  8.985	 -0.961	  0.077	  0.082	 31.300	 99.449	  0.266
31883	 -0.014	 -0.492	 -0.535	 -0.009	  3.682	  8.736	 -0.876	  0.145	  0.050	 31.300	 99.442	  0.891
31933	 -0.012	 -0.463	 -0.542	  0.026	  3.083	  8.930	 -0.901	  0.192	 -0.038	 31.300	 99.453	 -0.092
31983	 -0.009	 -0.453	 -0.552	 -0.554	  3.066	  9.302	 -0.844	  0.240	 -0.068	 31.300	 99.453	 -0.092
32033	  0.000	 -0.440	 -0.575	 -0.026	  2.357	  9.553	 -0.772	  0.304	 -0.070	 31.300	 99.453	 -0.092
32083	  0.007	 -0.420	 -0.578	 -0.402	  2.311	  9.964	 -0.775	  0.211	 -0.181	 31.300	 99.449	  0.266
32133	  0.012	 -0.404	 -0.588	 -0.277	  2.123	  9.725	 -0.831	  0.074	 -0.130	 31.300	 99.453	 -0.092
32183	  0.014	 -0.382	 -0.603	 -0.907	  1.802	  9.854	 -0.883	  0.069	 -0.037	 31.300	 99.449	  0.266
32233	  0.017	 -0.358	 -0.613	 -0.536	  1.464	  9.500	 -0.917	  0.122	 -0.099	 31.300	 99.453	 -0.092
32283	  0.022	 -0.342	 -0.618	 -0.398	  1.120	  9.589	 -0.743	  0.164	 -0.175	 31.300	 99.438	  1.249
32333	  0.027	 -0.324	 -0.629	 -1.084	  0.835	  9.796	 -0.554	  0.113	 -0.256	 31.300	 99.453	 -0.092
32383	  0.032	 -0.315	 -0.625	 -1.193	  0.780	 10.089	 -0.352	  0.012	 -0.131	 31.300	 99.453	 -0.092
32433	  0.032	 -0.303	 -0.631	 -1.185	  1.262	 10.657	 -0.122	 -0.017	 -0.135	 31.300	 99.453	 -0.092
32483	  0.030	 -0.303	 -0.630	 -1.057	  1.208	 10.806	  0.386	  0.079	 -0.051	 31.300	 99.453	 -0.092
32533	  0.036	 -0.324	 -0.625	 -0.771	  1.016	 10.969	  0.740	  0.082	 -0.214	 31.300	 99.453	 -0.092
32583	  0.038	 -0.339	 -0.619	 -1.012	  1.022	 10.742	  0.821	  0.002	 -0.178	 31.300	 99.442	  0.891
32633	  0.036	 -0.364	 -0.615	 -1.129	  1.572	 10.669	  0.799	 -0.094	 -0.037	 31.300	 99.442	  0.891
32683	  0.034	 -0.376	 -0.601	 -0.635	  1.914	 10.328	  0.836	 -0.125	 -0.018	 31.300	 99.449	  0.266
32733	  0.032	 -0.404	 -0.593	 -0.481	  1.657	  9.461	  0.810	 -0.183	 -0.003	 31.300	 99.453	 -0.092
32783	  0.030	 -0.418	 -0.582	 -0.729	  1.977	  9.337	  0.628	 -0.200	  0.083	 31.300	 99.449	  0.266
32833	  0.022	 -0.432	 -0.570	 -0.681	  2.825	  9.469	  0.608	 -0.213	  0.163	 31.300	 99.449	  0.266
32884	  0.018	 -0.446	 -0.561	 -0.306	  3.567	  9.397	  0.833	 -0.147	  0.060	 31.300	 99.453	 -0.092
32934	  0.015	 -0.467	 -0.551	  0.255	  4.026	  9.418	  1.192	 -0.144	 -0.017	 31.300	 99.438	  1.249
32984	  0.010	 -0.493	 -0.519	 -0.301	  4.457	  9.150	  1.420	 -0.183	 -0.016	 31.300	 99.453	 -0.092
33034	  0.007	 -0.522	 -0.492	 -0.401	  4.820	  8.655	  1.586	 -0.090	  0.017	 31.300	 99.453	 -0.092
33084	  0.005	 -0.538	 -0.461	  0.095	  5.021	  8.072	  1.608	 -0.106	  0.096	 31.300	 99.442	  0.891
33134	  0.004	 -0.575	 -0.430	 -0.168	  5.776	  7.986	  1.546	 -0.182	  0.078	 31.300	 99.453	 -0.092
33184	 -0.004	 -0.595	 -0.394	 -0.177	  6.304	  7.721	  1.518	 -0.164	  0.251	 31.300	 99.438	  1.249
33234	 -0.011	 -0.616	 -0.362	  0.406	  6.928	  7.236	  1.626	 -0.156	  0.137	 31.300	 99.438	  1.249
33284	 -0.014	 -0.629	 -0.317	  0.294	  7.373	  6.286	  1.792	 -0.111	  0.145	 31.300	 99.453	 -0.092
33334	 -0.019	 -0.644	 -0.275	 -0.027	  7.977	  5.592	  1.935	 -0.022	  0.128	 31.300	 99.449	  0.266
33384	 -0.024	 -0.651	 -0.222	  0.411	  8.307	  4.936	  2.107	  0.067	  0.269	 31.300	 99.453	 -0.092
33434	 -0.025	 -0.658	 -0.158	  0.536	  8.564	  4.023	  2.184	  0.099	 -0.031	 31.300	 99.449	  0.266
33484	 -0.024	 -0.661	 -0.104	 -0.129	  8.954	  2.980	  2.211	  0.196	 -0.034	 31.300	 99.449	  0.266
33534	 -0.022	 -0.652	 -0.045	  0.390	  8.664	  1.406	  2.176	  0.191	 -0.116	 31.300	 99.438	  1.249
33584	 -0.016	 -0.639	  0.006	  0.197	  9.035	  0.358	  2.067	  0.124	 -0.391	 31.300	 99.442	  0.891
33634	 -0.007	 -0.621	  0.056	 -0.012	  9.018	 -0.574	  2.130	  0.201	 -0.315	 31.300	 99.430	  1.965
33684	  0.001	 -0.591	  0.100	  0.063	  8.613	 -1.581	  2.169	  0.173	 -0.539	 31.300	 99.453	 -0.092
33734	  0.014	 -0.568	  0.156	 -0.253	  8.853	 -2.352	  2.247	  0.210	 -0.682	 31.300	 99.442	  0.891
33784	  0.023	 -0.527	  0.200	 -0.498	  8.137	 -3.416	  2.353	  0.197	 -0.623	 31.300	 99.453	 -0.092
33834	  0.035	 -0.491	  0.240	 -0.696	  7.518	 -4.607	  2.292	  0.063	 -0.759	 31.300	 99.464	 -1.075
33884	  0.047	 -0.437	  0.279	 -1.192	  6.866	 -5.378	  2.230	  0.058	 -0.728	 31.300	 99.442	  0.891
33934	  0.055	 -0.384	  0.304	 -2.337	  6.574	 -5.944	  2.231	  0.164	 -0.606	 31.300	 99.453	 -0.092
33984	  0.053	 -0.334	  0.332	 -1.922	  5.298	 -7.100	  2.087	  0.218	 -0.344	 31.300	 99.438	  1.249
34034	  0.049	 -0.287	  0.349	 -2.129	  4.312	 -7.803	  1.781	  0.231	  0.062	 31.300	 99.453	 -0.092
34084	  0.043	 -0.250	  0.349	 -2.155	  3.616	 -8.478	  1.401	  0.328	  0.432	 31.300	 99.453	 -0.092
34134	  0.031	 -0.221	  0.359	 -1.835	  3.471	 -8.865	  0.958	  0.252	  0.631	 31.300	 99.453	 -0.092
34184	  0.028	 -0.200	  0.366	 -1.302	  3.412	 -8.766	  0.781	  0.315	  0.634	 31.300	 99.453	 -0.092
34234	  0.015	 -0.185	  0.363	 -0.594	  3.154	 -8.694	  0.745	  0.344	  0.349	 31.300	 99.442	  0.891
34285	  0.008	 -0.167	  0.368	 -1.151	  3.559	 -9.082	  0.760	  0.288	  0.356	 31.300	 99.453	 -0.092
34335	  0.001	 -0.148	  0.365	 -0.102	  3.108	 -9.129	  0.828	  0.381	  0.447	 31.300	 99.442	  0.891
34385	 -0.004	 -0.121	  0.373	 -0.069	  2.906	 -10.020	  0.654	  0.320	  0.447	 31.300	 99.453	 -0.092
34435	 -0.012	 -0.112	  0.374	  1.203	  2.337	 -9.719	  0.395	  0.172	  0.104	 31.300	 99.453	 -0.092
34485	 -0.016	 -0.108	  0.373	  0.555	  2.043	 -10.391	  0.340	 -0.007	 -0.132	 31.300	 99.469	 -1.522
34535	 -0.015	 -0.097	  0.367	  0.609	  1.537	 -11.235	  0.257	  0.066	  0.079	 31.300	 99.442	  0.891
34585	 -0.014	 -0.104	  0.374	  0.630	  1.586	 -11.512	 -0.317	 -0.043	  0.040	 31.300	 99.453	 -0.092
34635	 -0.014	 -0.114	  0.373	  0.788	  2.298	 -9.914	 -0.553	 -0.115	 -0.166	 31.300	 99.464	 -1.075
34685	 -0.009	 -0.129	  0.372	  0.177	  3.028	 -9.372	 -0.386	 -0.247	 -0.291	 31.300	 99.442	  0.891
34735	 -0.005	 -0.135	  0.368	 -0.624	  3.235	 -9.419	 -0.181	 -0.180	  0.040	 31.300	 99.457	 -0.449
34785	 -0.004	 -0.136	  0.380	 -0.024	  3.615	 -9.071	  0.074	  0.036	  0.352	 31.300	 99.453	 -0.092
34835	 -0.005	 -0.130	  0.377	  0.082	  2.586	 -9.677	  0.253	  0.148	  0.347	 31.300	 99.442	  0.891
34885	 -0.007	 -0.128	  0.375	  0.347	  2.649	 -9.486	  0.219	  0.147	  0.322	 31.300	 99.453	 -0.092
34935	 -0.011	 -0.120	  0.375	  0.558	  2.341	 -9.596	  0.240	  0.169	  0.060	 31.300	 99.442	  0.891
34985	 -0.013	 -0.114	  0.378	  0.459	  2.391	 -8.810	  0.363	  0.037	 -0.031	 31.300	 99.442	  0.891
35035	 -0.013	 -0.098	  0.379	  0.290	  2.068	 -9.168	  0.413	 -0.019	  0.066	 31.300	 99.453	 -0.092
35085	 -0.011	 -0.084	  0.370	 -0.016	  2.087	 -9.728	  0.351	 -0.001	  0.169	 31.300	 99.442	  0.891
35135	 -0.011	 -0.084	  0.373	  0.356	  1.781	 -9.932	  0.334	  0.051	  0.176	 31.300	 99.464	 -1.075
35185	 -0.012	 -0.076	  0.375	  0.455	  1.838	 -9.622	  0.366	  0.052	  0.105	 31.300	 99.442	  0.891
35235	 -0.015	 -0.068	  0.369	  0.733	  1.236	 -10.261	  0.253	  0.148	 -0.091	 31.300	 99.453	 -0.092
35285	 -0.017	 -0.061	  0.372	  1.148	  1.281	 -9.218	  0.192	  0.034	 -0.188	 31.300	 99.453	 -0.092
35335	 -0.020	 -0.054	  0.372	  0.687	  0.683	 -9.876	  0.271	  0.050	 -0.321	 31.300	 99.453	 -0.092
35386	 -0.019	 -0.054	  0.373	  0.701	  0.637	 -9.996	 -0.009	 -0.093	 -0.208	 31.300	 99.442	  0.891
35435	 -0.017	 -0.051	  0.368	  0.077	  1.108	 -9.644	 -0.090	 -0.149	 -0.191	 31.300	 99.453	 -0.092
35485	 -0.017	 -0.062	  0.371	  0.179	  0.727	 -9.808	 -0.171	 -0.155	 -0.168	 31.300	 99.453	 -0.092
35535	 -0.011	 -0.055	  0.371	  1.005	  1.835	 -10.181	  0.149	 -0.028	 -0.197	 31.300	 99.453	 -0.092
35585	 -0.015	 -0.043	  0.366	  0.194	  1.288	 -9.671	  0.162	  0.071	 -0.203	 31.300	 99.438	  1.249
35636	 -0.017	 -0.043	  0.370	  0.175	  0.807	 -9.616	  0.238	  0.088	 -0.246	 31.300	 99.453	 -0.092
35685	 -0.020	 -0.033	  0.368	  0.428	  0.698	 -9.948	  0.193	  0.012	 -0.179	 31.300	 99.453	 -0.092
35736	 -0.020	 -0.033	  0.371	  0.372	  0.753	 -9.878	  0.141	 -0.060	 -0.132	 31.300	 99.457	 -0.449
35785	 -0.019	 -0.031	  0.362	 -0.210	 -0.072	 -10.194	  0.070	 -0.046	 -0.055	 31.300	 99.453	 -0.092
35836	 -0.016	 -0.031	  0.368	  0.174	  0.873	 -9.600	 -0.011	 -0.035	  0.016	 31.300	 99.453	 -0.092
35886	 -0.015	 -0.028	  0.365	  0.182	  0.815	 -9.847	  0.052	 -0.049	  0.068	 31.300	 99.453	 -0.092
35936	 -0.015	 -0.029	  0.369	  0.414	  0.896	 -9.542	  0.099	 -0.013	 -0.094	 31.300	 99.453	 -0.092
35986	 -0.014	 -0.025	  0.364	  0.111	  0.730	 -9.904	  0.153	 -0.139	  0.053	 31.300	 99.442	  0.891
36036	 -0.011	 -0.016	  0.362	  0.483	  0.496	 -9.721	  0.174	 -0.200	 -0.015	 31.300	 99.457	 -0.449
36086	 -0.004	 -0.017	  0.359	 -0.156	 -0.807	 -10.329	 -0.039	 -0.137	  0.032	 31.300	 99.453	 -0.092
36136	 -0.001	 -0.022	  0.364	  0.136	  0.484	 -9.517	 -0.187	 -0.052	 -0.066	 31.300	 99.457	 -0.449
36187	  0.001	 -0.021	  0.363	 -0.470	  1.533	 -9.624	 -0.069	 -0.015	  0.024	 31.300	 99.442	  0.891
36236	 -0.001	 -0.021	  0.365	 -0.174	  1.417	 -9.470	  0.117	  0.037	  0.010	 31.300	 99.453	 -0.092
36287	 -0.004	 -0.015	  0.365	 -0.417	  0.939	 -9.506	  0.293	  0.082	  0.026	 31.300	 99.457	 -0.449
36337	 -0.004	 -0.011	  0.359	 -0.229	  0.825	 -9.566	  0.404	  0.116	  0.021	 31.300	 99.453	 -0.092
36387	 -0.007	  0.001	  0.354	  0.029	  0.264	 -9.802	  0.521	  0.140	  0.070	 31.300	 99.453	 -0.092
36437	 -0.009	  0.008	  0.360	  2.846	  0.425	 -7.658	 -0.115	 -0.018	  0.244	 31.300	 99.453	 -0.092
36487	 -0.005	  0.008	  0.356	  0.006	  0.361	 -9.717	 -0.003	  0.007	  0.007	 31.300	 99.453	 -0.092
36537	 -0.006	  0.010	  0.359	 -0.061	 -0.106	 -9.507	  0.009	  0.019	  0.002	 31.300	 99.442	  0.891
36587	 -0.007	  0.008	  0.356	  0.198	 -0.169	 -10.062	 -0.037	 -0.055	  0.001	 31.300	 99.469	 -1.522
36637	 -0.006	  0.011	  0.350	  0.041	 -0.196	 -9.861	 -0.001	  0.007	  0.001	 31.300	 99.464	 -1.075
36687	 -0.007	  0.010	  0.354	  0.073	 -0.113	 -9.706	 -0.003	 -0.003	 -0.002	 31.300	 99.453	 -0.092
36737	 -0.007	  0.006	  0.360	  0.090	  0.013	 -9.877	 -0.004	 -0.005	  0.002	 31.300	 99.442	  0.891
36787	 -0.007	  0.008	  0.350	 -0.053	 -0.150	 -9.876	 -0.002	  0.004	  0.001	 31.300	 99.457	 -0.449
36837	 -0.004	  0.008	  0.356	 -0.013	 -0.083	 -9.785	 -0.003	 -0.002	 -0.001	 31.300	 99.442	  0.891
36887	 -0.007	  0.010	  0.355	  0.149	 -0.020	 -9.855	 -0.004	  0.005	  0.003	 31.300	 99.442	  0.891
36937	 -0.006	  0.009	  0.360	 -0.058	 -0.081	 -9.782	 -0.004	  0.001	  0.001	 31.300	 99.453	 -0.092
36987	 -0.007	  0.008	  0.352	 -0.051	 -0.107	 -9.814	 -0.005	  0.002	  0.001	 31.300	 99.442	  0.891
37037	 -0.007	  0.005	  0.353	  0.192	 -0.089	 -9.905	 -0.004	  0.004	 -0.000	 31.300	 99.446	  0.534
37087	 -0.004	  0.010	  0.351	  0.016	 -0.058	 -9.855	 -0.003	  0.002	  0.002	 31.300	 99.453	 -0.092
37137	 -0.007	  0.009	  0.355	 -0.032	 -0.177	 -9.858	 -0.000	  0.004	  0.002	 31.300	 99.464	 -1.075
37187	 -0.005	  0.012	  0.354	 -0.158	  0.067	 -9.844	  0.005	  0.008	 -0.000	 31.300	 99.446	  0.534
37237	 -0.003	  0.013	  0.355	  0.148	 -0.180	 -9.848	 -0.006	 -0.001	  0.002	 31.300	 99.446	  0.534
37287	 -0.006	  0.007	  0.356	 -0.118	 -0.043	 -9.798	 -0.005	 -0.001	  0.002	 31.300	 99.457	 -0.449
37337	 -0.005	  0.008	  0.358	  0.088	 -0.155	 -9.879	 -0.001	  0.005	 -0.001	 31.300	 99.442	  0.891
37387	 -0.004	  0.009	  0.356	  0.155	 -0.076	 -9.841	 -0.002	  0.003	  0.001	 31.300	 99.446	  0.534
37437	 -0.006	  0.007	  0.355	 -0.050	 -0.082	 -9.808	  0.000	  0.003	  0.001	 31.300	 99.442	  0.891
37487	 -0.006	  0.008	  0.356	  0.017	 -0.070	 -9.814	 -0.003	 -0.005	 -0.000	 31.300	 99.453	 -0.092
37537	 -0.006	  0.009	  0.361	  0.029	 -0.083	 -9.766	 -0.001	  0.006	  0.002	 31.300	 99.442	  0.891
37587	 -0.007	  0.012	  0.356	  0.218	 -0.126	 -9.901	  0.002	  0.005	  0.001	 31.300	 99.442	  0.891
37637	 -0.006	  0.013	  0.357	  0.143	 -0.141	 -9.857	 -0.000	  0.003	  0.002	 31.300	 99.457	 -0.449
