Time	 MagX	 MagY	 MagZ	 AccelX	 AccelY	 AccelZ	 Yaw	 Pitch	 Roll	 Temperature	 Pressure	 Altitude
15272	 -0.157	 -0.221	  0.434	  0.115	  0.106	 -9.779	 -0.003	  0.002	  0.001	 29.400	 99.135	 -99999.000
15323	 -0.161	 -0.224	  0.439	  0.104	  0.092	 -9.799	 -0.003	  0.001	  0.001	 29.400	 99.146	 -99999.000
15373	 -0.160	 -0.223	  0.441	  0.084	  0.098	 -9.756	 -0.003	  0.002	  0.002	 29.400	 99.124	 -99999.000
15423	 -0.160	 -0.222	  0.439	  0.131	  0.084	 -9.794	 -0.003	  0.002	  0.001	 29.400	 99.131	 -99999.000
15473	 -0.160	 -0.218	  0.441	  0.114	  0.079	 -9.755	 -0.004	  0.003	  0.001	 29.400	 99.139	 -99999.000
15523	 -0.159	 -0.219	  0.442	  0.099	  0.085	 -9.776	 -0.004	  0.002	  0.002	 29.400	 99.124	 -99999.000
15573	 -0.159	 -0.217	  0.439	  0.111	  0.082	 -9.762	 -0.003	  0.002	  0.000	 29.400	 99.124	 -99999.000
15623	 -0.158	 -0.215	  0.439	  0.094	  0.087	 -9.770	 -0.003	  0.003	  0.002	 29.400	 99.139	 -99999.000
15673	 -0.160	 -0.224	  0.436	  0.104	  0.127	 -9.757	 -0.002	  0.001	  0.001	 29.400	 99.124	 -99999.000
15723	 -0.157	 -0.214	  0.442	  0.090	  0.090	 -9.769	 -0.003	  0.003	  0.000	 29.400	 99.135	 -99999.000
15773	 -0.161	 -0.219	  0.442	  0.115	  0.101	 -9.787	 -0.003	  0.002	  0.000	 29.400	 99.128	 -99999.000
15823	 -0.159	 -0.224	  0.439	  0.127	  0.079	 -9.793	 -0.002	  0.001	  0.002	 29.400	 99.135	 -99999.000
15873	 -0.157	 -0.220	  0.438	  0.115	  0.096	 -9.751	 -0.003	  0.003	  0.002	 29.400	 99.135	 -99999.000
15923	 -0.161	 -0.220	  0.437	  0.089	  0.098	 -9.811	 -0.004	  0.003	  0.001	 29.400	 99.124	 -99999.000
15973	 -0.160	 -0.219	  0.434	  0.138	  0.120	 -9.812	 -0.002	  0.002	  0.001	 29.400	 99.124	 -99999.000
16023	 -0.157	 -0.218	  0.443	  0.113	  0.076	 -9.779	 -0.004	  0.002	  0.001	 29.400	 99.135	 -99999.000
16073	 -0.157	 -0.223	  0.440	  0.099	  0.104	 -9.765	 -0.003	  0.002	  0.000	 29.400	 99.135	 -99999.000
16123	 -0.160	 -0.220	  0.437	  0.102	  0.113	 -9.801	 -0.003	  0.000	  0.002	 29.400	 99.128	 -99999.000
16173	 -0.160	 -0.224	  0.441	  0.110	  0.078	 -9.803	 -0.003	  0.003	  0.000	 29.400	 99.124	 -99999.000
16223	 -0.159	 -0.219	  0.439	  0.098	  0.080	 -9.749	 -0.002	  0.001	  0.002	 29.400	 99.124	 -99999.000
16273	 -0.159	 -0.221	  0.440	  0.107	  0.072	 -9.776	 -0.004	  0.003	  0.001	 29.400	 99.139	 -99999.000
16323	 -0.160	 -0.220	  0.439	  0.121	  0.078	 -9.786	 -0.004	  0.002	  0.001	 29.400	 99.128	 -99999.000
16373	 -0.159	 -0.218	  0.436	  0.093	  0.081	 -9.772	 -0.003	  0.002	  0.001	 29.400	 99.139	 -99999.000
16423	 -0.157	 -0.218	  0.440	  0.124	  0.086	 -9.804	 -0.004	  0.002	  0.001	 29.400	 99.135	 -99999.000
16473	 -0.161	 -0.224	  0.438	  0.120	  0.077	 -9.769	 -0.003	  0.002	  0.002	 29.400	 99.124	 -99999.000
16523	 -0.157	 -0.218	  0.435	  0.099	  0.087	 -9.770	 -0.003	  0.002	  0.001	 29.400	 99.128	 -99999.000
16573	 -0.159	 -0.218	  0.441	  0.101	  0.107	 -9.784	 -0.004	  0.001	  0.001	 29.400	 99.128	 -99999.000
16623	 -0.162	 -0.221	  0.440	  0.112	  0.079	 -9.790	 -0.003	  0.002	  0.001	 29.400	 99.135	 -99999.000
16673	 -0.161	 -0.220	  0.437	  0.122	  0.116	 -9.786	 -0.004	  0.003	  0.002	 29.400	 99.124	 -99999.000
16723	 -0.159	 -0.224	  0.440	  0.094	  0.078	 -9.783	 -0.003	  0.001	  0.001	 29.400	 99.128	 -99999.000
16773	 -0.160	 -0.223	  0.441	  0.117	  0.092	 -9.723	 -0.003	  0.002	  0.001	 29.400	 99.128	 -99999.000
16823	 -0.160	 -0.222	  0.442	  0.106	  0.088	 -9.741	 -0.003	  0.003	  0.001	 29.400	 99.128	 -99999.000
16873	 -0.160	 -0.220	  0.436	  0.110	  0.091	 -9.773	 -0.003	  0.003	  0.001	 29.400	 99.135	 -99999.000
16923	 -0.159	 -0.223	  0.443	  0.122	  0.100	 -9.756	 -0.003	  0.002	 -0.000	 29.400	 99.124	 -99999.000
16973	 -0.160	 -0.223	  0.436	  0.114	  0.105	 -9.750	 -0.003	  0.002	  0.000	 29.400	 99.128	 -99999.000
17023	 -0.160	 -0.221	  0.439	  0.123	  0.080	 -9.766	 -0.004	  0.002	  0.001	 29.400	 99.124	 -99999.000
17073	 -0.160	 -0.221	  0.439	  0.104	  0.074	 -9.763	 -0.004	  0.002	  0.001	 29.400	 99.139	 -99999.000
17123	 -0.160	 -0.221	  0.440	  0.117	  0.092	 -9.781	 -0.003	  0.002	  0.001	 29.400	 99.128	 -99999.000
17173	 -0.160	 -0.222	  0.434	  0.103	  0.077	 -9.767	 -0.004	  0.002	  0.001	 29.400	 99.128	 -99999.000
17223	 -0.160	 -0.221	  0.442	  0.119	  0.096	 -9.779	 -0.003	  0.002	  0.001	 29.400	 99.139	 -99999.000
17273	 -0.160	 -0.224	  0.438	  0.125	  0.106	 -9.783	 -0.003	  0.003	  0.002	 29.400	 99.128	 -99999.000
17323	 -0.161	 -0.225	  0.441	  0.112	  0.075	 -9.762	 -0.003	  0.002	  0.001	 29.400	 99.128	 -99999.000
17373	 -0.159	 -0.221	  0.442	  0.108	  0.105	 -9.755	 -0.004	  0.001	  0.002	 29.400	 99.128	 -99999.000
17423	 -0.159	 -0.224	  0.434	  0.098	  0.101	 -9.778	 -0.003	  0.002	  0.001	 29.400	 99.139	 -99999.000
17473	 -0.160	 -0.223	  0.440	  0.092	  0.099	 -9.768	 -0.004	  0.002	  0.001	 29.400	 99.139	 -99999.000
17523	 -0.159	 -0.221	  0.435	  0.119	  0.123	 -9.729	 -0.003	  0.002	  0.001	 29.400	 99.128	 -99999.000
17573	 -0.161	 -0.223	  0.439	  0.094	  0.100	 -9.808	 -0.004	  0.001	  0.002	 29.400	 99.128	 -99999.000
17623	 -0.161	 -0.222	  0.438	  0.106	  0.106	 -9.731	 -0.003	  0.003	  0.002	 29.400	 99.128	 -99999.000
17673	 -0.161	 -0.223	  0.441	  0.097	  0.098	 -9.789	 -0.004	  0.003	  0.001	 29.400	 99.128	 -99999.000
17723	 -0.161	 -0.222	  0.438	  0.116	  0.090	 -9.778	 -0.003	  0.003	  0.002	 29.400	 99.128	 -99999.000
17773	 -0.158	 -0.225	  0.440	  0.116	  0.099	 -9.778	 -0.002	  0.002	  0.001	 29.400	 99.128	 -99999.000
17823	 -0.160	 -0.216	  0.442	  0.110	  0.096	 -9.765	 -0.003	  0.002	  0.001	 29.400	 99.139	 -99999.000
17873	 -0.161	 -0.226	  0.439	  0.100	  0.062	 -9.721	 -0.003	  0.003	  0.001	 29.400	 99.128	 -99999.000
17923	 -0.160	 -0.224	  0.440	  0.100	  0.073	 -9.774	 -0.004	  0.002	  0.001	 29.400	 99.128	 -99999.000
17973	 -0.157	 -0.220	  0.441	  0.093	  0.072	 -9.789	 -0.003	  0.002	  0.001	 29.400	 99.128	 -99999.000
18023	 -0.160	 -0.220	  0.438	  0.107	  0.090	 -9.797	 -0.004	  0.002	  0.002	 29.400	 99.128	 -99999.000
18073	 -0.159	 -0.223	  0.441	  0.091	  0.096	 -9.754	 -0.004	  0.002	  0.001	 29.400	 99.139	 -99999.000
18123	 -0.158	 -0.223	  0.441	  0.100	  0.107	 -9.736	 -0.003	  0.003	  0.002	 29.400	 99.139	 -99999.000
18173	 -0.160	 -0.221	  0.432	  0.123	  0.112	 -9.796	 -0.003	  0.002	  0.001	 29.400	 99.128	 -99999.000
18223	 -0.160	 -0.219	  0.440	  0.093	  0.070	 -9.766	 -0.002	  0.002	  0.001	 29.400	 99.128	 -99999.000
18273	 -0.158	 -0.225	  0.440	  0.095	  0.107	 -9.749	 -0.004	  0.002	  0.000	 29.400	 99.132	 -99999.000
18323	 -0.158	 -0.224	  0.441	  0.084	  0.079	 -9.757	 -0.003	  0.002	  0.001	 29.400	 99.128	 -99999.000
18373	 -0.159	 -0.222	  0.438	  0.115	  0.088	 -9.782	 -0.003	  0.002	  0.002	 29.400	 99.128	 -99999.000
18422	 -0.161	 -0.223	  0.441	  0.107	  0.092	 -9.770	 -0.003	  0.001	  0.002	 29.400	 99.139	 -99999.000
18473	 -0.160	 -0.218	  0.441	  0.083	  0.113	 -9.773	 -0.003	  0.002	  0.001	 29.400	 99.139	 -99999.000
18523	 -0.159	 -0.217	  0.440	  0.088	  0.108	 -9.749	 -0.003	  0.002	  0.002	 29.400	 99.128	 -99999.000
18573	 -0.161	 -0.224	  0.441	  0.085	  0.090	 -9.754	 -0.003	  0.003	  0.000	 29.400	 99.139	 -99999.000
18623	 -0.161	 -0.220	  0.440	  0.116	  0.095	 -9.790	 -0.003	  0.002	  0.001	 29.400	 99.139	 -99999.000
18673	 -0.161	 -0.224	  0.442	  0.093	  0.095	 -9.762	 -0.003	  0.003	 -0.001	 29.400	 99.128	 -99999.000
18723	 -0.160	 -0.219	  0.437	  0.097	  0.085	 -9.772	 -0.003	  0.002	  0.001	 29.400	 99.139	 -99999.000
18773	 -0.159	 -0.220	  0.438	  0.076	  0.095	 -9.782	 -0.003	  0.002	  0.002	 29.400	 99.139	 -99999.000
18823	 -0.157	 -0.220	  0.439	  0.121	  0.087	 -9.787	 -0.004	  0.001	  0.001	 29.400	 99.128	 -99999.000
18873	 -0.161	 -0.226	  0.445	  0.112	  0.094	 -9.826	 -0.002	  0.003	  0.001	 29.400	 99.139	 -99999.000
18923	 -0.160	 -0.222	  0.441	  0.087	  0.111	 -9.751	 -0.004	  0.003	 -0.000	 29.400	 99.139	 -99999.000
18972	 -0.161	 -0.223	  0.441	  0.130	  0.085	 -9.782	 -0.002	  0.002	  0.001	 29.400	 99.143	 -99999.000
19022	 -0.161	 -0.221	  0.442	  0.112	  0.095	 -9.768	 -0.003	  0.002	  0.001	 29.400	 99.132	 -99999.000
19072	 -0.159	 -0.223	  0.441	  0.117	  0.090	 -9.788	 -0.003	  0.001	  0.001	 29.400	 99.132	 -99999.000
19122	 -0.160	 -0.224	  0.442	  0.101	  0.112	 -9.773	 -0.002	  0.003	  0.002	 29.400	 99.128	 -99999.000
19172	 -0.161	 -0.223	  0.443	  0.100	  0.101	 -9.764	 -0.003	  0.002	  0.001	 29.400	 99.128	 -99999.000
19222	 -0.159	 -0.224	  0.439	  0.110	  0.093	 -9.784	 -0.003	  0.003	  0.002	 29.400	 99.128	 -99999.000
19272	 -0.160	 -0.223	  0.436	  0.106	  0.099	 -9.792	 -0.002	  0.002	  0.002	 29.400	 99.132	 -99999.000
19322	 -0.160	 -0.219	  0.441	  0.108	  0.095	 -9.791	 -0.003	  0.003	  0.001	 29.400	 99.128	 -99999.000
19372	 -0.160	 -0.222	  0.438	  0.086	  0.099	 -9.811	 -0.003	  0.002	  0.001	 29.400	 99.132	 -99999.000
19422	 -0.161	 -0.221	  0.438	  0.120	  0.074	 -9.793	 -0.004	  0.002	  0.001	 29.400	 99.132	 -99999.000
19472	 -0.161	 -0.222	  0.438	  0.097	  0.093	 -9.754	 -0.003	  0.003	  0.000	 29.400	 99.117	 -99999.000
19522	 -0.160	 -0.220	  0.439	  0.100	  0.115	 -9.758	 -0.003	  0.002	  0.001	 29.400	 99.143	 -99999.000
19572	 -0.159	 -0.220	  0.439	  0.108	  0.091	 -9.791	 -0.003	  0.002	  0.001	 29.400	 99.128	 -99999.000
19622	 -0.161	 -0.224	  0.444	  0.121	  0.111	 -9.800	 -0.003	  0.002	  0.001	 29.400	 99.128	 -99999.000
19672	 -0.161	 -0.222	  0.439	  0.123	  0.081	 -9.775	 -0.004	  0.002	  0.001	 29.400	 99.128	 -99999.000
19722	 -0.158	 -0.220	  0.441	  0.108	  0.087	 -9.770	 -0.004	  0.003	  0.001	 29.400	 99.121	 -99999.000
19772	 -0.160	 -0.218	  0.442	  0.093	  0.098	 -9.786	 -0.003	  0.002	  0.002	 29.400	 99.121	 -99999.000
19822	 -0.159	 -0.222	  0.440	  0.094	  0.088	 -9.785	 -0.003	  0.001	  0.001	 29.400	 99.139	 -99999.000
19872	 -0.159	 -0.221	  0.442	  0.128	  0.097	 -9.745	 -0.003	  0.003	  0.001	 29.400	 99.128	 -99999.000
19922	 -0.159	 -0.215	  0.439	  0.086	  0.093	 -9.746	 -0.002	  0.002	 -0.000	 29.400	 99.132	 -99999.000
19972	 -0.160	 -0.220	  0.441	  0.099	  0.081	 -9.787	 -0.003	  0.001	  0.001	 29.400	 99.128	 -99999.000
20022	 -0.160	 -0.220	  0.438	  0.133	  0.103	 -9.777	 -0.002	  0.002	  0.001	 29.400	 99.132	 -99999.000
20072	 -0.157	 -0.222	  0.438	  0.121	  0.100	 -9.783	 -0.003	  0.001	  0.001	 29.400	 99.132	 -99999.000
20122	 -0.160	 -0.221	  0.439	  0.118	  0.085	 -9.768	 -0.003	  0.001	  0.001	 29.400	 99.128	 -99999.000
20172	 -0.160	 -0.224	  0.442	  0.096	  0.092	 -9.772	 -0.003	  0.002	  0.001	 29.400	 99.121	 -99999.000
20222	 -0.160	 -0.217	  0.443	  0.090	  0.120	 -9.788	 -0.003	  0.002	  0.001	 29.400	 99.132	 -99999.000
20272	 -0.157	 -0.219	  0.441	  0.098	  0.090	 -9.739	 -0.003	  0.002	  0.000	 29.400	 99.132	 -99999.000
20322	 -0.158	 -0.220	  0.435	  0.116	  0.090	 -9.781	 -0.003	  0.002	  0.000	 29.400	 99.128	 -99999.000
20373	 -0.159	 -0.222	  0.440	  0.130	  0.087	 -9.771	 -0.002	  0.002	  0.001	 29.400	 99.132	 -99999.000
20422	 -0.158	 -0.225	  0.440	  0.100	  0.112	 -9.757	 -0.004	  0.003	  0.001	 29.400	 99.132	 -99999.000
20473	 -0.160	 -0.223	  0.433	  0.089	  0.087	 -9.758	 -0.005	  0.002	  0.000	 29.400	 99.132	 -99999.000
20523	 -0.161	 -0.224	  0.439	  0.102	  0.087	 -9.760	 -0.003	  0.001	  0.001	 29.400	 99.132	 -99999.000
20573	 -0.157	 -0.222	  0.439	  0.120	  0.083	 -9.773	 -0.002	  0.002	  0.001	 29.400	 99.132	 -99999.000
20623	 -0.160	 -0.218	  0.440	  0.121	  0.083	 -9.794	 -0.003	  0.003	  0.001	 29.400	 99.132	 -99999.000
20673	 -0.159	 -0.220	  0.442	  0.094	  0.080	 -9.770	 -0.002	  0.002	  0.001	 29.400	 99.132	 -99999.000
20723	 -0.160	 -0.224	  0.439	  0.104	  0.101	 -9.812	 -0.002	  0.001	  0.001	 29.400	 99.132	 -99999.000
20773	 -0.160	 -0.218	  0.441	  0.118	  0.093	 -9.775	 -0.003	  0.002	  0.001	 29.400	 99.132	 -99999.000
20823	 -0.161	 -0.224	  0.442	  0.113	  0.097	 -9.745	 -0.003	  0.002	  0.001	 29.400	 99.132	 -99999.000
20873	 -0.158	 -0.213	  0.442	  0.097	  0.079	 -9.796	 -0.004	  0.001	  0.001	 29.400	 99.132	 -99999.000
20923	 -0.160	 -0.216	  0.441	  0.094	  0.083	 -9.774	 -0.002	  0.002	  0.001	 29.400	 99.121	 -99999.000
20973	 -0.160	 -0.217	  0.440	  0.110	  0.103	 -9.772	 -0.003	  0.003	  0.001	 29.400	 99.121	 -99999.000
21023	 -0.160	 -0.222	  0.439	  0.111	  0.079	 -9.734	 -0.003	  0.003	  0.000	 29.400	 99.121	 -99999.000
21073	 -0.159	 -0.224	  0.438	  0.091	  0.089	 -9.761	 -0.003	  0.001	  0.001	 29.400	 99.132	 -99999.000
21123	 -0.158	 -0.222	  0.437	  0.081	  0.087	 -9.754	 -0.003	  0.002	  0.001	 29.400	 99.132	 -99999.000
21173	 -0.161	 -0.221	  0.439	  0.118	  0.088	 -9.767	 -0.003	  0.002	  0.001	 29.400	 99.121	 -99999.000
21223	 -0.158	 -0.221	  0.435	  0.134	  0.084	 -9.779	 -0.003	  0.003	  0.001	 29.400	 99.132	 -99999.000
24223	 -0.158	 -0.225	  0.440	  0.106	  0.086	 -9.669	 -0.003	  0.002	  0.002	 29.400	 99.136	 -0.467
24272	 -0.160	 -0.218	  0.440	  0.126	  0.063	 -9.794	 -0.005	  0.003	  0.002	 29.400	 99.125	  0.519
24322	 -0.161	 -0.226	  0.440	  0.082	  0.094	 -9.777	 -0.001	  0.000	  0.002	 29.400	 99.140	 -0.825
24372	 -0.159	 -0.221	  0.434	  0.108	  0.109	 -9.778	 -0.003	  0.002	  0.002	 29.400	 99.125	  0.519
24422	 -0.158	 -0.223	  0.441	  0.082	  0.094	 -9.766	 -0.002	  0.001	  0.001	 29.400	 99.125	  0.519
24472	 -0.160	 -0.221	  0.438	  0.099	  0.119	 -9.765	 -0.004	  0.001	  0.001	 29.400	 99.129	  0.160
24522	 -0.161	 -0.221	  0.440	  0.106	  0.100	 -9.754	 -0.003	  0.002	  0.001	 29.400	 99.129	  0.160
24572	 -0.160	 -0.220	  0.440	  0.137	  0.106	 -9.760	 -0.003	  0.002	  0.002	 29.400	 99.129	  0.160
24622	 -0.160	 -0.226	  0.435	  0.059	  0.135	 -9.785	 -0.005	  0.001	  0.001	 29.400	 99.140	 -0.825
24672	 -0.160	 -0.224	  0.441	  0.173	  0.081	 -9.773	 -0.004	  0.004	  0.001	 29.400	 99.125	  0.519
24722	 -0.159	 -0.221	  0.438	  0.106	  0.081	 -9.796	 -0.002	  0.002	  0.001	 29.400	 99.129	  0.160
24772	 -0.160	 -0.223	  0.439	  0.119	  0.088	 -9.749	 -0.004	  0.002	  0.002	 29.400	 99.136	 -0.467
24822	 -0.161	 -0.220	  0.440	  0.095	  0.092	 -9.790	 -0.003	  0.003	  0.001	 29.400	 99.129	  0.160
24872	 -0.159	 -0.223	  0.435	  0.132	  0.082	 -9.785	 -0.003	  0.001	  0.002	 29.400	 99.129	  0.160
24922	 -0.159	 -0.218	  0.438	  0.099	  0.087	 -9.772	 -0.004	  0.002	  0.002	 29.400	 99.125	  0.519
24972	 -0.159	 -0.224	  0.442	  0.115	  0.106	 -9.760	 -0.003	  0.002	  0.001	 29.400	 99.129	  0.160
25022	 -0.159	 -0.222	  0.437	  0.124	  0.106	 -9.783	 -0.003	  0.003	  0.002	 29.400	 99.129	  0.160
25072	 -0.160	 -0.225	  0.435	  0.113	  0.101	 -9.785	 -0.003	  0.001	 -0.000	 29.400	 99.129	  0.160
25122	 -0.161	 -0.224	  0.439	  0.116	  0.087	 -9.745	 -0.002	  0.002	  0.001	 29.400	 99.129	  0.160
25172	 -0.161	 -0.220	  0.435	  0.123	  0.106	 -9.780	 -0.004	  0.001	  0.001	 29.400	 99.129	  0.160
25222	 -0.160	 -0.220	  0.440	  0.107	  0.078	 -9.762	 -0.003	  0.002	  0.000	 29.400	 99.140	 -0.825
25272	 -0.159	 -0.223	  0.435	  0.127	  0.087	 -9.803	 -0.003	  0.003	  0.000	 29.400	 99.129	  0.160
25322	 -0.159	 -0.219	  0.439	  0.123	  0.118	 -9.733	 -0.005	  0.003	  0.001	 29.400	 99.136	 -0.467
25372	 -0.159	 -0.224	  0.437	  0.106	  0.094	 -9.782	 -0.002	  0.001	  0.001	 29.400	 99.118	  1.146
25422	 -0.159	 -0.219	  0.439	  0.129	  0.094	 -9.805	 -0.003	  0.003	  0.001	 29.400	 99.129	  0.160
25472	 -0.160	 -0.219	  0.442	  0.122	  0.081	 -9.746	 -0.003	  0.002	  0.001	 29.500	 99.133	 -0.198
25522	 -0.161	 -0.223	  0.440	  0.113	  0.086	 -9.791	 -0.003	  0.002	  0.002	 29.400	 99.129	  0.160
25572	 -0.159	 -0.221	  0.440	  0.103	  0.097	 -9.781	 -0.002	  0.001	  0.002	 29.400	 99.129	  0.160
25622	 -0.160	 -0.224	  0.443	  0.120	  0.084	 -9.751	 -0.002	  0.002	  0.000	 29.400	 99.129	  0.160
25673	 -0.159	 -0.217	  0.440	  0.089	  0.101	 -9.737	 -0.002	  0.002	  0.000	 29.400	 99.140	 -0.825
25722	 -0.161	 -0.224	  0.443	  0.108	  0.097	 -9.795	 -0.004	  0.001	  0.001	 29.400	 99.129	  0.160
25773	 -0.159	 -0.223	  0.437	  0.104	  0.094	 -9.778	 -0.003	  0.002	  0.001	 29.400	 99.129	  0.160
25822	 -0.158	 -0.221	  0.437	  0.115	  0.106	 -9.764	 -0.004	  0.002	  0.001	 29.400	 99.129	  0.160
25873	 -0.158	 -0.221	  0.440	  0.106	  0.112	 -9.765	 -0.003	  0.001	  0.002	 29.400	 99.129	  0.160
25923	 -0.159	 -0.222	  0.435	  0.131	  0.092	 -9.772	 -0.004	  0.003	  0.001	 29.400	 99.129	  0.160
25973	 -0.161	 -0.224	  0.441	  0.112	  0.071	 -9.788	 -0.003	  0.002	  0.001	 29.400	 99.129	  0.160
26022	 -0.159	 -0.224	  0.441	  0.105	  0.094	 -9.782	 -0.002	  0.001	  0.001	 29.400	 99.129	  0.160
26073	 -0.158	 -0.224	  0.442	  0.098	  0.088	 -9.789	 -0.003	  0.002	  0.001	 29.400	 99.140	 -0.825
26123	 -0.158	 -0.223	  0.441	  0.116	  0.106	 -9.767	 -0.003	  0.003	  0.001	 29.400	 99.140	 -0.825
26173	 -0.159	 -0.219	  0.441	  0.110	  0.087	 -9.758	 -0.003	  0.002	  0.001	 29.400	 99.133	 -0.198
26223	 -0.160	 -0.226	  0.435	  0.121	  0.087	 -9.773	 -0.003	  0.002	  0.001	 29.400	 99.129	  0.160
26273	 -0.159	 -0.224	  0.441	  0.111	  0.078	 -9.767	 -0.003	  0.002	  0.001	 29.400	 99.129	  0.160
26323	 -0.160	 -0.222	  0.435	  0.110	  0.080	 -9.753	 -0.002	  0.002	 -0.000	 29.400	 99.129	  0.160
26373	 -0.160	 -0.220	  0.436	  0.130	  0.083	 -9.776	 -0.003	  0.001	  0.000	 29.400	 99.129	  0.160
26423	 -0.159	 -0.221	  0.439	  0.110	  0.103	 -9.772	 -0.003	  0.002	  0.003	 29.400	 99.129	  0.160
26473	 -0.161	 -0.225	  0.440	  0.125	  0.080	 -9.789	 -0.003	  0.002	  0.000	 29.400	 99.129	  0.160
26523	 -0.160	 -0.218	  0.438	  0.124	  0.106	 -9.755	 -0.003	  0.002	  0.001	 29.400	 99.129	  0.160
26573	 -0.160	 -0.223	  0.440	  0.110	  0.100	 -9.749	 -0.003	  0.003	 -0.000	 29.400	 99.129	  0.160
26623	 -0.158	 -0.224	  0.439	  0.113	  0.110	 -9.786	 -0.002	  0.001	  0.001	 29.400	 99.125	  0.519
26673	 -0.159	 -0.224	  0.437	  0.125	  0.086	 -9.776	 -0.002	  0.002	  0.002	 29.400	 99.133	 -0.198
26723	 -0.161	 -0.222	  0.439	  0.110	  0.082	 -9.762	 -0.003	  0.001	  0.000	 29.400	 99.129	  0.160
26773	 -0.160	 -0.224	  0.440	  0.100	  0.109	 -9.746	 -0.003	  0.001	  0.002	 29.400	 99.118	  1.146
26823	 -0.159	 -0.223	  0.441	  0.102	  0.082	 -9.775	 -0.003	  0.002	  0.001	 29.400	 99.129	  0.160
26873	 -0.160	 -0.222	  0.439	  0.101	  0.091	 -9.798	 -0.003	  0.002	  0.001	 29.400	 99.129	  0.160
26923	 -0.158	 -0.223	  0.438	  0.101	  0.085	 -9.753	 -0.003	  0.003	  0.001	 29.500	 99.133	 -0.198
26973	 -0.160	 -0.223	  0.433	  0.101	  0.081	 -9.795	 -0.004	  0.002	  0.002	 29.500	 99.129	  0.160
27023	 -0.161	 -0.221	  0.442	  0.065	  0.090	 -9.765	 -0.004	  0.002	  0.002	 29.400	 99.129	  0.160
27073	 -0.157	 -0.216	  0.441	  0.092	  0.104	 -9.760	 -0.003	  0.002	  0.002	 29.400	 99.129	  0.160
27123	 -0.160	 -0.225	  0.440	  0.124	  0.077	 -9.768	 -0.004	  0.001	  0.001	 29.500	 99.133	 -0.198
27173	 -0.160	 -0.224	  0.442	  0.100	  0.092	 -9.769	 -0.003	  0.002	  0.002	 29.400	 99.118	  1.146
27223	 -0.162	 -0.222	  0.441	  0.113	  0.086	 -9.771	 -0.004	  0.002	  0.001	 29.400	 99.118	  1.146
27273	 -0.160	 -0.223	  0.441	  0.104	  0.094	 -9.754	 -0.002	  0.002	  0.002	 29.400	 99.133	 -0.198
27323	 -0.159	 -0.223	  0.442	  0.115	  0.090	 -9.780	 -0.003	  0.003	  0.001	 29.400	 99.129	  0.160
27373	 -0.160	 -0.223	  0.442	  0.116	  0.105	 -9.737	 -0.004	  0.001	  0.002	 29.500	 99.133	 -0.198
27423	 -0.160	 -0.221	  0.440	  0.103	  0.084	 -9.797	 -0.003	  0.002	  0.002	 29.400	 99.118	  1.146
27473	 -0.160	 -0.224	  0.439	  0.094	  0.103	 -9.797	 -0.003	  0.002	  0.001	 29.500	 99.129	  0.160
27523	 -0.159	 -0.220	  0.440	  0.513	  0.093	 -10.109	 -0.013	  0.003	 -0.000	 29.500	 99.145	 -1.273
27573	 -0.160	 -0.222	  0.440	  0.126	  0.024	 -9.766	 -0.002	  0.003	  0.002	 29.500	 99.133	 -0.198
27623	 -0.159	 -0.222	  0.434	  0.121	  0.092	 -9.752	 -0.002	  0.000	  0.000	 29.400	 99.129	  0.160
27673	 -0.157	 -0.222	  0.437	  0.119	  0.095	 -9.760	 -0.004	  0.002	  0.000	 29.500	 99.133	 -0.198
27723	 -0.161	 -0.220	  0.441	  0.096	  0.107	 -9.752	 -0.002	  0.003	  0.001	 29.500	 99.133	 -0.198
27773	 -0.158	 -0.223	  0.434	  0.108	  0.080	 -9.797	 -0.003	  0.002	  0.002	 29.500	 99.133	 -0.198
27823	 -0.159	 -0.222	  0.439	  0.118	  0.113	 -9.786	 -0.003	  0.002	  0.001	 29.400	 99.118	  1.146
27873	 -0.159	 -0.226	  0.442	  0.109	  0.084	 -9.780	 -0.002	  0.002	  0.000	 29.400	 99.133	 -0.198
27923	 -0.159	 -0.214	  0.441	  0.100	  0.084	 -9.808	 -0.003	  0.002	  0.002	 29.500	 99.122	  0.787
27973	 -0.157	 -0.220	  0.440	  0.110	  0.091	 -9.749	 -0.003	  0.002	  0.000	 29.500	 99.133	 -0.198
28023	 -0.160	 -0.223	  0.438	  0.128	  0.084	 -9.744	 -0.004	  0.003	  0.001	 29.400	 99.118	  1.146
28073	 -0.160	 -0.221	  0.439	  0.116	  0.079	 -9.765	 -0.003	  0.004	  0.002	 29.500	 99.133	 -0.198
28123	 -0.159	 -0.220	  0.440	  0.121	  0.090	 -9.789	 -0.004	  0.002	  0.001	 29.500	 99.133	 -0.198
28173	 -0.160	 -0.223	  0.440	  0.086	  0.078	 -9.757	 -0.003	  0.001	  0.002	 29.400	 99.133	 -0.198
28223	 -0.160	 -0.222	  0.441	  0.104	  0.093	 -9.796	 -0.002	  0.002	  0.001	 29.500	 99.133	 -0.198
28273	 -0.160	 -0.222	  0.435	  0.095	  0.103	 -9.780	 -0.003	  0.002	  0.001	 29.400	 99.133	 -0.198
28323	 -0.159	 -0.221	  0.439	  0.126	  0.114	 -9.764	 -0.003	  0.001	  0.001	 29.500	 99.122	  0.787
28373	 -0.162	 -0.221	  0.436	  0.099	  0.076	 -9.783	 -0.004	  0.003	  0.002	 29.400	 99.133	 -0.198
28423	 -0.159	 -0.223	  0.435	  0.105	  0.079	 -9.747	 -0.003	  0.002	  0.001	 29.500	 99.133	 -0.198
28473	 -0.161	 -0.222	  0.439	  0.121	  0.086	 -9.782	 -0.003	  0.002	  0.002	 29.500	 99.133	 -0.198
28523	 -0.158	 -0.216	  0.443	  0.117	  0.092	 -9.758	 -0.003	  0.003	  0.001	 29.500	 99.122	  0.787
28573	 -0.159	 -0.224	  0.440	  0.085	  0.096	 -9.745	 -0.003	  0.002	  0.001	 29.500	 99.122	  0.787
28623	 -0.161	 -0.222	  0.441	  0.111	  0.072	 -9.790	 -0.003	  0.001	  0.002	 29.500	 99.122	  0.787
28673	 -0.161	 -0.223	  0.439	  0.035	  0.001	 -9.748	 -0.005	  0.002	  0.001	 29.500	 99.133	 -0.198
28723	 -0.159	 -0.223	  0.440	  0.196	  0.155	 -9.791	 -0.004	  0.002	  0.001	 29.500	 99.122	  0.787
28773	 -0.158	 -0.226	  0.441	  0.103	  0.118	 -9.803	 -0.003	  0.001	  0.001	 29.500	 99.145	 -1.273
28823	 -0.160	 -0.222	  0.438	  0.114	  0.112	 -9.798	 -0.003	  0.002	  0.001	 29.500	 99.133	 -0.198
28873	 -0.159	 -0.223	  0.441	  0.101	  0.076	 -9.790	 -0.002	  0.003	  0.001	 29.500	 99.133	 -0.198
28923	 -0.160	 -0.222	  0.435	  0.107	  0.111	 -9.782	 -0.003	  0.004	  0.001	 29.500	 99.122	  0.787
28973	 -0.161	 -0.223	  0.439	  0.086	  0.074	 -9.796	 -0.004	  0.002	  0.001	 29.500	 99.115	  1.415
29023	 -0.159	 -0.221	  0.438	  0.107	  0.087	 -9.792	 -0.004	  0.002	  0.000	 29.500	 99.129	  0.160
29073	 -0.161	 -0.223	  0.441	  0.140	  0.091	 -9.752	 -0.004	  0.001	  0.002	 29.500	 99.133	 -0.198
29123	 -0.157	 -0.220	  0.441	  0.091	  0.079	 -9.787	 -0.002	  0.002	  0.001	 29.500	 99.133	 -0.198
29173	 -0.161	 -0.223	  0.438	  0.110	  0.117	 -9.807	 -0.003	  0.003	  0.001	 29.500	 99.140	 -0.825
29223	 -0.162	 -0.223	  0.439	  0.107	  0.037	 -9.762	 -0.003	  0.002	  0.002	 29.500	 99.129	  0.160
29273	 -0.160	 -0.218	  0.441	 -0.115	  0.575	 -9.491	  0.005	  0.004	  0.006	 29.500	 99.133	 -0.198
29323	 -0.160	 -0.224	  0.443	  0.046	  0.049	 -9.728	 -0.002	 -0.002	  0.002	 29.500	 99.133	 -0.198
29373	 -0.161	 -0.222	  0.440	  0.134	  0.105	 -9.778	 -0.004	  0.004	  0.000	 29.500	 99.138	 -0.646
29423	 -0.159	 -0.226	  0.441	  0.117	  0.118	 -9.765	 -0.001	  0.001	  0.002	 29.500	 99.133	 -0.198
29473	 -0.161	 -0.223	  0.440	  0.090	  0.063	 -9.813	 -0.003	  0.003	  0.001	 29.500	 99.133	 -0.198
29523	 -0.159	 -0.222	  0.441	  0.142	  0.129	 -9.784	 -0.002	  0.001	  0.001	 29.500	 99.138	 -0.646
29573	 -0.160	 -0.215	  0.439	  0.103	  0.094	 -9.798	 -0.003	  0.003	  0.001	 29.500	 99.122	  0.787
29623	 -0.160	 -0.220	  0.440	  0.117	  0.096	 -9.791	 -0.003	  0.001	  0.000	 29.500	 99.133	 -0.198
29673	 -0.160	 -0.220	  0.442	  0.097	  0.094	 -9.779	 -0.003	  0.001	  0.001	 29.500	 99.133	 -0.198
29723	 -0.159	 -0.221	  0.437	  0.152	 -0.003	 -9.833	 -0.004	  0.004	  0.001	 29.500	 99.133	 -0.198
29773	 -0.160	 -0.220	  0.439	  0.065	  0.051	 -9.836	 -0.001	 -0.002	  0.003	 29.500	 99.133	 -0.198
29823	 -0.159	 -0.220	  0.442	  0.064	  0.069	 -9.784	 -0.004	  0.003	  0.001	 29.500	 99.122	  0.787
29873	 -0.159	 -0.223	  0.437	  0.131	  0.128	 -9.704	 -0.003	  0.001	  0.001	 29.500	 99.133	 -0.198
29923	 -0.160	 -0.224	  0.440	  0.113	  0.171	 -9.813	 -0.004	  0.002	  0.002	 29.500	 99.122	  0.787
29973	 -0.159	 -0.222	  0.440	  0.117	  0.050	 -9.822	 -0.003	  0.001	 -0.000	 29.500	 99.138	 -0.646
30023	 -0.160	 -0.220	  0.441	  0.189	  0.323	 -9.687	 -0.000	  0.002	  0.001	 29.500	 99.138	 -0.646
30073	 -0.161	 -0.221	  0.439	  0.077	  0.049	 -9.752	 -0.003	  0.004	  0.001	 29.500	 99.138	 -0.646
30123	 -0.160	 -0.222	  0.437	  0.043	 -0.035	 -9.899	 -0.001	 -0.002	  0.003	 29.500	 99.138	 -0.646
30173	 -0.160	 -0.219	  0.437	  0.073	  0.103	 -9.759	 -0.003	  0.002	  0.002	 29.500	 99.138	 -0.646
30223	 -0.160	 -0.221	  0.440	  0.151	  0.129	 -9.689	 -0.004	  0.002	  0.002	 29.500	 99.133	 -0.198
30273	 -0.162	 -0.226	  0.439	  0.068	  0.081	 -9.788	 -0.003	  0.002	  0.000	 29.500	 99.138	 -0.646
30323	 -0.160	 -0.214	  0.440	  0.101	  0.074	 -9.796	 -0.004	  0.002	  0.001	 29.500	 99.138	 -0.646
30373	 -0.160	 -0.224	  0.439	 -0.050	 -0.012	 -9.770	 -0.005	  0.002	  0.002	 29.500	 99.138	 -0.646
30423	 -0.159	 -0.223	  0.439	  0.162	  0.120	 -9.725	 -0.004	  0.003	  0.001	 29.500	 99.138	 -0.646
30473	 -0.158	 -0.224	  0.439	  0.289	  0.101	 -9.917	 -0.006	  0.004	 -0.001	 29.500	 99.138	 -0.646
30523	 -0.160	 -0.224	  0.438	  0.125	  0.106	 -9.714	 -0.001	  0.000	  0.001	 29.500	 99.115	  1.415
30573	 -0.158	 -0.225	  0.439	  0.069	  0.015	 -9.756	 -0.004	  0.004	  0.001	 29.500	 99.138	 -0.646
30623	 -0.158	 -0.224	  0.438	  0.087	  0.123	 -9.675	 -0.002	  0.000	  0.000	 29.500	 99.126	  0.429
30673	 -0.159	 -0.222	  0.435	  0.101	  0.033	 -9.810	 -0.004	  0.003	  0.001	 29.500	 99.126	  0.429
30723	 -0.158	 -0.225	  0.441	  0.461	  0.120	 -9.826	 -0.002	  0.003	 -0.005	 29.500	 99.138	 -0.646
30773	 -0.158	 -0.225	  0.438	  0.134	  0.029	 -9.787	 -0.002	  0.001	  0.003	 29.500	 99.122	  0.787
30823	 -0.158	 -0.221	  0.437	  0.052	  0.102	 -9.820	 -0.004	  0.002	 -0.000	 29.500	 99.138	 -0.646
30873	 -0.159	 -0.220	  0.439	  0.073	  0.080	 -9.696	 -0.002	  0.002	  0.002	 29.500	 99.122	  0.787
30923	 -0.160	 -0.223	  0.439	  0.092	  0.072	 -9.737	 -0.003	  0.002	  0.001	 29.500	 99.133	 -0.198
30974	 -0.160	 -0.223	  0.441	  0.140	  0.068	 -9.810	 -0.003	  0.003	  0.003	 29.500	 99.126	  0.429
31022	 -0.159	 -0.216	  0.441	  0.129	  0.135	 -9.762	 -0.002	  0.002	  0.000	 29.500	 99.138	 -0.646
31072	 -0.160	 -0.222	  0.433	  0.088	  0.073	 -9.777	 -0.003	  0.002	  0.002	 29.500	 99.138	 -0.646
31123	 -0.159	 -0.220	  0.440	  0.104	  0.056	 -9.753	 -0.003	  0.001	  0.000	 29.500	 99.126	  0.429
31173	 -0.157	 -0.223	  0.440	  0.086	  0.103	 -9.811	 -0.003	  0.002	  0.001	 29.500	 99.126	  0.429
31224	 -0.161	 -0.223	  0.438	  0.087	  0.114	 -9.763	 -0.003	  0.003	  0.002	 29.500	 99.126	  0.429
31274	 -0.160	 -0.226	  0.438	  0.115	  0.121	 -9.754	 -0.003	  0.001	  0.001	 29.500	 99.138	 -0.646
31323	 -0.162	 -0.219	  0.439	  0.099	  0.090	 -9.752	 -0.003	  0.001	  0.002	 29.500	 99.138	 -0.646
31373	 -0.159	 -0.218	  0.437	  0.121	  0.091	 -9.760	 -0.003	  0.002	  0.002	 29.500	 99.122	  0.787
31423	 -0.161	 -0.222	  0.437	  0.126	  0.120	 -9.770	 -0.004	  0.003	  0.002	 29.500	 99.138	 -0.646
31474	 -0.159	 -0.216	  0.438	  0.103	  0.094	 -9.784	 -0.003	  0.001	  0.001	 29.500	 99.138	 -0.646
31523	 -0.161	 -0.218	  0.438	  0.134	  0.100	 -9.789	 -0.004	  0.002	  0.001	 29.500	 99.138	 -0.646
31573	 -0.160	 -0.219	  0.437	  0.071	  0.103	 -9.785	 -0.003	  0.002	  0.001	 29.500	 99.138	 -0.646
31623	 -0.160	 -0.214	  0.434	  0.140	  0.099	 -9.781	 -0.002	  0.003	  0.001	 29.500	 99.126	  0.429
31673	 -0.161	 -0.218	  0.439	  0.107	  0.076	 -9.744	 -0.004	  0.001	  0.000	 29.500	 99.126	  0.429
31723	 -0.160	 -0.218	  0.437	  0.116	  0.066	 -9.799	 -0.003	  0.002	  0.001	 29.500	 99.138	 -0.646
31773	 -0.159	 -0.213	  0.440	  0.118	  0.092	 -9.780	 -0.003	  0.000	  0.001	 29.500	 99.138	 -0.646
31823	 -0.158	 -0.217	  0.439	  0.085	  0.084	 -9.798	 -0.002	  0.003	  0.001	 29.500	 99.126	  0.429
31873	 -0.160	 -0.218	  0.435	  0.105	  0.102	 -9.805	 -0.004	  0.002	  0.002	 29.500	 99.131	 -0.018
31923	 -0.156	 -0.214	  0.435	  0.117	  0.043	 -9.789	 -0.003	  0.002	  0.001	 29.500	 99.126	  0.429
31973	 -0.157	 -0.212	  0.434	  0.102	  0.121	 -9.775	 -0.003	  0.002	  0.001	 29.500	 99.138	 -0.646
32023	 -0.153	 -0.218	  0.438	  0.107	  0.091	 -9.795	 -0.003	  0.002	  0.000	 29.500	 99.126	  0.429
32073	 -0.156	 -0.215	  0.434	  0.124	  0.083	 -9.791	 -0.003	  0.002	  0.001	 29.500	 99.126	  0.429
32123	 -0.153	 -0.212	  0.437	  0.119	  0.098	 -9.798	 -0.003	  0.001	  0.001	 29.500	 99.138	 -0.646
32173	 -0.155	 -0.215	  0.437	  0.069	  0.110	 -9.723	 -0.002	  0.002	  0.001	 29.500	 99.126	  0.429
32223	 -0.155	 -0.213	  0.437	  0.102	  0.067	 -9.757	 -0.003	  0.002	  0.001	 29.500	 99.138	 -0.646
32273	 -0.154	 -0.213	  0.439	  0.099	  0.135	 -9.749	 -0.003	  0.003	  0.001	 29.500	 99.126	  0.429
32323	 -0.154	 -0.214	  0.437	  0.098	  0.123	 -9.796	 -0.003	  0.002	  0.002	 29.500	 99.138	 -0.646
32373	 -0.155	 -0.222	  0.439	  0.112	  0.086	 -9.778	 -0.003	  0.002	  0.000	 29.500	 99.131	 -0.018
32423	 -0.154	 -0.226	  0.432	  0.103	  0.093	 -9.747	 -0.003	  0.001	  0.002	 29.500	 99.138	 -0.646
32473	 -0.155	 -0.220	  0.438	  0.069	  0.084	 -9.817	 -0.003	  0.002	  0.002	 29.500	 99.131	 -0.018
32523	 -0.156	 -0.227	  0.440	  0.128	  0.082	 -9.757	 -0.004	  0.003	  0.001	 29.500	 99.138	 -0.646
32573	 -0.155	 -0.226	  0.440	  0.116	  0.074	 -9.778	 -0.003	  0.001	  0.002	 29.500	 99.126	  0.429
32623	 -0.155	 -0.218	  0.436	  0.103	  0.100	 -9.767	 -0.003	  0.002	  0.000	 29.500	 99.142	 -1.004
32673	 -0.154	 -0.228	  0.437	  0.112	  0.093	 -9.801	 -0.003	  0.002	 -0.000	 29.500	 99.126	  0.429
32723	 -0.153	 -0.231	  0.439	  0.118	  0.082	 -9.710	 -0.003	  0.001	  0.002	 29.500	 99.119	  1.056
32773	 -0.154	 -0.229	  0.435	  0.090	  0.110	 -9.759	 -0.002	  0.001	  0.001	 29.500	 99.142	 -1.004
32823	 -0.155	 -0.226	  0.441	  0.107	  0.089	 -9.772	 -0.003	  0.002	  0.001	 29.500	 99.126	  0.429
32873	 -0.153	 -0.233	  0.439	  0.114	  0.098	 -9.778	 -0.003	  0.002	  0.001	 29.500	 99.142	 -1.004
32923	 -0.153	 -0.230	  0.439	  0.116	  0.097	 -9.773	 -0.004	  0.002	  0.001	 29.500	 99.126	  0.429
32973	 -0.156	 -0.230	  0.438	  0.105	  0.083	 -9.760	 -0.003	  0.002	  0.002	 29.500	 99.131	 -0.018
33023	 -0.153	 -0.227	  0.441	  0.116	  0.102	 -9.799	 -0.003	  0.002	  0.001	 29.500	 99.126	  0.429
33073	 -0.154	 -0.223	  0.440	  0.087	  0.092	 -9.812	 -0.003	  0.001	  0.002	 29.500	 99.126	  0.429
33123	 -0.152	 -0.229	  0.438	  0.115	  0.065	 -9.777	 -0.003	  0.003	  0.001	 29.500	 99.131	 -0.018
33173	 -0.153	 -0.229	  0.439	  0.095	  0.084	 -9.786	 -0.002	  0.002	  0.001	 29.500	 99.131	 -0.018
33223	 -0.154	 -0.234	  0.438	  0.105	  0.089	 -9.768	 -0.003	  0.002	  0.002	 29.500	 99.131	 -0.018
33273	 -0.154	 -0.230	  0.435	  0.160	  0.109	 -9.810	 -0.002	  0.001	  0.001	 29.500	 99.126	  0.429
33323	 -0.153	 -0.234	  0.440	  0.019	  0.005	 -9.777	 -0.004	  0.004	  0.002	 29.500	 99.138	 -0.646
33373	 -0.154	 -0.228	  0.436	  0.185	  0.109	 -9.759	 -0.003	  0.002	  0.001	 29.500	 99.142	 -1.004
33423	 -0.155	 -0.229	  0.436	  0.085	  0.062	 -9.758	 -0.003	  0.002	  0.002	 29.500	 99.142	 -1.004
33473	 -0.153	 -0.226	  0.437	  0.090	  0.102	 -9.819	 -0.003	  0.002	  0.001	 29.500	 99.126	  0.429
33523	 -0.157	 -0.230	  0.435	  0.135	  0.099	 -9.783	 -0.003	  0.001	  0.002	 29.500	 99.142	 -1.004
33573	 -0.153	 -0.233	  0.434	  0.092	  0.092	 -9.772	 -0.004	  0.002	  0.001	 29.500	 99.142	 -1.004
33623	 -0.156	 -0.233	  0.437	  0.083	  0.137	 -9.770	 -0.003	  0.002	  0.001	 29.500	 99.131	 -0.018
33673	 -0.156	 -0.234	  0.436	  0.123	  0.068	 -9.790	 -0.003	  0.002	  0.002	 29.500	 99.131	 -0.018
33723	 -0.154	 -0.235	  0.437	  0.074	  0.127	 -9.777	 -0.002	  0.002	  0.001	 29.500	 99.142	 -1.004
33773	 -0.156	 -0.233	  0.438	  0.111	  0.051	 -9.767	 -0.004	  0.003	  0.001	 29.500	 99.142	 -1.004
33823	 -0.155	 -0.234	  0.439	  0.095	  0.100	 -9.750	 -0.003	  0.003	  0.000	 29.500	 99.138	 -0.646
33873	 -0.152	 -0.238	  0.436	  0.096	  0.078	 -9.782	 -0.003	  0.003	  0.003	 29.500	 99.131	 -0.018
33923	 -0.156	 -0.235	  0.436	  0.411	 -0.208	 -9.862	  0.001	  0.001	 -0.003	 29.500	 99.131	 -0.018
33973	 -0.155	 -0.240	  0.443	  0.183	  0.265	 -9.810	 -0.004	  0.001	  0.002	 29.500	 99.131	 -0.018
34023	 -0.154	 -0.236	  0.438	  0.030	  0.063	 -9.962	 -0.002	  0.001	  0.001	 29.500	 99.142	 -1.004
34073	 -0.156	 -0.235	  0.439	  0.217	  0.117	 -9.674	 -0.004	  0.002	  0.002	 29.500	 99.138	 -0.646
34123	 -0.156	 -0.237	  0.442	  0.007	  0.067	 -9.786	 -0.003	  0.000	  0.002	 29.500	 99.142	 -1.004
34173	 -0.156	 -0.243	  0.441	  0.150	  0.096	 -9.810	 -0.005	  0.004	  0.001	 29.500	 99.126	  0.429
34223	 -0.156	 -0.241	  0.440	  0.078	  0.099	 -9.794	 -0.002	  0.002	  0.001	 29.500	 99.119	  1.056
34273	 -0.156	 -0.243	  0.444	  0.093	  0.127	 -9.776	 -0.003	  0.002	  0.001	 29.500	 99.131	 -0.018
34323	 -0.155	 -0.238	  0.444	  0.129	  0.054	 -9.808	 -0.003	  0.002	  0.002	 29.500	 99.131	 -0.018
34373	 -0.154	 -0.238	  0.443	  0.120	  0.062	 -9.771	 -0.003	  0.002	  0.002	 29.500	 99.131	 -0.018
34423	 -0.154	 -0.239	  0.442	  0.126	  0.098	 -9.769	 -0.004	  0.003	  0.000	 29.500	 99.131	 -0.018
34473	 -0.156	 -0.244	  0.443	  0.125	  0.093	 -9.775	 -0.003	  0.000	  0.002	 29.500	 99.131	 -0.018
34523	 -0.155	 -0.241	  0.440	  0.106	  0.076	 -9.777	 -0.003	  0.004	  0.002	 29.500	 99.142	 -1.004
34573	 -0.157	 -0.240	  0.444	  0.121	  0.094	 -9.793	 -0.004	  0.002	  0.002	 29.500	 99.131	 -0.018
34623	 -0.156	 -0.239	  0.448	  0.131	  0.083	 -9.772	 -0.003	  0.001	  0.001	 29.500	 99.131	 -0.018
34673	 -0.156	 -0.242	  0.441	  0.115	  0.108	 -9.787	 -0.003	  0.002	  0.002	 29.500	 99.142	 -1.004
34723	 -0.155	 -0.244	  0.443	  0.129	  0.071	 -9.775	 -0.002	  0.002	  0.001	 29.500	 99.131	 -0.018
34773	 -0.157	 -0.242	  0.440	  0.094	  0.092	 -9.777	 -0.003	  0.003	  0.000	 29.500	 99.135	 -0.377
34823	 -0.157	 -0.245	  0.444	  0.124	  0.088	 -9.788	 -0.002	  0.003	  0.001	 29.500	 99.131	 -0.018
34873	 -0.157	 -0.240	  0.438	  0.098	  0.096	 -9.774	 -0.004	  0.004	  0.001	 29.500	 99.131	 -0.018
34923	 -0.156	 -0.240	  0.442	  0.099	  0.097	 -9.775	 -0.003	  0.000	  0.000	 29.500	 99.142	 -1.004
34973	 -0.156	 -0.243	  0.442	  0.110	  0.088	 -9.745	 -0.002	  0.003	  0.002	 29.500	 99.131	 -0.018
35023	 -0.157	 -0.243	  0.441	  0.098	  0.102	 -9.767	 -0.001	  0.000	  0.001	 29.500	 99.131	 -0.018
35073	 -0.158	 -0.240	  0.441	  0.088	  0.089	 -9.800	 -0.005	  0.003	  0.002	 29.500	 99.131	 -0.018
35123	 -0.157	 -0.242	  0.436	  0.076	  0.092	 -9.760	 -0.003	  0.002	  0.001	 29.500	 99.131	 -0.018
35173	 -0.156	 -0.246	  0.439	  0.074	  0.089	 -9.814	 -0.003	  0.002	 -0.000	 29.500	 99.131	 -0.018
35223	 -0.157	 -0.242	  0.441	  0.121	  0.107	 -9.745	 -0.003	  0.003	  0.002	 29.500	 99.131	 -0.018
35273	 -0.160	 -0.250	  0.441	  0.086	  0.117	 -9.782	 -0.002	  0.002	  0.001	 29.500	 99.131	 -0.018
35323	 -0.155	 -0.245	  0.439	  0.120	  0.078	 -9.772	 -0.004	  0.002	  0.001	 29.500	 99.131	 -0.018
35373	 -0.155	 -0.242	  0.440	  0.123	  0.089	 -9.769	 -0.003	  0.003	  0.001	 29.500	 99.131	 -0.018
35422	 -0.160	 -0.247	  0.438	  0.100	  0.106	 -9.778	 -0.003	  0.002	  0.001	 29.500	 99.135	 -0.377
35472	 -0.157	 -0.253	  0.440	  0.096	  0.118	 -9.761	 -0.003	  0.003	  0.001	 29.500	 99.131	 -0.018
35522	 -0.160	 -0.242	  0.440	  0.129	  0.094	 -9.772	 -0.004	 -0.001	  0.001	 29.500	 99.131	 -0.018
35572	 -0.158	 -0.246	  0.445	  0.099	  0.103	 -9.765	 -0.003	  0.001	  0.001	 29.500	 99.131	 -0.018
35622	 -0.159	 -0.248	  0.445	  0.108	  0.078	 -9.787	 -0.002	  0.003	  0.001	 29.500	 99.131	 -0.018
35672	 -0.160	 -0.243	  0.442	  0.109	  0.068	 -9.770	 -0.002	  0.001	  0.002	 29.500	 99.135	 -0.377
35722	 -0.160	 -0.246	  0.441	  0.114	  0.112	 -9.752	 -0.002	  0.003	  0.001	 29.500	 99.135	 -0.377
35772	 -0.161	 -0.243	  0.440	  0.092	  0.101	 -9.767	 -0.002	  0.003	  0.001	 29.500	 99.135	 -0.377
35822	 -0.159	 -0.244	  0.439	  0.105	  0.091	 -9.765	 -0.002	  0.002	  0.001	 29.500	 99.142	 -1.004
35872	 -0.161	 -0.243	  0.437	  0.112	  0.064	 -9.734	 -0.003	  0.002	  0.001	 29.500	 99.146	 -1.363
35922	 -0.160	 -0.244	  0.444	  0.124	  0.111	 -9.774	 -0.003	  0.002	  0.001	 29.500	 99.135	 -0.377
35972	 -0.163	 -0.243	  0.438	  0.110	  0.096	 -9.780	 -0.002	  0.002	  0.002	 29.500	 99.123	  0.698
36022	 -0.162	 -0.242	  0.438	  0.097	  0.086	 -9.764	 -0.002	  0.003	  0.001	 29.500	 99.146	 -1.363
36072	 -0.159	 -0.242	  0.439	  0.123	  0.099	 -9.759	 -0.003	  0.002	  0.001	 29.500	 99.131	 -0.018
36122	 -0.159	 -0.244	  0.439	  0.100	  0.119	 -9.751	 -0.003	  0.004	 -0.001	 29.500	 99.123	  0.698
36172	 -0.159	 -0.243	  0.438	  0.094	  0.079	 -9.779	 -0.003	  0.002	  0.001	 29.500	 99.123	  0.698
36222	 -0.159	 -0.240	  0.441	  0.099	  0.093	 -9.772	 -0.003	  0.000	  0.001	 29.500	 99.146	 -1.363
36272	 -0.160	 -0.238	  0.442	  0.114	  0.094	 -9.762	 -0.003	  0.001	  0.001	 29.500	 99.131	 -0.018
36322	 -0.158	 -0.245	  0.440	  0.105	  0.097	 -9.775	 -0.004	  0.003	  0.001	 29.500	 99.135	 -0.377
36372	 -0.160	 -0.245	  0.439	  0.109	  0.077	 -9.788	 -0.003	  0.002	  0.001	 29.500	 99.123	  0.698
36423	 -0.159	 -0.242	  0.438	  0.129	  0.093	 -9.754	 -0.003	  0.002	  0.000	 29.500	 99.135	 -0.377
36472	 -0.160	 -0.247	  0.438	  0.135	  0.112	 -9.796	 -0.003	  0.002	  0.001	 29.500	 99.135	 -0.377
36523	 -0.158	 -0.241	  0.439	  0.113	  0.073	 -9.737	 -0.003	  0.002	  0.001	 29.500	 99.123	  0.698
36572	 -0.160	 -0.242	  0.440	  0.122	  0.082	 -9.764	 -0.002	  0.001	  0.001	 29.500	 99.135	 -0.377
36623	 -0.162	 -0.242	  0.438	  0.090	  0.093	 -9.772	 -0.003	  0.003	  0.001	 29.500	 99.135	 -0.377
36673	 -0.159	 -0.241	  0.437	  0.121	  0.098	 -9.813	 -0.004	  0.001	  0.000	 29.500	 99.142	 -1.004
36723	 -0.160	 -0.241	  0.433	  0.114	  0.086	 -9.779	 -0.003	  0.001	  0.001	 29.500	 99.135	 -0.377
36773	 -0.157	 -0.243	  0.438	  0.114	  0.105	 -9.778	 -0.003	  0.003	  0.001	 29.500	 99.135	 -0.377
36823	 -0.159	 -0.240	  0.435	  0.105	  0.072	 -9.771	 -0.004	  0.002	  0.001	 29.500	 99.135	 -0.377
36873	 -0.159	 -0.239	  0.438	  0.097	  0.091	 -9.768	 -0.003	  0.001	  0.001	 29.500	 99.146	 -1.363
36923	 -0.157	 -0.241	  0.438	  0.095	  0.096	 -9.776	 -0.003	  0.002	  0.001	 29.500	 99.123	  0.698
36973	 -0.158	 -0.241	  0.442	  0.105	  0.088	 -9.748	 -0.004	  0.001	  0.000	 29.500	 99.135	 -0.377
37023	 -0.160	 -0.240	  0.440	  0.106	  0.103	 -9.792	 -0.003	  0.001	  0.002	 29.500	 99.135	 -0.377
37073	 -0.162	 -0.236	  0.440	  0.102	  0.083	 -9.783	 -0.004	  0.001	  0.001	 29.500	 99.123	  0.698
37123	 -0.158	 -0.237	  0.445	  0.098	  0.073	 -9.795	 -0.003	  0.001	  0.001	 29.500	 99.135	 -0.377
37173	 -0.160	 -0.230	  0.442	  0.102	  0.110	 -9.787	 -0.003	  0.002	  0.001	 29.500	 99.135	 -0.377
37223	 -0.160	 -0.235	  0.450	  0.094	  0.081	 -9.789	 -0.005	  0.003	  0.001	 29.500	 99.135	 -0.377
37273	 -0.156	 -0.237	  0.445	  0.085	  0.074	 -9.789	 -0.004	  0.002	  0.001	 29.500	 99.123	  0.698
37323	 -0.156	 -0.234	  0.442	  0.120	  0.080	 -9.795	 -0.002	  0.001	  0.000	 29.500	 99.135	 -0.377
37373	 -0.158	 -0.235	  0.444	  0.103	  0.093	 -9.785	 -0.003	  0.001	  0.001	 29.500	 99.135	 -0.377
37423	 -0.158	 -0.239	  0.444	  0.123	  0.090	 -9.760	 -0.003	  0.002	  0.001	 29.500	 99.123	  0.698
37473	 -0.157	 -0.240	  0.442	  0.113	  0.101	 -9.761	 -0.003	  0.001	  0.000	 29.500	 99.123	  0.698
37523	 -0.158	 -0.238	  0.447	  0.099	  0.083	 -9.778	 -0.004	  0.002	  0.000	 29.500	 99.135	 -0.377
37573	 -0.159	 -0.237	  0.446	  0.107	  0.093	 -9.785	 -0.003	  0.003	  0.001	 29.500	 99.128	  0.250
37623	 -0.160	 -0.235	  0.446	  0.108	  0.095	 -9.786	 -0.004	  0.002	  0.002	 29.500	 99.135	 -0.377
37673	 -0.158	 -0.240	  0.445	  0.096	  0.090	 -9.772	 -0.002	  0.002	  0.001	 29.500	 99.135	 -0.377
37723	 -0.158	 -0.244	  0.444	  0.093	  0.110	 -9.812	 -0.004	  0.002	  0.000	 29.500	 99.123	  0.698
37773	 -0.157	 -0.240	  0.444	  0.113	  0.089	 -9.742	 -0.003	  0.002	  0.001	 29.500	 99.135	 -0.377
37823	 -0.160	 -0.236	  0.442	  0.104	  0.096	 -9.777	 -0.002	  0.002	  0.001	 29.500	 99.135	 -0.377
37873	 -0.160	 -0.244	  0.446	  0.119	  0.076	 -9.790	 -0.003	  0.002	  0.001	 29.500	 99.135	 -0.377
37923	 -0.161	 -0.243	  0.442	  0.079	  0.102	 -9.772	 -0.002	  0.002	  0.000	 29.500	 99.123	  0.698
37973	 -0.161	 -0.244	  0.445	  0.125	  0.079	 -9.757	 -0.003	  0.002	  0.002	 29.500	 99.135	 -0.377
38023	 -0.160	 -0.236	  0.445	  0.106	  0.091	 -9.775	 -0.004	  0.003	  0.001	 29.500	 99.135	 -0.377
38073	 -0.159	 -0.242	  0.438	  0.140	  0.073	 -9.773	 -0.004	  0.002	  0.001	 29.500	 99.139	 -0.736
38123	 -0.162	 -0.243	  0.446	  0.107	  0.102	 -9.752	 -0.003	  0.003	  0.001	 29.500	 99.123	  0.698
38173	 -0.161	 -0.247	  0.447	  0.107	  0.089	 -9.813	 -0.003	  0.001	  0.001	 29.500	 99.123	  0.698
38223	 -0.161	 -0.247	  0.446	  0.136	  0.108	 -9.774	 -0.003	  0.001	  0.001	 29.500	 99.135	 -0.377
38273	 -0.159	 -0.244	  0.445	  0.103	  0.087	 -9.767	 -0.003	  0.003	  0.001	 29.500	 99.123	  0.698
38323	 -0.160	 -0.247	  0.445	  0.101	  0.093	 -9.748	 -0.004	  0.003	  0.002	 29.500	 99.123	  0.698
38373	 -0.157	 -0.243	  0.444	  0.135	  0.101	 -9.765	 -0.003	  0.002	  0.001	 29.500	 99.135	 -0.377
38423	 -0.158	 -0.245	  0.440	  0.103	  0.095	 -9.787	 -0.003	  0.003	 -0.000	 29.500	 99.123	  0.698
38473	 -0.158	 -0.241	  0.444	  0.114	  0.101	 -9.782	 -0.002	  0.002	  0.002	 29.500	 99.123	  0.698
38523	 -0.161	 -0.242	  0.446	  0.096	  0.097	 -9.754	 -0.004	  0.002	  0.002	 29.500	 99.139	 -0.736
38573	 -0.159	 -0.245	  0.440	  0.087	  0.083	 -9.776	 -0.003	  0.003	  0.002	 29.500	 99.128	  0.250
38623	 -0.161	 -0.246	  0.446	  0.088	  0.096	 -9.770	 -0.003	  0.002	  0.002	 29.500	 99.139	 -0.736
38673	 -0.159	 -0.240	  0.444	  0.112	  0.091	 -9.790	 -0.004	  0.002	  0.003	 29.500	 99.139	 -0.736
38723	 -0.162	 -0.243	  0.446	  0.115	  0.094	 -9.773	 -0.003	  0.002	  0.002	 29.500	 99.139	 -0.736
38773	 -0.161	 -0.243	  0.444	  0.112	  0.085	 -9.774	 -0.004	  0.002	  0.001	 29.500	 99.139	 -0.736
38823	 -0.161	 -0.246	  0.441	  0.101	  0.105	 -9.804	 -0.004	  0.002	  0.001	 29.500	 99.135	 -0.377
38874	 -0.160	 -0.245	  0.442	  0.089	  0.082	 -9.776	 -0.002	  0.002	  0.001	 29.500	 99.128	  0.250
38923	 -0.161	 -0.244	  0.442	  0.106	  0.093	 -9.781	 -0.003	  0.001	  0.001	 29.500	 99.139	 -0.736
38973	 -0.159	 -0.248	  0.442	  0.097	  0.079	 -9.786	 -0.004	  0.002	  0.001	 29.500	 99.139	 -0.736
39023	 -0.161	 -0.241	  0.442	  0.120	  0.086	 -9.743	 -0.004	  0.003	  0.002	 29.500	 99.139	 -0.736
39073	 -0.161	 -0.250	  0.444	  0.100	  0.072	 -9.756	 -0.003	  0.002	  0.002	 29.500	 99.139	 -0.736
39123	 -0.159	 -0.244	  0.440	  0.099	  0.093	 -9.768	 -0.003	  0.002	  0.001	 29.500	 99.135	 -0.377
39173	 -0.163	 -0.245	  0.440	  0.117	  0.094	 -9.742	 -0.003	  0.002	  0.001	 29.500	 99.128	  0.250
39223	 -0.159	 -0.244	  0.439	  0.127	  0.107	 -9.780	 -0.004	  0.001	 -0.000	 29.500	 99.139	 -0.736
39273	 -0.161	 -0.241	  0.438	  0.107	  0.093	 -9.757	 -0.004	  0.001	  0.001	 29.500	 99.128	  0.250
39323	 -0.161	 -0.245	  0.440	  0.122	  0.073	 -9.768	 -0.004	  0.002	  0.000	 29.500	 99.128	  0.250
39373	 -0.160	 -0.241	  0.441	  0.103	  0.086	 -9.796	 -0.003	  0.003	  0.001	 29.500	 99.139	 -0.736
39423	 -0.164	 -0.243	  0.439	  0.109	  0.079	 -9.808	 -0.004	  0.002	  0.001	 29.500	 99.123	  0.698
39473	 -0.161	 -0.242	  0.440	  0.123	  0.103	 -9.744	 -0.003	  0.002	  0.001	 29.500	 99.139	 -0.736
39523	 -0.159	 -0.243	  0.438	  0.119	  0.107	 -9.774	 -0.004	  0.001	  0.001	 29.500	 99.123	  0.698
39573	 -0.160	 -0.242	  0.437	  0.103	  0.087	 -9.765	 -0.003	  0.002	  0.001	 29.500	 99.139	 -0.736
39623	 -0.161	 -0.244	  0.440	  0.107	  0.111	 -9.774	 -0.003	  0.002	  0.000	 29.500	 99.139	 -0.736
39673	 -0.161	 -0.240	  0.437	  0.096	  0.098	 -9.763	 -0.002	  0.002	  0.002	 29.500	 99.128	  0.250
39723	 -0.162	 -0.243	  0.437	  0.090	  0.095	 -9.782	 -0.003	  0.001	 -0.000	 29.500	 99.139	 -0.736
39773	 -0.161	 -0.235	  0.435	  0.134	  0.094	 -9.783	 -0.003	  0.003	  0.001	 29.500	 99.139	 -0.736
39823	 -0.160	 -0.241	  0.436	  0.110	  0.101	 -9.751	 -0.003	  0.001	  0.002	 29.500	 99.128	  0.250
39873	 -0.163	 -0.236	  0.438	  0.128	  0.071	 -9.775	 -0.004	  0.003	  0.001	 29.500	 99.128	  0.250
39923	 -0.159	 -0.236	  0.436	  0.106	  0.111	 -9.782	 -0.003	  0.002	  0.000	 29.500	 99.128	  0.250
39973	 -0.161	 -0.236	  0.435	  0.092	  0.078	 -9.786	 -0.004	  0.001	  0.001	 29.500	 99.143	 -1.094
40023	 -0.162	 -0.236	  0.437	  0.105	  0.096	 -9.745	 -0.003	  0.002	  0.001	 29.500	 99.139	 -0.736
40073	 -0.164	 -0.236	  0.438	  0.111	  0.092	 -9.840	 -0.004	  0.002	  0.002	 29.500	 99.128	  0.250
40123	 -0.162	 -0.237	  0.438	  0.100	  0.107	 -9.751	 -0.003	  0.001	  0.001	 29.500	 99.128	  0.250
40173	 -0.161	 -0.235	  0.438	  0.119	  0.111	 -9.763	 -0.002	  0.003	  0.000	 29.500	 99.128	  0.250
40223	 -0.159	 -0.238	  0.439	  0.110	  0.093	 -9.774	 -0.003	  0.001	  0.001	 29.500	 99.128	  0.250
40273	 -0.159	 -0.243	  0.439	  0.102	  0.081	 -9.795	 -0.003	  0.002	  0.001	 29.500	 99.139	 -0.736
40323	 -0.158	 -0.241	  0.435	  0.104	  0.080	 -9.771	 -0.004	  0.000	  0.002	 29.500	 99.128	  0.250
40373	 -0.158	 -0.243	  0.436	  0.118	  0.082	 -9.754	 -0.002	  0.003	  0.001	 29.500	 99.139	 -0.736
40423	 -0.154	 -0.246	  0.434	  0.108	  0.107	 -9.791	 -0.004	  0.002	  0.002	 29.500	 99.139	 -0.736
40473	 -0.155	 -0.247	  0.429	  0.101	  0.097	 -9.779	 -0.003	  0.002	  0.002	 29.500	 99.139	 -0.736
40523	 -0.151	 -0.245	  0.432	  0.081	  0.100	 -9.794	 -0.003	  0.002	  0.001	 29.500	 99.128	  0.250
40573	 -0.150	 -0.249	  0.435	  0.118	  0.070	 -9.754	 -0.003	  0.002	  0.001	 29.500	 99.139	 -0.736
40623	 -0.150	 -0.245	  0.436	  0.098	  0.115	 -9.760	 -0.003	  0.001	  0.000	 29.500	 99.132	 -0.109
40673	 -0.152	 -0.244	  0.438	  0.089	  0.116	 -9.782	 -0.003	  0.003	  0.001	 29.500	 99.128	  0.250
40723	 -0.150	 -0.245	  0.432	  0.117	  0.099	 -9.795	 -0.002	  0.002	  0.001	 29.500	 99.139	 -0.736
40773	 -0.153	 -0.248	  0.435	  0.116	  0.084	 -9.724	 -0.003	  0.003	  0.001	 29.500	 99.143	 -1.094
40823	 -0.150	 -0.250	  0.436	  0.109	  0.120	 -9.741	 -0.003	  0.002	  0.001	 29.500	 99.128	  0.250
40873	 -0.154	 -0.248	  0.438	  0.121	  0.089	 -9.763	 -0.003	  0.001	 -0.000	 29.500	 99.139	 -0.736
40923	 -0.154	 -0.250	  0.436	  0.119	  0.093	 -9.780	 -0.005	  0.002	  0.001	 29.500	 99.132	 -0.109
40973	 -0.157	 -0.247	  0.433	  0.114	  0.121	 -9.753	 -0.003	  0.002	  0.002	 29.500	 99.139	 -0.736
41023	 -0.153	 -0.246	  0.438	  0.114	  0.082	 -9.783	 -0.003	  0.002	 -0.000	 29.500	 99.128	  0.250
41073	 -0.153	 -0.247	  0.435	  0.111	  0.098	 -9.794	 -0.003	  0.002	  0.001	 29.500	 99.128	  0.250
41123	 -0.155	 -0.248	  0.437	  0.095	  0.103	 -9.752	 -0.003	  0.001	  0.002	 29.500	 99.132	 -0.109
41173	 -0.156	 -0.245	  0.437	  0.126	  0.102	 -9.806	 -0.003	  0.002	  0.000	 29.500	 99.132	 -0.109
41223	 -0.159	 -0.245	  0.436	  0.078	  0.081	 -9.800	 -0.003	  0.002	  0.001	 29.500	 99.139	 -0.736
41273	 -0.159	 -0.246	  0.440	  0.124	  0.096	 -9.784	 -0.004	  0.002	  0.002	 29.500	 99.128	  0.250
41323	 -0.159	 -0.245	  0.441	  0.090	  0.097	 -9.771	 -0.003	  0.001	  0.001	 29.500	 99.132	 -0.109
41373	 -0.159	 -0.238	  0.444	  0.112	  0.089	 -9.782	 -0.001	  0.001	  0.001	 29.500	 99.128	  0.250
41423	 -0.158	 -0.240	  0.444	  0.122	  0.111	 -9.809	 -0.004	  0.002	  0.002	 29.500	 99.132	 -0.109
41473	 -0.159	 -0.240	  0.444	  0.120	  0.088	 -9.772	 -0.003	  0.002	  0.002	 29.500	 99.139	 -0.736
41523	 -0.160	 -0.244	  0.444	  0.124	  0.087	 -9.754	 -0.004	  0.003	  0.002	 29.500	 99.132	 -0.109
41573	 -0.158	 -0.245	  0.439	  0.114	  0.084	 -9.783	 -0.004	  0.002	  0.001	 29.500	 99.128	  0.250
41624	 -0.161	 -0.243	  0.435	  0.108	  0.094	 -9.725	 -0.002	  0.001	  0.002	 29.500	 99.132	 -0.109
41673	 -0.161	 -0.242	  0.445	  0.116	  0.098	 -9.774	 -0.003	  0.003	  0.001	 29.500	 99.132	 -0.109
41724	 -0.158	 -0.241	  0.441	  0.102	  0.118	 -9.748	 -0.002	  0.002	  0.001	 29.500	 99.132	 -0.109
41773	 -0.162	 -0.245	  0.438	  0.096	  0.098	 -9.786	 -0.004	  0.003	  0.000	 29.500	 99.132	 -0.109
41824	 -0.162	 -0.245	  0.441	  0.106	  0.072	 -9.792	 -0.003	  0.003	  0.000	 29.500	 99.121	  0.877
41873	 -0.164	 -0.246	  0.443	  0.103	  0.089	 -9.785	 -0.004	  0.003	  0.000	 29.500	 99.143	 -1.094
41924	 -0.163	 -0.246	  0.443	  0.105	  0.085	 -9.798	 -0.004	  0.003	  0.001	 29.500	 99.143	 -1.094
41974	 -0.165	 -0.246	  0.433	  0.099	  0.087	 -9.756	 -0.003	  0.002	  0.001	 29.500	 99.132	 -0.109
42024	 -0.165	 -0.254	  0.442	  0.096	  0.097	 -9.803	 -0.002	  0.002	  0.001	 29.500	 99.143	 -1.094
42074	 -0.165	 -0.252	  0.447	  0.093	  0.088	 -9.771	 -0.004	  0.002	  0.001	 29.500	 99.132	 -0.109
42124	 -0.163	 -0.256	  0.447	  0.113	  0.112	 -9.760	 -0.003	  0.003	  0.001	 29.500	 99.132	 -0.109
42174	 -0.162	 -0.255	  0.450	  0.106	  0.080	 -9.767	 -0.003	  0.003	  0.001	 29.500	 99.143	 -1.094
42224	 -0.162	 -0.259	  0.451	  0.110	  0.105	 -9.750	 -0.003	  0.003	  0.001	 29.500	 99.132	 -0.109
42274	 -0.161	 -0.251	  0.447	  0.118	  0.099	 -9.789	 -0.003	  0.001	  0.001	 29.500	 99.132	 -0.109
42324	 -0.163	 -0.251	  0.458	  0.085	  0.096	 -9.777	 -0.003	  0.002	  0.001	 29.500	 99.132	 -0.109
42374	 -0.163	 -0.248	  0.452	  0.105	  0.093	 -9.748	 -0.004	  0.002	  0.001	 29.500	 99.132	 -0.109
42424	 -0.161	 -0.243	  0.458	  0.102	  0.106	 -9.780	 -0.003	  0.003	  0.002	 29.500	 99.132	 -0.109
42474	 -0.159	 -0.248	  0.458	  0.110	  0.097	 -9.755	 -0.003	  0.003	  0.001	 29.500	 99.132	 -0.109
42524	 -0.161	 -0.249	  0.455	  0.088	  0.104	 -9.769	 -0.003	  0.002	  0.001	 29.500	 99.132	 -0.109
42574	 -0.159	 -0.247	  0.451	  0.111	  0.098	 -9.781	 -0.003	  0.001	  0.002	 29.500	 99.132	 -0.109
42624	 -0.157	 -0.249	  0.453	  0.122	  0.086	 -9.757	 -0.003	  0.003	  0.001	 29.500	 99.132	 -0.109
42674	 -0.157	 -0.244	  0.449	  0.121	  0.107	 -9.754	 -0.003	  0.002	  0.002	 29.500	 99.132	 -0.109
42724	 -0.158	 -0.241	  0.451	  0.114	  0.075	 -9.795	 -0.003	  0.001	  0.000	 29.500	 99.143	 -1.094
42774	 -0.156	 -0.245	  0.449	  0.100	  0.104	 -9.754	 -0.004	  0.001	  0.002	 29.500	 99.143	 -1.094
42824	 -0.155	 -0.246	  0.451	  0.107	  0.092	 -9.785	 -0.003	  0.001	  0.000	 29.500	 99.132	 -0.109
42874	 -0.156	 -0.246	  0.452	  0.095	  0.093	 -9.755	 -0.002	  0.002	  0.002	 29.500	 99.121	  0.877
42924	 -0.156	 -0.235	  0.453	  0.123	  0.093	 -9.767	 -0.002	  0.002	  0.001	 29.500	 99.132	 -0.109
42974	 -0.156	 -0.246	  0.455	  0.093	  0.107	 -9.770	 -0.002	  0.002	  0.001	 29.600	 99.143	 -1.094
43024	 -0.154	 -0.243	  0.448	  0.107	  0.122	 -9.725	 -0.003	  0.002	  0.002	 29.500	 99.132	 -0.109
43074	 -0.154	 -0.242	  0.446	  0.116	  0.099	 -9.752	 -0.003	  0.002	  0.002	 29.500	 99.143	 -1.094
43124	 -0.154	 -0.242	  0.453	  0.116	  0.069	 -9.789	 -0.003	  0.003	  0.002	 29.500	 99.143	 -1.094
43174	 -0.155	 -0.241	  0.448	  0.100	  0.110	 -9.780	 -0.003	  0.003	  0.001	 29.500	 99.143	 -1.094
43224	 -0.158	 -0.239	  0.449	  0.114	  0.111	 -9.774	 -0.003	  0.001	  0.000	 29.500	 99.121	  0.877
43274	 -0.155	 -0.241	  0.451	  0.076	  0.101	 -9.768	 -0.003	  0.001	  0.001	 29.600	 99.132	 -0.109
43324	 -0.157	 -0.240	  0.447	  0.131	  0.099	 -9.769	 -0.003	  0.001	  0.001	 29.500	 99.143	 -1.094
43374	 -0.156	 -0.232	  0.449	  0.104	  0.093	 -9.756	 -0.002	  0.002	  0.001	 29.500	 99.132	 -0.109
43424	 -0.156	 -0.239	  0.448	  0.098	  0.088	 -9.806	 -0.003	  0.002	  0.001	 29.500	 99.132	 -0.109
43474	 -0.157	 -0.241	  0.449	  0.086	  0.080	 -9.753	 -0.003	  0.003	  0.001	 29.600	 99.136	 -0.467
43524	 -0.155	 -0.239	  0.448	  0.103	  0.104	 -9.771	 -0.004	  0.002	  0.001	 29.500	 99.132	 -0.109
43574	 -0.155	 -0.234	  0.446	  0.094	  0.080	 -9.791	 -0.003	  0.004	  0.002	 29.500	 99.121	  0.877
43623	 -0.155	 -0.240	  0.447	  0.122	  0.077	 -9.773	 -0.003	  0.002	  0.002	 29.500	 99.132	 -0.109
43673	 -0.153	 -0.242	  0.444	  0.103	  0.107	 -9.739	 -0.003	  0.002	  0.002	 29.500	 99.121	  0.877
43723	 -0.153	 -0.234	  0.446	  0.089	  0.079	 -9.741	 -0.003	  0.002	  0.001	 29.500	 99.132	 -0.109
43774	 -0.154	 -0.234	  0.447	  0.116	  0.089	 -9.746	 -0.002	  0.002	  0.000	 29.500	 99.143	 -1.094
43823	 -0.155	 -0.238	  0.446	  0.115	  0.091	 -9.766	 -0.003	  0.003	  0.001	 29.600	 99.136	 -0.467
43874	 -0.154	 -0.237	  0.447	  0.100	  0.092	 -9.764	 -0.003	  0.002	  0.000	 29.500	 99.132	 -0.109
43923	 -0.156	 -0.242	  0.447	  0.144	  0.109	 -9.765	 -0.003	  0.002	  0.002	 29.600	 99.125	  0.519
43973	 -0.155	 -0.243	  0.447	  0.101	  0.096	 -9.760	 -0.004	  0.002	  0.002	 29.600	 99.136	 -0.467
44023	 -0.154	 -0.239	  0.445	  0.104	  0.116	 -9.778	 -0.004	  0.003	  0.002	 29.600	 99.125	  0.519
44073	 -0.153	 -0.244	  0.445	  0.096	  0.097	 -9.810	 -0.004	  0.001	  0.001	 29.500	 99.132	 -0.109
44123	 -0.154	 -0.242	  0.445	  0.096	  0.089	 -9.778	 -0.003	  0.001	  0.002	 29.500	 99.143	 -1.094
44173	 -0.155	 -0.245	  0.442	  0.119	  0.087	 -9.775	 -0.003	  0.002	 -0.000	 29.600	 99.132	 -0.109
44223	 -0.155	 -0.240	  0.446	  0.100	  0.099	 -9.784	 -0.003	  0.001	  0.002	 29.600	 99.125	  0.519
44273	 -0.156	 -0.237	  0.448	  0.116	  0.108	 -9.774	 -0.003	  0.002	  0.001	 29.500	 99.121	  0.877
44323	 -0.156	 -0.243	  0.440	  0.113	  0.098	 -9.757	 -0.003	  0.002	  0.002	 29.500	 99.143	 -1.094
44373	 -0.152	 -0.236	  0.446	  0.116	  0.070	 -9.753	 -0.003	  0.002	  0.001	 29.600	 99.132	 -0.109
44423	 -0.153	 -0.243	  0.450	  0.109	  0.115	 -9.781	 -0.003	  0.003	 -0.000	 29.600	 99.136	 -0.467
44473	 -0.155	 -0.243	  0.446	  0.113	  0.099	 -9.753	 -0.003	  0.003	  0.002	 29.600	 99.136	 -0.467
44523	 -0.158	 -0.237	  0.445	  0.100	  0.091	 -9.761	 -0.004	  0.003	  0.002	 29.600	 99.125	  0.519
44573	 -0.154	 -0.239	  0.448	  0.090	  0.080	 -9.771	 -0.002	  0.002	  0.001	 29.600	 99.136	 -0.467
44623	 -0.157	 -0.239	  0.446	  0.093	  0.106	 -9.799	 -0.002	  0.002	  0.000	 29.600	 99.132	 -0.109
44673	 -0.157	 -0.240	  0.448	  0.114	  0.085	 -9.820	 -0.003	  0.002	  0.001	 29.600	 99.125	  0.519
44723	 -0.156	 -0.243	  0.447	  0.125	  0.065	 -9.761	 -0.002	  0.003	  0.001	 29.600	 99.143	 -1.094
44773	 -0.154	 -0.243	  0.446	  0.096	  0.096	 -9.760	 -0.004	  0.002	  0.001	 29.600	 99.132	 -0.109
44823	 -0.153	 -0.245	  0.446	  0.108	  0.086	 -9.805	 -0.004	  0.002	  0.002	 29.600	 99.136	 -0.467
44873	 -0.155	 -0.241	  0.444	  0.087	  0.090	 -9.783	 -0.003	  0.004	  0.001	 29.600	 99.136	 -0.467
44923	 -0.155	 -0.242	  0.442	  0.102	  0.091	 -9.787	 -0.004	  0.002	  0.002	 29.600	 99.147	 -1.453
44973	 -0.154	 -0.235	  0.445	  0.114	  0.077	 -9.788	 -0.002	  0.000	  0.001	 29.600	 99.125	  0.519
45023	 -0.155	 -0.240	  0.447	  0.121	  0.075	 -9.779	 -0.003	  0.003	  0.003	 29.600	 99.136	 -0.467
45073	 -0.155	 -0.242	  0.442	  0.090	  0.084	 -9.752	 -0.003	  0.000	 -0.000	 29.600	 99.125	  0.519
45123	 -0.152	 -0.244	  0.449	  0.092	  0.085	 -9.779	 -0.004	  0.001	  0.001	 29.600	 99.136	 -0.467
45173	 -0.155	 -0.243	  0.445	  0.111	  0.079	 -9.737	 -0.003	  0.002	  0.001	 29.600	 99.136	 -0.467
45223	 -0.154	 -0.239	  0.447	  0.115	  0.093	 -9.797	 -0.003	  0.003	  0.001	 29.600	 99.125	  0.519
45273	 -0.154	 -0.243	  0.447	  0.107	  0.083	 -9.792	 -0.003	  0.003	  0.001	 29.600	 99.136	 -0.467
45323	 -0.155	 -0.243	  0.446	  0.111	  0.088	 -9.761	 -0.004	  0.002	  0.002	 29.600	 99.125	  0.519
45373	 -0.151	 -0.244	  0.445	  0.094	  0.095	 -9.763	 -0.002	  0.002	  0.001	 29.600	 99.136	 -0.467
45423	 -0.154	 -0.236	  0.445	  0.117	  0.086	 -9.781	 -0.003	  0.002	  0.002	 29.600	 99.136	 -0.467
45473	 -0.155	 -0.243	  0.445	  0.083	  0.088	 -9.786	 -0.004	  0.001	 -0.000	 29.600	 99.136	 -0.467
45523	 -0.153	 -0.242	  0.445	  0.104	  0.095	 -9.790	 -0.003	  0.003	  0.001	 29.600	 99.136	 -0.467
45573	 -0.152	 -0.243	  0.445	  0.083	  0.072	 -9.759	 -0.003	  0.002	  0.001	 29.600	 99.136	 -0.467
45623	 -0.154	 -0.240	  0.448	  0.106	  0.088	 -9.767	 -0.003	  0.002	 -0.000	 29.600	 99.136	 -0.467
45673	 -0.153	 -0.245	  0.445	  0.086	  0.084	 -9.790	 -0.003	  0.002	  0.000	 29.600	 99.136	 -0.467
45723	 -0.156	 -0.244	  0.444	  0.118	  0.090	 -9.792	 -0.003	  0.002	  0.001	 29.600	 99.136	 -0.467
45773	 -0.154	 -0.238	  0.451	  0.092	  0.071	 -9.762	 -0.003	  0.003	  0.001	 29.600	 99.125	  0.519
45823	 -0.153	 -0.243	  0.444	  0.071	  0.098	 -9.804	 -0.003	  0.003	  0.002	 29.600	 99.136	 -0.467
45873	 -0.153	 -0.239	  0.446	  0.105	  0.086	 -9.773	 -0.004	  0.003	  0.001	 29.600	 99.147	 -1.453
45923	 -0.153	 -0.244	  0.447	  0.123	  0.081	 -9.750	 -0.005	  0.002	  0.001	 29.600	 99.136	 -0.467
45973	 -0.152	 -0.242	  0.445	  0.123	  0.078	 -9.775	 -0.003	  0.002	  0.002	 29.600	 99.136	 -0.467
46023	 -0.154	 -0.246	  0.447	  0.105	  0.095	 -9.787	 -0.003	  0.002	  0.002	 29.600	 99.125	  0.519
46073	 -0.154	 -0.242	  0.443	  0.123	  0.099	 -9.747	 -0.002	  0.001	  0.001	 29.600	 99.136	 -0.467
46123	 -0.155	 -0.242	  0.448	  0.111	  0.098	 -9.766	 -0.002	  0.002	  0.002	 29.600	 99.140	 -0.825
46173	 -0.153	 -0.241	  0.443	  0.089	  0.098	 -9.803	 -0.002	  0.003	  0.000	 29.600	 99.136	 -0.467
46223	 -0.154	 -0.242	  0.444	  0.084	  0.096	 -9.776	 -0.003	  0.002	  0.001	 29.600	 99.136	 -0.467
46273	 -0.154	 -0.237	  0.446	  0.109	  0.088	 -9.734	 -0.003	  0.002	  0.002	 29.600	 99.136	 -0.467
46323	 -0.155	 -0.244	  0.447	  0.126	  0.081	 -9.756	 -0.003	  0.002	  0.002	 29.600	 99.136	 -0.467
46373	 -0.152	 -0.245	  0.447	  0.098	  0.092	 -9.745	 -0.004	  0.003	  0.001	 29.600	 99.136	 -0.467
46423	 -0.155	 -0.238	  0.448	  0.106	  0.097	 -9.765	 -0.003	  0.003	 -0.000	 29.600	 99.136	 -0.467
46473	 -0.152	 -0.243	  0.450	  0.106	  0.086	 -9.791	 -0.002	  0.003	  0.001	 29.600	 99.125	  0.519
46523	 -0.152	 -0.245	  0.444	  0.110	  0.090	 -9.810	 -0.002	  0.002	  0.002	 29.600	 99.125	  0.519
46573	 -0.152	 -0.246	  0.449	  0.110	  0.082	 -9.760	 -0.002	  0.002	  0.001	 29.600	 99.136	 -0.467
46624	 -0.156	 -0.243	  0.443	  0.122	  0.096	 -9.785	 -0.004	  0.002	  0.001	 29.600	 99.136	 -0.467
46673	 -0.152	 -0.243	  0.447	  0.117	  0.090	 -9.776	 -0.003	  0.001	  0.001	 29.600	 99.129	  0.160
46723	 -0.155	 -0.239	  0.446	  0.088	  0.096	 -9.764	 -0.003	  0.002	  0.002	 29.600	 99.129	  0.160
46773	 -0.153	 -0.242	  0.447	  0.087	  0.106	 -9.783	 -0.003	  0.002	  0.001	 29.600	 99.125	  0.519
46823	 -0.154	 -0.238	  0.446	  0.107	  0.075	 -9.816	 -0.003	  0.002	  0.002	 29.600	 99.129	  0.160
46873	 -0.155	 -0.240	  0.449	  0.106	  0.091	 -9.758	 -0.003	  0.002	  0.001	 29.600	 99.140	 -0.825
46923	 -0.153	 -0.237	  0.445	  0.119	  0.076	 -9.772	 -0.002	  0.001	  0.000	 29.600	 99.125	  0.519
46973	 -0.154	 -0.243	  0.448	  0.098	  0.092	 -9.740	 -0.003	  0.002	  0.001	 29.600	 99.136	 -0.467
47023	 -0.155	 -0.242	  0.446	  0.092	  0.094	 -9.766	 -0.003	  0.003	 -0.000	 29.600	 99.125	  0.519
47073	 -0.153	 -0.239	  0.447	  0.087	  0.088	 -9.750	 -0.003	  0.002	  0.000	 29.600	 99.136	 -0.467
47122	 -0.153	 -0.243	  0.442	  0.108	  0.089	 -9.805	 -0.003	  0.003	  0.001	 29.600	 99.125	  0.519
47172	 -0.153	 -0.240	  0.441	  0.134	  0.091	 -9.785	 -0.003	  0.002	  0.001	 29.600	 99.114	  1.505
47223	 -0.151	 -0.244	  0.445	  0.105	  0.097	 -9.772	 -0.003	  0.000	  0.001	 29.600	 99.140	 -0.825
47273	 -0.153	 -0.242	  0.446	  0.121	  0.097	 -9.751	 -0.003	  0.003	  0.001	 29.600	 99.136	 -0.467
