Time	 MagX	 MagY	 MagZ	 AccelX	 AccelY	 AccelZ	 Yaw	 Pitch	 Roll	 Temperature	 Pressure	 Altitude
1288	 -0.089	 -0.503	  0.600	 -0.236	 -0.015	 -9.493	  0.002	 -0.003	  0.020	 29.100	 99.382	 -99999.000
1335	 -0.084	 -0.502	  0.597	 -0.133	 -0.019	 -9.507	  0.003	 -0.002	  0.020	 29.100	 99.387	 -99999.000
1385	 -0.089	 -0.501	  0.601	 -0.227	  0.005	 -9.523	  0.002	 -0.000	  0.021	 29.100	 99.387	 -99999.000
1435	 -0.089	 -0.503	  0.600	 -0.142	 -0.027	 -9.511	  0.002	 -0.002	  0.022	 29.100	 99.374	 -99999.000
1485	 -0.089	 -0.504	  0.597	 -0.222	 -0.005	 -9.495	  0.003	 -0.001	  0.019	 29.100	 99.374	 -99999.000
1535	 -0.087	 -0.501	  0.593	 -0.153	 -0.042	 -9.512	  0.001	 -0.000	  0.018	 29.100	 99.374	 -99999.000
1585	 -0.087	 -0.502	  0.590	 -0.225	 -0.023	 -9.516	  0.002	 -0.001	  0.020	 29.100	 99.374	 -99999.000
1635	 -0.091	 -0.501	  0.597	 -0.131	 -0.048	 -9.489	  0.003	 -0.001	  0.020	 29.100	 99.374	 -99999.000
1685	 -0.090	 -0.504	  0.586	 -0.232	 -0.023	 -9.508	  0.004	 -0.003	  0.018	 29.100	 99.387	 -99999.000
1735	 -0.089	 -0.499	  0.594	 -0.167	 -0.025	 -9.526	  0.002	 -0.001	  0.019	 29.100	 99.374	 -99999.000
1785	 -0.091	 -0.501	  0.600	 -0.221	 -0.017	 -9.492	  0.002	 -0.001	  0.018	 29.100	 99.374	 -99999.000
1835	 -0.089	 -0.502	  0.600	 -0.215	 -0.011	 -9.505	  0.001	 -0.001	  0.019	 29.100	 99.362	 -99999.000
1885	 -0.088	 -0.499	  0.598	 -0.167	 -0.039	 -9.499	  0.004	 -0.001	  0.019	 29.100	 99.374	 -99999.000
1935	 -0.089	 -0.499	  0.598	 -0.243	 -0.001	 -9.531	  0.003	 -0.001	  0.019	 29.100	 99.370	 -99999.000
1985	 -0.087	 -0.497	  0.597	 -0.153	 -0.043	 -9.458	  0.002	 -0.001	  0.019	 29.100	 99.374	 -99999.000
2035	 -0.087	 -0.502	  0.603	 -0.241	 -0.025	 -9.485	  0.003	 -0.001	  0.018	 29.100	 99.387	 -99999.000
2085	 -0.087	 -0.501	  0.597	 -0.126	 -0.052	 -9.490	  0.004	 -0.001	  0.018	 29.100	 99.387	 -99999.000
2135	 -0.088	 -0.492	  0.598	 -0.242	 -0.029	 -9.530	  0.001	 -0.002	  0.021	 29.100	 99.374	 -99999.000
2185	 -0.087	 -0.501	  0.588	 -0.142	 -0.033	 -9.505	  0.003	 -0.001	  0.019	 29.100	 99.374	 -99999.000
2235	 -0.088	 -0.503	  0.594	 -0.212	 -0.039	 -9.509	  0.002	 -0.000	  0.018	 29.100	 99.374	 -99999.000
2285	 -0.089	 -0.503	  0.600	 -0.168	 -0.027	 -9.470	  0.003	 -0.001	  0.020	 29.100	 99.387	 -99999.000
2335	 -0.088	 -0.498	  0.592	 -0.217	 -0.027	 -9.540	  0.003	 -0.001	  0.019	 29.100	 99.387	 -99999.000
2385	 -0.088	 -0.501	  0.594	 -0.180	 -0.010	 -9.457	  0.002	 -0.000	  0.019	 29.100	 99.374	 -99999.000
2435	 -0.088	 -0.501	  0.592	 -0.157	 -0.051	 -9.514	  0.003	 -0.001	  0.018	 29.100	 99.387	 -99999.000
2485	 -0.089	 -0.501	  0.600	 -0.230	 -0.027	 -9.522	  0.001	 -0.001	  0.020	 29.100	 99.374	 -99999.000
2535	 -0.086	 -0.500	  0.600	 -0.135	 -0.043	 -9.489	  0.002	 -0.002	  0.019	 29.100	 99.387	 -99999.000
2585	 -0.088	 -0.497	  0.597	 -0.258	 -0.019	 -9.491	  0.002	 -0.002	  0.019	 29.100	 99.374	 -99999.000
2635	 -0.087	 -0.499	  0.598	 -0.135	 -0.040	 -9.486	  0.003	 -0.002	  0.018	 29.100	 99.387	 -99999.000
2685	 -0.090	 -0.506	  0.597	 -0.235	 -0.026	 -9.503	  0.002	 -0.002	  0.017	 29.100	 99.387	 -99999.000
2735	 -0.090	 -0.485	  0.593	 -0.170	 -0.045	 -9.491	  0.003	 -0.001	  0.020	 29.100	 99.374	 -99999.000
2785	 -0.085	 -0.504	  0.595	 -0.185	 -0.031	 -9.497	  0.002	 -0.001	  0.020	 29.100	 99.362	 -99999.000
2835	 -0.090	 -0.501	  0.598	 -0.173	 -0.022	 -9.463	  0.003	 -0.002	  0.020	 29.100	 99.387	 -99999.000
2885	 -0.085	 -0.502	  0.600	 -0.178	 -0.048	 -9.490	  0.002	 -0.001	  0.020	 29.100	 99.387	 -99999.000
2935	 -0.088	 -0.502	  0.597	 -0.217	  0.002	 -9.486	  0.001	 -0.001	  0.017	 29.100	 99.387	 -99999.000
2985	 -0.089	 -0.507	  0.597	 -0.166	 -0.041	 -9.524	  0.003	 -0.002	  0.019	 29.100	 99.374	 -99999.000
3035	 -0.088	 -0.506	  0.596	 -0.229	  0.002	 -9.509	  0.003	 -0.001	  0.020	 29.100	 99.374	 -99999.000
3085	 -0.089	 -0.498	  0.596	 -0.127	 -0.036	 -9.493	  0.002	 -0.002	  0.018	 29.100	 99.387	 -99999.000
3135	 -0.087	 -0.502	  0.597	 -0.235	  0.007	 -9.486	  0.003	 -0.002	  0.019	 29.100	 99.387	 -99999.000
3185	 -0.091	 -0.495	  0.597	 -0.154	 -0.043	 -9.528	  0.002	 -0.002	  0.019	 29.100	 99.391	 -99999.000
3235	 -0.087	 -0.498	  0.594	 -0.223	 -0.032	 -9.486	  0.004	 -0.001	  0.018	 29.100	 99.374	 -99999.000
3285	 -0.088	 -0.499	  0.598	 -0.175	 -0.015	 -9.507	  0.003	 -0.001	  0.020	 29.100	 99.374	 -99999.000
3335	 -0.088	 -0.501	  0.598	 -0.211	 -0.025	 -9.491	  0.003	 -0.002	  0.018	 29.100	 99.374	 -99999.000
3385	 -0.088	 -0.502	  0.590	 -0.191	 -0.014	 -9.545	  0.002	 -0.001	  0.020	 29.100	 99.374	 -99999.000
3435	 -0.087	 -0.502	  0.600	 -0.170	 -0.044	 -9.457	  0.002	 -0.000	  0.019	 29.100	 99.358	 -99999.000
3485	 -0.087	 -0.507	  0.596	 -0.232	 -0.014	 -9.490	  0.003	 -0.001	  0.018	 29.100	 99.374	 -99999.000
3535	 -0.091	 -0.499	  0.598	 -0.154	 -0.043	 -9.493	  0.002	 -0.002	  0.018	 29.100	 99.374	 -99999.000
3585	 -0.090	 -0.494	  0.595	 -0.253	 -0.017	 -9.507	  0.001	 -0.000	  0.018	 29.100	 99.387	 -99999.000
3635	 -0.090	 -0.497	  0.595	 -0.146	 -0.027	 -9.510	  0.003	 -0.001	  0.019	 29.100	 99.387	 -99999.000
3685	 -0.087	 -0.502	  0.599	 -0.226	 -0.012	 -9.479	  0.003	 -0.001	  0.020	 29.100	 99.374	 -99999.000
3735	 -0.090	 -0.502	  0.598	 -0.179	 -0.021	 -9.512	  0.003	 -0.003	  0.018	 29.100	 99.374	 -99999.000
3785	 -0.088	 -0.503	  0.600	 -0.239	 -0.013	 -9.499	  0.003	  0.001	  0.020	 29.100	 99.374	 -99999.000
3835	 -0.087	 -0.504	  0.589	 -0.125	 -0.057	 -9.517	  0.003	 -0.002	  0.018	 29.100	 99.370	 -99999.000
3885	 -0.087	 -0.489	  0.604	 -0.242	 -0.027	 -9.464	  0.001	 -0.000	  0.018	 29.100	 99.387	 -99999.000
3935	 -0.093	 -0.494	  0.593	 -0.172	 -0.030	 -9.494	  0.004	 -0.000	  0.018	 29.100	 99.374	 -99999.000
3985	 -0.088	 -0.498	  0.601	 -0.175	 -0.044	 -9.511	  0.002	 -0.001	  0.022	 29.100	 99.387	 -99999.000
4035	 -0.089	 -0.501	  0.597	 -0.248	 -0.007	 -9.498	  0.003	 -0.002	  0.018	 29.100	 99.387	 -99999.000
4085	 -0.088	 -0.503	  0.600	 -0.142	 -0.032	 -9.477	  0.001	 -0.001	  0.023	 29.100	 99.374	 -99999.000
4135	 -0.086	 -0.499	  0.596	 -0.241	 -0.018	 -9.501	  0.001	 -0.001	  0.021	 29.100	 99.374	 -99999.000
4185	 -0.089	 -0.503	  0.596	 -0.121	 -0.050	 -9.498	  0.002	 -0.003	  0.019	 29.100	 99.370	 -99999.000
4235	 -0.093	 -0.502	  0.596	 -0.240	 -0.003	 -9.526	  0.002	  0.000	  0.020	 29.100	 99.374	 -99999.000
5285	 -0.090	 -0.506	  0.602	 -0.161	 -0.034	 -9.512	  0.002	 -0.001	  0.018	 29.100	 99.387	 -99999.000
5336	 -0.089	 -0.498	  0.598	 -0.241	 -0.008	 -9.507	  0.003	 -0.001	  0.018	 29.100	 99.374	 -99999.000
5385	 -0.089	 -0.507	  0.600	 -0.173	  0.001	 -9.508	  0.003	 -0.001	  0.020	 29.100	 99.387	 -99999.000
5435	 -0.090	 -0.495	  0.597	 -0.215	 -0.009	 -9.476	  0.003	 -0.002	  0.020	 29.100	 99.387	 -99999.000
5485	 -0.090	 -0.498	  0.600	 -0.169	 -0.026	 -9.533	  0.002	 -0.000	  0.020	 29.100	 99.374	 -99999.000
5535	 -0.088	 -0.506	  0.597	 -0.212	 -0.045	 -9.496	  0.002	 -0.001	  0.018	 29.100	 99.387	 -99999.000
5585	 -0.089	 -0.498	  0.596	 -0.218	 -0.026	 -9.508	  0.001	 -0.001	  0.018	 29.100	 99.387	 -99999.000
5635	 -0.088	 -0.494	  0.598	 -0.182	 -0.044	 -9.483	  0.002	 -0.001	  0.019	 29.100	 99.387	 -99999.000
5685	 -0.085	 -0.506	  0.600	 -0.196	 -0.012	 -9.492	  0.002	 -0.001	  0.022	 29.100	 99.387	 -99999.000
5735	 -0.087	 -0.498	  0.598	 -0.130	 -0.042	 -9.513	  0.004	 -0.002	  0.020	 29.100	 99.374	 -99999.000
5786	 -0.089	 -0.504	  0.600	 -0.240	 -0.009	 -9.509	  0.003	 -0.002	  0.017	 29.100	 99.387	 -99999.000
5836	 -0.089	 -0.499	  0.598	 -0.158	 -0.002	 -9.521	  0.002	 -0.001	  0.018	 29.100	 99.374	 -99999.000
5886	 -0.089	 -0.503	  0.594	 -0.212	 -0.022	 -9.468	  0.003	 -0.002	  0.021	 29.100	 99.391	 -99999.000
5936	 -0.087	 -0.492	  0.594	 -0.179	 -0.011	 -9.493	  0.002	 -0.001	  0.021	 29.100	 99.374	 -99999.000
5986	 -0.090	 -0.503	  0.596	 -0.178	 -0.024	 -9.477	  0.002	 -0.000	  0.017	 29.100	 99.374	 -99999.000
6035	 -0.089	 -0.506	  0.599	 -0.215	 -0.009	 -9.509	  0.002	  0.000	  0.016	 29.100	 99.387	 -99999.000
6086	 -0.088	 -0.502	  0.596	 -0.202	 -0.011	 -9.516	  0.002	 -0.002	  0.018	 29.100	 99.374	 -99999.000
6136	 -0.088	 -0.503	  0.597	 -0.226	  0.002	 -9.507	  0.003	 -0.001	  0.021	 29.100	 99.374	 -99999.000
6185	 -0.088	 -0.502	  0.596	 -0.139	 -0.045	 -9.486	  0.002	 -0.000	  0.018	 29.100	 99.387	 -99999.000
6236	 -0.089	 -0.502	  0.586	 -0.236	 -0.021	 -9.494	  0.003	 -0.001	  0.018	 29.100	 99.387	 -99999.000
6286	 -0.089	 -0.501	  0.594	 -0.161	 -0.022	 -9.491	  0.003	 -0.001	  0.022	 29.100	 99.374	 -99999.000
6336	 -0.089	 -0.499	  0.601	 -0.199	 -0.042	 -9.495	  0.002	 -0.000	  0.017	 29.100	 99.387	 -99999.000
6386	 -0.091	 -0.497	  0.601	 -0.195	 -0.010	 -9.469	  0.003	 -0.001	  0.021	 29.100	 99.374	 -99999.000
6436	 -0.087	 -0.501	  0.598	 -0.185	 -0.024	 -9.504	  0.003	 -0.002	  0.015	 29.100	 99.374	 -99999.000
6486	 -0.090	 -0.482	  0.598	 -0.189	 -0.029	 -9.487	  0.003	 -0.001	  0.021	 29.100	 99.374	 -99999.000
6536	 -0.090	 -0.502	  0.592	 -0.171	 -0.040	 -9.513	  0.002	 -0.001	  0.019	 29.100	 99.387	 -99999.000
6586	 -0.089	 -0.489	  0.601	 -0.228	 -0.017	 -9.497	  0.003	 -0.003	  0.016	 29.100	 99.399	 -99999.000
6636	 -0.089	 -0.503	  0.596	 -0.112	 -0.067	 -9.508	  0.002	 -0.002	  0.019	 29.100	 99.374	 -99999.000
6686	 -0.087	 -0.503	  0.601	 -0.241	 -0.027	 -9.488	  0.002	 -0.001	  0.015	 29.100	 99.374	 -99999.000
6736	 -0.090	 -0.499	  0.597	 -0.161	 -0.038	 -9.504	  0.003	 -0.001	  0.019	 29.100	 99.387	 -99999.000
6786	 -0.090	 -0.502	  0.604	 -0.242	 -0.026	 -9.518	  0.004	 -0.001	  0.024	 29.100	 99.387	 -99999.000
6836	 -0.089	 -0.499	  0.598	 -0.156	 -0.012	 -9.503	  0.003	 -0.001	  0.017	 29.100	 99.374	 -99999.000
6886	 -0.085	 -0.506	  0.596	 -0.211	 -0.026	 -9.485	  0.003	 -0.000	  0.014	 29.100	 99.387	 -99999.000
6936	 -0.089	 -0.499	  0.592	 -0.216	 -0.035	 -9.483	  0.003	 -0.002	  0.025	 29.100	 99.374	 -99999.000
6986	 -0.089	 -0.493	  0.600	 -0.162	 -0.032	 -9.474	  0.002	 -0.001	  0.019	 29.100	 99.374	 -99999.000
7036	 -0.089	 -0.504	  0.598	 -0.221	 -0.003	 -9.476	  0.003	 -0.000	  0.014	 29.100	 99.387	 -99999.000
7086	 -0.089	 -0.504	  0.600	 -0.166	 -0.039	 -9.510	  0.002	 -0.001	  0.020	 29.100	 99.387	 -99999.000
7136	 -0.088	 -0.501	  0.600	 -0.242	 -0.016	 -9.509	  0.004	 -0.000	  0.024	 29.100	 99.374	 -99999.000
7186	 -0.091	 -0.504	  0.602	 -0.140	 -0.034	 -9.524	  0.003	 -0.001	  0.016	 29.100	 99.374	 -99999.000
7236	 -0.089	 -0.494	  0.598	 -0.255	  0.010	 -9.490	  0.002	 -0.002	  0.015	 29.100	 99.387	 -99999.000
7286	 -0.088	 -0.503	  0.590	 -0.159	 -0.045	 -9.531	  0.002	 -0.001	  0.022	 29.100	 99.374	 -99999.000
7336	 -0.089	 -0.502	  0.602	 -0.227	 -0.023	 -9.512	  0.001	 -0.001	  0.022	 29.100	 99.362	 -99999.000
7386	 -0.088	 -0.502	  0.593	 -0.129	 -0.040	 -9.520	  0.002	 -0.001	  0.015	 29.100	 99.374	 -99999.000
7436	 -0.088	 -0.499	  0.598	 -0.206	 -0.029	 -9.491	  0.002	 -0.001	  0.021	 29.100	 99.387	 -99999.000
7486	 -0.087	 -0.504	  0.590	 -0.179	 -0.039	 -9.518	  0.002	 -0.001	  0.020	 29.100	 99.387	 -99999.000
7536	 -0.089	 -0.502	  0.598	 -0.154	 -0.030	 -9.427	  0.003	 -0.001	  0.020	 29.100	 99.387	 -99999.000
7586	 -0.089	 -0.502	  0.596	 -0.209	  0.003	 -9.497	  0.003	 -0.000	  0.021	 29.100	 99.387	 -99999.000
7636	 -0.087	 -0.501	  0.600	 -0.166	 -0.041	 -9.516	  0.003	 -0.002	  0.019	 29.100	 99.374	 -99999.000
7686	 -0.088	 -0.489	  0.598	 -0.232	 -0.015	 -9.520	  0.002	 -0.001	  0.019	 29.100	 99.374	 -99999.000
7736	 -0.088	 -0.502	  0.601	 -0.131	 -0.059	 -9.495	  0.002	 -0.001	  0.018	 29.100	 99.374	 -99999.000
7786	 -0.087	 -0.503	  0.599	 -0.253	 -0.002	 -9.483	  0.001	 -0.001	  0.019	 29.100	 99.374	 -99999.000
7836	 -0.088	 -0.504	  0.600	 -0.151	 -0.041	 -9.489	  0.002	 -0.002	  0.022	 29.100	 99.387	 -99999.000
7886	 -0.088	 -0.500	  0.602	 -0.226	 -0.016	 -9.559	  0.002	 -0.001	  0.018	 29.100	 99.387	 -99999.000
7936	 -0.089	 -0.503	  0.597	 -0.159	  0.013	 -9.507	  0.002	 -0.001	  0.014	 29.100	 99.387	 -99999.000
7986	 -0.088	 -0.504	  0.599	 -0.210	 -0.026	 -9.487	  0.003	 -0.001	  0.022	 29.100	 99.391	 -99999.000
8036	 -0.089	 -0.504	  0.593	 -0.200	 -0.008	 -9.499	  0.002	 -0.000	  0.026	 29.100	 99.370	 -99999.000
8086	 -0.089	 -0.503	  0.600	 -0.157	 -0.060	 -9.525	  0.004	 -0.000	  0.018	 29.100	 99.374	 -99999.000
8136	 -0.089	 -0.504	  0.594	 -0.221	 -0.004	 -9.517	  0.002	 -0.001	  0.022	 29.100	 99.387	 -99999.000
8186	 -0.090	 -0.504	  0.594	 -0.144	 -0.038	 -9.526	  0.002	 -0.001	  0.016	 29.100	 99.374	 -99999.000
8236	 -0.088	 -0.503	  0.598	 -0.238	  0.007	 -9.497	  0.002	 -0.002	  0.016	 29.100	 99.374	 -99999.000
11760	 -0.090	 -0.501	  0.593	 -0.216	 -0.116	 -9.594	  0.000	 -0.002	  0.020	 29.100	 99.387	 -0.588
11810	 -0.088	 -0.498	  0.600	 -0.255	 -0.006	 -9.484	  0.001	 -0.002	  0.020	 29.100	 99.374	  0.606
11860	 -0.090	 -0.497	  0.598	 -0.158	 -0.075	 -9.478	  0.002	 -0.001	  0.019	 29.100	 99.374	  0.606
11910	 -0.094	 -0.493	  0.599	 -0.236	 -0.003	 -9.503	  0.002	 -0.001	  0.017	 29.100	 99.374	  0.606
11960	 -0.088	 -0.501	  0.600	 -0.169	 -0.027	 -9.514	  0.003	 -0.001	  0.021	 29.100	 99.374	  0.606
12010	 -0.089	 -0.502	  0.597	 -0.213	 -0.037	 -9.505	  0.001	 -0.001	  0.023	 29.100	 99.387	 -0.588
12061	 -0.085	 -0.504	  0.597	 -0.165	 -0.034	 -9.494	  0.002	  0.000	  0.022	 29.100	 99.374	  0.606
12110	 -0.090	 -0.503	  0.597	 -0.163	 -0.044	 -9.488	  0.003	 -0.001	  0.020	 29.100	 99.374	  0.606
12161	 -0.087	 -0.498	  0.589	 -0.202	 -0.008	 -9.484	  0.001	 -0.002	  0.021	 29.100	 99.387	 -0.588
12211	 -0.087	 -0.504	  0.600	 -0.142	 -0.051	 -9.492	  0.003	 -0.001	  0.017	 29.100	 99.387	 -0.588
12261	 -0.088	 -0.487	  0.594	 -0.218	 -0.008	 -9.504	  0.003	 -0.002	  0.016	 29.100	 99.391	 -0.955
12311	 -0.089	 -0.501	  0.601	 -0.204	 -0.030	 -9.496	  0.002	 -0.002	  0.020	 29.100	 99.387	 -0.588
12361	 -0.087	 -0.498	  0.588	 -0.220	 -0.010	 -9.513	  0.002	 -0.001	  0.023	 29.100	 99.374	  0.606
12411	 -0.087	 -0.501	  0.596	 -0.168	 -0.012	 -9.470	  0.002	 -0.002	  0.022	 29.100	 99.374	  0.606
12461	 -0.088	 -0.499	  0.604	 -0.166	 -0.039	 -9.475	  0.003	 -0.002	  0.017	 29.100	 99.387	 -0.588
12511	 -0.088	 -0.504	  0.597	 -0.218	 -0.019	 -9.507	  0.002	 -0.001	  0.019	 29.100	 99.391	 -0.955
12561	 -0.090	 -0.502	  0.600	 -0.147	 -0.018	 -9.495	  0.002	 -0.000	  0.017	 29.100	 99.358	  2.076
12611	 -0.089	 -0.497	  0.600	 -0.238	 -0.017	 -9.490	  0.002	 -0.002	  0.019	 29.100	 99.387	 -0.588
12660	 -0.087	 -0.497	  0.598	 -0.122	 -0.051	 -9.505	  0.002	 -0.001	  0.021	 29.100	 99.387	 -0.588
12710	 -0.088	 -0.488	  0.595	 -0.227	 -0.021	 -9.502	  0.002	 -0.001	  0.016	 29.100	 99.374	  0.606
12760	 -0.087	 -0.502	  0.599	 -0.153	 -0.030	 -9.538	  0.003	 -0.001	  0.018	 29.100	 99.374	  0.606
12810	 -0.090	 -0.495	  0.601	 -0.223	 -0.026	 -9.486	  0.003	  0.000	  0.016	 29.100	 99.387	 -0.588
12861	 -0.090	 -0.503	  0.600	 -0.202	 -0.029	 -9.491	  0.002	 -0.001	  0.021	 29.100	 99.374	  0.606
12911	 -0.089	 -0.498	  0.588	 -0.201	 -0.030	 -9.466	  0.002	 -0.001	  0.015	 29.100	 99.374	  0.606
12960	 -0.088	 -0.503	  0.601	 -0.212	 -0.013	 -9.514	  0.003	  0.000	  0.021	 29.100	 99.391	 -0.955
13010	 -0.087	 -0.494	  0.594	 -0.188	 -0.035	 -9.498	  0.003	 -0.002	  0.018	 29.100	 99.374	  0.606
13060	 -0.090	 -0.502	  0.596	 -0.251	 -0.023	 -9.469	  0.003	 -0.001	  0.016	 29.100	 99.387	 -0.588
13110	 -0.090	 -0.499	  0.597	 -0.137	 -0.038	 -9.453	  0.003	 -0.002	  0.018	 29.100	 99.374	  0.606
13160	 -0.090	 -0.501	  0.601	 -0.244	 -0.033	 -9.476	  0.002	 -0.002	  0.019	 29.100	 99.374	  0.606
13210	 -0.087	 -0.489	  0.590	 -0.131	 -0.046	 -9.530	  0.003	 -0.001	  0.018	 29.100	 99.387	 -0.588
13260	 -0.088	 -0.502	  0.601	 -0.232	 -0.012	 -9.501	  0.003	 -0.001	  0.017	 29.100	 99.374	  0.606
13310	 -0.089	 -0.497	  0.600	 -0.156	 -0.040	 -9.473	  0.003	 -0.003	  0.019	 29.100	 99.387	 -0.588
13360	 -0.090	 -0.495	  0.600	 -0.226	 -0.038	 -9.486	  0.003	 -0.002	  0.022	 29.100	 99.379	  0.147
13410	 -0.086	 -0.493	  0.596	 -0.169	 -0.058	 -9.508	  0.003	 -0.001	  0.017	 29.100	 99.387	 -0.588
13460	 -0.087	 -0.502	  0.592	 -0.205	 -0.042	 -9.534	  0.003	 -0.001	  0.021	 29.100	 99.374	  0.606
13510	 -0.087	 -0.501	  0.598	 -0.195	  0.009	 -9.510	  0.002	 -0.000	  0.023	 29.100	 99.374	  0.606
13560	 -0.088	 -0.502	  0.596	 -0.192	 -0.042	 -9.505	  0.002	 -0.001	  0.021	 29.100	 99.374	  0.606
13610	 -0.087	 -0.493	  0.604	 -0.209	 -0.014	 -9.491	  0.001	 -0.000	  0.020	 29.100	 99.387	 -0.588
13660	 -0.090	 -0.497	  0.595	 -0.144	 -0.054	 -9.505	  0.003	 -0.003	  0.017	 29.100	 99.374	  0.606
13710	 -0.089	 -0.504	  0.597	 -0.241	 -0.027	 -9.519	  0.001	 -0.001	  0.021	 29.100	 99.374	  0.606
13760	 -0.091	 -0.499	  0.596	 -0.136	 -0.043	 -9.518	  0.003	  0.000	  0.017	 29.100	 99.387	 -0.588
13810	 -0.089	 -0.502	  0.601	 -0.221	 -0.046	 -9.495	  0.001	 -0.001	  0.018	 29.100	 99.379	  0.147
13860	 -0.089	 -0.498	  0.602	 -0.155	 -0.044	 -9.484	  0.003	 -0.001	  0.021	 29.100	 99.374	  0.606
13910	 -0.090	 -0.498	  0.601	 -0.212	 -0.020	 -9.521	  0.003	 -0.001	  0.020	 29.100	 99.374	  0.606
13960	 -0.089	 -0.502	  0.597	 -0.188	 -0.021	 -9.504	  0.002	  0.000	  0.021	 29.100	 99.374	  0.606
14010	 -0.093	 -0.497	  0.600	 -0.198	 -0.029	 -9.467	  0.002	 -0.001	  0.017	 29.100	 99.374	  0.606
14060	 -0.087	 -0.497	  0.605	 -0.212	 -0.023	 -9.513	  0.002	 -0.001	  0.017	 29.100	 99.387	 -0.588
14110	 -0.087	 -0.499	  0.593	 -0.182	 -0.024	 -9.488	  0.003	 -0.001	  0.021	 29.100	 99.374	  0.606
14160	 -0.087	 -0.501	  0.598	 -0.232	 -0.017	 -9.492	  0.002	 -0.001	  0.022	 29.100	 99.387	 -0.588
14210	 -0.088	 -0.482	  0.593	 -0.137	 -0.030	 -9.468	  0.003	 -0.003	  0.022	 29.100	 99.362	  1.709
14260	 -0.088	 -0.497	  0.598	 -0.230	 -0.109	 -9.523	 -0.001	  0.000	  0.020	 29.100	 99.374	  0.606
14310	 -0.089	 -0.504	  0.593	 -0.158	 -0.006	 -9.438	  0.003	 -0.001	  0.018	 29.100	 99.387	 -0.588
14360	 -0.087	 -0.501	  0.592	 -0.242	 -0.015	 -9.520	  0.002	 -0.000	  0.021	 29.100	 99.374	  0.606
14410	 -0.088	 -0.493	  0.593	 -0.171	 -0.024	 -9.519	  0.002	 -0.001	  0.022	 29.100	 99.387	 -0.588
14460	 -0.090	 -0.502	  0.598	  0.020	 -1.425	 -10.376	 -0.248	 -0.067	  0.031	 29.100	 99.387	 -0.588
14510	 -0.088	 -0.521	  0.587	 -1.177	  0.834	 -9.705	 -0.841	  0.204	  0.021	 29.100	 99.362	  1.709
14560	 -0.091	 -0.536	  0.579	  1.996	  2.240	 -7.027	 -0.049	  0.042	 -0.126	 29.100	 99.374	  0.606
14610	 -0.081	 -0.499	  0.595	 -5.256	  2.741	 -10.044	  1.604	 -0.078	 -0.156	 29.100	 99.374	  0.606
14660	 -0.090	 -0.507	  0.594	  2.933	 -2.128	 -10.313	 -0.685	 -0.172	  0.135	 29.100	 99.374	  0.606
14710	 -0.086	 -0.525	  0.584	  0.594	  2.502	 -7.143	 -0.031	  0.012	 -0.025	 29.100	 99.374	  0.606
14760	 -0.089	 -0.509	  0.596	 -2.160	 -0.843	 -11.530	  0.643	  0.078	 -0.001	 29.100	 99.387	 -0.588
14810	 -0.089	 -0.506	  0.596	  0.086	 -1.682	 -10.636	 -0.237	 -0.063	  0.024	 29.100	 99.374	  0.606
14860	 -0.086	 -0.517	  0.584	  0.072	  1.964	 -8.038	 -0.224	  0.031	  0.012	 29.100	 99.374	  0.606
14910	 -0.084	 -0.498	  0.596	 -1.367	  0.981	 -9.277	  0.612	  0.032	 -0.006	 29.100	 99.374	  0.606
14960	 -0.088	 -0.502	  0.597	  0.016	  0.477	 -9.524	 -0.179	 -0.046	  0.030	 29.100	 99.374	  0.606
15010	 -0.090	 -0.506	  0.596	 -0.340	  0.496	 -9.176	  0.037	  0.009	  0.018	 29.100	 99.374	  0.606
15060	 -0.086	 -0.501	  0.597	  0.726	  2.040	 -8.439	 -0.103	 -0.007	  0.006	 29.100	 99.374	  0.606
15110	 -0.090	 -0.504	  0.600	 -0.145	 -0.084	 -9.561	 -0.001	 -0.001	  0.021	 29.100	 99.374	  0.606
15160	 -0.090	 -0.498	  0.594	 -0.174	 -0.046	 -9.544	  0.005	  0.000	  0.021	 29.100	 99.374	  0.606
15210	 -0.089	 -0.489	  0.600	 -0.180	 -0.035	 -9.497	  0.003	 -0.001	  0.018	 29.100	 99.374	  0.606
15260	 -0.088	 -0.499	  0.600	 -0.203	 -0.024	 -9.524	  0.002	 -0.002	  0.017	 29.100	 99.387	 -0.588
15310	 -0.094	 -0.501	  0.594	 -0.152	 -0.066	 -9.493	  0.003	 -0.000	  0.019	 29.100	 99.387	 -0.588
15360	 -0.090	 -0.488	  0.598	 -0.225	  0.009	 -9.504	  0.002	 -0.001	  0.018	 29.100	 99.374	  0.606
15410	 -0.093	 -0.502	  0.596	 -0.143	 -0.043	 -9.498	  0.004	 -0.002	  0.018	 29.100	 99.362	  1.709
15460	 -0.090	 -0.499	  0.601	 -0.221	 -0.018	 -9.504	  0.003	 -0.001	  0.020	 29.100	 99.387	 -0.588
15510	 -0.089	 -0.494	  0.589	 -0.179	 -0.030	 -9.509	  0.002	 -0.001	  0.015	 29.100	 99.379	  0.147
15560	 -0.093	 -0.497	  0.601	 -0.177	 -0.045	 -9.491	  0.002	 -0.002	  0.021	 29.100	 99.387	 -0.588
15610	 -0.088	 -0.501	  0.593	 -0.207	 -0.019	 -9.500	  0.002	  0.000	  0.015	 29.100	 99.382	 -0.128
15660	 -0.091	 -0.501	  0.596	 -0.170	 -0.049	 -9.511	  0.002	 -0.001	  0.016	 29.100	 99.387	 -0.588
15710	 -0.089	 -0.498	  0.598	 -0.219	 -0.024	 -9.507	  0.003	 -0.002	  0.016	 29.100	 99.374	  0.606
15760	 -0.091	 -0.498	  0.601	 -0.152	 -0.065	 -9.499	  0.002	 -0.001	  0.016	 29.100	 99.374	  0.606
15810	 -0.089	 -0.499	  0.601	 -0.240	 -0.019	 -9.526	  0.003	 -0.001	  0.021	 29.100	 99.374	  0.606
15860	 -0.091	 -0.499	  0.601	 -0.135	 -0.026	 -9.495	  0.002	 -0.002	  0.025	 29.100	 99.387	 -0.588
15910	 -0.090	 -0.499	  0.597	 -0.242	 -0.047	 -9.500	  0.003	 -0.002	  0.019	 29.100	 99.374	  0.606
15960	 -0.094	 -0.502	  0.601	 -0.160	  0.000	 -9.486	  0.003	  0.000	  0.018	 29.100	 99.374	  0.606
16010	 -0.090	 -0.504	  0.597	 -0.214	 -0.033	 -9.507	  0.002	 -0.001	  0.017	 29.100	 99.374	  0.606
16060	 -0.090	 -0.499	  0.597	 -0.205	 -0.012	 -9.466	  0.002	 -0.002	  0.022	 29.100	 99.374	  0.606
16110	 -0.091	 -0.498	  0.605	 -0.176	 -0.052	 -9.484	  0.003	 -0.001	  0.020	 29.100	 99.387	 -0.588
16160	 -0.091	 -0.490	  0.597	 -0.234	 -0.006	 -9.457	  0.003	 -0.001	  0.016	 29.100	 99.382	 -0.128
16210	 -0.090	 -0.494	  0.604	 -0.167	 -0.042	 -9.491	  0.002	 -0.001	  0.022	 29.100	 99.374	  0.606
16260	 -0.090	 -0.501	  0.597	 -0.237	 -0.018	 -9.478	  0.002	 -0.001	  0.021	 29.100	 99.387	 -0.588
16310	 -0.090	 -0.502	  0.592	 -0.136	 -0.038	 -9.531	  0.002	 -0.000	  0.014	 29.100	 99.387	 -0.588
16360	 -0.090	 -0.499	  0.598	 -0.234	 -0.004	 -9.465	  0.003	 -0.001	  0.018	 29.100	 99.374	  0.606
16410	 -0.090	 -0.495	  0.600	 -0.145	 -0.051	 -9.501	  0.002	 -0.002	  0.014	 29.100	 99.374	  0.606
16460	 -0.088	 -0.501	  0.598	 -0.230	 -0.057	 -9.513	  0.003	 -0.002	  0.022	 29.100	 99.387	 -0.588
16510	 -0.089	 -0.502	  0.602	 -0.180	 -0.014	 -9.522	  0.002	 -0.000	  0.015	 29.100	 99.387	 -0.588
16560	 -0.089	 -0.501	  0.601	 -0.204	 -0.042	 -9.509	  0.003	 -0.003	  0.022	 29.100	 99.374	  0.606
16610	 -0.093	 -0.499	  0.598	 -0.200	  0.015	 -9.474	  0.002	 -0.001	  0.016	 29.100	 99.374	  0.606
16660	 -0.091	 -0.503	  0.600	 -0.168	 -0.042	 -9.528	  0.003	 -0.001	  0.015	 29.100	 99.374	  0.606
16711	 -0.089	 -0.499	  0.596	 -0.216	  0.014	 -9.488	  0.002	 -0.002	  0.018	 29.100	 99.374	  0.606
16760	 -0.089	 -0.502	  0.594	 -0.152	 -0.039	 -9.510	  0.002	 -0.001	  0.024	 29.100	 99.387	 -0.588
16810	 -0.089	 -0.493	  0.590	 -0.247	 -0.024	 -9.465	  0.003	 -0.000	  0.018	 29.100	 99.374	  0.606
16860	 -0.093	 -0.499	  0.601	 -0.144	 -0.049	 -9.479	  0.002	 -0.002	  0.020	 29.100	 99.370	  0.973
16910	 -0.091	 -0.497	  0.600	 -0.259	 -0.016	 -9.471	  0.002	 -0.003	  0.018	 29.100	 99.374	  0.606
16960	 -0.091	 -0.501	  0.600	 -0.149	 -0.039	 -9.456	  0.003	 -0.002	  0.021	 29.100	 99.387	 -0.588
17010	 -0.093	 -0.499	  0.595	 -0.231	 -0.026	 -9.476	  0.002	 -0.002	  0.022	 29.100	 99.374	  0.606
17060	 -0.090	 -0.501	  0.600	 -0.159	 -0.065	 -9.512	  0.003	 -0.001	  0.014	 29.100	 99.379	  0.147
17110	 -0.089	 -0.497	  0.600	 -0.236	 -0.035	 -9.497	  0.002	 -0.001	  0.020	 29.100	 99.387	 -0.588
17160	 -0.089	 -0.503	  0.602	 -0.174	 -0.029	 -9.481	  0.002	 -0.001	  0.022	 29.100	 99.387	 -0.588
17210	 -0.094	 -0.499	  0.598	 -0.213	 -0.022	 -9.458	  0.003	 -0.001	  0.020	 29.100	 99.387	 -0.588
17260	 -0.090	 -0.498	  0.591	 -0.198	 -0.022	 -9.496	  0.003	 -0.000	  0.021	 29.100	 99.387	 -0.588
17310	 -0.090	 -0.504	  0.600	 -0.175	 -0.037	 -9.515	  0.001	  0.000	  0.023	 29.100	 99.362	  1.709
17361	 -0.093	 -0.504	  0.597	 -0.235	 -0.014	 -9.490	  0.003	 -0.000	  0.020	 29.100	 99.379	  0.147
17410	 -0.090	 -0.498	  0.594	 -0.161	 -0.034	 -9.529	  0.002	 -0.002	  0.020	 29.100	 99.391	 -0.955
17461	 -0.093	 -0.499	  0.598	 -0.228	  0.007	 -9.475	  0.001	 -0.001	  0.021	 29.100	 99.382	 -0.128
17510	 -0.088	 -0.502	  0.598	 -0.159	 -0.020	 -9.540	  0.002	 -0.001	  0.017	 29.100	 99.374	  0.606
17560	 -0.093	 -0.499	  0.595	 -0.225	 -0.013	 -9.481	  0.002	 -0.001	  0.019	 29.100	 99.382	 -0.128
17611	 -0.089	 -0.504	  0.597	 -0.152	 -0.035	 -9.498	  0.002	 -0.002	  0.023	 29.100	 99.374	  0.606
17660	 -0.094	 -0.503	  0.597	 -0.176	 -0.056	 -9.496	  0.001	 -0.000	  0.020	 29.100	 99.387	 -0.588
17711	 -0.091	 -0.502	  0.604	 -0.202	 -0.007	 -9.489	  0.002	 -0.002	  0.021	 29.100	 99.387	 -0.588
17761	 -0.090	 -0.490	  0.591	 -0.170	 -0.052	 -9.531	  0.001	 -0.001	  0.015	 29.100	 99.387	 -0.588
17811	 -0.090	 -0.503	  0.604	 -0.233	 -0.019	 -9.503	  0.003	 -0.002	  0.021	 29.100	 99.391	 -0.955
17861	 -0.090	 -0.497	  0.590	 -0.142	 -0.039	 -9.477	  0.003	 -0.001	  0.022	 29.100	 99.387	 -0.588
17911	 -0.093	 -0.495	  0.598	 -0.218	  0.013	 -9.512	  0.002	 -0.002	  0.023	 29.100	 99.387	 -0.588
17961	 -0.089	 -0.502	  0.602	 -0.107	 -0.046	 -9.496	  0.002	  0.000	  0.019	 29.100	 99.387	 -0.588
18011	 -0.093	 -0.499	  0.600	 -0.231	 -0.003	 -9.485	  0.002	 -0.002	  0.023	 29.100	 99.399	 -1.690
18061	 -0.093	 -0.499	  0.601	 -0.166	 -0.004	 -9.512	  0.003	 -0.001	  0.016	 29.100	 99.374	  0.606
18111	 -0.090	 -0.499	  0.593	 -0.218	 -0.034	 -9.518	  0.003	 -0.003	  0.016	 29.100	 99.387	 -0.588
18161	 -0.091	 -0.499	  0.602	 -0.197	 -0.029	 -9.533	  0.002	 -0.001	  0.020	 29.100	 99.374	  0.606
18211	 -0.087	 -0.503	  0.593	 -0.187	 -0.050	 -9.519	  0.003	 -0.001	  0.015	 29.100	 99.379	  0.147
18261	 -0.093	 -0.504	  0.602	 -0.210	 -0.016	 -9.480	  0.003	 -0.001	  0.017	 29.100	 99.374	  0.606
18311	 -0.089	 -0.493	  0.593	 -0.167	 -0.049	 -9.498	  0.002	 -0.002	  0.016	 29.100	 99.387	 -0.588
18361	 -0.093	 -0.503	  0.601	 -0.240	 -0.012	 -9.449	  0.003	 -0.001	  0.017	 29.100	 99.374	  0.606
18411	 -0.093	 -0.499	  0.602	 -0.149	 -0.068	 -9.483	  0.002	 -0.001	  0.022	 29.100	 99.387	 -0.588
18461	 -0.091	 -0.501	  0.604	 -0.231	 -0.048	 -9.529	  0.002	 -0.002	  0.016	 29.100	 99.387	 -0.588
18511	 -0.090	 -0.498	  0.596	 -0.137	 -0.015	 -9.476	  0.004	 -0.000	  0.022	 29.100	 99.374	  0.606
18561	 -0.091	 -0.502	  0.590	 -0.231	 -0.039	 -9.488	  0.002	 -0.001	  0.015	 29.100	 99.362	  1.709
18611	 -0.089	 -0.502	  0.598	 -0.155	 -0.011	 -9.502	  0.003	 -0.001	  0.018	 29.100	 99.374	  0.606
18661	 -0.089	 -0.498	  0.596	 -0.204	 -0.061	 -9.489	  0.003	 -0.001	  0.015	 29.100	 99.374	  0.606
18711	 -0.090	 -0.504	  0.598	 -0.196	 -0.023	 -9.519	  0.004	 -0.001	  0.020	 29.100	 99.374	  0.606
18761	 -0.093	 -0.499	  0.595	 -0.164	 -0.076	 -9.540	  0.001	 -0.001	  0.020	 29.100	 99.374	  0.606
18811	 -0.091	 -0.504	  0.601	 -0.249	 -0.014	 -9.541	  0.001	 -0.001	  0.019	 29.100	 99.387	 -0.588
18861	 -0.090	 -0.504	  0.598	 -0.155	 -0.051	 -9.521	  0.004	 -0.000	  0.018	 29.100	 99.387	 -0.588
18911	 -0.093	 -0.501	  0.597	 -0.240	  0.015	 -9.527	  0.002	 -0.000	  0.020	 29.100	 99.374	  0.606
18961	 -0.090	 -0.504	  0.596	 -0.139	 -0.051	 -9.502	  0.001	 -0.002	  0.018	 29.100	 99.374	  0.606
19011	 -0.094	 -0.506	  0.606	 -0.225	 -0.008	 -9.499	  0.003	 -0.003	  0.016	 29.100	 99.379	  0.147
19061	 -0.093	 -0.489	  0.601	 -0.163	 -0.002	 -9.504	  0.003	 -0.001	  0.019	 29.100	 99.374	  0.606
19111	 -0.091	 -0.502	  0.604	 -0.205	 -0.038	 -9.501	  0.002	 -0.001	  0.017	 29.100	 99.391	 -0.955
19161	 -0.089	 -0.497	  0.600	 -0.197	 -0.075	 -9.532	 -0.001	 -0.001	  0.017	 29.100	 99.387	 -0.588
19211	 -0.094	 -0.497	  0.599	 -0.183	 -0.005	 -9.385	 -0.001	 -0.002	  0.020	 29.100	 99.387	 -0.588
19261	 -0.093	 -0.499	  0.598	 -0.212	 -0.226	 -9.609	  0.055	 -0.002	  0.017	 29.100	 99.387	 -0.588
19311	 -0.095	 -0.494	  0.598	 -0.178	 -0.016	 -9.453	 -0.036	 -0.001	  0.017	 29.100	 99.387	 -0.588
19361	 -0.095	 -0.498	  0.597	 -0.179	  0.325	 -9.271	  0.059	 -0.004	  0.017	 29.100	 99.374	  0.606
19411	 -0.091	 -0.492	  0.598	 -0.101	 -0.688	 -9.700	 -0.055	 -0.008	  0.020	 29.100	 99.374	  0.606
19461	 -0.090	 -0.497	  0.602	 -0.244	 -0.319	 -9.649	 -0.017	 -0.002	  0.020	 29.100	 99.379	  0.147
19511	 -0.091	 -0.501	  0.596	 -0.073	 -1.084	 -9.833	  0.012	 -0.003	  0.015	 29.100	 99.387	 -0.588
19561	 -0.091	 -0.502	  0.592	 -0.233	 -0.092	 -9.485	  0.005	 -0.002	  0.021	 29.100	 99.379	  0.147
19611	 -0.091	 -0.503	  0.597	 -0.279	  0.025	 -9.266	 -0.001	 -0.002	  0.022	 29.100	 99.391	 -0.955
19661	 -0.093	 -0.506	  0.602	 -0.312	 -0.032	 -9.404	 -0.002	 -0.001	  0.029	 29.100	 99.374	  0.606
19711	 -0.090	 -0.498	  0.598	 -0.108	 -0.053	 -9.453	  0.006	 -0.000	  0.018	 29.100	 99.374	  0.606
19761	 -0.091	 -0.506	  0.597	 -0.180	 -0.049	 -9.525	  0.000	 -0.002	  0.017	 29.100	 99.374	  0.606
19811	 -0.091	 -0.498	  0.600	 -0.212	  0.016	 -9.482	  0.003	 -0.000	  0.015	 29.100	 99.374	  0.606
19861	 -0.089	 -0.503	  0.602	 -0.169	 -0.038	 -9.477	  0.005	 -0.002	  0.020	 29.100	 99.387	 -0.588
19911	 -0.091	 -0.493	  0.594	 -0.086	 -0.215	 -9.529	 -0.001	  0.000	  0.035	 29.100	 99.374	  0.606
19961	 -0.095	 -0.499	  0.598	 -0.160	 -0.036	 -9.495	 -0.005	 -0.002	  0.018	 29.100	 99.374	  0.606
20011	 -0.095	 -0.493	  0.601	 -0.255	 -0.024	 -9.477	 -0.005	 -0.001	  0.025	 29.100	 99.379	  0.147
20061	 -0.090	 -0.501	  0.600	 -0.144	 -0.015	 -9.477	 -0.014	  0.001	  0.019	 29.100	 99.374	  0.606
20111	 -0.089	 -0.506	  0.603	 -0.222	 -0.056	 -9.496	 -0.003	 -0.001	  0.020	 29.100	 99.374	  0.606
20161	 -0.091	 -0.504	  0.588	 -0.153	  0.021	 -9.454	 -0.054	 -0.014	  0.017	 29.100	 99.379	  0.147
20211	 -0.089	 -0.511	  0.600	 -0.201	 -0.024	 -9.522	 -0.025	 -0.007	  0.017	 29.100	 99.374	  0.606
20261	 -0.091	 -0.508	  0.601	 -0.220	  0.141	 -9.424	  0.005	 -0.002	  0.013	 29.100	 99.374	  0.606
20311	 -0.091	 -0.509	  0.601	 -0.237	  0.262	 -9.317	  0.077	  0.017	  0.016	 29.100	 99.387	 -0.588
20361	 -0.093	 -0.504	  0.601	 -0.500	  0.328	 -9.241	  0.018	  0.000	  0.025	 29.100	 99.374	  0.606
20411	 -0.091	 -0.504	  0.602	 -0.164	 -0.028	 -9.454	  0.001	 -0.001	  0.023	 29.100	 99.374	  0.606
20461	 -0.091	 -0.504	  0.600	 -0.278	  0.011	 -9.402	  0.002	  0.003	  0.011	 29.100	 99.387	 -0.588
20511	 -0.094	 -0.503	  0.598	 -0.049	 -0.124	 -9.577	  0.008	 -0.002	  0.021	 29.100	 99.374	  0.606
20561	 -0.095	 -0.509	  0.601	 -0.244	  0.028	 -9.492	 -0.000	 -0.001	  0.023	 29.100	 99.374	  0.606
20611	 -0.094	 -0.504	  0.605	 -0.155	 -0.040	 -9.544	  0.002	  0.001	  0.016	 29.100	 99.374	  0.606
20661	 -0.091	 -0.506	  0.604	 -0.237	  0.001	 -9.507	  0.002	 -0.001	  0.019	 29.100	 99.374	  0.606
20710	 -0.094	 -0.504	  0.598	 -0.155	  0.014	 -9.472	  0.000	 -0.001	  0.017	 29.100	 99.374	  0.606
20760	 -0.090	 -0.506	  0.605	 -0.252	  0.102	 -9.446	  0.009	 -0.000	  0.018	 29.100	 99.379	  0.147
20810	 -0.093	 -0.504	  0.600	 -0.182	 -0.051	 -9.500	  0.001	 -0.000	  0.013	 29.100	 99.374	  0.606
20860	 -0.095	 -0.511	  0.600	 -0.186	  0.057	 -9.410	  0.003	 -0.001	  0.020	 29.100	 99.387	 -0.588
20910	 -0.093	 -0.507	  0.601	 -0.260	  0.113	 -9.440	  0.004	  0.001	  0.022	 29.100	 99.374	  0.606
20960	 -0.096	 -0.503	  0.605	 -0.161	 -0.052	 -9.498	  0.000	 -0.002	  0.020	 29.100	 99.374	  0.606
21010	 -0.091	 -0.504	  0.604	 -0.208	  0.011	 -9.477	  0.005	 -0.002	  0.017	 29.100	 99.374	  0.606
21060	 -0.093	 -0.507	  0.602	 -0.158	 -0.037	 -9.522	  0.001	  0.002	  0.019	 29.100	 99.387	 -0.588
21110	 -0.091	 -0.497	  0.602	 -0.254	 -0.037	 -9.600	  0.001	 -0.000	  0.022	 29.100	 99.374	  0.606
21161	 -0.093	 -0.507	  0.601	 -0.146	  0.006	 -9.494	  0.002	 -0.002	  0.021	 29.100	 99.391	 -0.955
21210	 -0.091	 -0.507	  0.608	 -0.204	 -0.003	 -9.473	  0.003	 -0.001	  0.022	 29.100	 99.374	  0.606
21260	 -0.094	 -0.504	  0.608	 -0.138	 -0.010	 -9.503	  0.002	 -0.001	  0.017	 29.100	 99.362	  1.709
21310	 -0.091	 -0.507	  0.604	 -0.204	 -0.098	 -9.595	  0.005	  0.001	  0.023	 29.100	 99.387	 -0.588
21360	 -0.095	 -0.501	  0.602	 -0.178	 -0.015	 -9.498	  0.001	 -0.001	  0.024	 29.100	 99.374	  0.606
21410	 -0.093	 -0.498	  0.609	 -0.163	 -0.005	 -9.490	  0.001	 -0.001	  0.020	 29.100	 99.391	 -0.955
21460	 -0.093	 -0.507	  0.604	 -0.222	  0.023	 -9.494	  0.004	  0.000	  0.023	 29.100	 99.387	 -0.588
21510	 -0.094	 -0.513	  0.607	 -0.217	 -0.019	 -9.535	 -0.001	 -0.001	  0.015	 29.100	 99.379	  0.147
21560	 -0.096	 -0.502	  0.602	 -0.271	  0.017	 -9.475	  0.002	  0.001	  0.016	 29.100	 99.374	  0.606
21610	 -0.093	 -0.499	  0.605	 -0.134	 -0.001	 -9.497	  0.002	 -0.003	  0.022	 29.100	 99.374	  0.606
21660	 -0.093	 -0.506	  0.604	 -0.241	 -0.013	 -9.540	  0.004	 -0.003	  0.017	 29.100	 99.374	  0.606
21710	 -0.090	 -0.512	  0.608	 -0.143	 -0.021	 -9.501	  0.001	 -0.002	  0.021	 29.100	 99.374	  0.606
21760	 -0.093	 -0.511	  0.607	 -0.207	 -0.005	 -9.525	  0.004	 -0.002	  0.020	 29.100	 99.374	  0.606
21810	 -0.095	 -0.503	  0.601	 -0.187	 -0.004	 -9.490	  0.004	 -0.002	  0.013	 29.100	 99.374	  0.606
21860	 -0.091	 -0.498	  0.604	 -0.172	 -0.036	 -9.460	  0.002	 -0.002	  0.018	 29.100	 99.374	  0.606
21910	 -0.091	 -0.503	  0.606	 -0.177	 -0.022	 -9.512	  0.000	 -0.002	  0.026	 29.100	 99.379	  0.147
21960	 -0.091	 -0.508	  0.605	 -0.180	 -0.021	 -9.490	  0.002	 -0.002	  0.020	 29.100	 99.379	  0.147
22010	 -0.091	 -0.504	  0.602	 -0.223	 -0.006	 -9.524	  0.004	 -0.002	  0.014	 29.100	 99.374	  0.606
22060	 -0.089	 -0.507	  0.607	 -0.280	  0.063	 -9.476	  0.006	 -0.002	  0.021	 29.100	 99.374	  0.606
22110	 -0.095	 -0.502	  0.600	 -0.289	 -0.039	 -9.546	  0.002	 -0.002	  0.021	 29.100	 99.374	  0.606
22160	 -0.095	 -0.503	  0.601	 -0.138	 -0.016	 -9.498	  0.000	 -0.003	  0.020	 29.100	 99.387	 -0.588
22210	 -0.093	 -0.506	  0.601	 -0.235	 -0.006	 -9.487	  0.004	 -0.000	  0.018	 29.100	 99.374	  0.606
22260	 -0.093	 -0.507	  0.606	 -0.121	 -0.169	 -9.568	 -0.018	 -0.000	  0.019	 29.100	 99.374	  0.606
22310	 -0.091	 -0.501	  0.589	 -0.282	 -0.382	 -9.896	 -0.010	  0.001	  0.020	 29.100	 99.387	 -0.588
22360	 -0.091	 -0.506	  0.608	 -0.149	 -0.025	 -9.468	  0.000	 -0.001	  0.020	 29.100	 99.366	  1.341
22410	 -0.094	 -0.508	  0.605	 -0.226	  0.022	 -9.521	  0.000	 -0.000	  0.019	 29.100	 99.387	 -0.588
22460	 -0.093	 -0.506	  0.604	 -0.144	 -0.008	 -9.484	  0.001	 -0.001	  0.017	 29.100	 99.374	  0.606
22510	 -0.094	 -0.508	  0.608	 -0.204	 -0.029	 -9.510	  0.003	 -0.002	  0.019	 29.100	 99.379	  0.147
22561	 -0.096	 -0.506	  0.593	 -0.203	 -0.004	 -9.511	 -0.002	  0.001	  0.018	 29.100	 99.374	  0.606
22610	 -0.091	 -0.506	  0.604	 -0.105	  0.051	 -9.362	  0.007	 -0.007	  0.021	 29.100	 99.374	  0.606
22660	 -0.099	 -0.501	  0.603	  1.094	  0.139	 -10.339	  0.169	  0.001	  0.847	 29.100	 99.391	 -0.955
22710	 -0.113	 -0.513	  0.602	 -0.381	 -0.108	 -9.883	 -0.210	  0.002	  0.025	 29.100	 99.379	  0.147
22760	 -0.115	 -0.516	  0.599	 -0.315	 -0.017	 -9.505	  0.003	  0.001	  0.016	 29.100	 99.387	 -0.588
22810	 -0.113	 -0.522	  0.603	 -0.189	 -0.046	 -9.499	 -0.001	 -0.000	  0.017	 29.100	 99.379	  0.147
22860	 -0.116	 -0.523	  0.603	 -0.302	 -0.020	 -9.472	  0.008	 -0.003	  0.021	 29.100	 99.374	  0.606
22910	 -0.114	 -0.526	  0.609	 -0.187	  0.020	 -9.452	  0.009	 -0.002	  0.019	 29.100	 99.387	 -0.588
22960	 -0.118	 -0.518	  0.604	 -0.248	 -0.017	 -9.590	 -0.031	 -0.001	  0.019	 29.100	 99.391	 -0.955
23011	 -0.115	 -0.523	  0.605	 -0.254	  0.193	 -9.446	 -0.000	  0.002	  0.020	 29.100	 99.374	  0.606
23061	 -0.115	 -0.523	  0.602	 -0.218	 -0.242	 -9.397	 -0.025	 -0.002	  0.018	 29.100	 99.379	  0.147
23111	 -0.114	 -0.507	  0.599	 -0.295	 -0.100	 -9.589	  0.005	 -0.000	  0.021	 29.100	 99.374	  0.606
23160	 -0.114	 -0.527	  0.605	 -0.221	 -0.044	 -9.548	  0.002	 -0.002	  0.018	 29.100	 99.391	 -0.955
23211	 -0.115	 -0.516	  0.603	 -0.309	  0.003	 -9.503	  0.004	 -0.001	  0.019	 29.100	 99.379	  0.147
23260	 -0.115	 -0.527	  0.602	 -0.221	 -0.026	 -9.515	  0.003	 -0.002	  0.019	 29.100	 99.387	 -0.588
23311	 -0.115	 -0.527	  0.603	 -0.297	  0.026	 -9.492	  0.002	 -0.001	  0.019	 29.100	 99.374	  0.606
23361	 -0.115	 -0.530	  0.603	 -0.238	 -0.031	 -9.490	  0.002	 -0.001	  0.020	 29.100	 99.374	  0.606
23411	 -0.110	 -0.526	  0.601	 -0.283	 -0.040	 -9.489	  0.004	 -0.001	  0.020	 29.100	 99.387	 -0.588
23461	 -0.115	 -0.528	  0.603	 -0.233	  0.002	 -9.495	  0.003	 -0.001	  0.018	 29.100	 99.387	 -0.588
23511	 -0.115	 -0.526	  0.599	 -0.238	 -0.033	 -9.477	  0.003	 -0.002	  0.019	 29.100	 99.379	  0.147
23561	 -0.115	 -0.525	  0.602	 -0.292	 -0.006	 -9.520	  0.002	 -0.001	  0.019	 29.100	 99.387	 -0.588
23611	 -0.113	 -0.503	  0.598	 -0.243	 -0.038	 -9.488	  0.003	 -0.001	  0.019	 29.100	 99.374	  0.606
23661	 -0.116	 -0.523	  0.603	 -0.301	 -0.020	 -9.486	  0.003	 -0.000	  0.019	 29.100	 99.379	  0.147
23711	 -0.114	 -0.522	  0.602	 -0.207	 -0.045	 -9.487	  0.000	 -0.001	  0.018	 29.100	 99.374	  0.606
23761	 -0.113	 -0.526	  0.602	 -0.293	 -0.015	 -9.479	  0.002	 -0.001	  0.017	 29.100	 99.387	 -0.588
23811	 -0.115	 -0.517	  0.603	 -0.237	 -0.028	 -9.513	  0.004	 -0.001	  0.020	 29.100	 99.387	 -0.588
23861	 -0.114	 -0.520	  0.603	 -0.305	 -0.018	 -9.500	  0.003	 -0.002	  0.021	 29.100	 99.387	 -0.588
23911	 -0.116	 -0.525	  0.603	 -0.230	 -0.028	 -9.516	  0.001	 -0.001	  0.021	 29.100	 99.374	  0.606
23961	 -0.116	 -0.522	  0.598	 -0.270	 -0.059	 -9.514	  0.003	 -0.002	  0.020	 29.100	 99.374	  0.606
24011	 -0.113	 -0.526	  0.602	 -0.244	 -0.031	 -9.508	  0.002	 -0.000	  0.019	 29.100	 99.391	 -0.955
24061	 -0.113	 -0.520	  0.602	 -0.228	 -0.032	 -9.502	  0.004	 -0.002	  0.019	 29.100	 99.387	 -0.588
24111	 -0.114	 -0.521	  0.596	 -0.298	 -0.006	 -9.523	  0.002	 -0.002	  0.018	 29.100	 99.379	  0.147
24161	 -0.115	 -0.528	  0.595	 -0.223	 -0.047	 -9.497	  0.003	 -0.002	  0.018	 29.100	 99.374	  0.606
24211	 -0.116	 -0.517	  0.604	 -0.341	 -0.005	 -9.484	  0.003	 -0.002	  0.017	 29.100	 99.379	  0.147
24261	 -0.116	 -0.523	  0.600	 -0.243	 -0.051	 -9.463	  0.003	 -0.001	  0.020	 29.100	 99.387	 -0.588
24311	 -0.116	 -0.526	  0.605	 -0.333	 -0.032	 -9.488	  0.001	 -0.000	  0.021	 29.100	 99.387	 -0.588
24361	 -0.114	 -0.527	  0.603	 -0.205	 -0.025	 -9.509	  0.004	 -0.002	  0.018	 29.100	 99.379	  0.147
24411	 -0.114	 -0.522	  0.601	 -0.290	 -0.015	 -9.476	  0.002	 -0.001	  0.021	 29.100	 99.374	  0.606
24461	 -0.113	 -0.526	  0.605	 -0.253	 -0.029	 -9.481	  0.003	 -0.001	  0.018	 29.100	 99.374	  0.606
24511	 -0.118	 -0.523	  0.602	 -0.253	 -0.034	 -9.446	  0.003	 -0.002	  0.020	 29.100	 99.387	 -0.588
24561	 -0.114	 -0.526	  0.602	 -0.252	 -0.035	 -9.476	  0.001	 -0.002	  0.017	 29.100	 99.374	  0.606
24611	 -0.114	 -0.521	  0.602	 -0.226	 -0.055	 -9.514	  0.003	 -0.003	  0.019	 29.100	 99.379	  0.147
24661	 -0.114	 -0.526	  0.605	 -0.280	 -0.011	 -9.487	  0.003	 -0.001	  0.019	 29.100	 99.362	  1.709
24710	 -0.116	 -0.530	  0.603	 -0.210	 -0.014	 -9.532	  0.003	  0.000	  0.018	 29.100	 99.374	  0.606
24760	 -0.115	 -0.516	  0.602	 -0.314	 -0.014	 -9.482	  0.002	 -0.002	  0.019	 29.100	 99.379	  0.147
24810	 -0.119	 -0.528	  0.605	 -0.212	 -0.026	 -9.514	  0.003	 -0.001	  0.019	 29.100	 99.374	  0.606
24860	 -0.116	 -0.515	  0.600	 -0.316	 -0.005	 -9.522	  0.002	 -0.000	  0.020	 29.100	 99.387	 -0.588
24910	 -0.114	 -0.532	  0.606	 -0.230	 -0.014	 -9.535	  0.003	 -0.002	  0.019	 29.100	 99.387	 -0.588
24960	 -0.119	 -0.522	  0.603	 -0.254	 -0.045	 -9.508	  0.003	 -0.001	  0.019	 29.100	 99.374	  0.606
25010	 -0.116	 -0.521	  0.604	 -0.241	 -0.027	 -9.536	  0.002	  0.000	  0.020	 29.100	 99.374	  0.606
25060	 -0.114	 -0.522	  0.607	 -0.271	 -0.049	 -9.481	  0.003	 -0.002	  0.017	 29.100	 99.387	 -0.588
25110	 -0.118	 -0.526	  0.600	 -0.281	 -0.013	 -9.525	  0.002	 -0.001	  0.019	 29.100	 99.374	  0.606
25160	 -0.118	 -0.526	  0.602	 -0.239	 -0.049	 -9.479	  0.003	 -0.000	  0.020	 29.100	 99.379	  0.147
25210	 -0.118	 -0.528	  0.606	 -0.303	 -0.006	 -9.519	  0.003	 -0.001	  0.019	 29.100	 99.374	  0.606
25260	 -0.118	 -0.526	  0.603	 -0.225	 -0.063	 -9.433	  0.003	 -0.001	  0.019	 29.100	 99.374	  0.606
25310	 -0.118	 -0.525	  0.610	 -0.328	  0.003	 -9.478	  0.001	 -0.001	  0.020	 29.100	 99.387	 -0.588
25360	 -0.114	 -0.511	  0.600	 -0.134	 -0.103	 -9.565	  0.002	 -0.002	  0.018	 29.100	 99.374	  0.606
25410	 -0.115	 -0.521	  0.604	 -0.290	 -0.012	 -9.512	  0.002	 -0.002	  0.018	 29.100	 99.374	  0.606
25460	 -0.115	 -0.527	  0.591	 -0.222	 -0.041	 -9.480	  0.003	 -0.002	  0.018	 29.100	 99.374	  0.606
25510	 -0.118	 -0.522	  0.603	 -0.295	 -0.027	 -9.496	  0.003	 -0.001	  0.019	 29.100	 99.387	 -0.588
25560	 -0.118	 -0.526	  0.606	 -0.235	  0.011	 -9.486	  0.004	 -0.003	  0.018	 29.100	 99.374	  0.606
25610	 -0.119	 -0.523	  0.609	 -0.261	  0.001	 -9.445	  0.006	 -0.003	  0.020	 29.100	 99.370	  0.973
25660	 -0.117	 -0.512	  0.602	 -0.274	 -0.103	 -9.567	  0.047	 -0.003	  0.018	 29.100	 99.374	  0.606
25710	 -0.116	 -0.523	  0.606	 -0.227	 -0.269	 -9.562	 -0.058	  0.001	  0.021	 29.100	 99.387	 -0.588
25760	 -0.119	 -0.521	  0.607	 -0.346	 -0.455	 -10.018	 -0.000	 -0.003	  0.018	 29.100	 99.379	  0.147
25810	 -0.118	 -0.522	  0.603	 -0.212	 -0.000	 -9.494	  0.005	 -0.002	  0.020	 29.100	 99.374	  0.606
25860	 -0.118	 -0.525	  0.604	 -0.302	 -0.004	 -9.462	  0.003	 -0.001	  0.019	 29.100	 99.379	  0.147
25910	 -0.117	 -0.498	  0.597	 -0.235	 -0.053	 -9.508	  0.003	 -0.002	  0.018	 29.100	 99.379	  0.147
25960	 -0.119	 -0.526	  0.604	 -0.292	 -0.002	 -9.518	  0.003	 -0.001	  0.019	 29.100	 99.362	  1.709
26010	 -0.116	 -0.530	  0.598	 -0.226	 -0.055	 -9.520	  0.002	 -0.001	  0.018	 29.100	 99.387	 -0.588
26060	 -0.119	 -0.531	  0.597	 -0.238	 -0.068	 -9.533	  0.005	 -0.002	  0.019	 29.100	 99.374	  0.606
26110	 -0.115	 -0.525	  0.606	 -0.244	 -0.003	 -9.452	  0.003	 -0.003	  0.018	 29.100	 99.387	 -0.588
26160	 -0.116	 -0.525	  0.607	 -0.269	 -0.029	 -9.473	  0.002	 -0.002	  0.020	 29.100	 99.362	  1.709
26210	 -0.114	 -0.520	  0.606	 -0.284	  0.066	 -9.470	  0.008	 -0.001	  0.020	 29.100	 99.374	  0.606
26260	 -0.115	 -0.520	  0.609	 -0.218	  0.021	 -9.476	  0.004	 -0.001	  0.019	 29.100	 99.379	  0.147
26310	 -0.116	 -0.523	  0.603	 -0.327	 -0.117	 -9.542	  0.047	 -0.001	  0.018	 29.100	 99.391	 -0.955
26360	 -0.120	 -0.523	  0.603	 -0.254	  0.013	 -9.475	 -0.015	  0.000	  0.019	 29.100	 99.374	  0.606
26410	 -0.118	 -0.525	  0.611	 -0.291	 -0.051	 -9.525	  0.050	 -0.002	  0.017	 29.100	 99.374	  0.606
26460	 -0.116	 -0.522	  0.604	 -0.222	  0.077	 -9.415	  0.006	 -0.001	  0.019	 29.100	 99.379	  0.147
26510	 -0.118	 -0.522	  0.607	 -0.316	 -0.225	 -9.561	 -0.001	 -0.001	  0.019	 29.100	 99.362	  1.709
26560	 -0.115	 -0.521	  0.606	 -0.240	  0.046	 -9.445	  0.013	 -0.001	  0.020	 29.100	 99.374	  0.606
26610	 -0.116	 -0.525	  0.606	 -0.687	  2.562	 -7.184	 -0.102	 -0.036	  0.010	 29.100	 99.387	 -0.588
26660	 -0.080	 -0.524	  0.631	  0.011	 -0.462	 -10.064	 -0.197	 -0.053	  0.016	 29.100	 99.374	  0.606
26710	 -0.088	 -0.537	  0.622	 -0.001	  0.803	 -9.152	  0.047	  0.020	  0.009	 29.100	 99.374	  0.606
26760	 -0.103	 -0.524	  0.616	  0.117	 -2.402	 -10.593	  0.092	  0.000	  0.012	 29.100	 99.387	 -0.588
26810	 -0.106	 -0.524	  0.621	 -0.057	  0.022	 -9.653	  0.149	 -0.006	  0.012	 29.100	 99.366	  1.341
26860	 -0.102	 -0.536	  0.617	 -0.288	 -0.954	 -9.896	  0.008	  0.001	  0.019	 29.100	 99.391	 -0.955
26910	 -0.103	 -0.541	  0.619	 -0.254	 -0.281	 -9.608	 -0.101	  0.002	  0.021	 29.100	 99.387	 -0.588
26960	 -0.102	 -0.541	  0.615	 -0.238	 -0.475	 -9.858	 -0.002	  0.000	  0.018	 29.100	 99.387	 -0.588
27010	 -0.104	 -0.547	  0.620	 -0.133	 -0.290	 -9.638	 -0.001	 -0.002	  0.019	 29.100	 99.387	 -0.588
27060	 -0.103	 -0.545	  0.618	 -0.353	  0.096	 -9.451	  0.004	 -0.002	  0.021	 29.100	 99.379	  0.147
27110	 -0.102	 -0.545	  0.607	 -0.224	 -0.055	 -9.501	  0.002	 -0.001	  0.019	 29.100	 99.374	  0.606
27160	 -0.100	 -0.546	  0.615	 -0.304	  0.024	 -9.493	  0.003	 -0.002	  0.019	 29.100	 99.379	  0.147
27210	 -0.100	 -0.538	  0.618	 -0.227	 -0.043	 -9.534	  0.003	 -0.000	  0.019	 29.100	 99.379	  0.147
27260	 -0.101	 -0.551	  0.615	 -0.274	 -0.032	 -9.513	  0.002	 -0.001	  0.017	 29.100	 99.379	  0.147
27310	 -0.103	 -0.537	  0.615	 -0.249	 -0.010	 -9.518	  0.003	 -0.002	  0.021	 29.100	 99.387	 -0.588
27360	 -0.104	 -0.545	  0.613	 -0.227	 -0.043	 -9.499	  0.003	 -0.001	  0.021	 29.100	 99.379	  0.147
27411	 -0.103	 -0.537	  0.608	 -0.317	 -0.015	 -9.558	  0.003	 -0.002	  0.019	 29.100	 99.391	 -0.955
27460	 -0.102	 -0.546	  0.618	 -0.211	 -0.040	 -9.491	  0.002	 -0.002	  0.018	 29.100	 99.379	  0.147
27510	 -0.100	 -0.542	  0.616	 -0.320	 -0.020	 -9.513	  0.002	 -0.001	  0.019	 29.100	 99.391	 -0.955
27560	 -0.103	 -0.539	  0.619	 -0.224	 -0.020	 -9.470	  0.000	 -0.001	  0.013	 29.100	 99.374	  0.606
27610	 -0.103	 -0.548	  0.619	 -0.276	 -0.029	 -9.513	  0.002	 -0.002	  0.018	 29.100	 99.374	  0.606
27660	 -0.101	 -0.542	  0.615	 -0.251	 -0.005	 -9.498	  0.002	 -0.002	  0.013	 29.100	 99.391	 -0.955
27710	 -0.101	 -0.541	  0.620	 -0.264	 -0.029	 -9.481	  0.003	 -0.001	  0.018	 29.100	 99.387	 -0.588
27760	 -0.104	 -0.543	  0.618	 -0.285	 -0.028	 -9.496	  0.002	 -0.001	  0.021	 29.100	 99.379	  0.147
27810	 -0.101	 -0.543	  0.611	 -0.232	 -0.054	 -9.485	  0.002	 -0.001	  0.022	 29.100	 99.379	  0.147
27860	 -0.105	 -0.540	  0.616	 -0.304	  0.001	 -9.452	  0.003	 -0.002	  0.016	 29.100	 99.374	  0.606
27910	 -0.101	 -0.547	  0.620	 -0.333	  0.036	 -9.501	  0.002	 -0.000	  0.030	 29.100	 99.374	  0.606
27960	 -0.112	 -0.545	  0.612	 -0.927	  0.120	 -9.516	  0.031	  0.002	  0.846	 29.100	 99.391	 -0.955
28010	 -0.140	 -0.539	  0.611	 -1.224	 -0.169	 -9.465	  0.047	  0.004	  1.417	 29.100	 99.387	 -0.588
28060	 -0.176	 -0.532	  0.619	 -0.907	 -0.471	 -9.403	  0.146	  0.005	  1.723	 29.100	 99.387	 -0.588
28110	 -0.210	 -0.516	  0.620	 -0.414	 -0.631	 -9.545	 -0.002	  0.009	  1.504	 29.100	 99.374	  0.606
28160	 -0.234	 -0.510	  0.627	 -0.389	 -0.190	 -9.295	  0.054	  0.008	  1.286	 29.100	 99.391	 -0.955
28210	 -0.251	 -0.496	  0.635	 -0.080	 -0.388	 -9.585	  0.006	  0.005	  1.154	 29.100	 99.387	 -0.588
28260	 -0.266	 -0.487	  0.637	  1.236	 -0.691	 -9.791	 -0.061	  0.004	  0.760	 29.100	 99.374	  0.606
28310	 -0.270	 -0.486	  0.640	  1.236	  0.191	 -9.417	  0.019	 -0.001	  0.290	 29.100	 99.374	  0.606
28360	 -0.267	 -0.483	  0.639	 -0.243	  0.112	 -9.412	  0.008	 -0.000	  0.017	 29.100	 99.374	  0.606
28411	 -0.268	 -0.478	  0.637	 -0.266	  0.001	 -9.451	  0.005	  0.000	  0.015	 29.100	 99.374	  0.606
28460	 -0.269	 -0.476	  0.638	 -0.193	 -0.061	 -9.509	  0.002	 -0.001	  0.020	 29.100	 99.387	 -0.588
28511	 -0.267	 -0.468	  0.630	 -1.570	 -0.172	 -9.510	  0.007	 -0.001	  0.053	 29.100	 99.387	 -0.588
28560	 -0.268	 -0.466	  0.634	 -0.738	 -0.398	 -10.016	  0.201	  0.101	  0.318	 29.100	 99.374	  0.606
28610	 -0.270	 -0.471	  0.637	 -1.319	 -0.141	 -9.592	 -0.007	 -0.007	  0.469	 29.100	 99.366	  1.341
28660	 -0.269	 -0.473	  0.640	 -1.586	 -2.088	 -9.195	 -0.077	  0.397	  0.187	 29.100	 99.374	  0.606
28710	 -0.267	 -0.473	  0.633	  5.339	 -0.769	 -10.048	 -0.067	 -0.528	  0.082	 29.100	 99.387	 -0.588
28761	 -0.258	 -0.477	  0.632	  2.982	 -0.083	 -8.934	  0.017	  0.008	 -0.350	 29.100	 99.391	 -0.955
28811	 -0.244	 -0.464	  0.632	  1.280	 -0.692	 -9.446	  0.004	  0.004	 -0.828	 29.100	 99.374	  0.606
28861	 -0.237	 -0.482	  0.633	 -0.447	  0.223	 -9.619	  0.006	  0.001	 -0.481	 29.100	 99.379	  0.147
28911	 -0.235	 -0.482	  0.628	  0.147	  0.080	 -9.361	  0.003	 -0.003	  0.014	 29.100	 99.374	  0.606
28961	 -0.236	 -0.467	  0.630	 -0.009	  0.059	 -9.480	  0.002	 -0.002	  0.019	 29.100	 99.374	  0.606
29011	 -0.237	 -0.486	  0.632	  0.098	  0.020	 -9.466	  0.002	 -0.002	  0.021	 29.100	 99.362	  1.709
29061	 -0.231	 -0.468	  0.629	 -3.027	 -0.642	 -10.449	  0.025	 -0.070	  0.053	 29.100	 99.387	 -0.588
29111	 -0.225	 -0.477	  0.636	 -0.621	  0.543	 -9.374	  0.106	 -0.256	 -0.241	 29.100	 99.374	  0.606
29161	 -0.202	 -0.468	  0.635	  0.070	  1.422	 -9.453	  0.090	 -0.571	 -0.170	 29.100	 99.387	 -0.588
29211	 -0.180	 -0.469	  0.635	 -1.663	  1.084	 -9.022	  0.157	 -0.333	  0.026	 29.100	 99.374	  0.606
29261	 -0.185	 -0.443	  0.635	 -2.102	  0.259	 -10.737	  0.313	  0.903	 -0.011	 29.100	 99.387	 -0.588
29311	 -0.217	 -0.430	  0.619	  0.238	 -0.487	 -10.791	 -0.239	  1.200	  0.064	 29.100	 99.391	 -0.955
29361	 -0.241	 -0.433	  0.595	  0.817	  1.436	 -9.656	 -0.395	  0.703	  0.224	 29.100	 99.379	  0.147
29411	 -0.261	 -0.413	  0.586	  1.052	  1.607	 -8.685	  0.245	  0.720	  0.010	 29.100	 99.379	  0.147
29461	 -0.271	 -0.400	  0.572	  1.710	  0.720	 -8.801	  0.513	  0.247	  0.061	 29.100	 99.391	 -0.955
29511	 -0.271	 -0.380	  0.573	  1.441	 -0.129	 -8.917	  0.365	  0.120	  0.248	 29.100	 99.374	  0.606
29561	 -0.282	 -0.366	  0.562	  0.985	 -0.379	 -9.467	 -0.020	  0.105	  0.364	 29.100	 99.391	 -0.955
29611	 -0.292	 -0.359	  0.540	  0.634	  1.807	 -9.611	  0.127	  0.145	  0.828	 29.100	 99.374	  0.606
29661	 -0.311	 -0.344	  0.515	  1.041	 -0.417	 -9.654	  0.350	  0.228	  0.911	 29.100	 99.374	  0.606
29711	 -0.326	 -0.334	  0.502	  0.701	 -1.559	 -9.681	  0.071	 -0.332	  1.046	 29.100	 99.379	  0.147
29761	 -0.338	 -0.314	  0.482	  0.023	 -1.750	 -10.471	 -0.243	 -0.228	  1.064	 29.100	 99.374	  0.606
29811	 -0.353	 -0.314	  0.444	  0.106	 -1.474	 -10.509	 -0.281	  0.050	  0.938	 29.100	 99.391	 -0.955
29861	 -0.373	 -0.301	  0.417	  1.766	 -0.806	 -10.507	  0.006	 -0.075	  1.024	 29.100	 99.374	  0.606
29911	 -0.386	 -0.262	  0.392	 -0.160	 -0.554	 -10.817	  0.304	 -0.388	  1.269	 29.100	 99.374	  0.606
29961	 -0.399	 -0.214	  0.381	 -0.006	 -1.251	 -10.742	  0.203	  0.019	  1.194	 29.100	 99.379	  0.147
30011	 -0.405	 -0.171	  0.369	  1.289	 -1.429	 -10.091	  0.179	 -0.231	  0.982	 29.100	 99.387	 -0.588
30061	 -0.397	 -0.143	  0.369	 -0.187	 -1.277	 -10.364	  0.012	 -0.151	  0.852	 29.100	 99.374	  0.606
30111	 -0.389	 -0.113	  0.366	  0.442	 -0.967	 -9.854	 -0.128	 -0.143	  0.956	 29.100	 99.374	  0.606
30161	 -0.380	 -0.081	  0.373	  0.372	 -0.725	 -9.385	 -0.063	 -0.188	  0.911	 29.100	 99.374	  0.606
30211	 -0.366	 -0.066	  0.373	 -0.733	 -0.736	 -9.104	  0.095	 -0.287	  0.986	 29.100	 99.374	  0.606
30261	 -0.360	 -0.041	  0.380	  0.125	 -1.387	 -8.624	  0.184	 -0.061	  0.543	 29.100	 99.387	 -0.588
30311	 -0.342	 -0.034	  0.381	  0.236	 -1.584	 -8.954	  0.102	 -0.299	  0.517	 29.100	 99.374	  0.606
30361	 -0.334	 -0.018	  0.390	  0.146	 -2.313	 -9.189	 -0.065	 -0.320	  0.836	 29.100	 99.374	  0.606
30411	 -0.319	 -0.001	  0.391	 -0.305	 -1.566	 -9.325	 -0.281	 -0.205	  0.692	 29.100	 99.374	  0.606
30461	 -0.313	 -0.005	  0.395	 -0.446	 -1.442	 -8.636	 -0.200	  0.078	  0.696	 29.100	 99.379	  0.147
30511	 -0.316	 -0.003	  0.396	  0.164	 -1.179	 -8.041	 -0.043	  0.326	  0.615	 29.100	 99.374	  0.606
30561	 -0.316	  0.009	  0.390	  0.862	 -1.044	 -7.886	  0.135	  0.266	  0.551	 29.100	 99.374	  0.606
30611	 -0.320	  0.011	  0.393	  0.514	 -1.686	 -8.378	  0.003	  0.080	  0.538	 29.100	 99.374	  0.606
30661	 -0.321	  0.024	  0.387	  0.725	 -1.251	 -7.971	 -0.088	  0.236	  0.639	 29.100	 99.374	  0.606
30711	 -0.321	  0.026	  0.393	  0.458	 -1.278	 -8.553	 -0.035	  0.009	  0.579	 29.100	 99.362	  1.709
30761	 -0.323	  0.039	  0.387	  0.444	 -0.810	 -8.791	 -0.087	  0.342	  0.461	 29.100	 99.379	  0.147
30811	 -0.329	  0.052	  0.382	  2.094	 -1.311	 -8.867	 -0.148	  0.287	  0.759	 29.100	 99.374	  0.606
30861	 -0.327	  0.041	  0.383	  2.024	 -1.121	 -9.028	 -0.190	  0.005	  0.589	 29.100	 99.374	  0.606
30911	 -0.327	  0.046	  0.382	  1.545	 -0.696	 -10.334	 -0.237	  0.154	  0.462	 29.100	 99.379	  0.147
30961	 -0.326	  0.048	  0.373	  1.885	 -1.177	 -9.726	 -0.297	  0.151	  0.509	 29.100	 99.374	  0.606
31011	 -0.325	  0.053	  0.378	  1.812	 -1.546	 -9.707	 -0.200	  0.098	  0.392	 29.100	 99.374	  0.606
31061	 -0.315	  0.054	  0.380	  1.681	 -1.570	 -9.488	  0.162	 -0.139	  0.258	 29.100	 99.379	  0.147
31111	 -0.302	  0.058	  0.384	 -0.127	 -2.325	 -9.592	  0.278	 -0.554	  0.018	 29.100	 99.374	  0.606
31161	 -0.290	  0.063	  0.385	 -0.867	 -2.111	 -9.678	  0.068	 -0.161	 -0.316	 29.100	 99.379	  0.147
31211	 -0.284	  0.063	  0.385	  0.073	 -2.145	 -9.255	  0.015	 -0.073	 -0.444	 29.100	 99.366	  1.341
31261	 -0.276	  0.053	  0.388	 -0.614	 -1.698	 -9.589	 -0.136	 -0.171	 -0.808	 29.100	 99.379	  0.147
31311	 -0.272	  0.044	  0.390	 -0.701	 -1.452	 -9.426	 -0.227	 -0.020	 -0.770	 29.100	 99.366	  1.341
31361	 -0.269	  0.029	  0.393	 -0.254	 -1.586	 -9.272	  0.104	  0.028	 -0.910	 29.100	 99.374	  0.606
31411	 -0.266	  0.024	  0.389	 -0.130	 -1.628	 -8.740	  0.133	  0.157	 -1.207	 29.100	 99.387	 -0.588
31461	 -0.265	  0.011	  0.399	  0.631	 -1.921	 -9.016	 -0.075	  0.086	 -1.211	 29.100	 99.374	  0.606
31511	 -0.262	  0.016	  0.395	  0.457	 -1.268	 -8.758	 -0.076	  0.160	 -1.327	 29.100	 99.362	  1.709
31561	 -0.257	 -0.014	  0.396	  0.497	 -1.423	 -8.367	  0.042	  0.144	 -1.599	 29.100	 99.379	  0.147
31611	 -0.250	 -0.026	  0.396	  0.297	 -1.749	 -8.754	  0.109	  0.090	 -1.699	 29.100	 99.387	 -0.588
31661	 -0.243	 -0.036	  0.401	 -0.084	 -2.159	 -9.241	 -0.039	  0.127	 -1.807	 29.100	 99.391	 -0.955
31711	 -0.235	 -0.044	  0.401	  0.095	 -2.318	 -10.031	 -0.159	 -0.165	 -1.683	 29.100	 99.374	  0.606
31761	 -0.220	 -0.064	  0.395	 -0.381	 -2.271	 -10.953	 -0.122	  0.046	 -1.967	 29.100	 99.374	  0.606
31811	 -0.213	 -0.073	  0.408	  0.897	 -2.045	 -10.346	  0.037	  0.236	 -1.588	 29.100	 99.374	  0.606
31861	 -0.196	 -0.080	  0.403	  1.451	 -2.000	 -9.543	  0.238	 -0.467	 -1.208	 29.100	 99.374	  0.606
31911	 -0.175	 -0.075	  0.413	 -0.264	 -2.341	 -9.114	  0.486	 -0.580	 -1.199	 29.100	 99.379	  0.147
31961	 -0.156	 -0.057	  0.422	  0.076	 -2.732	 -8.841	  0.310	 -0.060	 -1.332	 29.100	 99.362	  1.709
32011	 -0.148	 -0.068	  0.418	  0.931	 -2.664	 -8.540	 -0.163	  0.032	 -1.265	 29.100	 99.374	  0.606
32061	 -0.140	 -0.071	  0.420	  0.874	 -1.556	 -8.470	 -0.507	 -0.060	 -1.058	 29.100	 99.366	  1.341
32111	 -0.131	 -0.084	  0.421	  0.520	 -0.877	 -8.665	 -0.319	  0.007	 -0.782	 29.100	 99.374	  0.606
32161	 -0.125	 -0.088	  0.411	  0.816	 -0.693	 -9.192	 -0.022	  0.187	 -0.739	 29.100	 99.379	  0.147
32211	 -0.120	 -0.083	  0.417	  1.112	 -0.440	 -9.485	  0.120	  0.122	 -0.356	 29.100	 99.374	  0.606
32261	 -0.121	 -0.069	  0.419	  0.801	  0.084	 -10.016	  0.152	 -0.011	  0.101	 29.100	 99.374	  0.606
32311	 -0.114	 -0.062	  0.418	  1.144	 -1.071	 -10.099	  0.275	  0.020	  0.008	 29.100	 99.374	  0.606
32361	 -0.109	 -0.060	  0.419	  0.256	 -1.139	 -10.654	  0.440	 -0.248	  0.054	 29.100	 99.379	  0.147
32411	 -0.095	 -0.045	  0.417	 -1.318	 -1.635	 -10.911	  0.288	 -0.218	  0.192	 29.100	 99.374	  0.606
32461	 -0.094	 -0.040	  0.422	 -1.090	 -1.556	 -10.166	  0.034	 -0.038	  0.028	 29.100	 99.379	  0.147
32511	 -0.089	 -0.041	  0.417	 -0.411	 -0.314	 -9.521	  0.071	 -0.037	 -0.060	 29.100	 99.374	  0.606
32561	 -0.081	 -0.031	  0.417	 -0.221	  0.038	 -9.001	  0.247	 -0.169	  0.011	 29.100	 99.374	  0.606
32611	 -0.079	 -0.024	  0.423	 -0.638	 -1.220	 -8.959	  0.240	 -0.056	  0.153	 29.100	 99.366	  1.341
32661	 -0.083	 -0.037	  0.425	 -0.114	 -1.407	 -8.847	  0.077	  0.276	  0.129	 29.100	 99.374	  0.606
32711	 -0.088	 -0.040	  0.428	  0.718	 -1.083	 -9.055	 -0.259	  0.277	  0.021	 29.100	 99.391	 -0.955
32761	 -0.090	 -0.050	  0.429	  0.405	 -0.243	 -8.830	 -0.036	  0.196	 -0.181	 29.100	 99.374	  0.606
32811	 -0.093	 -0.046	  0.429	 -0.237	 -0.610	 -9.623	  0.137	  0.216	 -0.109	 29.100	 99.379	  0.147
32861	 -0.102	 -0.043	  0.435	  0.008	 -1.221	 -10.363	  0.068	  0.491	  0.031	 29.100	 99.374	  0.606
32911	 -0.124	 -0.047	  0.441	  0.688	 -2.569	 -11.113	 -0.246	  0.855	  0.031	 29.100	 99.391	 -0.955
32961	 -0.145	 -0.064	  0.440	  1.383	 -1.328	 -9.312	 -0.346	  0.596	  0.008	 29.100	 99.379	  0.147
33011	 -0.160	 -0.075	  0.437	  1.311	 -1.115	 -8.738	 -0.239	  0.227	  0.024	 29.100	 99.379	  0.147
33061	 -0.162	 -0.083	  0.438	  1.780	 -0.872	 -8.728	 -0.019	  0.052	 -0.097	 29.100	 99.374	  0.606
33111	 -0.158	 -0.085	  0.442	  1.475	 -0.967	 -8.814	 -0.052	 -0.222	  0.027	 29.100	 99.374	  0.606
33160	 -0.156	 -0.090	  0.441	  0.961	 -0.229	 -8.568	 -0.214	 -0.367	  0.423	 29.100	 99.374	  0.606
33210	 -0.155	 -0.098	  0.439	  0.586	 -0.532	 -8.362	 -0.085	 -0.045	  0.434	 29.100	 99.374	  0.606
33260	 -0.158	 -0.104	  0.441	  1.558	 -0.771	 -8.400	 -0.038	  0.103	  0.290	 29.100	 99.374	  0.606
33310	 -0.165	 -0.104	  0.447	  1.387	 -0.624	 -8.856	 -0.133	  0.071	  0.212	 29.100	 99.379	  0.147
33360	 -0.174	 -0.110	  0.437	  1.045	 -0.285	 -9.078	 -0.287	 -0.032	  0.540	 29.100	 99.366	  1.341
33410	 -0.180	 -0.112	  0.427	  1.204	  0.192	 -9.768	 -0.219	 -0.123	  0.720	 29.100	 99.374	  0.606
33460	 -0.180	 -0.122	  0.433	  0.409	 -0.326	 -10.053	 -0.059	 -0.411	  0.980	 29.100	 99.387	 -0.588
33510	 -0.175	 -0.119	  0.433	  0.843	 -0.438	 -10.766	 -0.020	 -0.215	  0.609	 29.100	 99.374	  0.606
33560	 -0.183	 -0.121	  0.426	  0.634	 -0.103	 -11.222	 -0.038	 -0.066	  0.786	 29.100	 99.362	  1.709
33612	 -0.186	 -0.116	  0.433	 -0.863	  0.608	 -10.029	 -0.130	 -0.350	  0.876	 29.100	 99.374	  0.606
33660	 -0.184	 -0.119	  0.429	 -0.451	  0.933	 -9.485	  0.091	 -0.049	  0.581	 29.100	 99.374	  0.606
33710	 -0.187	 -0.109	  0.427	  0.155	  0.278	 -9.326	  0.058	  0.035	  0.677	 29.100	 99.374	  0.606
33760	 -0.195	 -0.109	  0.428	  0.111	 -0.110	 -9.227	 -0.036	  0.100	  0.490	 29.100	 99.379	  0.147
33810	 -0.203	 -0.101	  0.418	  0.208	  0.174	 -9.235	 -0.197	  0.213	  0.712	 29.100	 99.374	  0.606
33860	 -0.213	 -0.117	  0.425	  1.146	  0.687	 -8.940	 -0.127	  0.173	  0.692	 29.100	 99.362	  1.709
33910	 -0.223	 -0.113	  0.414	  0.812	  0.822	 -9.160	  0.009	  0.190	  0.698	 29.100	 99.379	  0.147
33960	 -0.235	 -0.106	  0.412	  1.149	  0.422	 -9.495	 -0.142	  0.574	  0.554	 29.100	 99.374	  0.606
34010	 -0.257	 -0.107	  0.408	  1.731	 -0.018	 -9.659	 -0.137	  0.673	  0.543	 29.100	 99.391	 -0.955
34060	 -0.278	 -0.108	  0.404	  2.207	  0.233	 -9.458	 -0.079	  0.766	  0.278	 29.100	 99.379	  0.147
34110	 -0.289	 -0.085	  0.392	  2.948	  0.109	 -9.531	  0.014	  0.329	  0.156	 29.100	 99.391	 -0.955
34160	 -0.296	 -0.104	  0.385	  3.058	 -1.001	 -10.454	  0.096	 -0.096	 -0.169	 29.100	 99.374	  0.606
34210	 -0.283	 -0.104	  0.403	  1.848	 -1.257	 -10.154	 -0.009	 -0.287	 -0.406	 29.100	 99.362	  1.709
34261	 -0.272	 -0.103	  0.404	  1.291	 -1.347	 -9.596	  0.122	 -0.407	 -0.370	 29.100	 99.374	  0.606
34310	 -0.257	 -0.098	  0.414	  1.263	 -1.266	 -9.490	  0.342	 -0.366	 -0.438	 29.100	 99.366	  1.341
34361	 -0.250	 -0.091	  0.414	  1.087	 -1.309	 -9.365	  0.153	 -0.314	 -0.270	 29.100	 99.374	  0.606
34410	 -0.240	 -0.086	  0.426	  1.186	 -1.092	 -8.678	  0.119	 -0.313	 -0.034	 29.100	 99.366	  1.341
34461	 -0.230	 -0.087	  0.433	  1.291	 -1.623	 -8.864	  0.052	 -0.353	 -0.084	 29.100	 99.374	  0.606
34510	 -0.224	 -0.079	  0.437	  1.038	 -1.481	 -9.117	 -0.077	  0.120	 -0.286	 29.100	 99.362	  1.709
34560	 -0.233	 -0.089	  0.432	  1.571	 -1.120	 -9.238	 -0.301	  0.230	 -0.177	 29.100	 99.366	  1.341
34611	 -0.240	 -0.097	  0.442	  1.636	 -1.006	 -9.138	 -0.439	  0.383	 -0.156	 29.100	 99.391	 -0.955
34661	 -0.257	 -0.103	  0.449	  1.552	 -0.952	 -9.153	 -0.450	  0.696	 -0.316	 29.100	 99.374	  0.606
34711	 -0.278	 -0.113	  0.451	  2.138	 -0.455	 -9.094	 -0.269	  0.637	 -0.176	 29.100	 99.379	  0.147
34761	 -0.292	 -0.118	  0.456	  1.234	 -0.158	 -9.035	 -0.209	  0.372	 -0.079	 29.100	 99.374	  0.606
34811	 -0.309	 -0.115	  0.460	  1.464	  0.053	 -9.602	 -0.168	  0.484	 -0.144	 29.100	 99.379	  0.147
34861	 -0.333	 -0.119	  0.468	  2.205	  0.734	 -9.695	 -0.230	  0.385	  0.029	 29.100	 99.387	 -0.588
