Time	 MagX	 MagY	 MagZ	 AccelX	 AccelY	 AccelZ	 Yaw	 Pitch	 Roll	 Temperature	 Pressure	 Altitude
28325	  0.161	 -0.153	 -0.524	  0.162	 -0.304	  9.900	  0.000	  0.007	 -0.001	 25.600	 101.174	 -99999.000
28375	  0.161	 -0.148	 -0.523	  0.071	 -0.288	  9.854	 -0.004	  0.006	  0.001	 25.600	 101.170	 -99999.000
28425	  0.161	 -0.149	 -0.524	  0.131	 -0.262	  9.827	 -0.007	  0.004	  0.006	 25.600	 101.174	 -99999.000
28475	  0.161	 -0.149	 -0.527	  0.066	 -0.355	  9.893	 -0.006	  0.001	  0.005	 25.600	 101.174	 -99999.000
28525	  0.162	 -0.142	 -0.524	  0.153	 -0.317	  9.825	 -0.007	  0.000	  0.007	 25.600	 101.186	 -99999.000
28575	  0.160	 -0.142	 -0.522	  0.140	 -0.391	  9.841	 -0.006	 -0.002	  0.005	 25.600	 101.163	 -99999.000
28625	  0.161	 -0.153	 -0.528	  0.115	 -0.342	  9.880	 -0.004	 -0.002	  0.007	 25.600	 101.174	 -99999.000
28675	  0.162	 -0.147	 -0.527	  0.172	 -0.343	  9.907	 -0.003	  0.000	  0.004	 25.600	 101.174	 -99999.000
28725	  0.161	 -0.149	 -0.519	  0.149	 -0.341	  9.845	 -0.002	  0.003	  0.005	 25.600	 101.170	 -99999.000
28775	  0.162	 -0.148	 -0.520	  0.144	 -0.330	  9.889	 -0.002	  0.004	  0.004	 25.600	 101.170	 -99999.000
28825	  0.162	 -0.150	 -0.520	  0.173	 -0.333	  9.867	 -0.001	  0.005	  0.002	 25.600	 101.163	 -99999.000
28875	  0.162	 -0.149	 -0.525	  0.079	 -0.281	  9.900	 -0.001	  0.007	  0.005	 25.600	 101.163	 -99999.000
28925	  0.160	 -0.142	 -0.521	  0.133	 -0.304	  9.872	 -0.004	  0.005	  0.005	 25.600	 101.163	 -99999.000
28975	  0.162	 -0.148	 -0.521	  0.088	 -0.322	  9.871	 -0.005	  0.004	 -0.002	 25.600	 101.174	 -99999.000
29025	  0.160	 -0.150	 -0.527	  0.112	 -0.348	  9.855	 -0.005	 -0.000	  0.011	 25.600	 101.174	 -99999.000
29075	  0.163	 -0.149	 -0.525	  0.129	 -0.308	  9.817	 -0.006	  0.002	  0.009	 25.600	 101.168	 -99999.000
29125	  0.161	 -0.150	 -0.525	  0.083	 -0.350	  9.894	 -0.005	 -0.001	  0.005	 25.600	 101.163	 -99999.000
29175	  0.161	 -0.150	 -0.525	  0.182	 -0.339	  9.917	 -0.003	  0.002	  0.004	 25.600	 101.174	 -99999.000
29225	  0.164	 -0.141	 -0.520	  0.120	 -0.342	  9.935	 -0.001	  0.001	  0.004	 25.600	 101.163	 -99999.000
29275	  0.161	 -0.153	 -0.522	  0.199	 -0.328	  9.897	  0.001	  0.004	  0.009	 25.600	 101.174	 -99999.000
29325	  0.161	 -0.147	 -0.523	  0.140	 -0.296	  9.825	 -0.001	  0.004	 -0.002	 25.600	 101.174	 -99999.000
29375	  0.162	 -0.152	 -0.524	  0.068	 -0.320	  9.855	 -0.001	  0.005	  0.005	 25.600	 101.163	 -99999.000
29425	  0.164	 -0.150	 -0.527	  0.162	 -0.239	  9.846	 -0.005	  0.006	  0.002	 25.600	 101.174	 -99999.000
29475	  0.162	 -0.149	 -0.521	  0.059	 -0.296	  9.810	 -0.005	  0.004	  0.007	 25.600	 101.174	 -99999.000
29525	  0.162	 -0.148	 -0.521	  0.114	 -0.321	  9.887	 -0.005	  0.001	  0.002	 25.600	 101.174	 -99999.000
29576	  0.163	 -0.146	 -0.521	  0.091	 -0.343	  9.908	 -0.007	 -0.001	  0.006	 25.600	 101.159	 -99999.000
29625	  0.160	 -0.149	 -0.524	  0.150	 -0.368	  9.872	 -0.006	  0.000	  0.005	 25.600	 101.174	 -99999.000
29676	  0.162	 -0.149	 -0.522	  0.115	 -0.347	  9.816	 -0.005	 -0.001	  0.005	 25.600	 101.163	 -99999.000
29726	  0.161	 -0.148	 -0.526	  0.184	 -0.354	  9.857	 -0.003	  0.001	  0.005	 25.600	 101.179	 -99999.000
29776	  0.160	 -0.150	 -0.524	  0.154	 -0.354	  9.825	  0.000	  0.004	  0.006	 25.600	 101.174	 -99999.000
29826	  0.162	 -0.145	 -0.524	  0.189	 -0.328	  9.878	  0.000	  0.006	  0.001	 25.600	 101.168	 -99999.000
29876	  0.160	 -0.141	 -0.519	  0.095	 -0.303	  9.857	 -0.002	  0.006	  0.001	 25.600	 101.163	 -99999.000
29926	  0.159	 -0.140	 -0.521	  0.137	 -0.307	  9.859	 -0.003	  0.005	  0.008	 25.600	 101.174	 -99999.000
29976	  0.163	 -0.147	 -0.526	  0.037	 -0.304	  9.832	 -0.003	  0.005	  0.003	 25.600	 101.163	 -99999.000
30026	  0.163	 -0.148	 -0.519	  0.101	 -0.312	  9.822	 -0.005	  0.002	  0.005	 25.600	 101.174	 -99999.000
30076	  0.162	 -0.148	 -0.524	  0.103	 -0.316	  9.853	 -0.006	  0.002	  0.007	 25.600	 101.174	 -99999.000
30126	  0.162	 -0.148	 -0.519	  0.126	 -0.338	  9.849	 -0.006	  0.001	  0.008	 25.600	 101.174	 -99999.000
30176	  0.163	 -0.150	 -0.522	  0.159	 -0.326	  9.828	 -0.004	 -0.001	  0.007	 25.600	 101.179	 -99999.000
30225	  0.161	 -0.153	 -0.524	  0.161	 -0.354	  9.882	 -0.003	 -0.000	  0.004	 25.600	 101.174	 -99999.000
30275	  0.161	 -0.152	 -0.523	  0.177	 -0.356	  9.857	 -0.002	  0.002	  0.003	 25.600	 101.174	 -99999.000
30325	  0.161	 -0.148	 -0.520	  0.160	 -0.338	  9.810	  0.000	  0.005	  0.004	 25.600	 101.174	 -99999.000
30375	  0.162	 -0.149	 -0.522	  0.158	 -0.353	  9.874	 -0.001	  0.005	  0.004	 25.600	 101.179	 -99999.000
30425	  0.162	 -0.150	 -0.522	  0.106	 -0.324	  9.862	 -0.002	  0.006	  0.002	 25.600	 101.163	 -99999.000
30475	  0.161	 -0.152	 -0.522	  0.100	 -0.313	  9.856	 -0.002	  0.005	  0.006	 25.600	 101.168	 -99999.000
30525	  0.161	 -0.152	 -0.521	  0.118	 -0.264	  9.893	 -0.004	  0.003	  0.003	 25.600	 101.168	 -99999.000
30575	  0.159	 -0.156	 -0.523	  0.137	 -0.331	  9.904	 -0.005	  0.002	  0.006	 25.600	 101.168	 -99999.000
30625	  0.161	 -0.147	 -0.521	  0.083	 -0.339	  9.822	 -0.006	 -0.001	  0.004	 25.600	 101.179	 -99999.000
30675	  0.164	 -0.152	 -0.519	  0.168	 -0.332	  9.948	 -0.005	  0.000	  0.010	 25.600	 101.163	 -99999.000
30725	  0.162	 -0.142	 -0.523	  0.151	 -0.312	  9.856	 -0.005	  0.001	  0.001	 25.600	 101.174	 -99999.000
30775	  0.162	 -0.149	 -0.519	  0.146	 -0.313	  9.849	 -0.004	  0.001	  0.009	 25.600	 101.163	 -99999.000
30825	  0.161	 -0.152	 -0.527	  0.180	 -0.370	  9.874	 -0.002	  0.003	  0.003	 25.600	 101.168	 -99999.000
30875	  0.162	 -0.142	 -0.519	  0.121	 -0.326	  9.932	 -0.002	  0.004	  0.006	 25.600	 101.179	 -99999.000
30925	  0.160	 -0.152	 -0.524	  0.152	 -0.302	  9.871	 -0.002	  0.006	  0.003	 25.600	 101.163	 -99999.000
30975	  0.161	 -0.148	 -0.525	  0.091	 -0.329	  9.879	 -0.002	  0.005	  0.004	 25.600	 101.190	 -99999.000
31025	  0.160	 -0.152	 -0.524	  0.123	 -0.287	  9.862	 -0.002	  0.005	  0.001	 25.600	 101.179	 -99999.000
31075	  0.161	 -0.152	 -0.527	  0.069	 -0.324	  9.857	 -0.004	  0.002	  0.012	 25.600	 101.163	 -99999.000
31125	  0.161	 -0.152	 -0.522	  0.095	 -0.272	  9.873	 -0.004	  0.000	  0.003	 25.600	 101.174	 -99999.000
31175	  0.162	 -0.151	 -0.528	  0.132	 -0.345	  9.898	 -0.004	 -0.001	  0.009	 25.600	 101.179	 -99999.000
31225	  0.162	 -0.149	 -0.520	  0.135	 -0.302	  9.879	 -0.003	 -0.000	  0.002	 25.600	 101.168	 -99999.000
31275	  0.162	 -0.147	 -0.523	  0.118	 -0.385	  9.930	 -0.003	  0.002	  0.008	 25.600	 101.168	 -99999.000
31325	  0.161	 -0.150	 -0.522	  0.203	 -0.295	  9.908	 -0.004	  0.003	  0.004	 25.600	 101.163	 -99999.000
31375	  0.161	 -0.153	 -0.523	  0.147	 -0.368	  9.867	 -0.003	  0.005	  0.006	 25.600	 101.168	 -99999.000
31425	  0.161	 -0.153	 -0.527	  0.179	 -0.336	  9.981	 -0.002	  0.006	  0.002	 25.600	 101.179	 -99999.000
31475	  0.160	 -0.147	 -0.523	  0.065	 -0.304	  9.909	 -0.003	  0.005	  0.003	 25.600	 101.174	 -99999.000
31525	  0.162	 -0.147	 -0.518	  0.186	 -0.288	  9.860	 -0.003	  0.005	  0.003	 25.600	 101.179	 -99999.000
31576	  0.161	 -0.150	 -0.524	  0.101	 -0.333	  9.878	 -0.004	  0.004	  0.005	 25.600	 101.179	 -99999.000
31625	  0.162	 -0.154	 -0.524	  0.092	 -0.297	  9.886	 -0.003	  0.002	  0.009	 25.600	 101.168	 -99999.000
31675	  0.162	 -0.148	 -0.527	  0.119	 -0.291	  9.873	 -0.002	  0.002	  0.003	 25.600	 101.168	 -99999.000
31725	  0.160	 -0.149	 -0.520	  0.109	 -0.323	  9.889	 -0.003	  0.000	  0.007	 25.600	 101.163	 -99999.000
31775	  0.162	 -0.154	 -0.529	  0.144	 -0.328	  9.853	 -0.003	 -0.000	  0.007	 25.600	 101.179	 -99999.000
31825	  0.160	 -0.149	 -0.525	  0.140	 -0.327	  9.905	 -0.004	  0.000	  0.003	 25.600	 101.168	 -99999.000
31875	  0.161	 -0.153	 -0.520	  0.175	 -0.311	  9.899	 -0.003	  0.004	  0.004	 25.600	 101.179	 -99999.000
31925	  0.159	 -0.148	 -0.521	  0.182	 -0.321	  9.853	 -0.004	  0.006	  0.003	 25.600	 101.168	 -99999.000
31975	  0.158	 -0.149	 -0.524	  0.179	 -0.347	  9.864	 -0.004	  0.005	  0.004	 25.600	 101.168	 -99999.000
32025	  0.162	 -0.142	 -0.520	  0.172	 -0.355	  9.837	 -0.005	  0.003	  0.002	 25.600	 101.168	 -99999.000
32075	  0.161	 -0.150	 -0.524	  0.080	 -0.287	  9.854	 -0.002	  0.003	  0.003	 25.600	 101.174	 -99999.000
32125	  0.161	 -0.149	 -0.524	  0.090	 -0.381	  9.883	 -0.004	 -0.000	  0.001	 25.600	 101.179	 -99999.000
32175	  0.161	 -0.145	 -0.520	  0.108	 -0.280	  9.900	 -0.005	  0.001	  0.005	 25.600	 101.172	 -99999.000
32225	  0.161	 -0.149	 -0.523	  0.164	 -0.398	  9.870	 -0.003	 -0.001	  0.005	 25.600	 101.179	 -99999.000
32275	  0.163	 -0.143	 -0.521	  0.195	 -0.305	  9.879	 -0.004	  0.002	  0.006	 25.600	 101.168	 -99999.000
32325	  0.162	 -0.146	 -0.525	  0.111	 -0.365	  9.895	 -0.002	  0.003	  0.004	 25.600	 101.168	 -99999.000
32375	  0.162	 -0.149	 -0.521	  0.134	 -0.314	  9.900	 -0.002	  0.004	  0.003	 25.600	 101.179	 -99999.000
32425	  0.161	 -0.140	 -0.524	  0.128	 -0.318	  9.866	 -0.003	  0.004	  0.006	 25.600	 101.168	 -99999.000
32475	  0.162	 -0.147	 -0.520	  0.188	 -0.335	  9.824	 -0.003	  0.004	  0.003	 25.600	 101.179	 -99999.000
32525	  0.162	 -0.149	 -0.520	  0.151	 -0.314	  9.808	 -0.004	  0.004	  0.007	 25.600	 101.168	 -99999.000
32575	  0.162	 -0.139	 -0.521	  0.102	 -0.319	  9.823	 -0.003	  0.003	  0.003	 25.600	 101.179	 -99999.000
32625	  0.162	 -0.149	 -0.519	  0.109	 -0.336	  9.823	 -0.005	  0.002	  0.005	 25.600	 101.168	 -99999.000
32675	  0.162	 -0.148	 -0.523	  0.139	 -0.234	  9.462	 -0.003	  0.002	  0.010	 25.600	 101.168	 -99999.000
32725	  0.161	 -0.153	 -0.520	  0.040	 -0.824	 10.257	 -0.008	 -0.000	 -0.030	 25.600	 101.168	 -99999.000
32775	  0.161	 -0.152	 -0.523	  0.229	  0.221	 10.492	 -0.008	  0.004	  0.015	 25.600	 101.168	 -99999.000
32825	  0.164	 -0.146	 -0.521	  0.123	 -0.505	  9.979	 -0.006	  0.001	  0.014	 25.600	 101.168	 -99999.000
32875	  0.162	 -0.151	 -0.526	  0.179	 -0.254	  9.782	 -0.006	  0.002	 -0.009	 25.600	 101.183	 -99999.000
32925	  0.160	 -0.149	 -0.523	  0.147	 -0.458	  9.755	 -0.001	  0.003	  0.009	 25.600	 101.168	 -99999.000
32975	  0.162	 -0.144	 -0.524	  0.162	 -0.375	  9.792	  0.001	  0.003	 -0.013	 25.600	 101.156	 -99999.000
33025	  0.163	 -0.149	 -0.519	  0.132	 -0.323	  9.862	 -0.001	  0.002	  0.012	 25.600	 101.179	 -99999.000
33075	  0.160	 -0.148	 -0.524	  0.188	 -0.330	  9.920	 -0.001	  0.004	  0.003	 25.600	 101.168	 -99999.000
33125	  0.164	 -0.150	 -0.525	  0.089	 -0.289	  9.869	 -0.003	  0.002	  0.005	 25.600	 101.168	 -99999.000
33175	  0.160	 -0.144	 -0.519	  0.132	 -0.195	  9.700	 -0.003	  0.003	  0.019	 25.600	 101.168	 -99999.000
33225	  0.164	 -0.148	 -0.520	  0.126	 -0.548	  9.526	 -0.003	 -0.000	 -0.001	 25.600	 101.168	 -99999.000
33275	  0.162	 -0.141	 -0.521	  0.207	 -0.335	  9.850	 -0.009	  0.002	 -0.001	 25.600	 101.168	 -99999.000
33325	  0.163	 -0.152	 -0.522	  0.107	 -0.334	  9.898	 -0.006	  0.001	  0.016	 25.600	 101.179	 -99999.000
33375	  0.162	 -0.151	 -0.526	  0.227	 -0.335	  9.880	 -0.004	  0.002	 -0.005	 25.600	 101.168	 -99999.000
33425	  0.162	 -0.149	 -0.521	  0.116	 -0.394	  9.836	 -0.002	  0.004	  0.003	 25.600	 101.172	 -99999.000
33475	  0.162	 -0.147	 -0.523	  0.205	 -0.367	  9.885	 -0.000	  0.005	  0.002	 25.600	 101.179	 -99999.000
33525	  0.164	 -0.150	 -0.522	  0.041	 -0.293	  9.851	  0.001	  0.004	  0.008	 25.600	 101.172	 -99999.000
33575	  0.162	 -0.151	 -0.527	  0.155	 -0.305	  9.876	 -0.001	  0.003	  0.003	 25.600	 101.183	 -99999.000
33625	  0.162	 -0.149	 -0.526	  0.085	 -0.281	  9.856	 -0.004	  0.003	  0.001	 25.600	 101.156	 -99999.000
33675	  0.163	 -0.142	 -0.520	  0.142	 -0.388	  9.893	 -0.005	  0.000	  0.007	 25.600	 101.172	 -99999.000
33725	  0.162	 -0.152	 -0.527	  0.070	 -0.218	  9.905	 -0.006	  0.001	  0.003	 25.600	 101.172	 -99999.000
33775	  0.161	 -0.147	 -0.523	  0.186	 -0.475	  9.934	 -0.008	 -0.002	  0.008	 25.600	 101.172	 -99999.000
33825	  0.163	 -0.149	 -0.522	  0.225	 -0.273	  9.883	 -0.006	  0.001	  0.004	 25.600	 101.183	 -99999.000
33875	  0.162	 -0.147	 -0.520	  0.043	 -0.411	  9.898	 -0.004	  0.002	  0.001	 25.600	 101.172	 -99999.000
33925	  0.161	 -0.141	 -0.522	  0.203	 -0.295	  9.908	 -0.002	  0.003	  0.003	 25.600	 101.172	 -99999.000
33975	  0.162	 -0.141	 -0.520	  0.096	 -0.340	  9.820	 -0.001	  0.003	  0.002	 25.600	 101.168	 -99999.000
34025	  0.162	 -0.150	 -0.519	  0.188	 -0.341	  9.886	 -0.002	  0.005	  0.003	 25.600	 101.183	 -99999.000
34075	  0.162	 -0.150	 -0.520	  0.059	 -0.299	  9.864	 -0.001	  0.005	  0.001	 25.600	 101.172	 -99999.000
34125	  0.161	 -0.147	 -0.520	  0.128	 -0.325	  9.899	 -0.004	  0.003	  0.011	 25.600	 101.161	 -99999.000
34175	  0.162	 -0.148	 -0.524	  0.120	 -0.288	  9.844	 -0.005	  0.003	 -0.002	 25.600	 101.168	 -99999.000
34225	  0.161	 -0.154	 -0.522	  0.084	 -0.318	  9.894	 -0.005	  0.001	  0.010	 25.600	 101.183	 -99999.000
34275	  0.162	 -0.149	 -0.524	  0.145	 -0.319	  9.871	 -0.005	 -0.000	  0.003	 25.600	 101.161	 -99999.000
46876	  0.162	 -0.140	 -0.525	  0.105	 -0.334	  9.872	 -0.003	  0.003	  0.004	 25.700	 101.174	 -0.205
46926	  0.162	 -0.148	 -0.525	  0.147	 -0.318	  9.859	 -0.003	  0.003	  0.005	 25.700	 101.178	 -0.547
46976	  0.164	 -0.146	 -0.519	  0.098	 -0.323	  9.850	 -0.004	  0.004	  0.002	 25.700	 101.174	 -0.205
47026	  0.163	 -0.150	 -0.528	  0.132	 -0.315	  9.896	 -0.002	  0.003	  0.007	 25.700	 101.174	 -0.205
47076	  0.163	 -0.147	 -0.526	  0.122	 -0.321	  9.889	 -0.004	  0.002	  0.006	 25.700	 101.178	 -0.547
47126	  0.161	 -0.150	 -0.523	  0.130	 -0.338	  9.860	 -0.004	  0.002	  0.003	 25.700	 101.178	 -0.547
47176	  0.163	 -0.150	 -0.524	  0.129	 -0.359	  9.873	 -0.004	  0.002	  0.006	 25.700	 101.174	 -0.205
47226	  0.163	 -0.149	 -0.528	  0.161	 -0.350	  9.885	 -0.003	  0.003	  0.006	 25.700	 101.178	 -0.547
47276	  0.162	 -0.139	 -0.524	  0.095	 -0.340	  9.881	 -0.002	  0.003	  0.005	 25.700	 101.162	  0.824
47326	  0.163	 -0.150	 -0.523	  0.154	 -0.328	  9.903	 -0.003	  0.004	  0.003	 25.700	 101.178	 -0.547
47376	  0.161	 -0.154	 -0.526	  0.130	 -0.321	  9.838	 -0.003	  0.005	  0.004	 25.700	 101.162	  0.824
47426	  0.163	 -0.151	 -0.523	  0.116	 -0.334	  9.886	 -0.003	  0.003	  0.007	 25.700	 101.167	  0.396
47476	  0.160	 -0.147	 -0.523	  0.134	 -0.289	  9.913	 -0.004	  0.003	  0.005	 25.700	 101.167	  0.396
47526	  0.162	 -0.145	 -0.523	  0.074	 -0.355	  9.888	 -0.004	  0.001	  0.004	 25.700	 101.167	  0.396
47576	  0.164	 -0.148	 -0.524	  0.142	 -0.310	  9.876	 -0.004	  0.002	  0.003	 25.700	 101.178	 -0.547
47626	  0.163	 -0.148	 -0.521	  0.140	 -0.348	  9.817	 -0.003	  0.002	  0.007	 25.700	 101.178	 -0.547
47676	  0.163	 -0.152	 -0.524	  0.178	 -0.319	  9.852	 -0.003	  0.002	  0.004	 25.700	 101.178	 -0.547
47726	  0.163	 -0.146	 -0.523	  0.135	 -0.359	  9.852	 -0.004	  0.003	  0.003	 25.700	 101.178	 -0.547
47776	  0.162	 -0.146	 -0.523	  0.169	 -0.311	  9.884	 -0.003	  0.004	  0.005	 25.700	 101.167	  0.396
47826	  0.163	 -0.149	 -0.527	  0.150	 -0.304	  9.864	 -0.003	  0.006	  0.004	 25.700	 101.167	  0.396
47876	  0.162	 -0.151	 -0.529	  0.118	 -0.366	  9.862	 -0.004	  0.002	  0.007	 25.700	 101.167	  0.396
47926	  0.162	 -0.147	 -0.524	  0.160	 -0.327	  9.880	 -0.003	  0.003	  0.002	 25.700	 101.178	 -0.547
47976	  0.163	 -0.149	 -0.525	  0.080	 -0.356	  9.869	 -0.003	  0.002	  0.004	 25.700	 101.178	 -0.547
48026	  0.162	 -0.149	 -0.528	  0.122	 -0.318	  9.895	 -0.003	  0.001	  0.004	 25.700	 101.178	 -0.547
48076	  0.162	 -0.150	 -0.523	  0.106	 -0.340	  9.868	 -0.004	  0.002	  0.005	 25.700	 101.167	  0.396
48126	  0.163	 -0.142	 -0.526	  0.140	 -0.344	  9.879	 -0.001	  0.001	  0.006	 25.700	 101.178	 -0.547
48176	  0.163	 -0.137	 -0.523	  0.135	 -0.332	  9.853	 -0.003	  0.003	  0.005	 25.700	 101.178	 -0.547
48226	  0.163	 -0.148	 -0.525	  0.157	 -0.329	  9.878	 -0.003	  0.002	  0.005	 25.700	 101.167	  0.396
48276	  0.162	 -0.143	 -0.524	  0.206	 -0.312	  9.828	 -0.002	  0.002	  0.004	 25.700	 101.171	  0.053
48326	  0.162	 -0.152	 -0.524	  0.098	 -0.348	  9.874	 -0.004	  0.002	  0.006	 25.700	 101.178	 -0.547
48376	  0.162	 -0.147	 -0.528	  0.173	 -0.329	  9.842	 -0.003	  0.004	  0.002	 25.700	 101.167	  0.396
48426	  0.162	 -0.146	 -0.522	  0.102	 -0.360	  9.843	 -0.003	  0.005	  0.005	 25.700	 101.178	 -0.547
48476	  0.163	 -0.149	 -0.523	  0.142	 -0.317	  9.890	 -0.002	  0.004	  0.004	 25.700	 101.178	 -0.547
48526	  0.163	 -0.151	 -0.524	  0.110	 -0.340	  9.855	 -0.004	  0.003	  0.003	 25.700	 101.167	  0.396
48576	  0.162	 -0.137	 -0.525	  0.148	 -0.337	  9.875	 -0.003	  0.002	  0.004	 25.700	 101.193	 -1.834
48626	  0.162	 -0.148	 -0.522	  0.106	 -0.293	  9.916	 -0.003	  0.002	  0.005	 25.700	 101.178	 -0.547
48676	  0.162	 -0.151	 -0.525	  0.164	 -0.341	  9.894	 -0.004	  0.002	  0.005	 25.700	 101.171	  0.053
48726	  0.162	 -0.142	 -0.519	  0.148	 -0.334	  9.847	 -0.004	  0.002	  0.005	 25.700	 101.167	  0.396
48776	  0.163	 -0.149	 -0.527	  0.152	 -0.378	  9.839	 -0.003	  0.003	  0.006	 25.700	 101.167	  0.396
48826	  0.162	 -0.149	 -0.523	  0.159	 -0.310	  9.880	 -0.004	  0.003	  0.005	 25.700	 101.167	  0.396
48876	  0.163	 -0.153	 -0.529	  0.163	 -0.353	  9.875	 -0.003	  0.003	  0.007	 25.700	 101.178	 -0.547
48926	  0.163	 -0.149	 -0.524	  0.152	 -0.291	  9.831	 -0.003	  0.004	  0.003	 25.700	 101.178	 -0.547
48976	  0.164	 -0.146	 -0.520	  0.121	 -0.313	  9.871	 -0.003	  0.003	  0.005	 25.700	 101.171	  0.053
49027	  0.162	 -0.149	 -0.523	  0.127	 -0.317	  9.868	 -0.004	  0.002	  0.002	 25.700	 101.178	 -0.547
49076	  0.163	 -0.146	 -0.528	  0.128	 -0.354	  9.877	 -0.005	  0.003	  0.007	 25.700	 101.167	  0.396
49126	  0.162	 -0.147	 -0.524	  0.159	 -0.339	  9.855	 -0.004	  0.002	  0.004	 25.700	 101.167	  0.396
49176	  0.164	 -0.151	 -0.530	  0.118	 -0.350	  9.862	 -0.004	  0.003	  0.007	 25.700	 101.167	  0.396
49226	  0.162	 -0.148	 -0.521	  0.162	 -0.332	  9.904	 -0.003	  0.001	  0.004	 25.700	 101.171	  0.053
49276	  0.162	 -0.149	 -0.524	  0.129	 -0.286	  9.882	 -0.002	  0.003	  0.004	 25.700	 101.167	  0.396
49326	  0.162	 -0.149	 -0.526	  0.136	 -0.344	  9.890	 -0.003	  0.003	  0.006	 25.700	 101.156	  1.340
49376	  0.162	 -0.146	 -0.522	  0.160	 -0.309	  9.862	 -0.003	  0.002	  0.005	 25.700	 101.182	 -0.891
49426	  0.162	 -0.147	 -0.524	  0.147	 -0.332	  9.866	 -0.003	  0.003	  0.007	 25.700	 101.167	  0.396
49476	  0.162	 -0.144	 -0.521	  0.142	 -0.314	  9.876	 -0.003	  0.003	  0.002	 25.700	 101.171	  0.053
49526	  0.163	 -0.142	 -0.521	  0.156	 -0.306	  9.885	 -0.004	  0.004	  0.002	 25.700	 101.167	  0.396
49576	  0.162	 -0.148	 -0.525	  0.127	 -0.383	  9.858	 -0.003	  0.001	  0.004	 25.700	 101.178	 -0.547
49626	  0.166	 -0.149	 -0.522	  0.123	 -0.261	  9.847	 -0.003	  0.002	  0.006	 25.700	 101.182	 -0.891
49676	  0.163	 -0.148	 -0.526	  0.142	 -0.350	  9.883	 -0.004	  0.002	  0.005	 25.700	 101.171	  0.053
49726	  0.162	 -0.146	 -0.525	  0.131	 -0.312	  9.874	 -0.004	  0.002	  0.004	 25.700	 101.167	  0.396
49776	  0.163	 -0.150	 -0.523	  0.131	 -0.346	  9.819	 -0.002	  0.002	  0.006	 25.700	 101.171	  0.053
49826	  0.163	 -0.144	 -0.523	  0.148	 -0.350	  9.831	 -0.003	  0.001	  0.005	 25.700	 101.167	  0.396
49876	  0.162	 -0.148	 -0.530	  0.175	 -0.336	  9.877	 -0.003	  0.004	  0.005	 25.700	 101.178	 -0.547
49926	  0.164	 -0.147	 -0.521	  0.111	 -0.342	  9.858	 -0.002	  0.003	  0.003	 25.700	 101.171	  0.053
49976	  0.162	 -0.145	 -0.524	  0.183	 -0.313	  9.884	 -0.003	  0.003	  0.008	 25.700	 101.171	  0.053
50026	  0.164	 -0.148	 -0.524	  0.101	 -0.356	  9.829	 -0.004	  0.003	  0.003	 25.700	 101.182	 -0.891
50076	  0.163	 -0.147	 -0.521	  0.147	 -0.287	  9.875	 -0.005	  0.002	  0.005	 25.700	 101.167	  0.396
50126	  0.162	 -0.148	 -0.525	  0.099	 -0.380	  9.899	 -0.004	  0.003	  0.005	 25.700	 101.171	  0.053
50176	  0.165	 -0.146	 -0.523	  0.132	 -0.338	  9.846	 -0.004	  0.003	  0.006	 25.700	 101.167	  0.396
50226	  0.163	 -0.140	 -0.525	  0.136	 -0.364	  9.869	 -0.003	  0.004	  0.002	 25.700	 101.160	  0.996
50276	  0.162	 -0.144	 -0.522	  0.098	 -0.323	  9.855	 -0.004	  0.002	  0.005	 25.700	 101.171	  0.053
50326	  0.161	 -0.146	 -0.524	  0.149	 -0.352	  9.892	 -0.004	  0.004	  0.004	 25.700	 101.182	 -0.891
50376	  0.162	 -0.146	 -0.518	  0.097	 -0.322	  9.879	 -0.003	  0.003	  0.004	 25.700	 101.171	  0.053
50426	  0.163	 -0.150	 -0.530	  0.162	 -0.320	  9.863	 -0.003	  0.003	  0.008	 25.700	 101.171	  0.053
50476	  0.162	 -0.152	 -0.526	  0.124	 -0.336	  9.894	 -0.003	  0.005	  0.003	 25.700	 101.182	 -0.891
50526	  0.164	 -0.145	 -0.524	  0.144	 -0.327	  9.848	 -0.004	  0.003	  0.007	 25.700	 101.171	  0.053
50576	  0.161	 -0.148	 -0.522	  0.132	 -0.353	  9.884	 -0.003	  0.003	  0.002	 25.700	 101.171	  0.053
50626	  0.163	 -0.144	 -0.523	  0.140	 -0.323	  9.883	 -0.003	  0.002	  0.004	 25.700	 101.160	  0.996
50676	  0.163	 -0.140	 -0.523	  0.129	 -0.345	  9.873	 -0.004	  0.002	  0.002	 25.700	 101.171	  0.053
50726	  0.162	 -0.150	 -0.521	  0.150	 -0.344	  9.875	 -0.003	  0.002	  0.003	 25.700	 101.171	  0.053
50776	  0.162	 -0.147	 -0.522	  0.147	 -0.346	  9.881	 -0.005	  0.003	  0.006	 25.700	 101.160	  0.996
50826	  0.164	 -0.146	 -0.521	  0.147	 -0.332	  9.868	 -0.003	  0.003	  0.007	 25.700	 101.171	  0.053
50876	  0.163	 -0.148	 -0.519	  0.128	 -0.346	  9.869	 -0.004	  0.005	  0.004	 25.700	 101.160	  0.996
50926	  0.162	 -0.151	 -0.525	  0.128	 -0.334	  9.882	 -0.003	  0.003	  0.004	 25.700	 101.171	  0.053
50976	  0.162	 -0.149	 -0.528	  0.138	 -0.331	  9.876	 -0.003	  0.002	  0.004	 25.700	 101.182	 -0.891
51026	  0.162	 -0.143	 -0.523	  0.130	 -0.315	  9.902	 -0.003	  0.003	  0.005	 25.700	 101.171	  0.053
51076	  0.162	 -0.148	 -0.529	  0.105	 -0.340	  9.893	 -0.003	  0.004	  0.005	 25.700	 101.178	 -0.547
51126	  0.162	 -0.150	 -0.525	  0.132	 -0.289	  9.879	 -0.003	  0.003	  0.006	 25.700	 101.171	  0.053
51176	  0.162	 -0.150	 -0.524	  0.128	 -0.357	  9.863	 -0.002	  0.002	  0.003	 25.700	 101.171	  0.053
51226	  0.164	 -0.151	 -0.528	  0.164	 -0.300	  9.897	 -0.004	  0.002	  0.006	 25.700	 101.171	  0.053
51276	  0.163	 -0.151	 -0.534	  0.122	 -0.353	  9.919	 -0.004	  0.004	  0.003	 25.700	 101.171	  0.053
51326	  0.162	 -0.153	 -0.521	  0.130	 -0.327	  9.837	 -0.003	  0.003	  0.006	 25.700	 101.171	  0.053
51376	  0.162	 -0.146	 -0.521	  0.159	 -0.353	  9.856	 -0.005	  0.002	  0.002	 25.700	 101.171	  0.053
51426	  0.163	 -0.143	 -0.522	  0.107	 -0.317	  9.900	 -0.003	  0.002	  0.006	 25.700	 101.160	  0.996
51476	  0.162	 -0.147	 -0.523	  0.158	 -0.336	  9.875	 -0.003	  0.005	  0.005	 25.700	 101.171	  0.053
51526	  0.163	 -0.149	 -0.524	  0.102	 -0.357	  9.857	 -0.004	  0.004	  0.004	 25.700	 101.167	  0.396
51576	  0.162	 -0.151	 -0.525	  0.172	 -0.293	  9.882	 -0.003	  0.003	  0.005	 25.700	 101.171	  0.053
51626	  0.162	 -0.143	 -0.521	  0.103	 -0.377	  9.870	 -0.003	  0.003	  0.002	 25.700	 101.171	  0.053
51676	  0.161	 -0.144	 -0.523	  0.151	 -0.281	  9.879	 -0.002	  0.003	  0.007	 25.700	 101.182	 -0.891
51726	  0.162	 -0.149	 -0.524	  0.126	 -0.344	  9.851	 -0.004	  0.002	  0.005	 25.700	 101.186	 -1.233
51776	  0.162	 -0.144	 -0.525	  0.134	 -0.320	  9.848	 -0.002	  0.001	  0.006	 25.700	 101.171	  0.053
51826	  0.162	 -0.148	 -0.522	  0.173	 -0.337	  9.899	 -0.004	  0.002	  0.002	 25.700	 101.171	  0.053
51876	  0.163	 -0.147	 -0.528	  0.108	 -0.321	  9.846	 -0.003	  0.002	  0.007	 25.700	 101.175	 -0.291
51926	  0.164	 -0.149	 -0.525	  0.175	 -0.323	  9.891	 -0.003	  0.003	  0.005	 25.700	 101.171	  0.053
51976	  0.163	 -0.144	 -0.523	  0.103	 -0.373	  9.886	 -0.004	  0.004	  0.003	 25.700	 101.175	 -0.291
52026	  0.162	 -0.150	 -0.523	  0.181	 -0.313	  9.865	 -0.004	  0.004	  0.007	 25.700	 101.171	  0.053
52076	  0.163	 -0.138	 -0.523	  0.099	 -0.327	  9.877	 -0.002	  0.003	  0.004	 25.700	 101.171	  0.053
52126	  0.163	 -0.147	 -0.519	  0.152	 -0.324	  9.878	 -0.003	  0.003	  0.006	 25.700	 101.171	  0.053
52176	  0.164	 -0.147	 -0.523	  0.125	 -0.338	  9.850	 -0.004	  0.002	  0.001	 25.700	 101.175	 -0.291
52227	  0.163	 -0.142	 -0.521	  0.131	 -0.317	  9.882	 -0.004	  0.002	  0.009	 25.700	 101.171	  0.053
52276	  0.163	 -0.147	 -0.522	  0.132	 -0.335	  9.865	 -0.003	  0.003	  0.003	 25.800	 101.186	 -1.233
52327	  0.165	 -0.145	 -0.520	  0.106	 -0.323	  9.842	 -0.004	  0.003	  0.005	 25.700	 101.160	  0.996
52376	  0.162	 -0.147	 -0.519	  0.192	 -0.339	  9.862	 -0.003	  0.001	  0.004	 25.700	 101.182	 -0.891
52427	  0.162	 -0.149	 -0.529	  0.117	 -0.333	  9.881	 -0.005	  0.001	  0.001	 25.800	 101.175	 -0.291
52477	  0.162	 -0.145	 -0.526	  0.152	 -0.351	  9.849	 -0.004	  0.003	  0.007	 25.700	 101.164	  0.653
52527	  0.163	 -0.140	 -0.522	  0.139	 -0.329	  9.854	 -0.003	  0.002	  0.005	 25.700	 101.171	  0.053
52577	  0.164	 -0.149	 -0.526	  0.153	 -0.355	  9.865	 -0.004	  0.003	  0.005	 25.700	 101.160	  0.996
52627	  0.162	 -0.149	 -0.523	  0.139	 -0.342	  9.865	 -0.004	  0.005	  0.002	 25.700	 101.171	  0.053
52677	  0.163	 -0.149	 -0.521	  0.107	 -0.378	  9.855	 -0.003	  0.002	  0.007	 25.800	 101.175	 -0.291
52727	  0.162	 -0.149	 -0.525	  0.158	 -0.319	  9.849	 -0.004	  0.004	  0.003	 25.700	 101.171	  0.053
52777	  0.161	 -0.153	 -0.523	  0.124	 -0.345	  9.904	 -0.003	  0.002	  0.005	 25.700	 101.160	  0.996
52826	  0.165	 -0.150	 -0.524	  0.130	 -0.323	  9.871	 -0.004	  0.002	  0.005	 25.800	 101.175	 -0.291
52877	  0.163	 -0.152	 -0.519	  0.132	 -0.305	  9.887	 -0.003	  0.002	  0.004	 25.700	 101.182	 -0.891
52927	  0.160	 -0.138	 -0.521	  0.150	 -0.336	  9.832	 -0.003	  0.002	  0.003	 25.800	 101.186	 -1.233
52977	  0.164	 -0.150	 -0.521	  0.123	 -0.324	  9.872	 -0.004	  0.003	  0.004	 25.700	 101.171	  0.053
53027	  0.161	 -0.149	 -0.523	  0.157	 -0.340	  9.886	 -0.004	  0.003	  0.006	 25.800	 101.175	 -0.291
53077	  0.163	 -0.153	 -0.524	  0.143	 -0.335	  9.858	 -0.002	  0.004	  0.005	 25.700	 101.175	 -0.291
53127	  0.162	 -0.149	 -0.528	  0.152	 -0.349	  9.899	 -0.002	  0.003	  0.004	 25.800	 101.175	 -0.291
53177	  0.164	 -0.149	 -0.528	  0.162	 -0.323	  9.871	 -0.003	  0.005	  0.001	 25.700	 101.175	 -0.291
53227	  0.162	 -0.149	 -0.526	  0.126	 -0.359	  9.864	 -0.003	  0.003	  0.005	 25.800	 101.164	  0.653
53277	  0.162	 -0.143	 -0.525	  0.117	 -0.322	  9.858	 -0.003	  0.004	  0.008	 25.800	 101.164	  0.653
53327	  0.161	 -0.145	 -0.522	  0.159	 -0.329	  9.869	 -0.002	  0.003	  0.003	 25.700	 101.175	 -0.291
53377	  0.164	 -0.146	 -0.522	  0.108	 -0.313	  9.886	 -0.005	  0.002	  0.004	 25.700	 101.171	  0.053
53427	  0.162	 -0.147	 -0.522	  0.110	 -0.358	  9.840	 -0.004	  0.002	  0.006	 25.800	 101.175	 -0.291
53477	  0.162	 -0.146	 -0.523	  0.137	 -0.308	  9.872	 -0.004	  0.001	  0.002	 25.700	 101.171	  0.053
53527	  0.160	 -0.151	 -0.521	  0.139	 -0.360	  9.872	 -0.003	  0.002	  0.007	 25.800	 101.175	 -0.291
53577	  0.162	 -0.153	 -0.526	  0.156	 -0.350	  9.889	 -0.003	  0.002	  0.005	 25.800	 101.175	 -0.291
53627	  0.162	 -0.146	 -0.518	  0.083	 -0.313	  9.847	 -0.003	  0.002	  0.004	 25.800	 101.175	 -0.291
53677	  0.160	 -0.147	 -0.521	  0.191	 -0.356	  9.866	 -0.003	  0.002	  0.002	 25.800	 101.175	 -0.291
53727	  0.163	 -0.144	 -0.522	  0.118	 -0.325	  9.895	 -0.002	  0.003	  0.003	 25.800	 101.164	  0.653
53776	  0.160	 -0.151	 -0.525	  0.124	 -0.334	  9.868	 -0.003	  0.004	  0.006	 25.800	 101.175	 -0.291
53826	  0.162	 -0.146	 -0.522	  0.115	 -0.320	  9.900	 -0.003	  0.003	  0.005	 25.800	 101.175	 -0.291
53876	  0.162	 -0.149	 -0.525	  0.131	 -0.364	  9.868	 -0.003	  0.003	  0.006	 25.700	 101.171	  0.053
53926	  0.164	 -0.150	 -0.528	  0.140	 -0.319	  9.894	 -0.004	  0.001	 -0.001	 25.800	 101.164	  0.653
53976	  0.161	 -0.147	 -0.520	  0.086	 -0.358	  9.896	 -0.003	  0.002	  0.003	 25.800	 101.164	  0.653
54026	  0.162	 -0.149	 -0.523	  0.152	 -0.338	  9.896	 -0.003	  0.003	  0.007	 25.800	 101.186	 -1.233
54076	  0.162	 -0.152	 -0.523	  0.136	 -0.330	  9.880	 -0.002	  0.002	  0.007	 25.800	 101.175	 -0.291
54126	  0.162	 -0.148	 -0.532	  0.140	 -0.315	  9.866	 -0.003	  0.004	  0.003	 25.800	 101.175	 -0.291
54176	  0.163	 -0.151	 -0.518	  0.149	 -0.328	  9.874	 -0.003	  0.002	  0.005	 25.700	 101.175	 -0.291
54226	  0.162	 -0.151	 -0.523	  0.118	 -0.315	  9.885	 -0.002	  0.003	  0.004	 25.800	 101.175	 -0.291
54276	  0.163	 -0.147	 -0.522	  0.153	 -0.355	  9.888	 -0.001	  0.003	  0.005	 25.800	 101.164	  0.653
54326	  0.164	 -0.149	 -0.521	  0.135	 -0.323	  9.857	 -0.002	  0.001	  0.004	 25.800	 101.175	 -0.291
54376	  0.162	 -0.149	 -0.522	  0.159	 -0.379	  9.875	 -0.003	  0.002	  0.004	 25.800	 101.175	 -0.291
54426	  0.162	 -0.147	 -0.524	  0.112	 -0.308	  9.845	 -0.004	  0.002	  0.006	 25.800	 101.175	 -0.291
54476	  0.162	 -0.144	 -0.522	  0.167	 -0.347	  9.903	 -0.005	  0.002	  0.006	 25.800	 101.164	  0.653
54526	  0.163	 -0.150	 -0.526	  0.099	 -0.357	  9.870	 -0.004	  0.002	  0.002	 25.800	 101.160	  0.996
54576	  0.163	 -0.150	 -0.524	  0.201	 -0.346	  9.889	 -0.003	  0.002	  0.006	 25.800	 101.175	 -0.291
54626	  0.162	 -0.154	 -0.524	  0.136	 -0.348	  9.869	 -0.003	  0.004	  0.004	 25.800	 101.180	 -0.719
54676	  0.161	 -0.150	 -0.526	  0.120	 -0.338	  9.863	 -0.003	  0.004	  0.008	 25.800	 101.191	 -1.662
54726	  0.162	 -0.148	 -0.521	  0.132	 -0.360	  9.887	 -0.004	  0.003	  0.002	 25.800	 101.180	 -0.719
54776	  0.163	 -0.150	 -0.524	  0.119	 -0.321	  9.885	 -0.002	  0.003	  0.006	 25.800	 101.175	 -0.291
54826	  0.165	 -0.154	 -0.528	  0.140	 -0.322	  9.905	 -0.004	  0.003	  0.004	 25.800	 101.180	 -0.719
54876	  0.163	 -0.149	 -0.525	  0.107	 -0.322	  9.886	 -0.003	  0.003	  0.004	 25.800	 101.175	 -0.291
54926	  0.165	 -0.147	 -0.521	  0.161	 -0.327	  9.902	 -0.003	  0.002	  0.005	 25.800	 101.180	 -0.719
54976	  0.163	 -0.141	 -0.521	  0.126	 -0.364	  9.897	 -0.003	  0.003	  0.004	 25.800	 101.175	 -0.291
55026	  0.164	 -0.150	 -0.525	  0.153	 -0.315	  9.834	 -0.003	  0.002	  0.007	 25.800	 101.180	 -0.719
55076	  0.165	 -0.149	 -0.523	  0.180	 -0.348	  9.872	 -0.002	  0.002	  0.002	 25.800	 101.180	 -0.719
55126	  0.162	 -0.147	 -0.521	  0.135	 -0.321	  9.887	 -0.005	  0.003	  0.004	 25.800	 101.175	 -0.291
55176	  0.162	 -0.151	 -0.525	  0.179	 -0.324	  9.891	 -0.003	  0.003	  0.007	 25.800	 101.175	 -0.291
55226	  0.162	 -0.150	 -0.523	  0.093	 -0.336	  9.847	 -0.006	  0.003	  0.003	 25.800	 101.164	  0.653
55276	  0.163	 -0.146	 -0.524	  0.173	 -0.316	  9.875	 -0.003	  0.004	  0.006	 25.800	 101.168	  0.310
55326	  0.163	 -0.146	 -0.519	  0.090	 -0.386	  9.868	 -0.004	  0.003	  0.001	 25.800	 101.164	  0.653
55376	  0.165	 -0.146	 -0.521	  0.131	 -0.319	  9.888	 -0.003	  0.003	  0.006	 25.800	 101.175	 -0.291
55426	  0.164	 -0.148	 -0.522	  0.089	 -0.367	  9.892	 -0.004	  0.002	  0.003	 25.800	 101.164	  0.653
55476	  0.162	 -0.151	 -0.522	  0.116	 -0.316	  9.876	 -0.003	  0.002	  0.007	 25.800	 101.168	  0.310
55526	  0.162	 -0.151	 -0.522	  0.120	 -0.341	  9.878	 -0.003	  0.002	  0.006	 25.800	 101.175	 -0.291
55576	  0.162	 -0.146	 -0.523	  0.152	 -0.305	  9.892	 -0.002	  0.001	  0.006	 25.800	 101.175	 -0.291
55626	  0.162	 -0.145	 -0.526	  0.190	 -0.340	  9.853	 -0.003	  0.001	  0.003	 25.800	 101.168	  0.310
55676	  0.164	 -0.152	 -0.520	  0.148	 -0.342	  9.933	 -0.003	  0.003	  0.005	 25.800	 101.175	 -0.291
55726	  0.163	 -0.148	 -0.529	  0.161	 -0.318	  9.912	 -0.004	  0.003	  0.006	 25.800	 101.168	  0.310
55776	  0.164	 -0.148	 -0.522	  0.146	 -0.350	  9.882	 -0.004	  0.004	  0.002	 25.800	 101.168	  0.310
55826	  0.161	 -0.156	 -0.525	  0.174	 -0.310	  9.868	 -0.004	  0.004	  0.004	 25.800	 101.168	  0.310
55876	  0.162	 -0.150	 -0.522	  0.114	 -0.363	  9.893	 -0.003	  0.004	  0.004	 25.800	 101.180	 -0.719
55926	  0.161	 -0.147	 -0.527	  0.113	 -0.326	  9.890	 -0.004	  0.003	  0.004	 25.800	 101.180	 -0.719
55976	  0.163	 -0.151	 -0.525	  0.118	 -0.335	  9.910	 -0.003	  0.003	  0.003	 25.800	 101.168	  0.310
56026	  0.163	 -0.148	 -0.522	  0.094	 -0.323	  9.883	 -0.004	  0.002	  0.006	 25.800	 101.180	 -0.719
56076	  0.162	 -0.147	 -0.522	  0.115	 -0.308	  9.860	 -0.003	  0.001	  0.005	 25.800	 101.180	 -0.719
56126	  0.162	 -0.144	 -0.521	  0.149	 -0.368	  9.877	 -0.004	  0.001	  0.002	 25.800	 101.168	  0.310
56176	  0.166	 -0.147	 -0.520	  0.134	 -0.302	  9.887	 -0.005	  0.002	  0.005	 25.800	 101.168	  0.310
56226	  0.163	 -0.145	 -0.522	  0.160	 -0.392	  9.886	 -0.005	  0.002	  0.011	 25.800	 101.180	 -0.719
56276	  0.164	 -0.148	 -0.523	  0.169	 -0.283	  9.863	 -0.004	  0.004	  0.005	 25.800	 101.180	 -0.719
56326	  0.162	 -0.152	 -0.528	  0.117	 -0.406	  9.845	 -0.001	  0.003	  0.005	 25.800	 101.180	 -0.719
56376	  0.162	 -0.144	 -0.520	  0.139	 -0.304	  9.878	  0.000	  0.004	 -0.004	 25.800	 101.180	 -0.719
56426	  0.165	 -0.150	 -0.519	  0.084	 -0.341	  9.868	 -0.002	  0.002	  0.013	 25.800	 101.180	 -0.719
56476	  0.162	 -0.147	 -0.524	  0.176	 -0.268	  9.872	 -0.003	  0.001	  0.002	 25.800	 101.164	  0.653
56526	  0.161	 -0.149	 -0.524	  0.082	 -0.328	  9.859	 -0.004	  0.001	  0.006	 25.800	 101.180	 -0.719
56576	  0.163	 -0.142	 -0.521	  0.200	 -0.305	  9.862	 -0.004	  0.001	  0.004	 25.800	 101.168	  0.310
56626	  0.162	 -0.149	 -0.522	  0.101	 -0.339	  9.862	 -0.005	  0.002	  0.005	 25.800	 101.168	  0.310
56676	  0.163	 -0.142	 -0.523	  0.207	 -0.302	  9.928	 -0.005	  0.002	  0.002	 25.800	 101.168	  0.310
56726	  0.165	 -0.142	 -0.523	  0.125	 -0.360	  9.894	 -0.003	  0.005	  0.001	 25.800	 101.168	  0.310
56776	  0.162	 -0.148	 -0.525	  0.170	 -0.357	  9.902	 -0.004	  0.004	  0.004	 25.800	 101.168	  0.310
56826	  0.162	 -0.149	 -0.523	  0.102	 -0.341	  9.828	 -0.001	  0.005	  0.000	 25.800	 101.180	 -0.719
56876	  0.164	 -0.152	 -0.520	  0.117	 -0.340	  9.863	 -0.002	  0.004	  0.004	 25.800	 101.168	  0.310
56926	  0.162	 -0.147	 -0.524	  0.100	 -0.316	  9.874	 -0.002	  0.003	  0.005	 25.800	 101.180	 -0.719
56976	  0.162	 -0.146	 -0.523	  0.097	 -0.317	  9.868	 -0.001	 -0.000	  0.005	 25.800	 101.180	 -0.719
57026	  0.161	 -0.150	 -0.522	  0.147	 -0.294	  9.844	 -0.003	  0.001	  0.004	 25.800	 101.180	 -0.719
57076	  0.162	 -0.147	 -0.524	  0.110	 -0.342	  9.837	 -0.003	  0.001	  0.006	 25.800	 101.180	 -0.719
57126	  0.161	 -0.152	 -0.525	  0.144	 -0.325	  9.874	 -0.004	 -0.001	  0.007	 25.800	 101.168	  0.310
57176	  0.162	 -0.150	 -0.520	  0.160	 -0.332	  9.897	 -0.004	  0.002	  0.005	 25.800	 101.168	  0.310
57226	  0.161	 -0.153	 -0.527	  0.142	 -0.354	  9.886	 -0.003	  0.004	  0.003	 25.800	 101.164	  0.653
57276	  0.162	 -0.136	 -0.521	  0.199	 -0.305	  9.929	 -0.002	  0.004	  0.004	 25.800	 101.168	  0.310
57326	  0.162	 -0.151	 -0.524	  0.223	 -0.349	  9.916	 -0.002	  0.006	  0.004	 25.800	 101.184	 -1.062
57376	  0.162	 -0.148	 -0.523	  0.035	 -0.286	  9.891	 -0.005	  0.005	  0.011	 25.800	 101.168	  0.310
57426	  0.163	 -0.141	 -0.523	  0.198	 -0.381	  9.857	 -0.004	  0.004	  0.014	 25.800	 101.180	 -0.719
57476	  0.162	 -0.150	 -0.522	  0.038	 -0.334	  9.862	 -0.002	  0.003	  0.004	 25.800	 101.168	  0.310
57526	  0.162	 -0.153	 -0.523	  0.342	 -0.234	  9.863	 -0.002	  0.001	 -0.004	 25.800	 101.180	 -0.719
57576	  0.159	 -0.153	 -0.524	 -0.026	 -0.406	  9.802	 -0.004	 -0.000	  0.026	 25.800	 101.168	  0.310
57626	  0.163	 -0.149	 -0.522	  0.258	 -0.245	  9.867	 -0.002	 -0.003	  0.013	 25.800	 101.168	  0.310
57676	  0.161	 -0.144	 -0.524	  0.097	 -0.393	  9.898	  0.000	  0.002	 -0.001	 25.800	 101.168	  0.310
57726	  0.162	 -0.152	 -0.528	  0.284	 -0.332	  9.837	  0.000	  0.003	  0.028	 25.800	 101.157	  1.254
57776	  0.162	 -0.152	 -0.526	  0.195	 -0.290	  9.871	  0.000	  0.005	 -0.008	 25.800	 101.173	 -0.118
57826	  0.162	 -0.148	 -0.525	  0.122	 -0.387	  9.859	 -0.001	  0.006	  0.009	 25.800	 101.173	 -0.118
57876	  0.164	 -0.150	 -0.522	  0.175	 -0.207	  9.873	 -0.003	  0.006	  0.011	 25.800	 101.180	 -0.719
57926	  0.162	 -0.150	 -0.525	  0.085	 -0.314	  9.889	 -0.006	  0.006	 -0.003	 25.800	 101.180	 -0.719
57976	  0.163	 -0.148	 -0.525	  0.105	 -0.280	  9.881	 -0.006	  0.003	  0.003	 25.800	 101.168	  0.310
58026	  0.164	 -0.149	 -0.523	  0.094	 -0.383	  9.824	 -0.006	  0.002	  0.010	 25.800	 101.173	 -0.118
58077	  0.161	 -0.150	 -0.523	  0.128	 -0.319	  9.791	 -0.006	 -0.001	  0.001	 25.800	 101.173	 -0.118
58127	  0.163	 -0.152	 -0.526	  0.148	 -0.362	  9.837	 -0.003	 -0.001	 -0.000	 25.800	 101.168	  0.310
58177	  0.163	 -0.140	 -0.518	  0.086	 -0.376	  9.842	 -0.002	 -0.002	  0.010	 25.800	 101.180	 -0.719
58227	  0.163	 -0.147	 -0.521	  0.224	 -0.301	  9.913	  0.001	  0.001	  0.008	 25.800	 101.173	 -0.118
58277	  0.162	 -0.152	 -0.522	  0.136	 -0.324	  9.883	  0.001	  0.001	  0.003	 25.800	 101.157	  1.254
58327	  0.163	 -0.148	 -0.524	  0.171	 -0.280	  9.889	 -0.001	  0.004	  0.007	 25.800	 101.168	  0.310
58377	  0.162	 -0.150	 -0.518	  0.170	 -0.293	  9.872	 -0.002	  0.005	  0.003	 25.800	 101.168	  0.310
58427	  0.163	 -0.154	 -0.523	  0.158	 -0.289	  9.816	 -0.005	  0.006	  0.012	 25.800	 101.157	  1.254
58477	  0.162	 -0.146	 -0.522	  0.182	 -0.278	  9.885	 -0.007	  0.004	 -0.004	 25.800	 101.168	  0.310
58527	  0.162	 -0.151	 -0.524	  0.089	 -0.326	  9.922	 -0.006	  0.005	  0.002	 25.800	 101.168	  0.310
58577	  0.162	 -0.149	 -0.520	  0.190	 -0.383	  9.885	 -0.006	  0.001	  0.001	 25.800	 101.168	  0.310
58627	  0.164	 -0.142	 -0.522	  0.118	 -0.328	  9.836	 -0.003	  0.002	  0.002	 25.800	 101.184	 -1.062
58677	  0.162	 -0.150	 -0.524	  0.170	 -0.409	  9.884	 -0.003	  0.000	  0.004	 25.800	 101.168	  0.310
58727	  0.163	 -0.150	 -0.523	  0.123	 -0.305	  9.887	 -0.001	  0.002	  0.005	 25.800	 101.168	  0.310
58777	  0.162	 -0.147	 -0.520	  0.139	 -0.357	  9.904	  0.001	  0.002	  0.011	 25.800	 101.168	  0.310
58827	  0.162	 -0.147	 -0.526	  0.176	 -0.254	  9.862	 -0.001	  0.002	  0.005	 25.800	 101.184	 -1.062
58877	  0.160	 -0.151	 -0.520	  0.143	 -0.307	  9.845	 -0.002	  0.003	  0.003	 25.800	 101.173	 -0.118
58927	  0.163	 -0.150	 -0.522	  0.163	 -0.293	  9.865	 -0.006	  0.005	  0.003	 25.800	 101.168	  0.310
58977	  0.162	 -0.149	 -0.524	  0.117	 -0.306	  9.893	 -0.005	  0.006	  0.006	 25.800	 101.184	 -1.062
59027	  0.162	 -0.155	 -0.519	  0.138	 -0.327	  9.874	 -0.009	  0.004	  0.001	 25.800	 101.168	  0.310
59077	  0.162	 -0.148	 -0.523	  0.139	 -0.323	  9.846	 -0.006	  0.005	  0.003	 25.800	 101.173	 -0.118
59127	  0.161	 -0.153	 -0.530	  0.092	 -0.391	  9.867	 -0.005	  0.004	  0.000	 25.800	 101.168	  0.310
59177	  0.163	 -0.140	 -0.521	  0.120	 -0.313	  9.849	 -0.002	  0.001	  0.006	 25.800	 101.168	  0.310
59227	  0.162	 -0.145	 -0.521	  0.131	 -0.388	  9.889	 -0.000	  0.002	  0.004	 25.800	 101.168	  0.310
59277	  0.162	 -0.155	 -0.527	  0.140	 -0.293	  9.860	  0.000	 -0.000	  0.003	 25.800	 101.173	 -0.118
59327	  0.163	 -0.154	 -0.526	  0.152	 -0.338	  9.888	 -0.000	  0.002	  0.006	 25.800	 101.184	 -1.062
59377	  0.162	 -0.154	 -0.523	  0.138	 -0.276	  9.870	 -0.003	  0.002	  0.012	 25.800	 101.173	 -0.118
59427	  0.162	 -0.145	 -0.521	  0.198	 -0.266	  9.882	 -0.005	  0.004	  0.004	 25.800	 101.162	  0.824
59477	  0.162	 -0.145	 -0.520	  0.109	 -0.345	  9.886	 -0.006	  0.004	  0.004	 25.800	 101.173	 -0.118
59527	  0.162	 -0.155	 -0.528	  0.153	 -0.285	  9.888	 -0.008	  0.005	  0.008	 25.800	 101.184	 -1.062
59577	  0.162	 -0.153	 -0.526	  0.120	 -0.360	  9.874	 -0.007	  0.004	  0.000	 25.800	 101.162	  0.824
59627	  0.161	 -0.150	 -0.522	  0.148	 -0.357	  9.866	 -0.006	  0.003	  0.003	 25.800	 101.173	 -0.118
59677	  0.162	 -0.150	 -0.521	  0.109	 -0.383	  9.897	 -0.003	  0.004	 -0.002	 25.800	 101.168	  0.310
59727	  0.162	 -0.153	 -0.532	  0.091	 -0.347	  9.872	 -0.002	  0.001	  0.008	 25.800	 101.173	 -0.118
59777	  0.162	 -0.149	 -0.521	  0.138	 -0.343	  9.827	  0.000	  0.002	  0.005	 25.800	 101.184	 -1.062
59827	  0.162	 -0.151	 -0.522	  0.117	 -0.292	  9.846	  0.000	  0.002	  0.003	 25.800	 101.173	 -0.118
59877	  0.164	 -0.149	 -0.524	  0.192	 -0.302	  9.866	 -0.001	  0.002	  0.006	 25.800	 101.173	 -0.118
59927	  0.162	 -0.149	 -0.523	  0.126	 -0.263	  9.853	 -0.003	  0.003	  0.005	 25.800	 101.162	  0.824
59977	  0.161	 -0.153	 -0.522	  0.178	 -0.291	  9.846	 -0.005	  0.005	  0.005	 25.800	 101.168	  0.310
60027	  0.163	 -0.153	 -0.523	  0.124	 -0.312	  9.892	 -0.006	  0.003	  0.002	 25.800	 101.173	 -0.118
60077	  0.160	 -0.151	 -0.523	  0.144	 -0.340	  9.886	 -0.006	  0.004	  0.006	 25.800	 101.173	 -0.118
60127	  0.161	 -0.148	 -0.520	  0.117	 -0.362	  9.889	 -0.006	  0.003	  0.003	 25.800	 101.173	 -0.118
60177	  0.162	 -0.143	 -0.522	  0.127	 -0.338	  9.879	 -0.004	  0.003	  0.004	 25.800	 101.184	 -1.062
60227	  0.161	 -0.148	 -0.523	  0.137	 -0.372	  9.897	 -0.002	  0.004	  0.005	 25.800	 101.162	  0.824
60277	  0.162	 -0.150	 -0.522	  0.153	 -0.332	  9.884	 -0.002	  0.002	  0.005	 25.800	 101.162	  0.824
60327	  0.162	 -0.151	 -0.520	  0.142	 -0.334	  9.847	 -0.000	  0.004	  0.004	 25.800	 101.173	 -0.118
60377	  0.163	 -0.150	 -0.523	  0.160	 -0.289	  9.829	 -0.001	  0.002	  0.005	 25.800	 101.173	 -0.118
60427	  0.161	 -0.152	 -0.520	  0.133	 -0.314	  9.864	 -0.002	  0.003	  0.006	 25.800	 101.162	  0.824
60477	  0.162	 -0.152	 -0.521	  0.128	 -0.291	  9.845	 -0.004	  0.003	  0.005	 25.800	 101.173	 -0.118
60527	  0.162	 -0.153	 -0.523	  0.125	 -0.332	  9.891	 -0.004	  0.003	  0.004	 25.800	 101.173	 -0.118
60577	  0.162	 -0.151	 -0.522	  0.190	 -0.333	  9.867	 -0.005	  0.003	  0.005	 25.800	 101.177	 -0.462
60627	  0.162	 -0.149	 -0.520	  0.139	 -0.356	  9.900	 -0.005	  0.004	  0.006	 25.800	 101.162	  0.824
60677	  0.161	 -0.154	 -0.521	  0.139	 -0.319	  9.850	 -0.004	  0.002	  0.003	 25.800	 101.173	 -0.118
60727	  0.160	 -0.149	 -0.523	  0.123	 -0.356	  9.877	 -0.002	  0.002	  0.002	 25.800	 101.184	 -1.062
60777	  0.161	 -0.149	 -0.526	  0.119	 -0.359	  9.890	 -0.002	  0.003	  0.003	 25.800	 101.173	 -0.118
60827	  0.160	 -0.151	 -0.523	  0.149	 -0.303	  9.840	 -0.002	  0.002	  0.005	 25.800	 101.162	  0.824
60877	  0.162	 -0.154	 -0.529	  0.152	 -0.319	  9.864	 -0.001	  0.002	  0.004	 25.800	 101.162	  0.824
60927	  0.163	 -0.152	 -0.526	  0.120	 -0.277	  9.892	 -0.002	  0.001	  0.003	 25.800	 101.177	 -0.462
60977	  0.162	 -0.153	 -0.520	  0.146	 -0.307	  9.881	 -0.004	  0.001	  0.006	 25.800	 101.177	 -0.462
61027	  0.162	 -0.153	 -0.526	  0.165	 -0.301	  9.902	 -0.006	  0.001	  0.005	 25.800	 101.184	 -1.062
61077	  0.162	 -0.142	 -0.523	  0.134	 -0.325	  9.858	 -0.005	  0.002	  0.004	 25.800	 101.173	 -0.118
61127	  0.164	 -0.150	 -0.519	  0.164	 -0.348	  9.882	 -0.006	  0.003	  0.006	 25.800	 101.173	 -0.118
61177	  0.161	 -0.150	 -0.525	  0.158	 -0.359	  9.877	 -0.005	  0.003	  0.005	 25.800	 101.173	 -0.118
61227	  0.162	 -0.153	 -0.526	  0.166	 -0.363	  9.874	 -0.004	  0.003	  0.003	 25.800	 101.155	  1.426
61277	  0.160	 -0.152	 -0.526	  0.140	 -0.366	  9.912	 -0.001	  0.004	  0.001	 25.800	 101.173	 -0.118
61327	  0.163	 -0.153	 -0.523	  0.148	 -0.322	  9.872	  0.000	  0.004	  0.008	 25.800	 101.166	  0.482
61377	  0.161	 -0.151	 -0.523	  0.128	 -0.338	  9.860	 -0.001	  0.003	  0.003	 25.800	 101.177	 -0.462
61427	  0.161	 -0.147	 -0.529	  0.106	 -0.250	  9.906	  0.000	  0.003	  0.005	 25.800	 101.177	 -0.462
61477	  0.162	 -0.141	 -0.522	  0.155	 -0.318	  9.912	 -0.002	  0.002	  0.007	 25.800	 101.177	 -0.462
61527	  0.161	 -0.153	 -0.530	  0.137	 -0.260	  9.875	 -0.005	  0.003	  0.004	 25.800	 101.173	 -0.118
61577	  0.161	 -0.153	 -0.525	  0.192	 -0.358	  9.862	 -0.006	  0.003	  0.008	 25.800	 101.173	 -0.118
61627	  0.162	 -0.150	 -0.527	  0.160	 -0.299	  9.914	 -0.008	  0.005	  0.003	 25.800	 101.166	  0.482
61677	  0.161	 -0.152	 -0.530	  0.219	 -0.285	  9.996	 -0.007	  0.006	  0.010	 25.800	 101.162	  0.824
61727	  0.162	 -0.150	 -0.523	  0.303	 -0.305	  9.887	 -0.006	  0.010	  0.006	 25.800	 101.162	  0.824
61777	  0.162	 -0.152	 -0.527	  0.001	 -0.387	  9.713	 -0.008	  0.013	 -0.001	 25.800	 101.162	  0.824
61827	  0.162	 -0.148	 -0.521	  0.385	 -0.356	  9.803	 -0.009	  0.017	  0.016	 25.800	 101.162	  0.824
61877	  0.163	 -0.142	 -0.522	 -0.033	 -0.263	  9.946	 -0.010	  0.016	 -0.019	 25.800	 101.177	 -0.462
61927	  0.162	 -0.151	 -0.521	 -0.021	 -0.397	  9.893	 -0.007	  0.012	 -0.004	 25.800	 101.177	 -0.462
61977	  0.164	 -0.150	 -0.519	  0.055	 -0.367	  9.848	 -0.003	  0.005	 -0.005	 25.800	 101.166	  0.482
62027	  0.163	 -0.148	 -0.526	 -0.058	 -0.365	  9.876	 -0.000	 -0.002	 -0.000	 25.800	 101.177	 -0.462
62077	  0.165	 -0.140	 -0.522	  0.057	 -0.364	  9.888	  0.000	 -0.007	  0.008	 25.800	 101.188	 -1.406
62127	  0.164	 -0.151	 -0.519	  0.099	 -0.320	  9.867	  0.000	 -0.007	  0.020	 25.800	 101.162	  0.824
62177	  0.164	 -0.150	 -0.522	  0.106	 -0.309	  9.810	  0.001	 -0.009	  0.022	 25.800	 101.166	  0.482
62227	  0.162	 -0.149	 -0.526	  0.274	 -0.302	  9.924	 -0.001	 -0.004	  0.037	 25.800	 101.177	 -0.462
62277	  0.163	 -0.148	 -0.522	  0.248	 -0.278	  9.860	 -0.004	 -0.001	  0.001	 25.800	 101.166	  0.482
62326	  0.163	 -0.152	 -0.525	  0.230	 -0.345	  9.909	 -0.005	  0.008	 -0.002	 25.800	 101.166	  0.482
62377	  0.162	 -0.149	 -0.522	  0.175	 -0.377	  9.828	 -0.010	  0.011	  0.005	 25.800	 101.188	 -1.406
62426	  0.162	 -0.150	 -0.521	  0.207	 -0.279	  9.839	 -0.008	  0.015	 -0.002	 25.800	 101.177	 -0.462
62476	  0.163	 -0.149	 -0.525	  0.015	 -0.348	  9.875	 -0.006	  0.009	 -0.031	 25.800	 101.166	  0.482
62526	  0.162	 -0.138	 -0.520	 -0.006	 -0.361	  9.859	 -0.005	  0.009	 -0.010	 25.800	 101.166	  0.482
62576	  0.163	 -0.148	 -0.522	  0.015	 -0.396	  9.886	 -0.000	  0.003	 -0.003	 25.800	 101.177	 -0.462
62626	  0.163	 -0.142	 -0.520	  0.028	 -0.379	  9.850	 -0.002	  0.000	  0.018	 25.800	 101.155	  1.426
62676	  0.162	 -0.145	 -0.521	  0.064	 -0.324	  9.897	  0.001	 -0.005	  0.002	 25.800	 101.166	  0.482
62726	  0.162	 -0.147	 -0.520	  0.038	 -0.319	  9.927	  0.001	 -0.009	  0.015	 25.800	 101.177	 -0.462
62776	  0.161	 -0.151	 -0.527	  0.158	 -0.353	  9.842	  0.000	 -0.008	  0.029	 25.800	 101.177	 -0.462
62826	  0.162	 -0.153	 -0.528	  0.199	 -0.238	  9.851	 -0.002	 -0.004	  0.014	 25.800	 101.177	 -0.462
62876	  0.161	 -0.150	 -0.526	  0.288	 -0.320	  9.860	 -0.004	  0.001	  0.001	 25.800	 101.177	 -0.462
62926	  0.163	 -0.143	 -0.522	  0.187	 -0.305	  9.906	 -0.004	  0.007	 -0.000	 25.800	 101.166	  0.482
62976	  0.162	 -0.148	 -0.527	  0.163	 -0.366	  9.900	 -0.004	  0.009	  0.008	 25.800	 101.166	  0.482
63026	  0.162	 -0.149	 -0.522	  0.146	 -0.242	  9.795	 -0.007	  0.008	 -0.000	 25.800	 101.162	  0.824
63076	  0.160	 -0.150	 -0.522	  0.098	 -0.369	  9.879	 -0.005	  0.009	 -0.015	 25.800	 101.177	 -0.462
63126	  0.163	 -0.152	 -0.521	  0.005	 -0.334	  9.900	 -0.006	  0.006	 -0.001	 25.800	 101.166	  0.482
63176	  0.162	 -0.151	 -0.530	  0.055	 -0.363	  9.865	 -0.004	  0.002	  0.008	 25.800	 101.177	 -0.462
63226	  0.164	 -0.145	 -0.522	  0.096	 -0.326	  9.844	 -0.003	 -0.001	  0.003	 25.800	 101.177	 -0.462
63276	  0.162	 -0.153	 -0.524	  0.138	 -0.376	  9.909	 -0.003	 -0.002	  0.005	 25.800	 101.177	 -0.462
63326	  0.163	 -0.148	 -0.523	  0.072	 -0.300	  9.890	 -0.003	 -0.004	  0.005	 25.800	 101.177	 -0.462
63377	  0.162	 -0.148	 -0.523	  0.210	 -0.335	  9.911	 -0.002	 -0.002	  0.023	 25.800	 101.166	  0.482
63426	  0.162	 -0.148	 -0.522	  0.228	 -0.298	  9.884	 -0.004	  0.002	  0.006	 25.800	 101.177	 -0.462
63477	  0.162	 -0.153	 -0.523	  0.212	 -0.336	  9.875	 -0.003	  0.006	  0.004	 25.800	 101.166	  0.482
63526	  0.159	 -0.143	 -0.523	  0.152	 -0.328	  9.887	 -0.003	  0.008	 -0.002	 25.800	 101.166	  0.482
63577	  0.162	 -0.151	 -0.520	  0.184	 -0.326	  9.899	 -0.004	  0.010	  0.006	 25.800	 101.155	  1.426
63626	  0.162	 -0.148	 -0.527	  0.087	 -0.310	  9.872	 -0.005	  0.009	 -0.001	 25.800	 101.181	 -0.805
63677	  0.162	 -0.149	 -0.528	  0.082	 -0.303	  9.873	 -0.003	  0.007	 -0.003	 25.800	 101.166	  0.482
63726	  0.165	 -0.148	 -0.525	 -0.001	 -0.362	  9.878	 -0.005	  0.002	 -0.002	 25.800	 101.166	  0.482
63777	  0.164	 -0.139	 -0.523	  0.095	 -0.346	  9.855	 -0.005	 -0.001	  0.014	 25.800	 101.177	 -0.462
63827	  0.163	 -0.150	 -0.522	  0.141	 -0.343	  9.884	 -0.003	 -0.001	  0.003	 25.800	 101.177	 -0.462
63877	  0.164	 -0.147	 -0.522	  0.075	 -0.344	  9.846	 -0.003	 -0.003	  0.002	 25.800	 101.166	  0.482
63927	  0.166	 -0.152	 -0.519	  0.200	 -0.396	  9.869	 -0.002	 -0.002	  0.013	 25.800	 101.166	  0.482
63977	  0.162	 -0.148	 -0.523	  0.174	 -0.267	  9.861	 -0.003	  0.004	  0.003	 25.800	 101.166	  0.482
64027	  0.165	 -0.147	 -0.518	  0.148	 -0.365	  9.908	 -0.001	  0.006	  0.006	 25.800	 101.170	  0.139
64077	  0.165	 -0.150	 -0.528	  0.156	 -0.273	  9.921	 -0.002	  0.008	 -0.003	 25.800	 101.166	  0.482
64127	  0.164	 -0.142	 -0.523	  0.094	 -0.370	  9.884	 -0.004	  0.009	  0.012	 25.800	 101.181	 -0.805
64177	  0.163	 -0.152	 -0.526	  0.131	 -0.253	  9.857	 -0.006	  0.008	 -0.005	 25.800	 101.166	  0.482
64227	  0.162	 -0.149	 -0.525	  0.064	 -0.410	  9.880	 -0.004	  0.005	  0.006	 25.800	 101.177	 -0.462
64277	  0.162	 -0.148	 -0.524	  0.062	 -0.309	  9.859	 -0.004	  0.003	  0.008	 25.800	 101.155	  1.426
64327	  0.165	 -0.153	 -0.530	  0.058	 -0.372	  9.914	 -0.001	  0.000	  0.010	 25.800	 101.166	  0.482
64377	  0.162	 -0.145	 -0.522	  0.173	 -0.324	  9.822	 -0.002	 -0.001	  0.003	 25.800	 101.166	  0.482
64427	  0.163	 -0.149	 -0.526	  0.108	 -0.388	  9.888	 -0.001	 -0.003	  0.003	 25.800	 101.177	 -0.462
64477	  0.163	 -0.148	 -0.521	  0.183	 -0.324	  9.866	 -0.001	 -0.002	  0.011	 25.800	 101.177	 -0.462
64527	  0.162	 -0.149	 -0.524	  0.173	 -0.355	  9.883	 -0.002	  0.002	  0.003	 25.800	 101.181	 -0.805
64577	  0.163	 -0.153	 -0.522	  0.144	 -0.241	  9.898	 -0.003	  0.002	  0.002	 25.800	 101.166	  0.482
64627	  0.163	 -0.149	 -0.520	  0.206	 -0.382	  9.931	 -0.004	  0.004	  0.005	 25.800	 101.181	 -0.805
64677	  0.161	 -0.148	 -0.523	  0.086	 -0.295	  9.842	 -0.004	  0.006	  0.006	 25.800	 101.181	 -0.805
64727	  0.164	 -0.145	 -0.523	  0.169	 -0.349	  9.845	 -0.005	  0.005	  0.004	 25.800	 101.181	 -0.805
64777	  0.163	 -0.143	 -0.523	  0.087	 -0.344	  9.872	 -0.004	  0.005	 -0.004	 25.800	 101.166	  0.482
64827	  0.164	 -0.150	 -0.530	  0.074	 -0.374	  9.894	 -0.004	  0.001	  0.008	 25.800	 101.170	  0.139
64877	  0.162	 -0.150	 -0.524	  0.105	 -0.337	  9.881	 -0.002	  0.001	 -0.000	 25.800	 101.170	  0.139
64927	  0.162	 -0.151	 -0.530	  0.139	 -0.385	  9.886	 -0.001	  0.001	  0.009	 25.800	 101.181	 -0.805
64977	  0.164	 -0.152	 -0.528	  0.101	 -0.297	  9.878	 -0.001	 -0.001	  0.005	 25.800	 101.181	 -0.805
65027	  0.164	 -0.147	 -0.520	  0.145	 -0.328	  9.917	 -0.001	 -0.002	  0.009	 25.800	 101.181	 -0.805
65077	  0.162	 -0.142	 -0.523	  0.190	 -0.293	  9.857	 -0.003	  0.001	  0.012	 25.800	 101.170	  0.139
65127	  0.162	 -0.148	 -0.524	  0.182	 -0.308	  9.869	 -0.003	  0.003	  0.003	 25.800	 101.170	  0.139
65177	  0.163	 -0.142	 -0.523	  0.155	 -0.345	  9.838	 -0.005	  0.003	  0.001	 25.800	 101.177	 -0.462
65227	  0.164	 -0.153	 -0.522	  0.145	 -0.308	  9.873	 -0.005	  0.006	  0.007	 25.800	 101.170	  0.139
65277	  0.162	 -0.150	 -0.526	  0.146	 -0.317	  9.882	 -0.005	  0.006	  0.008	 25.800	 101.177	 -0.462
65327	  0.162	 -0.149	 -0.520	  0.112	 -0.334	  9.871	 -0.005	  0.005	 -0.000	 25.800	 101.170	  0.139
65377	  0.162	 -0.151	 -0.524	  0.112	 -0.379	  9.851	 -0.004	  0.004	  0.001	 25.800	 101.170	  0.139
65427	  0.163	 -0.144	 -0.522	  0.103	 -0.359	  9.849	 -0.003	  0.003	  0.009	 25.800	 101.170	  0.139
65477	  0.164	 -0.150	 -0.523	  0.106	 -0.351	  9.886	 -0.003	  0.002	  0.006	 25.800	 101.181	 -0.805
65527	  0.163	 -0.151	 -0.522	  0.124	 -0.309	  9.875	 -0.003	  0.000	  0.002	 25.800	 101.166	  0.482
65577	  0.162	 -0.155	 -0.526	  0.132	 -0.338	  9.898	 -0.002	  0.000	  0.009	 25.800	 101.181	 -0.805
65627	  0.163	 -0.149	 -0.530	  0.204	 -0.319	  9.872	 -0.002	  0.001	  0.004	 25.800	 101.170	  0.139
65677	  0.162	 -0.149	 -0.527	  0.082	 -0.298	  9.825	 -0.001	  0.002	  0.005	 25.800	 101.170	  0.139
65727	  0.162	 -0.146	 -0.530	  0.205	 -0.334	  9.845	 -0.004	  0.003	  0.002	 25.800	 101.170	  0.139
65777	  0.163	 -0.143	 -0.521	  0.098	 -0.315	  9.879	 -0.005	  0.004	  0.007	 25.800	 101.181	 -0.805
65827	  0.163	 -0.149	 -0.532	  0.176	 -0.353	  9.884	 -0.004	  0.005	  0.006	 25.800	 101.166	  0.482
65877	  0.163	 -0.155	 -0.522	  0.118	 -0.323	  9.875	 -0.004	  0.005	 -0.000	 25.800	 101.170	  0.139
65927	  0.162	 -0.150	 -0.525	  0.093	 -0.398	  9.886	 -0.003	  0.004	  0.011	 25.800	 101.170	  0.139
65977	  0.161	 -0.147	 -0.524	  0.126	 -0.315	  9.854	 -0.004	  0.002	  0.002	 25.800	 101.170	  0.139
66027	  0.162	 -0.147	 -0.523	  0.112	 -0.336	  9.824	 -0.001	  0.000	  0.004	 25.800	 101.175	 -0.291
66077	  0.164	 -0.146	 -0.522	  0.128	 -0.344	  9.886	 -0.002	  0.000	  0.001	 25.800	 101.170	  0.139
66127	  0.164	 -0.149	 -0.524	  0.127	 -0.260	  9.860	 -0.001	  0.000	  0.011	 25.800	 101.170	  0.139
66177	  0.162	 -0.147	 -0.524	  0.123	 -0.334	  9.900	 -0.004	  0.001	  0.005	 25.800	 101.170	  0.139
66227	  0.162	 -0.151	 -0.526	  0.193	 -0.255	  9.858	 -0.003	  0.003	  0.001	 25.800	 101.170	  0.139
66277	  0.162	 -0.148	 -0.523	  0.097	 -0.422	  9.901	 -0.005	  0.002	  0.005	 25.800	 101.170	  0.139
66327	  0.162	 -0.150	 -0.524	  0.179	 -0.276	  9.878	 -0.005	  0.003	  0.010	 25.800	 101.170	  0.139
66377	  0.162	 -0.147	 -0.526	  0.111	 -0.353	  9.899	 -0.004	  0.005	  0.002	 25.800	 101.170	  0.139
66427	  0.162	 -0.153	 -0.524	  0.145	 -0.304	  9.873	 -0.004	  0.006	  0.006	 25.800	 101.170	  0.139
66477	  0.164	 -0.150	 -0.523	  0.148	 -0.398	  9.850	 -0.005	  0.005	  0.000	 25.800	 101.170	  0.139
66527	  0.163	 -0.149	 -0.522	  0.042	 -0.304	  9.878	 -0.004	  0.002	  0.010	 25.800	 101.163	  0.739
66577	  0.163	 -0.145	 -0.521	  0.177	 -0.380	  9.854	 -0.003	  0.003	  0.006	 25.800	 101.170	  0.139
66627	  0.162	 -0.146	 -0.520	  0.064	 -0.308	  9.815	 -0.002	  0.002	  0.002	 25.800	 101.170	  0.139
66677	  0.163	 -0.150	 -0.531	  0.176	 -0.321	  9.871	 -0.000	  0.001	  0.003	 25.800	 101.175	 -0.291
66727	  0.162	 -0.150	 -0.522	  0.050	 -0.349	  9.883	 -0.003	  0.003	 -0.001	 25.800	 101.170	  0.139
66777	  0.163	 -0.153	 -0.530	  0.187	 -0.295	  9.869	 -0.005	  0.004	  0.011	 25.800	 101.159	  1.083
66827	  0.163	 -0.150	 -0.524	  0.091	 -0.308	  9.905	 -0.004	  0.002	  0.002	 25.800	 101.175	 -0.291
66877	  0.162	 -0.149	 -0.526	  0.170	 -0.305	  9.915	 -0.005	  0.004	  0.010	 25.800	 101.170	  0.139
66927	  0.162	 -0.150	 -0.523	  0.125	 -0.375	  9.857	 -0.005	  0.004	  0.005	 25.800	 101.175	 -0.291
66977	  0.162	 -0.150	 -0.522	  0.134	 -0.304	  9.839	 -0.004	  0.006	  0.006	 25.800	 101.175	 -0.291
67027	  0.162	 -0.141	 -0.524	  0.064	 -0.409	  9.853	 -0.004	  0.003	  0.001	 25.800	 101.163	  0.739
67077	  0.164	 -0.153	 -0.529	  0.132	 -0.297	  9.899	 -0.001	  0.002	  0.006	 25.800	 101.159	  1.083
67127	  0.163	 -0.154	 -0.526	  0.126	 -0.358	  9.909	 -0.001	  0.002	  0.006	 25.800	 101.170	  0.139
67177	  0.163	 -0.153	 -0.522	  0.167	 -0.308	  9.877	 -0.004	  0.001	 -0.003	 25.800	 101.159	  1.083
67227	  0.162	 -0.149	 -0.523	  0.087	 -0.352	  9.853	 -0.003	  0.001	  0.008	 25.800	 101.181	 -0.805
67277	  0.164	 -0.138	 -0.521	  0.182	 -0.325	  9.884	 -0.003	  0.002	  0.004	 25.800	 101.170	  0.139
67327	  0.163	 -0.152	 -0.524	  0.120	 -0.322	  9.841	 -0.002	  0.004	  0.006	 25.800	 101.170	  0.139
67377	  0.162	 -0.148	 -0.523	  0.139	 -0.339	  9.893	 -0.005	  0.004	  0.004	 25.800	 101.170	  0.139
67427	  0.162	 -0.148	 -0.525	  0.165	 -0.336	  9.837	 -0.004	  0.006	  0.006	 25.800	 101.186	 -1.233
67477	  0.164	 -0.146	 -0.521	  0.089	 -0.420	  9.894	 -0.004	  0.003	  0.006	 25.800	 101.159	  1.083
67527	  0.163	 -0.144	 -0.523	  0.178	 -0.189	  9.888	  0.000	  0.005	  0.002	 25.800	 101.181	 -0.805
67577	  0.164	 -0.147	 -0.522	  0.039	 -0.497	  9.919	 -0.004	  0.002	  0.002	 25.800	 101.159	  1.083
67627	  0.163	 -0.147	 -0.520	  0.177	 -0.153	  9.873	 -0.003	  0.003	  0.010	 25.800	 101.175	 -0.291
67677	  0.162	 -0.146	 -0.526	  0.010	 -0.435	  9.872	 -0.003	  0.002	 -0.000	 25.800	 101.175	 -0.291
67727	  0.162	 -0.152	 -0.527	  0.293	 -0.211	  9.954	 -0.004	  0.002	  0.008	 25.800	 101.170	  0.139
67777	  0.164	 -0.152	 -0.524	 -0.075	 -0.371	 10.028	 -0.006	  0.002	 -0.006	 25.800	 101.163	  0.739
67827	  0.162	 -0.152	 -0.522	  0.241	 -0.190	  9.940	 -0.003	  0.001	  0.017	 25.800	 101.175	 -0.291
67877	  0.162	 -0.142	 -0.520	  0.068	 -0.481	  9.896	 -0.006	  0.004	 -0.001	 25.800	 101.170	  0.139
67927	  0.163	 -0.147	 -0.520	  0.206	 -0.247	  9.756	 -0.003	  0.003	  0.008	 25.800	 101.163	  0.739
67977	  0.162	 -0.150	 -0.523	  0.145	 -0.505	  9.830	 -0.003	  0.002	 -0.004	 25.800	 101.163	  0.739
68026	  0.163	 -0.150	 -0.523	  0.105	 -0.272	  9.824	 -0.004	  0.004	  0.013	 25.800	 101.170	  0.139
68076	  0.162	 -0.149	 -0.523	  0.116	 -0.395	  9.993	 -0.002	  0.004	  0.003	 25.800	 101.175	 -0.291
68126	  0.164	 -0.153	 -0.521	  0.071	 -0.180	  9.938	 -0.001	  0.003	  0.000	 25.800	 101.163	  0.739
68176	  0.162	 -0.151	 -0.525	  0.191	 -0.452	  9.910	 -0.002	  0.002	  0.010	 25.800	 101.175	 -0.291
68226	  0.162	 -0.149	 -0.524	  0.068	 -0.187	  9.849	 -0.004	  0.003	  0.000	 25.800	 101.175	 -0.291
68276	  0.161	 -0.149	 -0.521	  0.166	 -0.407	  9.908	 -0.003	  0.003	  0.010	 25.800	 101.175	 -0.291
68326	  0.163	 -0.146	 -0.525	 -0.026	 -0.111	  9.990	 -0.005	  0.000	 -0.017	 25.800	 101.175	 -0.291
68376	  0.164	 -0.153	 -0.523	  0.283	 -0.422	  9.929	 -0.004	  0.004	  0.027	 25.800	 101.175	 -0.291
68426	  0.163	 -0.152	 -0.527	  0.085	 -0.392	  9.844	 -0.007	  0.001	 -0.004	 25.800	 101.170	  0.139
68476	  0.163	 -0.153	 -0.523	  0.177	 -0.192	  9.839	 -0.001	  0.004	  0.008	 25.800	 101.175	 -0.291
68526	  0.166	 -0.150	 -0.522	  0.124	 -0.597	  9.912	 -0.003	  0.003	 -0.005	 25.800	 101.175	 -0.291
68576	  0.163	 -0.149	 -0.523	  0.063	  0.071	  9.814	  0.000	  0.004	 -0.000	 25.800	 101.163	  0.739
68626	  0.162	 -0.149	 -0.523	  0.292	 -0.782	  9.834	 -0.003	  0.004	  0.015	 25.800	 101.186	 -1.233
68676	  0.164	 -0.151	 -0.521	  0.073	 -0.024	  9.726	 -0.004	  0.003	 -0.002	 25.800	 101.175	 -0.291
68726	  0.162	 -0.151	 -0.524	  0.155	 -0.608	 10.001	 -0.003	  0.003	  0.016	 25.800	 101.175	 -0.291
68776	  0.164	 -0.151	 -0.527	  0.090	 -0.041	  9.818	 -0.006	  0.004	 -0.009	 25.800	 101.175	 -0.291
68826	  0.163	 -0.142	 -0.525	  0.066	 -0.571	  9.988	 -0.004	  0.001	  0.019	 25.800	 101.170	  0.139
68876	  0.162	 -0.152	 -0.525	 -0.089	  0.024	  9.917	 -0.005	  0.003	 -0.019	 25.800	 101.175	 -0.291
68926	  0.163	 -0.152	 -0.531	  0.247	 -0.667	  9.863	 -0.002	  0.006	  0.025	 25.800	 101.163	  0.739
68976	  0.162	 -0.146	 -0.524	  0.051	 -0.148	  9.691	 -0.006	  0.004	 -0.010	 25.800	 101.170	  0.139
69026	  0.162	 -0.149	 -0.524	  0.183	 -0.474	  9.836	  0.000	  0.005	  0.018	 25.800	 101.163	  0.739
69076	  0.162	 -0.151	 -0.523	  0.089	 -0.358	  9.872	 -0.004	  0.002	 -0.009	 25.800	 101.170	  0.139
69126	  0.162	 -0.146	 -0.521	  0.111	 -0.274	  9.900	 -0.002	  0.003	  0.021	 25.800	 101.163	  0.739
69176	  0.162	 -0.153	 -0.526	  0.137	 -0.416	  9.868	 -0.004	  0.001	 -0.016	 25.800	 101.175	 -0.291
69227	  0.162	 -0.154	 -0.524	  0.114	 -0.139	  9.860	 -0.003	  0.001	  0.014	 25.800	 101.175	 -0.291
69276	  0.162	 -0.151	 -0.527	  0.213	 -0.539	  9.907	 -0.007	  0.002	  0.010	 25.800	 101.175	 -0.291
69327	  0.164	 -0.148	 -0.520	  0.031	 -0.132	  9.809	 -0.006	  0.002	  0.004	 25.800	 101.186	 -1.233
69376	  0.162	 -0.149	 -0.525	  0.136	 -0.475	  9.720	 -0.003	  0.002	 -0.007	 25.800	 101.163	  0.739
69427	  0.162	 -0.147	 -0.525	  0.045	 -0.179	  9.823	 -0.003	  0.003	 -0.005	 25.800	 101.179	 -0.633
69476	  0.162	 -0.148	 -0.531	  0.207	 -0.471	  9.947	 -0.003	  0.003	  0.023	 25.800	 101.163	  0.739
69527	  0.165	 -0.148	 -0.522	  0.125	 -0.221	  9.910	 -0.003	  0.004	 -0.008	 25.800	 101.175	 -0.291
69577	  0.162	 -0.151	 -0.527	  0.116	 -0.421	  9.911	 -0.001	  0.004	  0.007	 25.800	 101.159	  1.083
69626	  0.163	 -0.148	 -0.522	  0.203	 -0.292	  9.888	 -0.003	  0.004	 -0.001	 25.800	 101.175	 -0.291
