Time	 MagX	 MagY	 MagZ	 AccelX	 AccelY	 AccelZ	 Yaw	 Pitch	 Roll	 Temperature	 Pressure	 Altitude
14323	  0.167	  0.100	  0.212	  0.072	  0.260	 -9.832	 -0.003	  0.001	 -0.000	 26.700	 99.556	 -99999.000
14373	  0.168	  0.103	  0.217	  0.044	  0.265	 -9.835	 -0.004	  0.002	  0.000	 26.700	 99.556	 -99999.000
14423	  0.168	  0.101	  0.213	  0.095	  0.241	 -9.864	 -0.003	  0.001	  0.001	 26.700	 99.556	 -99999.000
14473	  0.168	  0.098	  0.214	  0.025	  0.246	 -9.814	 -0.004	  0.001	  0.001	 26.700	 99.556	 -99999.000
14523	  0.169	  0.096	  0.214	  0.076	  0.275	 -9.822	 -0.001	  0.003	  0.001	 26.700	 99.556	 -99999.000
14573	  0.168	  0.096	  0.214	  0.043	  0.223	 -9.807	 -0.004	  0.001	 -0.001	 26.700	 99.556	 -99999.000
14623	  0.168	  0.102	  0.216	  0.062	  0.288	 -9.870	 -0.002	  0.002	 -0.001	 26.700	 99.556	 -99999.000
14673	  0.166	  0.104	  0.214	  0.064	  0.270	 -9.861	 -0.002	  0.001	  0.001	 26.700	 99.545	 -99999.000
14723	  0.172	  0.100	  0.215	  0.057	  0.279	 -9.828	 -0.003	 -0.000	  0.000	 26.700	 99.549	 -99999.000
14773	  0.168	  0.101	  0.209	  0.022	  0.271	 -9.806	 -0.004	  0.000	 -0.000	 26.700	 99.560	 -99999.000
14823	  0.166	  0.097	  0.215	  0.033	  0.278	 -9.813	 -0.002	  0.002	  0.001	 26.700	 99.556	 -99999.000
14873	  0.169	  0.103	  0.215	  0.064	  0.254	 -9.858	 -0.005	  0.000	 -0.000	 26.700	 99.556	 -99999.000
14923	  0.172	  0.100	  0.215	  0.064	  0.285	 -9.838	  0.001	  0.003	  0.001	 26.700	 99.545	 -99999.000
14973	  0.170	  0.101	  0.214	  0.043	  0.248	 -9.854	 -0.006	 -0.001	  0.000	 26.700	 99.549	 -99999.000
15023	  0.172	  0.100	  0.215	  0.065	  0.287	 -9.826	 -0.001	  0.001	  0.002	 26.700	 99.556	 -99999.000
15073	  0.171	  0.101	  0.219	  0.053	  0.226	 -9.831	 -0.005	 -0.000	  0.000	 26.700	 99.549	 -99999.000
15123	  0.171	  0.100	  0.214	  0.058	  0.289	 -9.845	 -0.003	  0.003	  0.001	 26.700	 99.549	 -99999.000
15173	  0.173	  0.108	  0.212	  0.093	  0.224	 -9.869	 -0.003	  0.001	  0.000	 26.700	 99.560	 -99999.000
15223	  0.171	  0.101	  0.213	  0.068	  0.286	 -9.870	 -0.004	 -0.000	  0.001	 26.700	 99.560	 -99999.000
15273	  0.174	  0.102	  0.205	  0.054	  0.250	 -9.825	 -0.002	  0.000	  0.001	 26.700	 99.560	 -99999.000
15323	  0.173	  0.097	  0.213	  0.072	  0.249	 -9.818	 -0.003	  0.003	  0.000	 26.700	 99.572	 -99999.000
15373	  0.174	  0.101	  0.216	  0.053	  0.306	 -9.843	 -0.005	 -0.000	  0.001	 26.700	 99.545	 -99999.000
15423	  0.172	  0.099	  0.215	  0.057	  0.258	 -9.897	 -0.002	  0.003	  0.001	 26.700	 99.560	 -99999.000
15473	  0.172	  0.096	  0.215	  0.066	  0.277	 -9.829	 -0.003	  0.001	 -0.000	 26.700	 99.549	 -99999.000
15523	  0.172	  0.101	  0.212	  0.043	  0.274	 -9.853	 -0.003	  0.001	  0.002	 26.700	 99.553	 -99999.000
15573	  0.176	  0.102	  0.214	  0.069	  0.263	 -9.826	 -0.002	  0.000	  0.002	 26.700	 99.553	 -99999.000
15623	  0.172	  0.098	  0.218	  0.035	  0.246	 -9.833	 -0.002	  0.000	  0.001	 26.700	 99.549	 -99999.000
15673	  0.174	  0.103	  0.212	  0.062	  0.281	 -9.818	 -0.004	  0.002	  0.001	 26.700	 99.549	 -99999.000
15723	  0.174	  0.105	  0.212	  0.050	  0.253	 -9.861	 -0.003	  0.002	 -0.000	 26.700	 99.560	 -99999.000
15773	  0.171	  0.096	  0.215	  0.046	  0.252	 -9.853	 -0.005	 -0.002	  0.000	 26.700	 99.549	 -99999.000
15823	  0.168	  0.100	  0.214	  0.100	  0.226	 -9.839	 -0.002	  0.002	 -0.000	 26.700	 99.560	 -99999.000
15873	  0.172	  0.102	  0.211	  0.021	  0.283	 -9.810	 -0.006	 -0.000	  0.000	 26.700	 99.549	 -99999.000
15923	  0.173	  0.100	  0.215	  0.070	  0.194	 -9.875	 -0.001	  0.003	  0.000	 26.700	 99.549	 -99999.000
15973	  0.170	  0.102	  0.211	  0.052	  0.307	 -9.838	 -0.006	 -0.001	  0.000	 26.700	 99.549	 -99999.000
16022	  0.169	  0.100	  0.216	  0.077	  0.258	 -9.853	  0.003	  0.004	 -0.000	 26.700	 99.538	 -99999.000
16072	  0.171	  0.105	  0.214	  0.059	  0.275	 -9.851	 -0.011	 -0.003	 -0.000	 26.700	 99.565	 -99999.000
16122	  0.170	  0.102	  0.217	  0.038	  0.290	 -9.847	  0.006	  0.003	  0.001	 26.700	 99.549	 -99999.000
16172	  0.171	  0.104	  0.215	  0.077	  0.213	 -9.843	 -0.010	 -0.001	  0.003	 26.700	 99.553	 -99999.000
16222	  0.172	  0.104	  0.213	  0.022	  0.362	 -9.831	 -0.001	  0.002	 -0.002	 26.700	 99.565	 -99999.000
16272	  0.169	  0.104	  0.219	  0.069	  0.153	 -9.847	 -0.001	  0.000	  0.002	 26.700	 99.553	 -99999.000
16322	  0.171	  0.101	  0.215	  0.028	  0.364	 -9.857	 -0.007	 -0.001	  0.002	 26.700	 99.553	 -99999.000
16372	  0.174	  0.104	  0.210	  0.105	  0.201	 -9.847	  0.002	  0.004	 -0.001	 26.700	 99.565	 -99999.000
16422	  0.172	  0.102	  0.211	  0.052	  0.260	 -9.800	 -0.010	 -0.004	 -0.001	 26.700	 99.553	 -99999.000
16472	  0.170	  0.103	  0.213	 -0.001	  0.278	 -9.883	  0.001	  0.005	  0.001	 26.700	 99.553	 -99999.000
16522	  0.169	  0.105	  0.212	  0.060	  0.249	 -9.896	 -0.007	 -0.001	  0.001	 26.700	 99.553	 -99999.000
16572	  0.169	  0.106	  0.218	  0.083	  0.278	 -9.841	  0.001	  0.002	  0.001	 26.700	 99.553	 -99999.000
16622	  0.172	  0.104	  0.207	  0.065	  0.260	 -9.845	 -0.008	 -0.002	 -0.001	 26.700	 99.553	 -99999.000
16672	  0.172	  0.109	  0.215	  0.031	  0.257	 -9.825	 -0.001	  0.002	  0.001	 26.700	 99.553	 -99999.000
16722	  0.171	  0.107	  0.212	  0.062	  0.242	 -9.827	 -0.005	 -0.001	 -0.001	 26.700	 99.553	 -99999.000
16772	  0.170	  0.108	  0.212	  0.049	  0.302	 -9.824	 -0.001	  0.002	 -0.001	 26.700	 99.558	 -99999.000
16822	  0.170	  0.110	  0.215	  0.075	  0.229	 -9.882	 -0.003	  0.001	 -0.001	 26.700	 99.553	 -99999.000
16872	  0.170	  0.107	  0.215	  0.065	  0.286	 -9.836	 -0.003	  0.001	  0.001	 26.800	 99.569	 -99999.000
16922	  0.169	  0.105	  0.211	  0.055	  0.251	 -9.858	 -0.003	  0.001	 -0.001	 26.700	 99.553	 -99999.000
16972	  0.168	  0.104	  0.209	  0.056	  0.236	 -9.824	 -0.003	  0.001	  0.002	 26.800	 99.553	 -99999.000
17022	  0.170	  0.106	  0.213	  0.048	  0.271	 -9.829	 -0.002	  0.003	  0.001	 26.800	 99.558	 -99999.000
17072	  0.172	  0.103	  0.203	  0.056	  0.272	 -9.828	 -0.005	  0.002	 -0.001	 26.800	 99.553	 -99999.000
17122	  0.169	  0.107	  0.212	  0.055	  0.280	 -9.851	 -0.003	  0.000	  0.001	 26.800	 99.546	 -99999.000
17172	  0.171	  0.109	  0.215	  0.079	  0.274	 -9.844	 -0.001	  0.001	 -0.000	 26.800	 99.546	 -99999.000
17222	  0.171	  0.108	  0.214	  0.056	  0.266	 -9.830	 -0.006	 -0.001	  0.000	 26.800	 99.558	 -99999.000
17272	  0.170	  0.105	  0.210	  0.053	  0.248	 -9.857	  0.001	  0.002	  0.000	 26.800	 99.546	 -99999.000
18323	  0.171	  0.105	  0.210	  0.096	  0.190	 -9.872	 -0.005	 -0.001	  0.001	 26.800	 99.558	 -99999.000
18373	  0.172	  0.103	  0.211	  0.026	  0.345	 -9.814	 -0.003	  0.001	 -0.002	 26.800	 99.540	 -99999.000
18423	  0.170	  0.104	  0.212	  0.082	  0.177	 -9.817	 -0.003	  0.001	  0.004	 26.800	 99.562	 -99999.000
18473	  0.169	  0.107	  0.207	  0.036	  0.346	 -9.813	 -0.007	 -0.000	 -0.004	 26.800	 99.551	 -99999.000
18523	  0.173	  0.104	  0.213	  0.060	  0.215	 -9.879	  0.001	  0.003	 -0.001	 26.800	 99.551	 -99999.000
18573	  0.171	  0.102	  0.210	  0.051	  0.299	 -9.861	 -0.007	 -0.002	 -0.001	 26.800	 99.535	 -99999.000
18623	  0.171	  0.106	  0.212	  0.046	  0.272	 -9.817	  0.001	  0.002	  0.001	 26.800	 99.558	 -99999.000
18673	  0.170	  0.106	  0.208	  0.048	  0.282	 -9.849	 -0.006	 -0.002	 -0.000	 26.800	 99.546	 -99999.000
18723	  0.171	  0.101	  0.213	  0.068	  0.288	 -9.878	  0.000	  0.001	  0.002	 26.800	 99.562	 -99999.000
18773	  0.171	  0.101	  0.211	  0.087	  0.272	 -9.837	 -0.004	  0.001	  0.003	 26.800	 99.562	 -99999.000
18823	  0.172	  0.103	  0.207	  0.083	  0.257	 -9.834	 -0.003	 -0.000	  0.001	 26.800	 99.551	 -99999.000
18873	  0.169	  0.104	  0.214	  0.063	  0.289	 -9.850	 -0.001	  0.003	  0.002	 26.800	 99.551	 -99999.000
18923	  0.171	  0.105	  0.211	  0.071	  0.238	 -9.845	 -0.004	 -0.000	 -0.001	 26.800	 99.562	 -99999.000
18973	  0.169	  0.103	  0.212	  0.025	  0.295	 -9.833	 -0.004	  0.000	 -0.001	 26.800	 99.551	 -99999.000
19023	  0.169	  0.107	  0.209	  0.083	  0.236	 -9.870	 -0.002	  0.003	  0.003	 26.800	 99.551	 -99999.000
19073	  0.172	  0.102	  0.214	  0.023	  0.299	 -9.845	 -0.006	 -0.002	 -0.001	 26.800	 99.551	 -99999.000
19123	  0.169	  0.099	  0.212	  0.079	  0.270	 -9.853	  0.000	  0.002	  0.003	 26.800	 99.551	 -99999.000
19173	  0.172	  0.101	  0.213	  0.054	  0.248	 -9.840	 -0.006	 -0.001	  0.001	 26.800	 99.566	 -99999.000
19223	  0.171	  0.110	  0.210	  0.052	  0.301	 -9.813	 -0.002	  0.002	  0.001	 26.800	 99.566	 -99999.000
19273	  0.169	  0.107	  0.213	  0.055	  0.266	 -9.844	 -0.003	 -0.000	  0.002	 26.800	 99.562	 -99999.000
19323	  0.172	  0.109	  0.211	  0.069	  0.268	 -9.856	 -0.004	  0.001	 -0.002	 26.800	 99.562	 -99999.000
19373	  0.171	  0.103	  0.211	  0.040	  0.292	 -9.866	 -0.002	  0.003	 -0.001	 26.800	 99.566	 -99999.000
19423	  0.170	  0.104	  0.210	  0.093	  0.267	 -9.844	 -0.004	  0.003	 -0.002	 26.800	 99.555	 -99999.000
19473	  0.169	  0.107	  0.205	  0.054	  0.279	 -9.804	 -0.002	 -0.000	  0.002	 26.800	 99.540	 -99999.000
19523	  0.171	  0.103	  0.214	  0.061	  0.228	 -9.789	 -0.003	  0.001	  0.003	 26.800	 99.562	 -99999.000
19573	  0.172	  0.103	  0.205	  0.050	  0.297	 -9.819	 -0.004	  0.002	  0.003	 26.800	 99.551	 -99999.000
19623	  0.171	  0.104	  0.211	  0.055	  0.262	 -9.855	 -0.002	  0.001	  0.001	 26.800	 99.555	 -99999.000
19673	  0.171	  0.107	  0.204	  0.059	  0.275	 -9.894	 -0.004	 -0.000	  0.000	 26.800	 99.555	 -99999.000
19723	  0.169	  0.104	  0.214	  0.051	  0.274	 -9.835	  0.000	  0.004	  0.001	 26.800	 99.555	 -99999.000
19773	  0.172	  0.107	  0.207	  0.053	  0.223	 -9.851	 -0.007	 -0.001	  0.001	 26.800	 99.551	 -99999.000
19823	  0.171	  0.106	  0.214	  0.069	  0.290	 -9.826	 -0.000	  0.004	  0.002	 26.800	 99.566	 -99999.000
19873	  0.171	  0.104	  0.211	  0.071	  0.257	 -9.843	 -0.005	  0.000	 -0.000	 26.800	 99.544	 -99999.000
19923	  0.170	  0.102	  0.212	  0.050	  0.280	 -9.865	 -0.001	  0.003	 -0.000	 26.800	 99.555	 -99999.000
19973	  0.170	  0.105	  0.211	  0.071	  0.239	 -9.870	 -0.004	 -0.000	  0.001	 26.800	 99.555	 -99999.000
20023	  0.170	  0.101	  0.212	  0.057	  0.277	 -9.829	 -0.004	  0.002	  0.001	 26.800	 99.555	 -99999.000
20073	  0.170	  0.107	  0.211	  0.079	  0.223	 -9.817	 -0.003	  0.000	 -0.000	 26.800	 99.559	 -99999.000
20123	  0.172	  0.102	  0.212	  0.067	  0.280	 -9.844	 -0.003	  0.002	  0.001	 26.800	 99.555	 -99999.000
20173	  0.170	  0.105	  0.210	  0.071	  0.235	 -9.873	 -0.003	  0.001	  0.001	 26.800	 99.566	 -99999.000
20223	  0.171	  0.104	  0.211	  0.053	  0.271	 -9.826	 -0.003	  0.001	  0.003	 26.800	 99.559	 -99999.000
20273	  0.172	  0.102	  0.212	  0.062	  0.231	 -9.844	 -0.003	  0.001	  0.003	 26.800	 99.555	 -99999.000
20323	  0.169	  0.102	  0.206	  0.072	  0.289	 -9.670	 -0.001	  0.004	 -0.002	 26.800	 99.555	 -99999.000
20373	  0.170	  0.102	  0.213	  0.056	  0.269	 -9.837	 -0.001	  0.002	  0.002	 26.800	 99.555	 -99999.000
20423	  0.169	  0.103	  0.208	  0.039	  0.252	 -9.819	 -0.006	 -0.001	  0.001	 26.800	 99.566	 -99999.000
20473	  0.168	  0.103	  0.216	  0.045	  0.296	 -9.873	  0.003	  0.004	  0.002	 26.800	 99.559	 -99999.000
20523	  0.170	  0.110	  0.212	  0.073	  0.212	 -9.821	 -0.006	 -0.003	  0.001	 26.800	 99.555	 -99999.000
20572	  0.172	  0.103	  0.212	  0.017	  0.286	 -9.835	 -0.001	  0.001	 -0.001	 26.800	 99.559	 -99999.000
20622	  0.172	  0.108	  0.212	  0.082	  0.222	 -9.846	 -0.002	  0.001	  0.000	 26.800	 99.544	 -99999.000
20672	  0.171	  0.102	  0.214	  0.015	  0.288	 -9.835	 -0.003	  0.001	  0.001	 26.800	 99.559	 -99999.000
20722	  0.168	  0.109	  0.208	  0.046	  0.240	 -9.840	 -0.001	  0.001	  0.002	 26.800	 99.559	 -99999.000
20772	  0.172	  0.102	  0.216	  0.047	  0.285	 -9.867	 -0.005	  0.001	  0.001	 26.800	 99.559	 -99999.000
20822	  0.172	  0.104	  0.211	  0.075	  0.235	 -9.866	 -0.001	  0.002	 -0.004	 26.800	 99.559	 -99999.000
20872	  0.170	  0.112	  0.213	  0.022	  0.284	 -9.850	 -0.005	 -0.001	 -0.001	 26.800	 99.559	 -99999.000
20922	  0.171	  0.104	  0.212	  0.073	  0.269	 -9.860	  0.001	  0.003	 -0.002	 26.800	 99.570	 -99999.000
20972	  0.170	  0.105	  0.207	  0.038	  0.267	 -9.880	 -0.006	 -0.001	  0.001	 26.800	 99.559	 -99999.000
21022	  0.167	  0.102	  0.213	  0.080	  0.263	 -9.859	 -0.000	  0.002	  0.003	 26.800	 99.559	 -99999.000
21072	  0.171	  0.104	  0.211	  0.028	  0.268	 -9.865	 -0.008	 -0.001	  0.000	 26.800	 99.548	 -99999.000
21123	  0.166	  0.105	  0.212	  0.088	  0.257	 -9.808	  0.003	  0.002	  0.003	 26.800	 99.570	 -99999.000
21173	  0.169	  0.099	  0.211	  0.043	  0.263	 -9.831	 -0.009	 -0.002	  0.001	 26.800	 99.548	 -99999.000
21223	  0.170	  0.104	  0.214	  0.064	  0.282	 -9.815	  0.001	  0.003	  0.001	 26.800	 99.544	 -99999.000
21273	  0.171	  0.100	  0.210	  0.027	  0.235	 -9.859	 -0.008	  0.000	 -0.000	 26.800	 99.559	 -99999.000
33573	  0.168	  0.102	  0.211	  0.083	  0.233	 -9.868	 -0.002	 -0.000	  0.002	 27.000	 99.546	  0.868
33623	  0.170	  0.103	  0.212	  0.035	  0.315	 -9.798	 -0.005	 -0.001	 -0.002	 27.000	 99.557	 -0.098
33673	  0.167	  0.102	  0.211	  0.084	  0.243	 -9.883	  0.002	  0.002	  0.002	 27.000	 99.557	 -0.098
33722	  0.168	  0.101	  0.209	  0.058	  0.279	 -9.828	 -0.009	 -0.002	 -0.002	 27.000	 99.546	  0.868
33772	  0.167	  0.099	  0.214	  0.045	  0.292	 -9.815	  0.002	  0.004	  0.002	 27.000	 99.550	  0.516
33822	  0.168	  0.099	  0.215	  0.065	  0.251	 -9.862	 -0.006	 -0.000	  0.002	 27.000	 99.546	  0.868
33873	  0.169	  0.098	  0.210	  0.043	  0.300	 -9.874	 -0.001	  0.002	  0.002	 27.000	 99.557	 -0.098
33924	  0.168	  0.103	  0.218	  0.067	  0.251	 -9.881	 -0.003	 -0.001	  0.001	 27.000	 99.561	 -0.449
33974	  0.165	  0.101	  0.211	  0.037	  0.305	 -9.820	 -0.003	  0.001	 -0.001	 27.000	 99.561	 -0.449
34024	  0.168	  0.097	  0.215	  0.044	  0.227	 -9.855	 -0.001	  0.001	  0.000	 27.000	 99.557	 -0.098
34074	  0.167	  0.102	  0.215	  0.051	  0.300	 -9.818	 -0.004	 -0.000	 -0.001	 27.000	 99.546	  0.868
34124	  0.169	  0.096	  0.216	  0.053	  0.234	 -9.840	 -0.002	  0.001	  0.002	 27.000	 99.546	  0.868
34174	  0.168	  0.104	  0.215	  0.039	  0.271	 -9.828	 -0.004	  0.000	  0.002	 27.000	 99.546	  0.868
34224	  0.167	  0.104	  0.215	  0.047	  0.268	 -9.804	 -0.003	  0.001	  0.000	 27.000	 99.557	 -0.098
34274	  0.168	  0.101	  0.212	  0.059	  0.273	 -9.813	 -0.003	  0.002	  0.000	 27.000	 99.557	 -0.098
34324	  0.166	  0.104	  0.215	  0.052	  0.276	 -9.836	 -0.004	 -0.001	  0.000	 27.000	 99.557	 -0.098
34374	  0.168	  0.100	  0.214	  0.039	  0.248	 -9.826	 -0.003	  0.003	  0.002	 27.000	 99.546	  0.868
34424	  0.165	  0.099	  0.214	  0.073	  0.303	 -9.856	 -0.005	  0.000	 -0.001	 27.000	 99.557	 -0.098
34474	  0.165	  0.099	  0.215	  0.073	  0.235	 -9.835	 -0.003	  0.001	  0.000	 27.000	 99.550	  0.516
34524	  0.168	  0.107	  0.215	  0.087	  0.314	 -9.906	 -0.005	  0.000	  0.002	 27.000	 99.557	 -0.098
34574	  0.169	  0.098	  0.216	  0.073	  0.200	 -9.837	  0.012	  0.002	  0.004	 27.000	 99.561	 -0.449
34624	  0.168	  0.105	  0.215	  0.064	  0.299	 -9.925	 -0.030	 -0.009	 -0.003	 27.000	 99.550	  0.516
34674	  0.168	  0.099	  0.218	  0.028	  0.312	 -9.744	  0.031	  0.013	  0.001	 27.000	 99.550	  0.516
34724	  0.168	  0.103	  0.214	  0.112	  0.157	 -9.802	 -0.022	 -0.007	 -0.002	 27.000	 99.561	 -0.449
34774	  0.167	  0.096	  0.218	  0.047	  0.317	 -9.834	 -0.001	  0.001	  0.003	 27.000	 99.557	 -0.098
34824	  0.169	  0.100	  0.213	  0.060	  0.285	 -9.882	  0.007	  0.008	 -0.001	 27.000	 99.561	 -0.449
34874	  0.166	  0.100	  0.215	  0.125	  0.248	 -10.082	 -0.013	 -0.006	 -0.000	 27.000	 99.550	  0.516
34924	  0.167	  0.100	  0.214	 -0.039	  0.433	 -10.125	 -0.009	  0.004	 -0.001	 27.000	 99.546	  0.868
34973	  0.169	  0.096	  0.220	  0.328	  0.140	 -10.791	  0.018	  0.015	 -0.001	 27.000	 99.550	  0.516
35024	  0.169	  0.100	  0.212	 -0.115	  0.508	 -9.752	 -0.040	 -0.038	 -0.005	 27.000	 99.550	  0.516
35073	  0.172	  0.103	  0.214	  0.069	  0.004	 -10.073	  0.046	  0.032	  0.005	 27.000	 99.550	  0.516
35124	  0.170	  0.098	  0.213	  0.103	  0.252	 -9.835	 -0.028	 -0.020	  0.001	 27.000	 99.550	  0.516
35174	  0.169	  0.101	  0.214	 -0.315	  0.383	 -9.869	 -0.015	 -0.018	 -0.002	 27.000	 99.554	  0.165
35224	  0.168	  0.097	  0.218	  0.183	  0.004	 -9.875	  0.046	  0.037	  0.004	 27.000	 99.561	 -0.449
35273	  0.168	  0.104	  0.212	  0.077	  0.322	 -9.764	 -0.062	 -0.043	 -0.005	 27.000	 99.550	  0.516
35323	  0.169	  0.092	  0.215	  0.027	  0.409	 -9.693	  0.046	  0.031	  0.003	 27.000	 99.550	  0.516
35373	  0.168	  0.097	  0.209	  0.153	  0.031	 -9.939	 -0.033	 -0.019	  0.000	 27.000	 99.561	 -0.449
35423	  0.170	  0.098	  0.214	 -0.053	  0.547	 -9.797	  0.008	  0.007	  0.002	 27.000	 99.550	  0.516
35473	  0.169	  0.102	  0.212	  0.130	 -0.026	 -9.908	  0.004	  0.007	  0.002	 27.000	 99.554	  0.165
35523	  0.167	  0.098	  0.214	  0.022	  0.454	 -9.841	 -0.025	 -0.008	 -0.001	 27.000	 99.561	 -0.449
35573	  0.168	  0.098	  0.215	  0.113	  0.207	 -9.855	  0.026	  0.013	  0.002	 27.000	 99.565	 -0.802
35623	  0.166	  0.095	  0.216	  0.064	  0.233	 -9.851	 -0.033	 -0.012	 -0.002	 27.000	 99.554	  0.165
35673	  0.166	  0.098	  0.213	  0.178	  0.475	 -10.106	  0.022	  0.025	 -0.003	 27.000	 99.554	  0.165
35723	  0.168	  0.100	  0.212	  0.036	  0.070	 -9.906	 -0.029	 -0.013	 -0.002	 27.000	 99.550	  0.516
35773	  0.169	  0.097	  0.214	 -0.014	  0.499	 -9.727	  0.016	  0.011	  0.004	 27.000	 99.554	  0.165
35823	  0.168	  0.098	  0.211	  0.077	  0.071	 -9.878	 -0.014	 -0.004	  0.000	 27.000	 99.554	  0.165
35873	  0.166	  0.094	  0.218	  0.011	  0.345	 -9.838	  0.002	  0.003	 -0.001	 27.000	 99.554	  0.165
35923	  0.166	  0.102	  0.211	  0.059	  0.195	 -9.861	 -0.004	  0.002	 -0.001	 27.000	 99.554	  0.165
35973	  0.168	  0.099	  0.213	  0.061	  0.311	 -9.896	 -0.005	  0.002	 -0.000	 27.000	 99.554	  0.165
36023	  0.169	  0.102	  0.214	  0.148	  0.280	 -9.808	  0.007	  0.005	  0.001	 27.000	 99.554	  0.165
36073	  0.169	  0.096	  0.215	 -0.052	  0.332	 -9.835	 -0.016	 -0.003	 -0.003	 27.000	 99.554	  0.165
36123	  0.168	  0.097	  0.207	  0.178	  0.146	 -9.866	  0.011	  0.005	  0.002	 27.000	 99.554	  0.165
36173	  0.168	  0.103	  0.214	  0.018	  0.483	 -9.757	 -0.015	 -0.006	 -0.000	 27.000	 99.543	  1.131
36223	  0.169	  0.100	  0.216	  0.104	  0.110	 -9.918	  0.008	  0.005	  0.000	 27.000	 99.554	  0.165
36273	  0.168	  0.097	  0.214	 -0.003	  0.378	 -9.799	 -0.017	 -0.006	 -0.001	 27.000	 99.554	  0.165
36323	  0.167	  0.096	  0.214	  0.091	  0.205	 -9.926	  0.014	  0.012	  0.002	 27.000	 99.543	  1.131
36373	  0.169	  0.107	  0.215	  0.043	  0.201	 -9.838	 -0.021	 -0.007	 -0.001	 27.000	 99.558	 -0.187
36423	  0.168	  0.096	  0.214	 -0.148	  0.333	 -9.790	 -0.004	 -0.000	  0.001	 27.000	 99.543	  1.131
36473	  0.169	  0.098	  0.211	  0.122	  0.085	 -9.836	  0.011	  0.009	  0.002	 27.000	 99.543	  1.131
36523	  0.167	  0.098	  0.216	 -0.011	  0.340	 -9.810	 -0.025	 -0.008	 -0.001	 27.000	 99.554	  0.165
36573	  0.167	  0.101	  0.213	  0.076	  0.231	 -9.874	  0.016	  0.011	  0.003	 27.000	 99.554	  0.165
36623	  0.167	  0.093	  0.215	  0.074	  0.201	 -9.804	 -0.015	 -0.006	 -0.001	 27.000	 99.554	  0.165
36673	  0.168	  0.109	  0.208	  0.006	  0.371	 -9.794	  0.001	  0.002	  0.001	 27.000	 99.558	 -0.187
36723	  0.165	  0.100	  0.216	  0.092	  0.151	 -9.878	  0.004	  0.006	  0.000	 27.000	 99.554	  0.165
36773	  0.168	  0.102	  0.214	  0.007	  0.325	 -9.839	 -0.020	 -0.006	 -0.000	 27.000	 99.543	  1.131
36823	  0.168	  0.094	  0.216	  0.049	  0.239	 -9.846	  0.017	  0.011	  0.002	 27.000	 99.558	 -0.187
36873	  0.170	  0.098	  0.216	  0.074	  0.204	 -9.861	 -0.022	 -0.009	 -0.002	 27.000	 99.558	 -0.187
36923	  0.170	  0.095	  0.214	  0.024	  0.381	 -9.853	  0.010	  0.009	  0.002	 27.000	 99.554	  0.165
36973	  0.170	  0.100	  0.216	  0.104	  0.139	 -9.876	 -0.010	 -0.003	  0.000	 27.000	 99.558	 -0.187
37023	  0.168	  0.106	  0.211	  0.033	  0.389	 -9.841	 -0.004	  0.001	 -0.000	 27.000	 99.547	  0.780
37073	  0.168	  0.097	  0.218	  0.120	  0.183	 -9.908	  0.004	  0.003	 -0.000	 27.000	 99.547	  0.780
37123	  0.170	  0.108	  0.210	  0.013	  0.338	 -9.885	 -0.013	 -0.003	 -0.001	 27.000	 99.558	 -0.187
37173	  0.169	  0.095	  0.218	  0.091	  0.243	 -9.851	  0.008	  0.007	  0.001	 27.000	 99.547	  0.780
37223	  0.169	  0.103	  0.209	 -0.406	  0.359	 -10.032	 -0.015	  0.009	 -0.001	 27.000	 99.558	 -0.187
37273	  0.168	  0.098	  0.215	 -0.211	  0.204	 -9.871	 -0.005	  0.019	  0.010	 27.000	 99.547	  0.780
37323	  0.170	  0.101	  0.215	  0.107	  0.119	 -9.878	 -0.005	  0.007	 -0.002	 27.000	 99.554	  0.165
37373	  0.165	  0.096	  0.216	  0.115	  0.303	 -9.808	 -0.019	 -0.002	 -0.006	 27.000	 99.558	 -0.187
37423	  0.167	  0.097	  0.214	  0.110	  0.319	 -9.854	  0.013	  0.009	  0.000	 27.000	 99.547	  0.780
37473	  0.166	  0.099	  0.215	  0.392	  0.190	 -9.271	 -0.040	 -0.067	 -0.038	 27.000	 99.554	  0.165
37523	  0.169	  0.100	  0.212	  0.010	  0.565	 -9.979	  0.002	 -0.014	  0.001	 27.000	 99.558	 -0.187
37573	  0.167	  0.109	  0.214	  0.029	  0.311	 -9.804	 -0.029	 -0.019	  0.007	 27.000	 99.547	  0.780
37623	  0.170	  0.096	  0.214	 -0.033	  0.370	 -9.828	  0.004	  0.002	 -0.000	 27.000	 99.558	 -0.187
37673	  0.169	  0.102	  0.213	  0.069	  0.122	 -9.849	 -0.003	  0.004	 -0.001	 27.000	 99.558	 -0.187
37723	  0.168	  0.097	  0.218	 -0.002	  0.314	 -9.842	 -0.012	 -0.003	  0.001	 27.000	 99.558	 -0.187
37773	  0.168	  0.095	  0.212	  0.030	  0.256	 -9.839	  0.003	  0.002	  0.000	 27.000	 99.547	  0.780
37823	  0.166	  0.096	  0.214	  0.095	  0.123	 -9.866	 -0.004	 -0.003	 -0.001	 27.000	 99.547	  0.780
37873	  0.170	  0.103	  0.213	 -0.041	  0.281	 -9.853	 -0.004	  0.000	  0.000	 27.000	 99.558	 -0.187
37923	  0.168	  0.101	  0.207	  0.091	  0.319	 -9.750	  0.037	  0.037	 -0.000	 27.000	 99.558	 -0.187
37973	  0.168	  0.098	  0.215	  0.065	  0.274	 -9.893	  0.009	  0.030	 -0.003	 27.000	 99.547	  0.780
38023	  0.168	  0.097	  0.215	  0.356	  0.003	 -9.653	  0.059	  0.039	  0.008	 27.000	 99.558	 -0.187
38073	  0.163	  0.103	  0.213	  0.361	  0.103	 -9.839	 -0.030	 -0.029	 -0.002	 27.000	 99.547	  0.780
38123	  0.166	  0.096	  0.216	  0.212	  0.366	 -9.851	 -0.028	 -0.042	 -0.001	 27.000	 99.558	 -0.187
38173	  0.168	  0.101	  0.214	 -0.037	  0.227	 -10.061	  0.004	  0.030	  0.002	 27.000	 99.558	 -0.187
38223	  0.171	  0.103	  0.209	  0.359	  0.056	 -9.678	 -0.057	 -0.049	 -0.004	 27.000	 99.558	 -0.187
38273	  0.171	  0.102	  0.217	 -0.246	  0.440	 -9.907	 -0.056	 -0.033	 -0.014	 27.000	 99.540	  1.395
38323	  0.174	  0.109	  0.210	  0.144	  0.742	 -9.801	  0.120	 -0.116	 -0.020	 27.000	 99.562	 -0.538
38373	  0.172	  0.097	  0.212	 14.293	  0.437	  5.924	 -0.100	 -1.331	  0.230	 27.000	 99.558	 -0.187
38424	  0.182	  0.095	  0.209	 -4.461	 -0.749	 -8.549	  0.097	  0.375	 -0.193	 27.000	 99.569	 -1.153
38473	  0.180	  0.096	  0.214	  0.885	  0.465	 -9.805	 -0.135	  0.242	  0.009	 27.000	 99.558	 -0.187
38523	  0.177	  0.096	  0.213	  0.083	  0.831	 -9.535	 -0.001	 -0.077	 -0.009	 27.000	 99.562	 -0.538
38573	  0.178	  0.099	  0.216	 -0.043	 -0.244	 -10.318	  0.003	  0.060	 -0.021	 27.000	 99.558	 -0.187
38623	  0.179	  0.097	  0.212	  0.113	  0.722	 -9.731	 -0.052	 -0.191	  0.016	 27.000	 99.551	  0.428
38673	  0.182	  0.096	  0.211	 -6.243	  1.844	 -25.344	  0.273	 -0.919	  0.275	 27.000	 99.551	  0.428
38723	  0.181	  0.094	  0.213	  1.459	  0.514	 -9.856	 -0.211	  0.153	 -0.113	 27.000	 99.551	  0.428
38773	  0.180	  0.089	  0.218	 -0.329	  0.828	 -9.441	 -0.019	 -0.007	 -0.012	 27.000	 99.562	 -0.538
38823	  0.181	  0.095	  0.207	 -0.783	 -0.082	 -9.886	  0.116	  0.063	 -0.070	 27.000	 99.551	  0.428
38873	  0.186	  0.092	  0.213	 -1.369	 -0.606	 -9.299	 -0.112	 -0.373	  0.146	 27.000	 99.551	  0.428
38923	  0.181	  0.092	  0.211	 -0.132	  1.499	 -10.096	 -0.182	  0.240	 -0.052	 27.000	 99.551	  0.428
38974	  0.182	  0.088	  0.212	 -0.161	  0.873	 -9.456	  0.086	 -0.005	 -0.014	 27.000	 99.547	  0.780
39023	  0.182	  0.094	  0.214	  9.383	  2.135	 -11.697	 -0.221	  0.174	  0.270	 27.000	 99.562	 -0.538
39074	  0.183	  0.086	  0.213	  1.280	  0.734	 -10.868	 -0.262	  0.181	 -0.231	 27.000	 99.551	  0.428
39123	  0.185	  0.085	  0.214	 -0.486	  1.277	 -9.811	 -0.009	  0.111	 -0.029	 27.000	 99.551	  0.428
39174	  0.183	  0.090	  0.214	 -0.438	  0.398	 -10.164	  0.276	  0.015	 -0.010	 27.000	 99.551	  0.428
39224	  0.183	  0.092	  0.215	 -0.682	 -0.364	 -7.871	  0.062	 -0.591	  0.183	 27.000	 99.562	 -0.538
39273	  0.184	  0.087	  0.214	  0.823	  0.601	 -9.776	 -0.158	  0.229	 -0.094	 27.100	 99.562	 -0.538
39322	  0.182	  0.084	  0.213	 -0.405	  0.933	 -9.334	  0.032	 -0.026	 -0.002	 27.000	 99.551	  0.428
39373	  0.181	  0.090	  0.217	  8.658	 -0.546	 -10.294	 -0.472	  0.460	  0.332	 27.000	 99.562	 -0.538
39424	  0.184	  0.084	  0.214	  0.471	  0.563	 -10.441	 -0.233	  0.107	 -0.247	 27.000	 99.562	 -0.538
39474	  0.183	  0.089	  0.211	  0.413	  1.262	 -8.993	 -0.071	  0.024	 -0.109	 27.100	 99.551	  0.428
39524	  0.183	  0.091	  0.214	 -0.752	  0.775	 -9.790	  0.315	 -0.064	 -0.070	 27.000	 99.562	 -0.538
39573	  0.188	  0.091	  0.215	 -3.130	 -1.364	 -11.110	 -0.060	 -0.394	  0.029	 27.000	 99.551	  0.428
39623	  0.184	  0.099	  0.214	  1.063	  0.591	 -9.220	 -0.089	  0.003	 -0.102	 27.000	 99.562	 -0.538
39673	  0.186	  0.094	  0.215	 -0.938	  1.023	 -9.440	  0.029	 -0.121	 -0.051	 27.000	 99.562	 -0.538
39723	  0.187	  0.099	  0.213	 12.584	  0.456	 -8.032	 -0.109	 -0.190	  0.218	 27.100	 99.555	  0.077
39773	  0.188	  0.091	  0.210	  0.167	  1.040	 -9.798	 -0.319	  0.372	 -0.207	 27.100	 99.555	  0.077
39823	  0.188	  0.089	  0.211	 -0.463	  0.703	 -9.298	 -0.025	 -0.091	 -0.174	 27.000	 99.562	 -0.538
39873	  0.188	  0.090	  0.214	 -0.540	  1.043	 -9.647	  0.245	 -0.112	 -0.016	 27.100	 99.555	  0.077
39923	  0.194	  0.094	  0.208	 -3.132	 -1.663	 -10.467	  0.184	 -0.761	  0.231	 27.100	 99.555	  0.077
39973	  0.185	  0.091	  0.212	 -0.287	  0.863	 -10.453	 -0.292	  0.409	 -0.100	 27.100	 99.562	 -0.538
40023	  0.190	  0.097	  0.220	 -0.749	  1.224	 -10.457	  0.121	 -0.123	 -0.012	 27.100	 99.544	  1.044
40073	  0.193	  0.094	  0.218	 -0.614	  0.533	 -10.266	  0.297	  0.109	 -0.004	 27.100	 99.555	  0.077
40123	  0.189	  0.087	  0.213	 -4.983	  0.383	 -10.631	 -0.211	  0.347	  0.256	 27.100	 99.555	  0.077
40173	  0.189	  0.090	  0.215	  0.190	  0.381	 -8.739	 -0.060	 -0.017	 -0.148	 27.100	 99.555	  0.077
40223	  0.190	  0.089	  0.213	 -1.023	  1.206	 -9.171	  0.187	 -0.169	 -0.002	 27.100	 99.555	  0.077
40273	  0.190	  0.090	  0.212	 -2.902	 -5.021	 -15.261	 -0.013	 -0.772	  0.698	 27.100	 99.544	  1.044
40323	  0.186	  0.078	  0.219	  0.179	  1.096	 -9.986	 -0.250	  0.506	 -0.004	 27.000	 99.551	  0.428
40373	  0.183	  0.081	  0.215	 -0.156	  1.260	 -9.377	 -0.070	 -0.056	 -0.013	 27.100	 99.555	  0.077
40423	  0.185	  0.084	  0.213	 -0.708	  1.017	 -9.551	  0.447	  0.010	 -0.076	 27.100	 99.567	 -0.977
40473	  0.184	  0.081	  0.215	 -2.275	 -1.027	 -9.507	 -0.241	 -0.737	  1.013	 27.100	 99.555	  0.077
40523	  0.182	  0.069	  0.209	  0.277	  0.570	 -8.814	 -0.163	  0.014	 -0.224	 27.100	 99.555	  0.077
40573	  0.186	  0.075	  0.211	 -0.781	  1.376	 -9.611	 -0.060	 -0.056	 -0.046	 27.100	 99.555	  0.077
40623	  0.184	  0.083	  0.213	 -0.545	  0.351	 -9.811	  0.347	  0.162	 -0.194	 27.100	 99.555	  0.077
40673	  0.189	  0.073	  0.211	 -4.856	  0.805	 -9.612	 -0.473	  0.128	  0.154	 27.100	 99.555	  0.077
40723	  0.189	  0.073	  0.211	  0.497	  0.467	 -9.469	 -0.162	 -0.044	 -0.061	 27.100	 99.555	  0.077
40774	  0.188	  0.072	  0.207	 -0.723	  1.781	 -8.904	  0.007	 -0.128	  0.007	 27.100	 99.555	  0.077
40823	  0.188	  0.068	  0.209	 13.720	  0.724	 -13.955	 -0.163	  0.582	  0.329	 27.100	 99.555	  0.077
40873	  0.186	  0.062	  0.203	  0.200	  1.270	 -9.696	 -0.269	  0.402	 -0.120	 27.100	 99.555	  0.077
40923	  0.187	  0.072	  0.205	 -0.245	  1.019	 -9.779	 -0.021	 -0.109	 -0.080	 27.100	 99.555	  0.077
40973	  0.186	  0.060	  0.206	 -0.798	  1.596	 -9.329	  0.227	 -0.015	 -0.076	 27.100	 99.560	 -0.362
41023	  0.184	  0.060	  0.202	 -1.454	 -0.196	 -7.087	 -0.120	 -0.577	  0.546	 27.100	 99.548	  0.692
41073	  0.182	  0.053	  0.210	  1.800	  1.179	 -8.444	 -0.039	  0.016	 -0.206	 27.100	 99.555	  0.077
41123	  0.184	  0.058	  0.203	 -0.715	  1.287	 -9.872	  0.079	 -0.148	 -0.098	 27.100	 99.555	  0.077
41173	  0.185	  0.064	  0.210	 -0.345	  1.419	 -9.565	  0.254	  0.057	 -0.023	 27.100	 99.560	 -0.362
41223	  0.185	  0.064	  0.212	  1.346	 -2.842	 -10.657	  0.091	 -0.244	  0.074	 27.100	 99.560	 -0.362
41273	  0.185	  0.060	  0.213	  1.211	  1.269	 -8.850	  0.069	  0.070	 -0.186	 27.100	 99.560	 -0.362
41323	  0.181	  0.072	  0.207	 -0.189	  0.698	 -9.809	  0.057	  0.028	  0.008	 27.100	 99.555	  0.077
41373	  0.183	  0.065	  0.209	 -0.400	  0.703	 -9.860	  0.151	 -0.050	  0.014	 27.100	 99.548	  0.692
41423	  0.184	  0.069	  0.212	 -0.252	  0.641	 -9.759	  0.201	  0.083	  0.000	 27.100	 99.544	  1.044
41473	  0.180	  0.072	  0.216	 -0.272	  0.362	 -10.031	  0.184	  0.089	  0.014	 27.100	 99.560	 -0.362
41523	  0.179	  0.076	  0.217	  0.523	  0.002	 -9.788	  0.102	 -0.010	  0.032	 27.100	 99.560	 -0.362
41573	  0.179	  0.076	  0.212	 -0.031	  0.332	 -9.739	  0.046	 -0.088	  0.002	 27.100	 99.555	  0.077
41623	  0.180	  0.074	  0.221	 -0.193	  0.254	 -9.978	  0.024	 -0.000	  0.006	 27.100	 99.571	 -1.328
41673	  0.179	  0.077	  0.220	 -0.227	  0.281	 -9.873	 -0.007	 -0.000	  0.000	 27.100	 99.548	  0.692
41723	  0.182	  0.076	  0.220	 -0.248	  0.328	 -9.893	 -0.006	 -0.002	  0.008	 27.100	 99.560	 -0.362
41773	  0.182	  0.076	  0.219	 -0.177	  0.179	 -9.897	 -0.031	  0.022	 -0.002	 27.100	 99.560	 -0.362
41823	  0.179	  0.072	  0.217	 -0.144	  0.333	 -9.894	 -0.081	  0.049	 -0.001	 27.100	 99.537	  1.658
41873	  0.180	  0.073	  0.215	 -0.060	  0.317	 -9.822	 -0.083	 -0.002	 -0.003	 27.100	 99.560	 -0.362
41923	  0.179	  0.076	  0.214	 -0.147	  0.383	 -9.922	 -0.149	  0.052	 -0.006	 27.100	 99.553	  0.253
41973	  0.180	  0.074	  0.212	 -0.205	  0.497	 -9.875	 -0.131	 -0.042	 -0.000	 27.100	 99.548	  0.692
42023	  0.180	  0.067	  0.211	 -0.153	  0.525	 -9.863	 -0.126	 -0.035	 -0.003	 27.100	 99.548	  0.692
42073	  0.180	  0.069	  0.212	 -0.173	  0.612	 -9.856	 -0.155	 -0.026	 -0.004	 27.100	 99.560	 -0.362
42123	  0.182	  0.065	  0.210	  0.005	  0.712	 -9.682	 -0.294	  0.009	 -0.011	 27.100	 99.553	  0.253
42173	  0.182	  0.057	  0.213	 -0.374	  0.711	 -9.952	 -0.258	 -0.061	 -0.003	 27.100	 99.548	  0.692
42223	  0.181	  0.054	  0.203	 -0.135	  1.048	 -9.532	 -0.316	 -0.081	 -0.010	 27.100	 99.548	  0.692
42273	  0.184	  0.049	  0.207	 -0.396	  1.512	 -9.664	 -0.193	 -0.028	 -0.001	 27.100	 99.553	  0.253
42323	  0.186	  0.047	  0.206	 -0.425	  1.895	 -9.373	  0.215	 -0.014	  0.005	 27.100	 99.553	  0.253
42373	  0.185	  0.060	  0.210	 -0.183	  1.453	 -9.200	  0.574	  0.104	 -0.044	 27.100	 99.553	  0.253
42423	  0.182	  0.066	  0.216	 -0.201	  0.862	 -9.570	  0.795	  0.247	 -0.026	 27.100	 99.548	  0.692
42473	  0.176	  0.079	  0.218	 -0.371	 -1.045	 -10.045	  0.226	  0.218	  0.126	 27.100	 99.548	  0.692
42523	  0.175	  0.082	  0.223	  0.366	 -0.271	 -9.790	  0.042	 -0.029	  0.018	 27.100	 99.553	  0.253
42573	  0.174	  0.074	  0.224	 -0.073	  0.423	 -9.806	 -0.018	 -0.038	  0.002	 27.100	 99.560	 -0.362
42623	  0.174	  0.078	  0.220	 -0.035	  0.157	 -9.894	 -0.001	 -0.014	  0.001	 27.100	 99.560	 -0.362
42673	  0.175	  0.076	  0.220	  0.080	  0.341	 -9.817	 -0.014	 -0.020	 -0.012	 27.100	 99.553	  0.253
42723	  0.175	  0.077	  0.213	 -0.086	  0.182	 -9.888	  0.017	 -0.040	  0.001	 27.100	 99.542	  1.219
42773	  0.176	  0.079	  0.217	 -0.053	  0.221	 -9.858	 -0.017	 -0.007	  0.001	 27.100	 99.548	  0.692
42823	  0.176	  0.080	  0.222	 -0.150	  0.310	 -9.886	 -0.001	 -0.004	  0.003	 27.100	 99.542	  1.219
42873	  0.175	  0.077	  0.219	 -0.083	  0.232	 -9.863	  0.001	 -0.012	  0.003	 27.100	 99.548	  0.692
42923	  0.176	  0.080	  0.218	 -0.073	  0.179	 -9.863	  0.017	 -0.050	  0.001	 27.100	 99.564	 -0.714
42973	  0.178	  0.079	  0.218	 -0.100	  0.264	 -9.852	 -0.004	  0.002	  0.001	 27.100	 99.553	  0.253
43023	  0.178	  0.074	  0.218	 -0.091	  0.207	 -9.856	 -0.008	 -0.002	 -0.002	 27.100	 99.553	  0.253
43073	  0.176	  0.080	  0.222	 -0.141	  0.202	 -9.854	  0.006	  0.003	 -0.001	 27.100	 99.553	  0.253
43123	  0.176	  0.074	  0.221	 -0.122	  0.314	 -9.834	  0.016	  0.005	  0.003	 27.100	 99.553	  0.253
43173	  0.178	  0.086	  0.216	 -0.143	  0.100	 -9.853	  0.002	  0.002	  0.001	 27.100	 99.553	  0.253
43223	  0.178	  0.077	  0.222	 -0.104	  0.314	 -9.828	 -0.019	  0.020	 -0.000	 27.100	 99.564	 -0.714
43273	  0.175	  0.083	  0.219	 -0.016	  0.196	 -9.867	  0.006	  0.010	 -0.002	 27.100	 99.553	  0.253
43323	  0.175	  0.083	  0.220	 -0.008	  0.263	 -9.874	 -0.074	  0.173	 -0.008	 27.100	 99.553	  0.253
43373	  0.176	  0.088	  0.221	 -0.034	  0.125	 -9.925	 -0.015	 -0.002	 -0.002	 27.100	 99.553	  0.253
43423	  0.175	  0.078	  0.218	 -0.006	  0.478	 -9.733	  0.005	  0.008	  0.002	 27.100	 99.564	 -0.714
43473	  0.174	  0.084	  0.221	 -0.550	 -0.024	 -10.184	  0.023	  0.007	  0.004	 27.100	 99.553	  0.253
43523	  0.173	  0.076	  0.221	 -0.013	  0.123	 -9.887	 -0.036	 -0.011	 -0.002	 27.100	 99.553	  0.253
43573	  0.173	  0.072	  0.219	 -0.076	  0.285	 -9.871	 -0.041	 -0.021	 -0.001	 27.100	 99.553	  0.253
43623	  0.174	  0.078	  0.220	  0.054	  0.414	 -9.879	  0.046	  0.009	 -0.010	 27.100	 99.564	 -0.714
43673	  0.175	  0.082	  0.221	 -0.123	  0.176	 -9.821	 -0.010	 -0.111	  0.002	 27.100	 99.553	  0.253
43723	  0.178	  0.075	  0.224	 -0.222	  0.299	 -9.894	  0.078	 -0.160	  0.001	 27.100	 99.553	  0.253
43773	  0.180	  0.083	  0.220	 -0.181	  0.202	 -9.709	  0.021	  0.020	 -0.001	 27.100	 99.542	  1.219
43823	  0.179	  0.082	  0.221	 -0.140	  0.236	 -9.850	  0.021	  0.010	  0.002	 27.100	 99.557	 -0.098
43873	  0.177	  0.079	  0.215	  0.000	  0.420	 -9.789	 -0.016	  0.008	  0.005	 27.100	 99.568	 -1.064
43923	  0.176	  0.079	  0.223	 -0.026	  0.270	 -9.850	 -0.003	  0.073	  0.002	 27.100	 99.542	  1.219
43973	  0.178	  0.083	  0.221	 -0.004	 -0.059	 -9.836	 -0.051	 -0.050	  0.001	 27.100	 99.557	 -0.098
44023	  0.180	  0.086	  0.218	 -0.416	  0.485	 -9.711	 -0.018	 -0.022	  0.001	 27.100	 99.557	 -0.098
44074	  0.175	  0.083	  0.217	 -0.160	  0.085	 -9.876	  0.018	  0.005	  0.000	 27.100	 99.557	 -0.098
44123	  0.177	  0.086	  0.217	 -0.157	  0.289	 -9.809	  0.007	  0.008	 -0.000	 27.100	 99.553	  0.253
44174	  0.178	  0.080	  0.219	 -0.144	  0.122	 -9.895	  0.012	  0.007	  0.002	 27.100	 99.557	 -0.098
44223	  0.178	  0.078	  0.221	 -1.019	  0.001	 -9.996	 -0.045	  0.141	 -0.019	 27.100	 99.557	 -0.098
44272	  0.177	  0.078	  0.219	  0.080	  0.120	 -9.854	 -0.024	 -0.036	  0.009	 27.100	 99.557	 -0.098
44322	  0.178	  0.081	  0.222	 -0.122	  0.341	 -9.814	  0.012	  0.001	 -0.000	 27.100	 99.546	  0.868
44372	  0.175	  0.082	  0.217	 -0.177	  0.078	 -9.834	 -0.012	 -0.005	 -0.000	 27.100	 99.546	  0.868
44422	  0.179	  0.077	  0.223	 -0.188	  0.254	 -9.883	 -0.009	  0.001	 -0.002	 27.100	 99.557	 -0.098
44472	  0.179	  0.080	  0.218	 -0.165	  0.193	 -9.862	  0.011	  0.011	 -0.002	 27.100	 99.542	  1.219
44522	  0.176	  0.081	  0.218	  4.177	  2.545	 -10.219	 -0.067	  0.076	  0.035	 27.100	 99.557	 -0.098
44573	  0.179	  0.078	  0.217	 -3.235	 -0.141	 -9.973	 -0.034	  0.023	  0.033	 27.100	 99.557	 -0.098
44624	  0.176	  0.076	  0.219	  0.373	  0.375	 -9.632	  0.004	 -0.017	 -0.025	 27.100	 99.557	 -0.098
44674	  0.179	  0.095	  0.210	 -0.323	  0.478	 -9.759	 -0.016	  0.001	  0.003	 27.100	 99.557	 -0.098
44724	  0.178	  0.082	  0.219	 -0.174	  0.031	 -9.908	  0.046	  0.028	  0.025	 27.100	 99.557	 -0.098
44774	  0.177	  0.083	  0.219	 -0.104	  0.200	 -9.819	  0.008	  0.017	  0.001	 27.100	 99.557	 -0.098
44824	  0.177	  0.081	  0.217	 -0.242	  0.231	 -9.894	  0.005	  0.009	 -0.001	 27.100	 99.557	 -0.098
44874	  0.178	  0.074	  0.221	 -1.166	 -0.596	 -8.944	  0.159	 -0.179	  0.125	 27.100	 99.557	 -0.098
44924	  0.176	  0.079	  0.218	  1.051	  2.499	 -11.332	 -0.055	 -0.010	 -0.140	 27.100	 99.557	 -0.098
44974	  0.177	  0.076	  0.221	 -0.150	  0.021	 -9.848	 -0.035	 -0.002	 -0.001	 27.100	 99.550	  0.516
45024	  0.177	  0.078	  0.219	 -0.366	  0.336	 -9.856	  0.033	  0.021	  0.000	 27.100	 99.557	 -0.098
45074	  0.174	  0.073	  0.220	 -0.095	  0.228	 -9.866	  0.025	  0.040	 -0.008	 27.100	 99.557	 -0.098
45124	  0.175	  0.077	  0.218	  1.312	 -2.795	 -8.515	 -0.117	 -0.244	  0.188	 27.100	 99.561	 -0.449
45174	  0.178	  0.076	  0.220	 -4.543	 -0.453	 -10.352	  0.134	  0.000	 -0.029	 27.100	 99.550	  0.516
45224	  0.177	  0.079	  0.219	  0.557	 -0.194	 -9.953	  0.066	 -0.029	 -0.285	 27.100	 99.557	 -0.098
45274	  0.179	  0.081	  0.217	 -0.261	  0.731	 -9.685	  0.012	  0.021	 -0.055	 27.100	 99.557	 -0.098
45324	  0.179	  0.078	  0.222	  3.030	  0.112	 -15.520	 -0.128	 -0.068	  0.350	 27.100	 99.561	 -0.449
45374	  0.180	  0.087	  0.215	  1.255	  0.314	 -8.596	 -0.010	  0.157	 -0.077	 27.100	 99.561	 -0.449
45424	  0.175	  0.074	  0.224	  0.259	 -0.337	 -9.513	  0.212	 -0.076	 -0.194	 27.100	 99.561	 -0.449
45474	  0.177	  0.086	  0.217	  0.526	  1.022	 -10.184	  0.093	  0.071	 -0.186	 27.100	 99.561	 -0.449
45524	  0.180	  0.078	  0.214	 -4.480	  0.589	 -9.322	 -0.102	  0.249	 -0.081	 27.100	 99.557	 -0.098
45574	  0.174	  0.082	  0.219	  0.822	 -1.134	 -10.436	  0.113	  0.195	 -0.311	 27.100	 99.550	  0.516
45624	  0.176	  0.085	  0.223	 -0.724	  1.323	 -9.608	  0.001	 -0.006	 -0.202	 27.100	 99.546	  0.868
45674	  0.179	  0.074	  0.213	 -4.046	  1.174	 -9.551	 -0.110	 -0.450	  0.165	 27.100	 99.561	 -0.449
45724	  0.176	  0.078	  0.217	  0.189	  0.446	 -9.463	  0.237	  0.178	 -0.189	 27.100	 99.561	 -0.449
45774	  0.177	  0.085	  0.221	 -0.448	  0.446	 -9.429	 -0.089	 -0.053	 -0.162	 27.100	 99.561	 -0.449
45824	  0.179	  0.083	  0.216	 -0.445	 -0.336	 -11.591	 -0.362	 -0.541	  0.728	 27.100	 99.550	  0.516
45874	  0.174	  0.073	  0.214	  2.391	  0.962	 -11.572	 -0.065	  0.708	 -0.280	 27.100	 99.550	  0.516
45924	  0.178	  0.082	  0.218	 -0.084	 -0.289	 -9.889	 -0.090	 -0.065	 -0.223	 27.100	 99.550	  0.516
45974	  0.177	  0.080	  0.213	 -0.492	 -3.207	 -9.297	 -0.595	  0.101	  0.498	 27.100	 99.550	  0.516
46024	  0.177	  0.079	  0.212	 -0.856	  1.290	 -9.673	  0.124	  0.314	 -0.157	 27.100	 99.561	 -0.449
46074	  0.177	  0.078	  0.218	  0.385	 -0.900	 -9.890	 -0.128	 -0.052	  0.005	 27.100	 99.550	  0.516
46124	  0.176	  0.079	  0.213	 -0.364	  1.082	 -9.549	 -0.071	 -0.028	  0.007	 27.100	 99.550	  0.516
46174	  0.177	  0.075	  0.218	 -0.319	  0.268	 -9.931	  0.061	  0.030	  0.086	 27.100	 99.550	  0.516
46224	  0.176	  0.074	  0.209	 -0.111	  0.010	 -10.257	 -0.180	  0.233	  0.000	 27.100	 99.550	  0.516
46274	  0.173	  0.071	  0.217	  0.210	  0.916	 -9.281	 -0.138	 -0.024	  0.005	 27.100	 99.550	  0.516
46324	  0.174	  0.068	  0.215	  0.571	  0.091	 -9.934	 -0.166	  0.003	 -0.031	 27.100	 99.550	  0.516
46374	  0.175	  0.065	  0.214	  1.373	  0.417	 -10.083	 -0.451	 -0.134	 -0.559	 27.100	 99.550	  0.516
46424	  0.173	  0.056	  0.209	  0.018	  0.467	 -9.923	 -0.717	 -0.237	 -0.023	 27.100	 99.550	  0.516
46474	  0.179	  0.047	  0.200	 -0.126	  0.618	 -10.000	 -1.041	 -0.330	 -0.012	 27.100	 99.550	  0.516
46524	  0.187	  0.027	  0.185	 -0.043	  0.848	 -9.947	 -1.514	 -0.491	 -0.025	 27.200	 99.565	 -0.802
46574	  0.199	  0.013	  0.164	  0.430	  2.656	 -8.359	 -1.361	 -0.430	 -0.513	 27.100	 99.550	  0.516
46624	  0.215	  0.009	  0.157	 -0.519	  2.753	 -8.480	 -0.689	 -0.253	 -1.562	 27.100	 99.550	  0.516
46673	  0.239	  0.031	  0.146	 -0.417	  1.918	 -9.324	 -0.638	 -0.271	 -1.768	 27.200	 99.554	  0.165
46724	  0.264	  0.050	  0.138	 -1.520	  1.651	 -8.740	 -1.140	 -0.667	 -1.696	 27.100	 99.550	  0.516
46773	  0.278	  0.076	  0.152	 -6.980	  0.379	 -11.910	  0.659	  0.754	 -0.309	 27.100	 99.561	 -0.449
46824	  0.286	  0.081	  0.156	  0.164	  3.245	 -8.210	  0.004	  0.174	 -0.674	 27.100	 99.561	 -0.449
46873	  0.298	  0.092	  0.157	 -8.266	  5.188	 -8.556	  0.488	  0.406	 -0.372	 27.200	 99.554	  0.165
46923	  0.294	  0.097	  0.161	 -1.433	  2.854	 -8.508	 -0.018	  0.023	 -0.059	 27.100	 99.539	  1.482
46973	  0.296	  0.094	  0.161	 -1.862	  3.212	 -8.919	 -0.019	  0.005	 -0.009	 27.200	 99.554	  0.165
47023	  0.295	  0.094	  0.158	 -2.346	  3.196	 -9.308	  0.007	  0.026	 -0.118	 27.100	 99.550	  0.516
47073	  0.297	  0.107	  0.150	 -2.094	  3.232	 -9.310	 -0.049	 -0.070	 -0.063	 27.200	 99.554	  0.165
47123	  0.296	  0.104	  0.158	 -2.237	  3.182	 -8.994	  0.011	  0.011	  0.006	 27.200	 99.554	  0.165
47173	  0.295	  0.098	  0.159	 -1.692	  3.218	 -8.752	  0.006	 -0.036	 -0.018	 27.200	 99.554	  0.165
47223	  0.296	  0.103	  0.149	 -2.217	  2.969	 -9.109	 -0.060	 -0.099	  0.006	 27.100	 99.550	  0.516
47273	  0.299	  0.099	  0.160	 -2.001	  3.098	 -8.894	  0.007	  0.013	 -0.045	 27.100	 99.550	  0.516
47323	  0.295	  0.101	  0.154	 -2.280	  3.070	 -9.077	 -0.034	 -0.060	 -0.001	 27.200	 99.554	  0.165
47373	  0.295	  0.095	  0.158	 -2.437	  2.906	 -9.448	 -0.018	  0.010	  0.040	 27.200	 99.554	  0.165
47423	  0.296	  0.100	  0.154	 -2.367	  2.934	 -9.035	 -0.014	 -0.016	 -0.030	 27.200	 99.554	  0.165
47473	  0.296	  0.101	  0.154	 -1.899	  2.811	 -8.844	 -0.023	 -0.014	 -0.016	 27.200	 99.565	 -0.802
47523	  0.296	  0.098	  0.158	 -1.870	  2.641	 -8.489	 -0.005	 -0.001	  0.003	 27.200	 99.554	  0.165
47573	  0.298	  0.098	  0.153	 -2.420	  3.217	 -8.987	 -0.043	 -0.061	 -0.006	 27.100	 99.539	  1.482
47623	  0.297	  0.102	  0.153	 -2.156	  3.077	 -8.769	 -0.034	 -0.120	  0.010	 27.200	 99.554	  0.165
47673	  0.300	  0.096	  0.150	 -2.383	  2.932	 -8.706	 -0.022	  0.021	  0.010	 27.200	 99.554	  0.165
47723	  0.298	  0.105	  0.149	 -2.464	  3.167	 -9.076	 -0.014	 -0.004	  0.019	 27.200	 99.554	  0.165
47773	  0.299	  0.099	  0.152	 -1.937	  2.978	 -9.238	 -0.013	  0.037	  0.054	 27.200	 99.554	  0.165
47823	  0.296	  0.101	  0.152	 -2.312	  2.977	 -9.367	 -0.063	  0.020	  0.013	 27.200	 99.554	  0.165
47873	  0.298	  0.096	  0.151	 -2.478	  3.245	 -9.050	 -0.035	  0.009	  0.019	 27.200	 99.554	  0.165
47923	  0.296	  0.092	  0.155	 -2.139	  3.337	 -9.018	 -0.079	 -0.008	  0.019	 27.200	 99.554	  0.165
47973	  0.298	  0.095	  0.147	 -2.755	  3.210	 -9.054	 -0.034	 -0.086	  0.128	 27.200	 99.543	  1.131
48023	  0.297	  0.095	  0.141	 -2.276	  3.218	 -8.881	 -0.038	 -0.187	  0.237	 27.200	 99.554	  0.165
48073	  0.300	  0.087	  0.136	 -2.227	  3.505	 -8.828	 -0.053	 -0.597	  0.314	 27.200	 99.554	  0.165
48123	  0.303	  0.075	  0.128	 -4.009	  5.181	 -9.756	 -0.213	 -0.843	  0.491	 27.200	 99.543	  1.131
48173	  0.306	  0.069	  0.113	 -2.381	  3.480	 -8.569	 -0.021	 -0.551	  0.506	 27.200	 99.554	  0.165
48223	  0.308	  0.061	  0.098	 -2.460	  5.611	 -8.576	  0.220	 -0.527	  0.342	 27.200	 99.554	  0.165
48273	  0.304	  0.048	  0.093	 -3.851	  2.548	 -9.311	  0.122	 -0.359	  0.594	 27.200	 99.558	 -0.187
48323	  0.303	  0.028	  0.091	 -2.732	  3.160	 -8.552	  0.014	  0.121	 -0.019	 27.200	 99.547	  0.780
48373	  0.302	  0.041	  0.100	 -3.601	  4.262	 -9.243	  0.113	  0.220	  0.010	 27.200	 99.554	  0.165
48423	  0.301	  0.038	  0.105	 -3.619	  3.358	 -8.963	  0.042	  0.027	  0.288	 27.200	 99.558	 -0.187
48473	  0.299	  0.033	  0.103	 -2.609	  3.873	 -8.707	  0.189	  0.054	  0.227	 27.200	 99.554	  0.165
48523	  0.296	  0.046	  0.108	 -3.741	  3.717	 -8.982	  0.385	  0.145	 -0.024	 27.200	 99.554	  0.165
48573	  0.296	  0.038	  0.120	 -3.186	  3.575	 -8.794	  0.448	  0.370	 -0.042	 27.200	 99.554	  0.165
48623	  0.286	  0.056	  0.126	 -3.000	  2.892	 -9.321	  0.774	  0.467	  0.043	 27.200	 99.558	 -0.187
48673	  0.275	  0.043	  0.143	 -2.107	  2.611	 -9.714	  0.340	  0.514	  0.292	 27.200	 99.547	  0.780
48723	  0.264	  0.039	  0.147	 -1.685	  3.156	 -8.851	  0.326	  0.361	  0.351	 27.200	 99.565	 -0.802
48773	  0.256	  0.037	  0.158	 -1.696	  2.852	 -9.423	  0.418	  0.266	  0.740	 27.200	 99.543	  1.131
48823	  0.243	  0.025	  0.164	 -1.313	  2.063	 -9.719	  0.552	  0.337	  0.652	 27.200	 99.547	  0.780
48873	  0.232	  0.027	  0.175	 -1.367	  1.101	 -10.834	  0.548	  0.647	  0.086	 27.200	 99.543	  1.131
48923	  0.219	  0.033	  0.189	  0.372	  1.290	 -9.264	  0.228	  0.801	 -0.127	 27.200	 99.547	  0.780
48973	  0.212	  0.028	  0.194	  0.166	  1.800	 -9.618	 -0.136	  0.361	 -0.022	 27.200	 99.570	 -1.240
49023	  0.208	  0.027	  0.201	 -0.193	  1.854	 -8.764	  0.098	 -0.076	 -0.102	 27.200	 99.558	 -0.187
49073	  0.210	  0.026	  0.195	 -0.822	  1.676	 -9.064	 -0.133	 -0.153	  0.001	 27.200	 99.558	 -0.187
49123	  0.214	  0.024	  0.195	 -0.852	  1.990	 -9.117	  0.058	 -0.330	  0.262	 27.200	 99.547	  0.780
49173	  0.216	  0.025	  0.192	 -0.955	  1.972	 -8.576	  0.465	 -0.314	  0.271	 27.200	 99.558	 -0.187
49223	  0.223	  0.021	  0.201	 -1.513	  0.922	 -10.302	  0.116	 -0.401	 -0.017	 27.200	 99.554	  0.165
49274	  0.226	  0.028	  0.190	 -1.993	  1.188	 -7.820	 -0.058	 -0.074	 -0.197	 27.200	 99.551	  0.428
49323	  0.231	  0.018	  0.196	 -3.793	  1.680	 -10.480	  0.162	 -0.085	 -0.092	 27.200	 99.547	  0.780
49373	  0.227	  0.026	  0.200	 -2.295	  1.400	 -9.060	  0.233	  0.463	  0.139	 27.200	 99.547	  0.780
49423	  0.221	  0.023	  0.208	 -1.624	  0.997	 -10.247	  0.018	  0.371	  0.416	 27.200	 99.558	 -0.187
49473	  0.208	  0.025	  0.205	  0.013	  1.280	 -9.420	 -0.243	  0.356	  0.417	 27.200	 99.547	  0.780
49523	  0.203	  0.015	  0.200	  0.806	  2.927	 -8.205	  0.036	 -0.050	  0.011	 27.200	 99.547	  0.780
49573	  0.209	  0.021	  0.205	 -0.609	  1.892	 -8.011	  0.610	 -0.891	 -0.122	 27.200	 99.547	  0.780
49623	  0.224	  0.025	  0.202	 -3.439	  1.086	 -11.766	  0.645	 -0.712	 -0.388	 27.200	 99.558	 -0.187
49673	  0.227	  0.038	  0.202	 -3.304	 -0.832	 -14.781	  0.042	  0.581	 -0.225	 27.200	 99.547	  0.780
49723	  0.214	  0.029	  0.206	 -1.494	 -0.556	 -12.308	 -1.293	  0.662	  0.038	 27.200	 99.558	 -0.187
49773	  0.198	  0.021	  0.200	  0.058	  4.821	  0.633	 -0.430	  0.789	  0.296	 27.200	 99.547	  0.780
49824	  0.200	  0.026	  0.209	  0.315	  1.908	 -4.181	  0.755	 -0.357	 -0.107	 27.200	 99.570	 -1.240
49873	  0.211	  0.034	  0.213	 -2.209	 -1.153	 -17.546	  0.874	 -0.756	 -0.063	 27.200	 99.547	  0.780
49924	  0.207	  0.037	  0.207	 -3.737	 -2.615	 -20.026	 -0.595	  0.567	  0.180	 27.200	 99.547	  0.780
49973	  0.192	  0.023	  0.208	  0.677	  4.696	  2.189	 -0.687	  0.689	 -0.229	 27.200	 99.547	  0.780
50024	  0.201	  0.031	  0.219	  0.572	  3.180	 -3.804	  1.114	 -0.471	  0.017	 27.200	 99.547	  0.780
50074	  0.214	  0.051	  0.221	 -2.407	 -2.048	 -19.446	  0.176	 -0.252	  0.095	 27.200	 99.551	  0.428
50124	  0.207	  0.041	  0.211	 -1.269	 -0.412	 -12.662	 -0.339	  0.075	 -0.032	 27.200	 99.551	  0.428
50174	  0.206	  0.035	  0.212	 -1.381	  1.531	 -9.049	 -0.211	  0.115	  0.060	 27.200	 99.551	  0.428
50224	  0.205	  0.031	  0.210	 -0.900	  1.410	 -8.822	  0.013	 -0.092	  0.026	 27.200	 99.551	  0.428
50274	  0.207	  0.033	  0.214	 -1.250	  0.868	 -9.671	  0.066	  0.117	 -0.016	 27.200	 99.563	 -0.625
50324	  0.206	  0.038	  0.215	 -0.573	  0.819	 -10.456	 -0.049	  0.132	 -0.112	 27.200	 99.558	 -0.187
50374	  0.210	  0.035	  0.213	 -0.571	  0.755	 -10.181	 -0.333	 -0.030	 -0.217	 27.200	 99.563	 -0.625
50424	  0.214	  0.032	  0.211	 -0.689	  0.882	 -10.194	 -0.299	 -0.288	 -0.271	 27.200	 99.551	  0.428
50474	  0.223	  0.025	  0.205	 -2.552	  1.838	 -8.554	 -0.017	 -0.253	  0.151	 27.200	 99.551	  0.428
50524	  0.223	  0.023	  0.211	 -1.816	  1.039	 -9.689	  0.074	  0.220	  0.550	 27.200	 99.558	 -0.187
50574	  0.216	  0.033	  0.206	 -0.738	  1.630	 -9.623	 -0.142	  0.088	  0.199	 27.200	 99.551	  0.428
50624	  0.219	  0.018	  0.208	 -0.738	  1.778	 -9.537	  0.106	 -0.473	 -0.080	 27.200	 99.551	  0.428
50674	  0.225	  0.024	  0.199	 -1.877	  1.628	 -9.787	  0.207	 -0.181	 -0.064	 27.200	 99.551	  0.428
50724	  0.225	  0.033	  0.196	 -1.696	  1.316	 -9.972	  0.182	  0.108	  0.051	 27.200	 99.551	  0.428
50774	  0.224	  0.027	  0.207	 -2.549	  1.014	 -9.874	  0.203	  0.345	  0.143	 27.200	 99.551	  0.428
50824	  0.214	  0.032	  0.207	 -0.425	  1.185	 -9.355	  0.164	  0.520	  0.110	 27.200	 99.551	  0.428
50874	  0.204	  0.040	  0.209	 -0.803	  0.750	 -9.812	  0.063	  0.488	  0.222	 27.200	 99.544	  1.044
50924	  0.192	  0.034	  0.218	 -1.498	  0.856	 -10.583	 -0.080	  0.346	  0.184	 27.200	 99.540	  1.395
50974	  0.178	  0.025	  0.219	  0.216	  1.820	 -6.893	 -0.349	  0.687	  0.468	 27.200	 99.551	  0.428
51024	  0.170	  0.030	  0.221	 -0.341	  1.389	 -9.427	  0.528	  0.158	  0.566	 27.200	 99.551	  0.428
51074	  0.165	  0.032	  0.224	  0.475	 -0.347	 -10.382	  0.302	  0.167	  0.441	 27.200	 99.551	  0.428
51124	  0.157	  0.030	  0.226	  0.589	  0.437	 -9.945	  0.203	  0.022	  0.247	 27.200	 99.540	  1.395
51174	  0.161	  0.034	  0.231	 -0.262	  0.207	 -10.702	 -0.061	  0.088	 -0.030	 27.200	 99.563	 -0.625
51224	  0.157	  0.033	  0.223	  0.915	  0.799	 -10.365	 -0.092	 -0.064	 -0.044	 27.200	 99.540	  1.395
51274	  0.158	  0.035	  0.225	  0.580	  0.795	 -9.819	 -0.071	 -0.265	 -0.100	 27.200	 99.540	  1.395
51324	  0.165	  0.038	  0.220	 -0.377	  0.985	 -9.383	  0.069	 -0.271	 -0.075	 27.200	 99.551	  0.428
51374	  0.169	  0.035	  0.220	 -0.475	  0.594	 -10.064	  0.248	 -0.069	 -0.015	 27.200	 99.556	 -0.010
51423	  0.168	  0.037	  0.224	 -0.435	  0.065	 -10.236	 -0.027	  0.057	  0.027	 27.200	 99.551	  0.428
51473	  0.168	  0.037	  0.223	  0.115	  0.089	 -9.780	 -0.260	  0.093	 -0.085	 27.200	 99.556	 -0.010
51523	  0.168	  0.030	  0.220	  0.057	  1.140	 -9.455	 -0.222	 -0.069	 -0.125	 27.200	 99.556	 -0.010
51573	  0.169	  0.027	  0.217	 -0.646	  0.815	 -10.100	 -0.035	 -0.064	 -0.058	 27.200	 99.556	 -0.010
51623	  0.170	  0.030	  0.214	 -0.455	  0.969	 -9.727	 -0.040	 -0.066	 -0.045	 27.200	 99.551	  0.428
51673	  0.173	  0.034	  0.209	 -0.569	  0.572	 -10.008	 -0.062	 -0.019	 -0.072	 27.200	 99.551	  0.428
51723	  0.174	  0.032	  0.215	 -0.038	  0.738	 -9.371	 -0.050	 -0.037	 -0.062	 27.200	 99.551	  0.428
51773	  0.176	  0.039	  0.212	 -0.576	  1.078	 -9.464	  0.007	  0.065	 -0.025	 27.200	 99.556	 -0.010
51823	  0.177	  0.043	  0.216	  0.366	  0.406	 -9.833	 -0.088	 -0.180	 -0.073	 27.200	 99.551	  0.428
51873	  0.181	  0.034	  0.211	 -0.933	  0.932	 -12.230	 -0.143	 -0.340	 -0.109	 27.200	 99.556	 -0.010
51923	  0.183	  0.026	  0.209	 -0.701	  0.383	 -13.447	 -0.578	  0.166	 -0.086	 27.200	 99.556	 -0.010
51973	  0.176	  0.018	  0.204	 -0.244	  1.731	 -3.048	 -0.735	  0.238	 -0.121	 27.200	 99.556	 -0.010
52023	  0.182	  0.015	  0.201	 -0.891	  3.630	 -2.344	  0.501	 -0.352	 -0.132	 27.200	 99.556	 -0.010
52073	  0.192	  0.034	  0.203	 -1.229	 -1.046	 -17.426	  0.894	 -0.248	 -0.164	 27.200	 99.556	 -0.010
52123	  0.190	  0.034	  0.208	  0.241	 -0.593	 -14.480	 -0.424	  0.279	 -0.243	 27.200	 99.551	  0.428
52173	  0.186	  0.026	  0.206	 -0.712	  1.974	 -5.261	 -0.577	  0.144	 -0.007	 27.200	 99.556	 -0.010
52223	  0.183	  0.022	  0.210	 -0.579	  2.893	 -2.994	  0.788	 -0.079	  0.193	 27.200	 99.556	 -0.010
52273	  0.188	  0.042	  0.215	 -1.392	 -0.829	 -18.021	  0.917	 -0.010	 -0.025	 27.200	 99.556	 -0.010
52323	  0.186	  0.047	  0.217	  0.319	 -2.328	 -18.133	 -0.855	  0.418	 -0.237	 27.200	 99.544	  1.044
52373	  0.179	  0.040	  0.213	 -0.922	  3.487	 -0.777	 -0.972	  0.179	 -0.016	 27.200	 99.544	  1.044
52423	  0.182	  0.040	  0.213	 -0.797	  3.426	 -0.324	  0.897	 -0.203	  0.055	 27.200	 99.556	 -0.010
52473	  0.186	  0.047	  0.221	 -0.924	 -3.222	 -24.308	  1.194	 -0.298	  0.086	 27.200	 99.556	 -0.010
52523	  0.176	  0.047	  0.215	  1.011	 -1.000	 -11.012	 -1.812	  0.839	 -0.395	 27.200	 99.560	 -0.362
52573	  0.174	  0.029	  0.215	  1.018	  2.087	  8.997	 -0.322	 -0.558	 -0.262	 27.200	 99.540	  1.395
52623	  0.195	  0.048	  0.211	 -2.660	 -0.672	 -22.716	  2.049	 -1.073	  0.278	 27.200	 99.560	 -0.362
52673	  0.195	  0.050	  0.214	  0.457	 -1.746	 -17.082	 -2.015	  1.172	 -0.416	 27.200	 99.560	 -0.362
52723	  0.184	  0.029	  0.206	 -0.032	  5.868	  9.058	 -0.413	 -0.164	 -0.329	 27.200	 99.549	  0.604
52773	  0.189	  0.035	  0.209	 -1.624	  0.843	 -11.071	  1.604	 -0.781	  0.716	 27.200	 99.560	 -0.362
52823	  0.193	  0.044	  0.211	 -1.879	 -6.044	 -28.473	 -0.855	  0.957	 -0.063	 27.200	 99.556	 -0.010
52873	  0.184	  0.035	  0.215	 -0.238	  4.018	  3.638	 -0.753	  0.014	 -0.407	 27.200	 99.560	 -0.362
52923	  0.191	  0.027	  0.211	 -2.890	  1.908	 -6.653	  0.632	 -0.340	  0.267	 27.200	 99.560	 -0.362
52973	  0.189	  0.041	  0.215	 -0.969	 -0.130	 -13.328	  0.391	  0.219	  0.097	 27.200	 99.556	 -0.010
53023	  0.189	  0.042	  0.221	 -0.154	  0.474	 -10.475	  0.014	 -0.029	  0.072	 27.200	 99.560	 -0.362
53073	  0.192	  0.037	  0.206	 -1.376	  1.485	 -8.782	  0.010	 -0.168	  0.267	 27.200	 99.556	 -0.010
53123	  0.190	  0.042	  0.221	 -1.196	  0.819	 -9.080	  0.204	  0.085	  0.220	 27.200	 99.544	  1.044
53173	  0.186	  0.043	  0.218	 -0.494	  0.411	 -10.468	  0.228	 -0.041	  0.060	 27.200	 99.549	  0.604
53223	  0.186	  0.045	  0.219	 -0.825	  0.382	 -10.366	  0.107	  0.009	 -0.246	 27.200	 99.556	 -0.010
53273	  0.191	  0.056	  0.218	 -0.230	 -0.211	 -10.530	  0.158	 -0.051	 -0.064	 27.200	 99.549	  0.604
53323	  0.191	  0.058	  0.217	 -0.560	  0.249	 -10.055	 -0.092	 -0.109	  0.028	 27.200	 99.549	  0.604
53373	  0.189	  0.057	  0.217	 -0.425	  0.150	 -9.585	  0.040	  0.022	  0.284	 27.200	 99.549	  0.604
53423	  0.190	  0.053	  0.217	 -0.507	  0.651	 -10.070	 -0.001	  0.100	  0.430	 27.200	 99.560	 -0.362
53473	  0.182	  0.056	  0.213	 -0.313	  0.982	 -10.089	  0.014	  0.084	  0.352	 27.200	 99.549	  0.604
53523	  0.182	  0.054	  0.212	 -0.644	  1.318	 -9.934	 -0.007	 -0.032	  0.127	 27.200	 99.560	 -0.362
53573	  0.180	  0.051	  0.208	 -0.631	  1.180	 -9.862	  0.010	  0.123	  0.175	 27.200	 99.549	  0.604
53623	  0.179	  0.052	  0.213	 -0.503	  0.979	 -9.359	  0.036	 -0.020	  0.158	 27.200	 99.560	 -0.362
53673	  0.177	  0.048	  0.209	 -0.363	  1.070	 -9.734	  0.129	 -0.090	  0.117	 27.200	 99.560	 -0.362
53723	  0.175	  0.052	  0.207	 -0.719	  0.521	 -10.040	  0.032	 -0.109	  0.144	 27.200	 99.549	  0.604
53773	  0.173	  0.048	  0.211	 -0.556	  0.499	 -9.868	  0.033	 -0.050	  0.227	 27.200	 99.549	  0.604
53823	  0.171	  0.053	  0.205	 -0.674	  0.567	 -9.861	  0.059	 -0.057	  0.049	 27.200	 99.571	 -1.328
53873	  0.172	  0.046	  0.207	 -0.905	  0.306	 -9.536	  0.052	 -0.195	 -0.049	 27.200	 99.560	 -0.362
53923	  0.170	  0.055	  0.205	 -0.646	  0.021	 -9.970	  0.116	 -0.171	  0.010	 27.200	 99.549	  0.604
53973	  0.170	  0.052	  0.206	 -0.919	 -0.186	 -11.194	 -0.034	  0.171	 -0.072	 27.200	 99.560	 -0.362
54023	  0.170	  0.053	  0.207	 -0.589	  0.036	 -9.862	 -0.032	  0.065	  0.042	 27.200	 99.553	  0.253
54073	  0.170	  0.049	  0.207	 -0.252	  0.167	 -10.419	  0.025	 -0.096	 -0.005	 27.200	 99.549	  0.604
54123	  0.168	  0.053	  0.203	 -1.150	  0.316	 -9.499	 -0.002	  0.063	  0.055	 27.200	 99.549	  0.604
54173	  0.167	  0.055	  0.203	 -1.056	  0.562	 -10.083	  0.060	  0.029	  0.051	 27.300	 99.553	  0.253
54223	  0.165	  0.060	  0.202	 -0.548	  0.528	 -9.892	 -0.012	  0.178	 -0.013	 27.200	 99.564	 -0.714
54273	  0.162	  0.055	  0.207	 -0.522	  0.231	 -10.141	 -0.032	 -0.031	 -0.169	 27.200	 99.549	  0.604
54323	  0.163	  0.055	  0.209	 -0.588	  0.402	 -10.206	 -0.036	 -0.065	 -0.086	 27.200	 99.549	  0.604
54373	  0.162	  0.065	  0.204	 -0.873	  0.590	 -9.740	 -0.047	  0.066	 -0.048	 27.200	 99.549	  0.604
54423	  0.159	  0.052	  0.210	 -0.694	  0.488	 -9.481	  0.012	  0.213	 -0.082	 27.200	 99.564	 -0.714
54473	  0.149	  0.064	  0.205	 -0.266	  0.404	 -9.431	  0.098	  0.164	  0.008	 27.200	 99.549	  0.604
54523	  0.149	  0.057	  0.212	 -0.300	 -0.136	 -9.774	 -0.005	  0.057	 -0.035	 27.200	 99.549	  0.604
54573	  0.147	  0.060	  0.205	 -0.236	  0.087	 -9.416	  0.033	  0.056	 -0.032	 27.200	 99.564	 -0.714
54623	  0.145	  0.064	  0.212	 -0.311	 -0.068	 -9.619	  0.154	  0.055	  0.008	 27.300	 99.564	 -0.714
54673	  0.146	  0.065	  0.210	 -0.528	 -0.056	 -10.150	  0.198	  0.149	 -0.037	 27.200	 99.553	  0.253
54723	  0.143	  0.066	  0.216	  0.251	 -0.234	 -10.204	  0.183	  0.170	 -0.086	 27.200	 99.560	 -0.362
54773	  0.144	  0.074	  0.216	 -0.189	 -0.435	 -10.166	  0.017	 -0.145	 -0.142	 27.300	 99.564	 -0.714
54823	  0.146	  0.077	  0.216	 -0.124	 -0.027	 -9.618	  0.013	 -0.147	 -0.059	 27.200	 99.553	  0.253
54873	  0.149	  0.077	  0.207	 -0.553	  0.252	 -9.879	  0.069	 -0.245	 -0.092	 27.300	 99.568	 -1.064
54924	  0.152	  0.074	  0.211	 -0.548	  0.326	 -9.670	  0.017	  0.025	  0.019	 27.200	 99.538	  1.570
54973	  0.150	  0.068	  0.210	 -0.564	 -0.301	 -9.860	  0.045	 -0.021	  0.027	 27.200	 99.553	  0.253
55023	  0.153	  0.070	  0.213	 -0.776	 -0.249	 -9.751	 -0.026	 -0.030	 -0.019	 27.300	 99.553	  0.253
55073	  0.151	  0.070	  0.217	 -0.416	 -0.068	 -9.849	 -0.012	  0.037	  0.070	 27.300	 99.553	  0.253
55123	  0.152	  0.077	  0.209	 -0.567	  0.246	 -9.657	 -0.065	  0.084	 -0.048	 27.300	 99.542	  1.219
55173	  0.149	  0.072	  0.213	 -0.290	  0.186	 -9.967	  0.037	  0.072	 -0.047	 27.300	 99.557	 -0.098
55223	  0.151	  0.073	  0.215	 -0.451	 -0.246	 -9.959	  0.067	  0.038	  0.036	 27.300	 99.553	  0.253
55273	  0.149	  0.072	  0.217	 -0.247	 -0.036	 -10.038	  0.030	  0.042	 -0.024	 27.200	 99.549	  0.604
55323	  0.149	  0.078	  0.214	 -0.605	  0.338	 -9.798	  0.051	  0.028	 -0.017	 27.300	 99.553	  0.253
55373	  0.148	  0.073	  0.213	 -0.182	  0.183	 -9.657	  0.074	  0.050	 -0.013	 27.300	 99.542	  1.219
55423	  0.149	  0.079	  0.216	 -0.457	  0.337	 -9.378	  0.082	  0.140	  0.023	 27.300	 99.553	  0.253
55474	  0.145	  0.083	  0.218	 -0.104	  0.355	 -9.249	  0.230	  0.452	 -0.164	 27.200	 99.542	  1.219
55524	  0.132	  0.086	  0.231	  1.306	 -1.847	 -4.972	 -0.187	  0.435	  0.079	 27.300	 99.553	  0.253
55574	  0.132	  0.090	  0.228	  1.518	 -1.250	 -9.325	 -0.038	 -0.080	 -0.177	 27.300	 99.553	  0.253
55624	  0.133	  0.083	  0.232	  0.004	 -0.345	 -9.975	 -0.085	  0.022	 -0.005	 27.300	 99.542	  1.219
55674	  0.135	  0.091	  0.229	  0.369	 -0.713	 -9.841	 -0.090	 -0.054	 -0.003	 27.200	 99.553	  0.253
55724	  0.136	  0.084	  0.232	  0.007	 -0.046	 -9.757	 -0.210	 -0.040	 -0.002	 27.300	 99.564	 -0.714
55774	  0.137	  0.078	  0.225	  0.096	 -0.123	 -9.939	 -0.174	  0.014	 -0.011	 27.300	 99.542	  1.219
55824	  0.135	  0.080	  0.227	  0.125	  0.238	 -9.808	 -0.126	 -0.043	 -0.002	 27.300	 99.542	  1.219
55874	  0.135	  0.076	  0.225	 -0.147	  0.261	 -9.870	 -0.012	 -0.024	 -0.003	 27.300	 99.553	  0.253
55924	  0.136	  0.073	  0.228	  0.269	 -0.213	 -9.807	  0.051	  0.016	  0.006	 27.300	 99.553	  0.253
55974	  0.137	  0.077	  0.224	  0.181	 -0.252	 -9.938	 -0.142	 -0.021	 -0.014	 27.300	 99.557	 -0.098
56024	  0.140	  0.085	  0.222	  0.185	  0.029	 -9.845	 -0.199	 -0.008	 -0.005	 27.300	 99.542	  1.219
56074	  0.138	  0.072	  0.223	 -0.052	  0.669	 -9.714	 -0.103	 -0.022	  0.003	 27.300	 99.542	  1.219
56124	  0.139	  0.070	  0.218	  0.124	  0.185	 -9.845	  0.068	  0.014	 -0.001	 27.300	 99.553	  0.253
56174	  0.138	  0.076	  0.219	  0.001	 -0.032	 -9.996	 -0.031	 -0.012	 -0.002	 27.300	 99.557	 -0.098
56223	  0.140	  0.070	  0.217	  0.117	  0.327	 -9.850	 -0.010	  0.017	  0.001	 27.300	 99.542	  1.219
56273	  0.137	  0.070	  0.228	  0.018	  0.051	 -9.912	 -0.008	 -0.003	  0.000	 27.300	 99.542	  1.219
56323	  0.139	  0.073	  0.220	  0.092	  0.235	 -9.795	 -0.023	 -0.005	 -0.000	 27.300	 99.546	  0.868
56373	  0.139	  0.072	  0.224	  0.043	  0.216	 -9.877	  0.002	 -0.001	  0.000	 27.300	 99.546	  0.868
56424	  0.141	  0.074	  0.223	  0.090	  0.194	 -9.849	 -0.013	  0.002	  0.001	 27.300	 99.553	  0.253
56474	  0.138	  0.069	  0.222	  0.172	  0.209	 -9.788	 -0.009	  0.008	  0.000	 27.300	 99.553	  0.253
56524	  0.139	  0.069	  0.224	 -0.057	  0.166	 -9.973	 -0.025	 -0.004	 -0.001	 27.300	 99.546	  0.868
56574	  0.138	  0.064	  0.223	  0.025	  0.222	 -9.846	 -0.008	 -0.004	  0.000	 27.300	 99.546	  0.868
