Time	 MagX	 MagY	 MagZ	 AccelX	 AccelY	 AccelZ	 Yaw	 Pitch	 Roll	 Temperature	 Pressure	 Altitude
2244	  0.183	 -0.006	  0.201	  0.069	  0.188	 -9.481	  0.003	 -0.001	  0.011	 30.000	 99.481	 -99999.000
2293	  0.180	 -0.006	  0.201	  0.061	  0.181	 -9.455	  0.003	 -0.001	  0.011	 30.000	 99.505	 -99999.000
2343	  0.182	 -0.004	  0.199	  0.010	  0.194	 -9.477	  0.002	  0.001	  0.011	 30.000	 99.513	 -99999.000
2393	  0.179	 -0.009	  0.205	  0.106	  0.196	 -9.460	  0.003	 -0.000	  0.010	 30.000	 99.489	 -99999.000
2443	  0.180	 -0.006	  0.202	 -0.022	  0.190	 -9.496	  0.003	  0.000	  0.011	 30.000	 99.505	 -99999.000
2493	  0.181	 -0.004	  0.203	  0.079	  0.170	 -9.463	  0.004	  0.000	  0.010	 30.000	 99.493	 -99999.000
2543	  0.180	 -0.003	  0.202	  0.005	  0.187	 -9.486	  0.003	 -0.000	  0.011	 30.000	 99.489	 -99999.000
2594	  0.180	  0.007	  0.199	  0.094	  0.184	 -9.504	  0.002	 -0.001	  0.011	 30.000	 99.493	 -99999.000
2643	  0.182	  0.002	  0.201	  0.025	  0.195	 -9.485	  0.003	 -0.001	  0.011	 30.000	 99.489	 -99999.000
2694	  0.182	 -0.004	  0.201	  0.082	  0.159	 -9.463	  0.003	 -0.001	  0.010	 30.000	 99.493	 -99999.000
2744	  0.181	 -0.003	  0.202	  0.014	  0.157	 -9.507	  0.003	 -0.001	  0.011	 30.000	 99.489	 -99999.000
2794	  0.180	 -0.001	  0.199	  0.047	  0.190	 -9.497	  0.004	 -0.001	  0.011	 30.000	 99.489	 -99999.000
2844	  0.183	 -0.004	  0.204	  0.064	  0.192	 -9.507	  0.004	 -0.002	  0.011	 30.000	 99.489	 -99999.000
2894	  0.182	  0.003	  0.202	  0.039	  0.198	 -9.471	  0.002	 -0.001	  0.010	 30.000	 99.489	 -99999.000
2944	  0.181	  0.007	  0.203	  0.033	  0.165	 -9.465	  0.001	 -0.002	  0.011	 30.000	 99.493	 -99999.000
2994	  0.180	 -0.003	  0.203	  0.042	  0.198	 -9.450	  0.002	 -0.002	  0.011	 30.000	 99.489	 -99999.000
3044	  0.181	 -0.006	  0.201	  0.044	  0.183	 -9.496	  0.001	 -0.001	  0.011	 30.000	 99.489	 -99999.000
3094	  0.181	 -0.003	  0.205	  0.037	  0.182	 -9.498	  0.002	 -0.002	  0.011	 30.000	 99.493	 -99999.000
3144	  0.182	 -0.002	  0.206	  0.074	  0.169	 -9.485	  0.003	 -0.000	  0.011	 30.000	 99.493	 -99999.000
3194	  0.181	 -0.004	  0.198	  0.051	  0.199	 -9.479	  0.002	 -0.001	  0.011	 30.000	 99.493	 -99999.000
3244	  0.177	 -0.004	  0.199	  0.066	  0.181	 -9.478	  0.003	 -0.003	  0.011	 30.000	 99.489	 -99999.000
3294	  0.180	 -0.006	  0.197	  0.054	  0.202	 -9.466	  0.004	 -0.001	  0.010	 30.000	 99.493	 -99999.000
3344	  0.177	 -0.006	  0.201	  0.082	  0.154	 -9.492	  0.002	  0.000	  0.011	 30.000	 99.489	 -99999.000
3394	  0.181	 -0.007	  0.204	  0.037	  0.203	 -9.495	  0.003	 -0.002	  0.011	 30.000	 99.501	 -99999.000
3444	  0.181	  0.001	  0.195	  0.068	  0.159	 -9.511	  0.003	 -0.002	  0.011	 30.000	 99.489	 -99999.000
31620	  0.182	  0.001	  0.205	  0.057	  0.155	 -9.487	  0.003	 -0.001	  0.010	 30.000	 99.493	 -0.028
31670	  0.181	 -0.009	  0.205	  0.062	  0.159	 -9.485	  0.003	  0.001	  0.011	 30.000	 99.481	  1.077
31719	  0.177	 -0.002	  0.198	  0.060	  0.172	 -9.479	  0.004	 -0.001	  0.010	 30.000	 99.481	  1.077
31769	  0.181	 -0.002	  0.201	  0.004	  0.142	 -9.534	  0.003	 -0.001	  0.010	 30.000	 99.505	 -1.135
31819	  0.180	 -0.004	  0.203	  0.049	  0.159	 -9.477	  0.003	 -0.001	  0.011	 30.100	 99.481	  1.077
31869	  0.182	 -0.004	  0.202	  0.037	  0.157	 -9.513	  0.003	  0.000	  0.011	 30.000	 99.493	 -0.028
31919	  0.181	 -0.003	  0.202	  0.037	  0.195	 -9.500	  0.002	 -0.001	  0.010	 30.000	 99.497	 -0.398
31969	  0.182	 -0.004	  0.205	  0.010	  0.146	 -9.515	  0.002	  0.001	  0.010	 30.100	 99.497	 -0.398
32019	  0.181	 -0.006	  0.199	  0.069	  0.194	 -9.489	  0.002	 -0.002	  0.012	 30.100	 99.493	 -0.028
32069	  0.180	 -0.006	  0.203	  0.033	  0.175	 -9.505	  0.003	 -0.003	  0.011	 30.000	 99.481	  1.077
32119	  0.181	 -0.009	  0.201	  0.052	  0.187	 -9.497	  0.003	 -0.001	  0.012	 30.000	 99.485	  0.709
32169	  0.182	 -0.004	  0.202	  0.077	  0.194	 -9.459	  0.004	 -0.003	  0.010	 30.000	 99.493	 -0.028
32219	  0.180	 -0.011	  0.205	  0.063	  0.192	 -9.503	  0.003	 -0.002	  0.010	 30.100	 99.493	 -0.028
32269	  0.183	  0.007	  0.195	  0.068	  0.195	 -9.490	  0.003	 -0.002	  0.013	 30.000	 99.493	 -0.028
32319	  0.180	 -0.006	  0.203	  0.067	  0.195	 -9.486	  0.002	 -0.002	  0.011	 30.100	 99.481	  1.077
32369	  0.182	 -0.004	  0.195	  0.050	  0.181	 -9.480	  0.003	  0.000	  0.011	 30.100	 99.485	  0.709
32419	  0.183	 -0.004	  0.202	  0.086	  0.202	 -9.447	  0.002	 -0.001	  0.011	 30.100	 99.485	  0.709
32469	  0.178	  0.003	  0.195	  0.062	  0.198	 -9.514	  0.003	 -0.001	  0.011	 30.100	 99.485	  0.709
32519	  0.182	 -0.007	  0.202	  0.063	  0.190	 -9.515	  0.002	  0.000	  0.011	 30.100	 99.497	 -0.398
32569	  0.180	 -0.008	  0.204	  0.060	  0.168	 -9.444	  0.002	 -0.001	  0.010	 30.100	 99.497	 -0.398
32619	  0.182	 -0.006	  0.204	  0.092	  0.184	 -9.444	  0.003	 -0.002	  0.011	 30.000	 99.481	  1.077
32669	  0.178	  0.007	  0.200	  0.050	  0.172	 -9.488	  0.002	 -0.000	  0.010	 30.000	 99.493	 -0.028
32719	  0.182	  0.007	  0.201	  0.053	  0.192	 -9.489	  0.002	 -0.000	  0.011	 30.000	 99.497	 -0.398
32769	  0.184	  0.002	  0.203	  0.023	  0.179	 -9.477	  0.004	  0.000	  0.011	 30.000	 99.481	  1.077
32819	  0.181	 -0.002	  0.202	  0.027	  0.178	 -9.478	  0.002	 -0.001	  0.010	 30.000	 99.493	 -0.028
32869	  0.183	  0.008	  0.201	  0.022	  0.151	 -9.505	  0.003	  0.000	  0.010	 30.000	 99.493	 -0.028
32919	  0.178	 -0.003	  0.201	  0.027	  0.178	 -9.438	  0.004	 -0.002	  0.011	 30.000	 99.493	 -0.028
32969	  0.181	 -0.008	  0.202	  0.029	  0.154	 -9.502	  0.003	 -0.000	  0.011	 30.000	 99.481	  1.077
33019	  0.181	  0.003	  0.201	  0.033	  0.194	 -9.478	  0.003	 -0.001	  0.011	 30.000	 99.493	 -0.028
33069	  0.182	 -0.003	  0.204	  0.028	  0.194	 -9.502	  0.003	 -0.000	  0.011	 30.000	 99.493	 -0.028
33119	  0.181	 -0.004	  0.195	  0.054	  0.192	 -9.526	  0.002	 -0.002	  0.011	 30.000	 99.485	  0.709
33169	  0.178	 -0.007	  0.197	  0.029	  0.171	 -9.507	  0.003	 -0.003	  0.011	 30.100	 99.497	 -0.398
33219	  0.183	 -0.009	  0.204	  0.073	  0.225	 -9.505	  0.003	 -0.001	  0.011	 30.100	 99.481	  1.077
33269	  0.183	 -0.004	  0.197	  0.073	  0.185	 -9.500	  0.002	 -0.000	  0.011	 30.000	 99.493	 -0.028
33319	  0.181	 -0.009	  0.199	  0.041	  0.236	 -9.452	  0.002	  0.003	  0.011	 30.000	 99.493	 -0.028
33369	  0.183	 -0.007	  0.199	  0.079	  0.196	 -9.398	  0.004	 -0.001	  0.012	 30.100	 99.497	 -0.398
33419	  0.184	  0.006	  0.205	  0.047	  0.211	 -9.473	  0.002	 -0.001	  0.011	 30.100	 99.485	  0.709
33469	  0.181	 -0.003	  0.203	  0.067	  0.199	 -9.416	  0.003	  0.000	  0.010	 30.000	 99.493	 -0.028
33519	  0.181	 -0.008	  0.201	  0.070	  0.188	 -9.447	  0.003	 -0.002	  0.009	 30.000	 99.497	 -0.398
33569	  0.183	 -0.003	  0.201	  0.018	  0.187	 -9.526	  0.003	  0.000	  0.012	 30.000	 99.481	  1.077
33619	  0.185	 -0.009	  0.204	  0.126	  0.182	 -9.456	  0.003	 -0.001	  0.012	 30.000	 99.493	 -0.028
33669	  0.183	 -0.007	  0.199	 -0.002	  0.205	 -9.465	  0.003	 -0.001	  0.011	 30.100	 99.497	 -0.398
33719	  0.180	  0.001	  0.206	  0.097	  0.164	 -9.516	  0.002	 -0.000	  0.011	 30.100	 99.497	 -0.398
33769	  0.178	  0.002	  0.206	  0.011	  0.176	 -9.506	  0.003	 -0.000	  0.010	 30.000	 99.493	 -0.028
33819	  0.181	 -0.002	  0.201	  0.065	  0.180	 -9.498	  0.003	 -0.001	  0.011	 30.100	 99.485	  0.709
33869	  0.185	 -0.006	  0.202	  0.001	  0.188	 -9.431	  0.002	 -0.001	  0.010	 30.000	 99.493	 -0.028
33919	  0.182	 -0.012	  0.201	  0.059	  0.186	 -9.450	  0.003	 -0.001	  0.012	 30.000	 99.493	 -0.028
33969	  0.181	 -0.003	  0.199	 -0.014	  0.164	 -9.455	  0.002	 -0.001	  0.011	 30.000	 99.481	  1.077
34019	  0.182	 -0.004	  0.197	  0.075	  0.179	 -9.480	  0.002	  0.001	  0.011	 30.000	 99.493	 -0.028
34069	  0.184	 -0.003	  0.208	  0.079	  0.027	 -9.460	  0.008	 -0.001	  0.013	 30.000	 99.493	 -0.028
34119	  0.185	 -0.009	  0.194	  0.098	  0.195	 -9.485	  0.004	 -0.002	  0.010	 30.100	 99.497	 -0.398
34169	  0.183	  0.004	  0.203	 -0.032	  0.239	 -9.475	  0.002	 -0.001	  0.010	 30.000	 99.493	 -0.028
34219	  0.183	 -0.004	  0.199	  0.072	  0.176	 -9.504	  0.000	 -0.000	  0.012	 30.000	 99.481	  1.077
34269	  0.183	 -0.009	  0.208	 -0.008	  0.199	 -9.498	  0.001	  0.000	  0.011	 30.000	 99.493	 -0.028
34319	  0.182	 -0.009	  0.201	  0.170	  0.170	 -9.477	  0.007	 -0.001	  0.011	 30.000	 99.493	 -0.028
34369	  0.185	 -0.008	  0.202	  0.014	  0.119	 -9.530	  0.000	 -0.001	  0.008	 30.100	 99.497	 -0.398
34419	  0.187	 -0.007	  0.204	  0.075	  0.168	 -9.504	 -0.007	  0.001	  0.011	 30.000	 99.493	 -0.028
34469	  0.183	 -0.008	  0.202	 -0.427	  0.937	 -9.440	 -0.001	 -0.005	  0.149	 30.100	 99.497	 -0.398
34519	  0.183	 -0.012	  0.202	  0.049	  0.596	 -9.435	 -0.003	  0.011	  0.339	 30.000	 99.493	 -0.028
34569	  0.179	 -0.023	  0.205	  0.328	  0.732	 -9.604	 -0.026	  0.089	  0.365	 30.000	 99.493	 -0.028
34619	  0.176	 -0.027	  0.200	  0.568	  0.541	 -10.165	 -0.134	  0.335	  0.276	 30.100	 99.497	 -0.398
34669	  0.169	 -0.037	  0.217	  0.389	  0.522	 -9.985	  0.079	  0.302	  0.185	 30.000	 99.510	 -1.596
34719	  0.162	 -0.027	  0.225	  0.704	  0.273	 -10.028	  0.119	  0.180	  0.135	 30.100	 99.497	 -0.398
34769	  0.155	 -0.034	  0.214	  0.600	 -0.007	 -10.388	  0.138	 -0.180	  0.129	 30.000	 99.493	 -0.028
34819	  0.156	 -0.032	  0.208	 -0.590	 -0.252	 -10.865	 -0.112	 -0.282	  0.238	 30.100	 99.510	 -1.596
34870	  0.147	 -0.041	  0.204	 -0.677	 -0.152	 -10.685	 -0.332	  0.025	  0.404	 30.100	 99.493	 -0.028
34919	  0.137	 -0.063	  0.202	  0.213	  0.419	 -10.112	 -0.155	  0.214	  0.397	 30.100	 99.493	 -0.028
34970	  0.124	 -0.063	  0.196	  0.969	  0.472	 -9.274	  0.155	  0.131	  0.401	 30.000	 99.481	  1.077
35019	  0.114	 -0.053	  0.198	  1.262	  0.192	 -8.717	  0.274	 -0.132	  0.385	 30.100	 99.497	 -0.398
35070	  0.106	 -0.067	  0.186	  1.040	 -0.077	 -8.407	  0.141	 -0.332	  0.282	 30.000	 99.497	 -0.398
35120	  0.108	 -0.069	  0.177	  0.752	  0.072	 -8.034	 -0.080	 -0.427	  0.166	 30.000	 99.497	 -0.398
35170	  0.104	 -0.069	  0.167	  0.413	 -0.018	 -7.700	 -0.120	 -0.378	  0.196	 30.000	 99.493	 -0.028
35220	  0.107	 -0.076	  0.163	 -0.037	 -0.176	 -7.709	 -0.087	 -0.152	  0.162	 30.000	 99.510	 -1.596
35270	  0.104	 -0.072	  0.168	  0.010	 -0.058	 -8.028	  0.202	 -0.048	  0.060	 30.100	 99.497	 -0.398
35320	  0.113	 -0.071	  0.166	 -0.174	 -0.320	 -8.740	  0.290	 -0.009	  0.117	 30.100	 99.493	 -0.028
35370	  0.115	 -0.069	  0.176	 -0.230	 -0.433	 -9.280	  0.095	  0.009	  0.082	 30.000	 99.493	 -0.028
35420	  0.120	 -0.076	  0.181	 -0.184	 -0.052	 -9.345	 -0.109	 -0.058	 -0.013	 30.100	 99.493	 -0.028
35470	  0.124	 -0.078	  0.185	 -0.163	  0.045	 -9.388	 -0.255	 -0.179	 -0.053	 30.000	 99.493	 -0.028
35520	  0.131	 -0.082	  0.183	 -0.698	  0.162	 -9.837	 -0.345	 -0.156	 -0.062	 30.100	 99.485	  0.709
35570	  0.137	 -0.087	  0.182	 -1.078	  0.640	 -9.905	 -0.183	  0.023	  0.017	 30.000	 99.481	  1.077
35619	  0.137	 -0.087	  0.186	 -0.826	  0.805	 -10.242	 -0.053	  0.186	  0.161	 30.000	 99.481	  1.077
35669	  0.133	 -0.092	  0.197	 -0.780	  0.641	 -10.381	  0.014	  0.304	  0.170	 30.100	 99.497	 -0.398
35719	  0.129	 -0.098	  0.204	 -0.309	  0.492	 -10.477	  0.056	  0.332	  0.112	 30.000	 99.497	 -0.398
35769	  0.123	 -0.094	  0.209	 -0.084	  0.374	 -11.092	  0.095	  0.317	  0.025	 30.000	 99.493	 -0.028
35819	  0.116	 -0.096	  0.216	 -0.564	  1.094	 -13.620	  0.305	  0.310	  0.071	 30.000	 99.493	 -0.028
35869	  0.103	 -0.086	  0.227	  0.498	 -0.011	 -16.086	  0.383	  0.389	  0.258	 30.100	 99.497	 -0.398
35920	  0.077	 -0.084	  0.223	  0.988	  0.375	 -12.834	  0.027	  0.136	  0.290	 30.000	 99.493	 -0.028
35970	  0.062	 -0.078	  0.213	  2.208	  0.234	 -8.297	 -0.208	 -0.420	  0.343	 30.100	 99.497	 -0.398
36019	  0.043	 -0.094	  0.196	  1.305	 -0.157	 -3.986	 -0.613	 -0.377	  0.455	 30.000	 99.485	  0.709
36069	  0.037	 -0.110	  0.180	  0.483	 -0.183	 -2.757	 -0.699	 -0.116	  0.305	 30.100	 99.497	 -0.398
36119	  0.031	 -0.128	  0.184	 -0.555	  0.286	 -3.937	 -0.515	  0.269	  0.168	 30.100	 99.481	  1.077
36169	  0.033	 -0.135	  0.186	  0.269	  0.398	 -5.072	  0.047	  0.310	 -0.058	 30.000	 99.481	  1.077
36219	  0.036	 -0.129	  0.198	  0.510	  0.361	 -8.751	  0.268	  0.230	 -0.120	 30.100	 99.481	  1.077
36269	  0.039	 -0.121	  0.201	  0.627	  0.494	 -10.330	  0.129	  0.154	 -0.162	 30.100	 99.497	 -0.398
36319	  0.054	 -0.115	  0.211	  0.669	  0.406	 -10.663	  0.064	 -0.147	 -0.134	 30.000	 99.493	 -0.028
36369	  0.066	 -0.121	  0.207	  0.334	  0.054	 -10.500	 -0.100	 -0.281	 -0.144	 30.100	 99.497	 -0.398
36419	  0.078	 -0.120	  0.205	  0.233	  0.513	 -10.538	 -0.126	 -0.225	 -0.240	 30.100	 99.493	 -0.028
36469	  0.090	 -0.111	  0.205	  0.233	  0.686	 -10.331	 -0.027	 -0.050	 -0.238	 30.000	 99.481	  1.077
36519	  0.093	 -0.117	  0.212	  0.209	  0.751	 -9.819	  0.149	  0.038	 -0.160	 30.100	 99.493	 -0.028
36569	  0.100	 -0.107	  0.212	  0.177	  0.764	 -9.746	  0.218	  0.067	 -0.164	 30.000	 99.493	 -0.028
36619	  0.097	 -0.105	  0.223	  0.183	  0.867	 -9.680	  0.296	  0.024	 -0.129	 30.100	 99.497	 -0.398
36669	  0.107	 -0.100	  0.223	  0.144	  0.753	 -9.737	  0.327	 -0.040	 -0.041	 30.000	 99.493	 -0.028
36719	  0.108	 -0.083	  0.229	  0.160	  0.561	 -9.496	  0.282	 -0.144	  0.009	 30.100	 99.485	  0.709
36769	  0.114	 -0.089	  0.232	  0.102	  0.485	 -9.406	  0.225	 -0.172	  0.078	 30.100	 99.510	 -1.596
36819	  0.120	 -0.084	  0.227	 -0.031	  0.468	 -9.382	  0.342	 -0.166	  0.160	 30.100	 99.485	  0.709
36869	  0.126	 -0.083	  0.231	  0.189	 -0.157	 -9.758	  0.385	 -0.133	  0.109	 30.000	 99.481	  1.077
36919	  0.130	 -0.075	  0.218	  0.024	 -0.356	 -9.900	  0.233	 -0.019	 -0.043	 30.100	 99.481	  1.077
36969	  0.131	 -0.072	  0.237	 -0.049	 -0.268	 -9.774	  0.033	  0.099	 -0.083	 30.000	 99.493	 -0.028
37019	  0.131	 -0.063	  0.233	 -0.135	 -0.190	 -9.659	 -0.066	  0.152	 -0.055	 30.000	 99.497	 -0.398
37069	  0.128	 -0.073	  0.238	  0.042	 -0.083	 -9.440	 -0.159	  0.147	 -0.026	 30.000	 99.493	 -0.028
37119	  0.125	 -0.074	  0.245	  0.046	  0.042	 -9.208	 -0.098	  0.052	  0.032	 30.100	 99.493	 -0.028
37169	  0.127	 -0.080	  0.250	  0.180	 -0.152	 -9.700	 -0.081	 -0.131	  0.050	 30.100	 99.497	 -0.398
37219	  0.133	 -0.079	  0.242	 -0.100	  0.004	 -9.614	 -0.079	 -0.244	  0.076	 30.000	 99.497	 -0.398
37269	  0.135	 -0.078	  0.237	 -0.083	  0.233	 -9.512	 -0.189	 -0.154	  0.050	 30.100	 99.497	 -0.398
37319	  0.141	 -0.087	  0.233	 -0.274	  0.091	 -9.282	 -0.018	 -0.026	  0.130	 30.100	 99.497	 -0.398
37369	  0.139	 -0.079	  0.236	  0.019	 -0.330	 -9.672	 -0.210	  0.105	  0.070	 30.000	 99.493	 -0.028
37419	  0.134	 -0.098	  0.239	  0.120	  0.191	 -9.710	 -0.074	  0.371	  0.002	 30.000	 99.497	 -0.398
37469	  0.134	 -0.098	  0.239	 -0.127	  0.104	 -9.607	  0.007	  0.035	  0.033	 30.100	 99.497	 -0.398
37519	  0.132	 -0.103	  0.240	  0.242	  0.149	 -9.466	  0.006	 -0.001	  0.032	 30.100	 99.481	  1.077
37569	  0.135	 -0.095	  0.229	  0.111	  0.132	 -9.491	  0.004	 -0.005	  0.011	 30.000	 99.493	 -0.028
37619	  0.136	 -0.103	  0.237	  0.097	  0.180	 -9.496	  0.005	 -0.011	  0.011	 30.000	 99.493	 -0.028
37669	  0.132	 -0.099	  0.240	 -0.133	  0.134	 -9.429	  0.013	  0.026	  0.012	 30.000	 99.493	 -0.028
37719	  0.134	 -0.101	  0.239	 -0.248	  0.186	 -9.548	  0.003	  0.010	  0.010	 30.000	 99.493	 -0.028
37769	  0.134	 -0.099	  0.236	  0.250	  0.184	 -9.469	  0.001	  0.000	  0.010	 30.000	 99.493	 -0.028
37819	  0.136	 -0.089	  0.240	 -0.041	  0.168	 -9.492	  0.002	 -0.003	  0.010	 30.100	 99.497	 -0.398
37869	  0.134	 -0.102	  0.231	  0.127	  0.187	 -9.434	  0.003	  0.000	  0.011	 30.100	 99.485	  0.709
37919	  0.133	 -0.094	  0.240	  0.003	  0.165	 -9.474	  0.002	 -0.002	  0.010	 30.100	 99.493	 -0.028
37969	  0.136	 -0.099	  0.235	  0.083	  0.143	 -9.460	  0.004	 -0.001	  0.011	 30.100	 99.497	 -0.398
38019	  0.134	 -0.102	  0.239	  0.060	  0.181	 -9.342	  0.002	 -0.001	  0.011	 30.100	 99.510	 -1.596
38069	  0.134	 -0.101	  0.237	  0.142	  0.136	 -9.377	  0.001	  0.007	  0.011	 30.100	 99.485	  0.709
38119	  0.132	 -0.102	  0.237	  0.083	  0.216	 -9.424	  0.003	 -0.002	  0.010	 30.000	 99.497	 -0.398
38169	  0.135	 -0.103	  0.236	  0.082	  0.168	 -9.557	  0.002	 -0.001	  0.011	 30.100	 99.497	 -0.398
38219	  0.135	 -0.092	  0.236	  0.041	  0.182	 -9.422	  0.003	 -0.001	  0.011	 30.100	 99.497	 -0.398
38269	  0.132	 -0.102	  0.240	  0.057	  0.132	 -9.463	  0.002	  0.001	  0.011	 30.100	 99.497	 -0.398
38319	  0.134	 -0.102	  0.239	  0.036	  0.186	 -9.471	  0.003	  0.001	  0.010	 30.100	 99.497	 -0.398
38369	  0.136	 -0.089	  0.235	 -0.644	 -0.296	 -11.225	  0.003	 -0.012	  0.011	 30.000	 99.493	 -0.028
38419	  0.135	 -0.097	  0.233	 -0.029	  0.094	 -9.828	  0.001	  0.017	  0.009	 30.100	 99.493	 -0.028
38469	  0.132	 -0.097	  0.237	  0.099	  0.035	 -9.317	  0.003	 -0.007	  0.012	 30.000	 99.481	  1.077
38519	  0.129	 -0.103	  0.237	 -0.062	  0.212	 -9.637	  0.001	  0.002	  0.010	 30.100	 99.493	 -0.028
38569	  0.132	 -0.103	  0.240	  0.229	  0.174	 -9.440	  0.005	 -0.000	  0.011	 30.100	 99.510	 -1.596
38619	  0.133	 -0.092	  0.236	 -0.022	  0.154	 -9.574	  0.004	 -0.004	  0.011	 30.000	 99.481	  1.077
38669	  0.132	 -0.095	  0.237	 -0.001	  0.127	 -9.694	  0.001	 -0.001	  0.011	 30.100	 99.497	 -0.398
38719	  0.135	 -0.104	  0.242	  0.040	  0.159	 -9.513	  0.002	  0.002	  0.011	 30.100	 99.493	 -0.028
38769	  0.134	 -0.103	  0.228	  0.092	  0.172	 -9.400	  0.002	  0.001	  0.011	 30.100	 99.497	 -0.398
38819	  0.132	 -0.103	  0.240	  0.067	  0.211	 -9.456	  0.003	 -0.001	  0.011	 30.000	 99.497	 -0.398
38869	  0.130	 -0.095	  0.235	  0.101	  0.170	 -9.462	  0.002	 -0.001	  0.011	 30.100	 99.497	 -0.398
38919	  0.136	 -0.094	  0.233	  0.025	  0.166	 -9.461	  0.003	 -0.001	  0.012	 30.000	 99.497	 -0.398
38969	  0.131	 -0.098	  0.236	  0.077	  0.157	 -9.465	  0.003	 -0.001	  0.011	 30.000	 99.493	 -0.028
39019	  0.133	 -0.097	  0.235	  0.065	  0.185	 -9.433	  0.003	 -0.003	  0.011	 30.100	 99.497	 -0.398
39069	  0.135	 -0.106	  0.243	  0.076	  0.135	 -9.443	  0.003	 -0.002	  0.010	 30.000	 99.481	  1.077
39119	  0.133	 -0.089	  0.241	  0.037	  0.173	 -9.466	  0.002	 -0.001	  0.012	 30.100	 99.485	  0.709
39169	  0.132	 -0.099	  0.239	  0.069	  0.127	 -9.509	  0.002	 -0.002	  0.011	 30.100	 99.497	 -0.398
39219	  0.134	 -0.102	  0.239	  0.016	  0.178	 -9.490	  0.001	  0.000	  0.011	 30.100	 99.497	 -0.398
39269	  0.132	 -0.099	  0.236	  0.088	  0.151	 -9.500	  0.001	  0.001	  0.010	 30.000	 99.493	 -0.028
39319	  0.134	 -0.099	  0.237	  0.057	  0.192	 -9.460	  0.003	  0.001	  0.011	 30.100	 99.473	  1.815
39369	  0.135	 -0.107	  0.231	  0.065	  0.145	 -9.513	  0.002	 -0.001	  0.010	 30.000	 99.493	 -0.028
39419	  0.136	 -0.102	  0.236	  0.028	  0.210	 -9.505	  0.005	 -0.000	  0.012	 30.100	 99.497	 -0.398
39469	  0.134	 -0.103	  0.240	  0.037	  0.102	 -9.602	  0.004	  0.001	  0.010	 30.000	 99.481	  1.077
39519	  0.133	 -0.089	  0.236	  0.046	  0.193	 -9.507	  0.002	 -0.000	  0.010	 30.100	 99.497	 -0.398
39569	  0.132	 -0.092	  0.237	  0.056	  0.177	 -9.434	  0.002	 -0.003	  0.011	 30.000	 99.481	  1.077
39619	  0.133	 -0.089	  0.237	  0.007	  0.153	 -9.541	  0.004	 -0.001	  0.012	 30.100	 99.497	 -0.398
39669	  0.132	 -0.101	  0.235	  0.063	  0.144	 -9.487	  0.002	  0.000	  0.011	 30.000	 99.493	 -0.028
39719	  0.132	 -0.101	  0.236	  0.054	  0.197	 -9.588	  0.003	 -0.002	  0.011	 30.100	 99.497	 -0.398
39769	  0.132	 -0.099	  0.239	  0.081	  0.147	 -9.513	  0.002	  0.001	  0.011	 30.100	 99.497	 -0.398
39819	  0.131	 -0.102	  0.232	  0.087	  0.193	 -9.441	  0.003	 -0.002	  0.012	 30.100	 99.497	 -0.398
39869	  0.135	 -0.098	  0.240	  0.041	  0.146	 -9.486	  0.002	 -0.001	  0.009	 30.000	 99.481	  1.077
39919	  0.134	 -0.103	  0.235	  0.066	  0.191	 -9.504	  0.001	 -0.001	  0.010	 30.000	 99.493	 -0.028
39969	  0.130	 -0.098	  0.240	  0.057	  0.211	 -9.467	  0.001	 -0.006	  0.012	 30.100	 99.485	  0.709
40019	  0.131	 -0.103	  0.241	 -0.116	 -0.012	 -9.607	  0.002	  0.004	  0.012	 30.100	 99.493	 -0.028
40069	  0.132	 -0.093	  0.240	  0.191	  0.155	 -9.448	  0.003	 -0.002	  0.011	 30.100	 99.497	 -0.398
40119	  0.131	 -0.106	  0.243	  0.040	  0.191	 -9.522	  0.002	 -0.002	  0.011	 30.100	 99.485	  0.709
40169	  0.133	 -0.098	  0.236	  0.055	  0.125	 -9.487	  0.003	 -0.001	  0.010	 30.000	 99.493	 -0.028
40219	  0.132	 -0.097	  0.232	 -0.014	  0.175	 -9.490	  0.003	 -0.001	  0.011	 30.100	 99.497	 -0.398
40269	  0.134	 -0.098	  0.239	  0.127	  0.159	 -9.458	  0.002	 -0.001	  0.011	 30.000	 99.493	 -0.028
40319	  0.132	 -0.098	  0.239	 -0.000	  0.195	 -9.494	  0.002	 -0.001	  0.009	 30.000	 99.481	  1.077
40369	  0.134	 -0.099	  0.237	  0.156	  0.158	 -9.470	  0.005	 -0.003	  0.010	 30.100	 99.485	  0.709
40419	  0.135	 -0.103	  0.239	  0.035	  0.185	 -9.472	  0.003	 -0.001	  0.013	 30.000	 99.497	 -0.398
40469	  0.133	 -0.093	  0.236	  0.096	  0.151	 -9.465	  0.003	 -0.001	  0.011	 30.100	 99.485	  0.709
40519	  0.134	 -0.101	  0.240	  0.090	  0.425	 -9.449	  0.002	 -0.002	 -0.010	 30.100	 99.493	 -0.028
40569	  0.135	 -0.083	  0.238	 -0.204	  0.103	 -9.517	  0.004	  0.011	 -0.045	 30.000	 99.493	 -0.028
40620	  0.131	 -0.084	  0.237	  0.090	  0.109	 -9.475	  0.002	  0.002	  0.007	 30.100	 99.481	  1.077
40670	  0.134	 -0.107	  0.240	  0.125	  0.065	 -9.517	  0.004	 -0.003	  0.024	 30.000	 99.493	 -0.028
40720	  0.132	 -0.098	  0.231	  0.041	  0.159	 -9.507	  0.003	 -0.001	  0.018	 30.100	 99.493	 -0.028
40770	  0.131	 -0.098	  0.240	  0.073	  0.157	 -9.474	  0.003	 -0.001	  0.012	 30.100	 99.497	 -0.398
40820	  0.136	 -0.098	  0.233	  0.034	  0.164	 -9.477	  0.003	 -0.001	  0.012	 30.100	 99.493	 -0.028
40870	  0.135	 -0.099	  0.235	  0.108	  0.170	 -9.505	  0.003	 -0.003	  0.011	 30.100	 99.497	 -0.398
40920	  0.135	 -0.099	  0.235	  0.042	  0.175	 -9.487	  0.002	 -0.000	  0.018	 30.100	 99.497	 -0.398
40970	  0.137	 -0.098	  0.227	  0.093	  0.139	 -9.463	  0.001	  0.000	  0.014	 30.100	 99.497	 -0.398
41020	  0.131	 -0.101	  0.232	  0.060	  0.182	 -9.501	  0.003	 -0.001	  0.015	 30.100	 99.497	 -0.398
41070	  0.136	 -0.106	  0.231	  0.065	  0.206	 -9.485	  0.002	 -0.002	  0.030	 30.100	 99.497	 -0.398
41120	  0.135	 -0.102	  0.240	  0.036	  0.220	 -9.471	  0.004	 -0.002	  0.052	 30.100	 99.493	 -0.028
41170	  0.136	 -0.102	  0.239	  0.093	  0.213	 -9.497	  0.003	 -0.004	  0.086	 30.000	 99.505	 -1.135
41220	  0.137	 -0.101	  0.235	  0.043	  0.241	 -9.438	  0.004	 -0.002	  0.100	 30.100	 99.497	 -0.398
41270	  0.132	 -0.097	  0.237	  0.109	  0.231	 -9.473	  0.004	 -0.005	  0.118	 30.000	 99.493	 -0.028
41320	  0.130	 -0.109	  0.235	  0.077	  0.213	 -9.510	  0.004	 -0.002	  0.135	 30.000	 99.497	 -0.398
41370	  0.133	 -0.098	  0.233	  0.113	  0.174	 -9.487	  0.005	  0.002	  0.080	 30.100	 99.497	 -0.398
41420	  0.130	 -0.104	  0.240	 -0.074	 -0.005	 -9.471	  0.002	 -0.003	  0.049	 30.100	 99.485	  0.709
41470	  0.130	 -0.112	  0.231	  0.100	  0.140	 -9.489	  0.003	 -0.000	  0.012	 30.100	 99.497	 -0.398
41520	  0.132	 -0.113	  0.226	  0.017	  0.283	 -9.495	  0.003	 -0.001	  0.022	 30.000	 99.497	 -0.398
41570	  0.131	 -0.112	  0.236	  0.040	  0.246	 -9.505	  0.002	 -0.003	  0.098	 30.000	 99.493	 -0.028
41620	  0.131	 -0.111	  0.223	  0.037	  0.167	 -9.528	  0.004	 -0.007	  0.130	 30.100	 99.481	  1.077
41671	  0.128	 -0.107	  0.235	  0.134	  0.047	 -9.496	  0.002	 -0.009	  0.115	 30.000	 99.493	 -0.028
41720	  0.131	 -0.118	  0.235	  0.023	  0.079	 -9.485	  0.005	  0.000	  0.012	 30.000	 99.485	  0.709
41770	  0.129	 -0.118	  0.234	  0.090	  0.590	 -9.449	  0.003	  0.009	  0.039	 30.100	 99.497	 -0.398
41820	  0.126	 -0.125	  0.239	 -0.202	  0.121	 -9.539	  0.002	 -0.002	  0.213	 30.100	 99.497	 -0.398
41870	  0.131	 -0.115	  0.238	  0.256	 -0.002	 -9.500	  0.003	 -0.007	  0.213	 30.000	 99.493	 -0.028
41920	  0.130	 -0.132	  0.234	  0.171	  0.096	 -9.464	  0.004	 -0.006	  0.124	 30.000	 99.481	  1.077
41969	  0.128	 -0.131	  0.235	  0.209	  0.056	 -9.468	  0.001	 -0.007	  0.053	 30.100	 99.497	 -0.398
42019	  0.127	 -0.131	  0.235	 -0.084	  0.285	 -9.488	  0.003	  0.010	  0.033	 30.100	 99.485	  0.709
42069	  0.125	 -0.137	  0.235	 -0.097	  0.210	 -9.561	  0.002	 -0.006	  0.111	 30.000	 99.481	  1.077
42119	  0.127	 -0.131	  0.228	  0.037	  0.324	 -9.464	  0.007	 -0.003	  0.225	 30.100	 99.497	 -0.398
42169	  0.123	 -0.140	  0.234	  0.068	  0.061	 -9.472	  0.003	 -0.004	  0.267	 30.100	 99.485	  0.709
42219	  0.122	 -0.145	  0.231	  0.104	  0.061	 -9.425	  0.002	 -0.006	  0.214	 30.100	 99.485	  0.709
42269	  0.122	 -0.154	  0.233	  0.201	 -0.966	 -9.644	 -0.012	 -0.011	  0.147	 30.000	 99.493	 -0.028
42319	  0.119	 -0.155	  0.231	  0.167	  0.186	 -9.429	  0.002	 -0.002	  0.043	 30.100	 99.485	  0.709
42369	  0.119	 -0.154	  0.234	  0.088	  0.110	 -9.499	  0.002	 -0.001	  0.009	 30.100	 99.485	  0.709
42420	  0.122	 -0.154	  0.234	  0.064	  0.169	 -9.481	  0.003	 -0.001	  0.009	 30.000	 99.493	 -0.028
42469	  0.119	 -0.154	  0.231	  0.111	  0.125	 -9.468	  0.002	 -0.003	  0.012	 30.100	 99.485	  0.709
42519	  0.124	 -0.163	  0.230	 -0.051	  0.271	 -9.509	  0.005	  0.003	  0.074	 30.100	 99.497	 -0.398
42569	  0.124	 -0.155	  0.235	 -0.000	  0.405	 -9.479	  0.006	  0.001	  0.164	 30.100	 99.485	  0.709
42619	  0.121	 -0.165	  0.241	 -0.009	  0.362	 -9.528	  0.003	 -0.003	  0.270	 30.100	 99.485	  0.709
42669	  0.118	 -0.159	  0.237	 -0.202	 -0.515	 -9.320	 -0.002	 -0.006	  0.286	 30.100	 99.485	  0.709
42719	  0.151	 -0.199	  0.240	 -0.232	 -1.253	 -9.633	  0.001	  0.005	  0.109	 30.100	 99.497	 -0.398
42769	  0.120	 -0.199	  0.217	  0.527	  0.091	 -9.523	  0.003	  0.001	 -0.245	 30.100	 99.497	 -0.398
42819	  0.115	 -0.201	  0.208	  0.426	  1.196	 -9.538	  0.006	 -0.003	 -0.368	 30.000	 99.485	  0.709
42869	  0.116	 -0.184	  0.210	 -0.355	  1.271	 -9.553	  0.003	  0.005	 -0.135	 30.100	 99.510	 -1.596
42920	  0.114	 -0.199	  0.209	  0.064	  0.135	 -9.491	  0.002	  0.000	 -0.086	 30.100	 99.497	 -0.398
42970	  0.113	 -0.193	  0.210	  0.124	  0.134	 -9.480	  0.004	 -0.005	  0.014	 30.000	 99.493	 -0.028
43020	  0.110	 -0.188	  0.207	  0.054	  0.132	 -9.518	  0.003	  0.001	  0.011	 30.100	 99.497	 -0.398
43069	  0.109	 -0.189	  0.209	  0.107	  0.189	 -9.475	  0.004	 -0.002	  0.008	 30.100	 99.485	  0.709
43120	  0.111	 -0.189	  0.206	  0.097	  0.203	 -9.434	  0.003	 -0.002	  0.010	 30.000	 99.485	  0.709
43170	  0.110	 -0.190	  0.202	  0.053	  0.116	 -9.496	  0.001	  0.000	  0.010	 30.000	 99.493	 -0.028
43220	  0.109	 -0.183	  0.213	  0.043	  0.159	 -9.498	  0.003	 -0.002	  0.011	 30.100	 99.485	  0.709
43269	  0.104	 -0.187	  0.210	  0.093	  0.141	 -9.462	  0.003	 -0.001	  0.011	 30.100	 99.485	  0.709
43319	  0.106	 -0.184	  0.200	  0.044	  0.184	 -9.504	  0.003	 -0.001	  0.011	 30.000	 99.493	 -0.028
43369	  0.112	 -0.187	  0.209	  0.096	  0.132	 -9.428	  0.002	 -0.001	  0.011	 30.100	 99.497	 -0.398
43419	  0.108	 -0.187	  0.209	  0.050	  0.156	 -9.466	  0.001	 -0.001	  0.010	 30.100	 99.497	 -0.398
43469	  0.108	 -0.188	  0.209	  0.093	  0.136	 -9.444	  0.004	 -0.005	  0.010	 30.100	 99.485	  0.709
43519	  0.109	 -0.190	  0.205	  0.084	  0.145	 -9.480	  0.003	 -0.002	  0.011	 30.100	 99.497	 -0.398
43569	  0.112	 -0.187	  0.194	  0.071	  0.139	 -9.537	  0.003	 -0.001	  0.011	 30.100	 99.485	  0.709
43619	  0.109	 -0.177	  0.200	  0.060	  0.170	 -9.524	  0.004	 -0.002	  0.011	 30.100	 99.497	 -0.398
43669	  0.110	 -0.188	  0.199	  0.212	 -0.058	 -9.531	  0.004	 -0.004	  0.008	 30.100	 99.497	 -0.398
43719	  0.110	 -0.181	  0.190	 -0.028	  0.154	 -9.496	  0.004	 -0.002	  0.011	 30.000	 99.497	 -0.398
43769	  0.112	 -0.184	  0.194	  0.122	  0.133	 -9.501	  0.003	 -0.002	  0.009	 30.100	 99.485	  0.709
43819	  0.113	 -0.192	  0.194	  0.011	  0.145	 -9.496	  0.003	  0.000	  0.010	 30.100	 99.485	  0.709
43869	  0.114	 -0.174	  0.198	  0.134	  0.141	 -9.462	  0.002	 -0.001	  0.009	 30.100	 99.510	 -1.596
43919	  0.111	 -0.181	  0.199	  0.077	  0.155	 -9.513	  0.001	 -0.000	  0.010	 30.100	 99.497	 -0.398
43969	  0.111	 -0.183	  0.195	  0.074	  0.152	 -9.485	  0.002	  0.001	  0.011	 30.000	 99.493	 -0.028
44019	  0.112	 -0.187	  0.194	  0.094	  0.184	 -9.503	  0.003	 -0.001	  0.011	 30.100	 99.497	 -0.398
44069	  0.111	 -0.184	  0.190	  0.189	  0.163	 -9.463	  0.003	  0.004	  0.011	 30.100	 99.497	 -0.398
44119	  0.114	 -0.183	  0.197	 -0.030	  0.179	 -9.519	  0.003	  0.000	  0.011	 30.100	 99.497	 -0.398
44169	  0.114	 -0.181	  0.195	  0.071	  0.155	 -9.502	 -0.000	  0.001	  0.010	 30.100	 99.485	  0.709
44219	  0.109	 -0.188	  0.195	  0.048	  0.147	 -9.487	  0.001	  0.002	  0.008	 30.000	 99.497	 -0.398
44269	  0.114	 -0.182	  0.197	  0.085	  0.190	 -9.484	  0.000	 -0.000	 -0.287	 30.100	 99.497	 -0.398
44319	  0.111	 -0.176	  0.199	 -0.152	  0.213	 -9.453	  0.002	  0.008	  0.002	 30.100	 99.473	  1.815
44369	  0.112	 -0.174	  0.200	  0.102	  0.268	 -9.484	  0.005	 -0.001	 -0.044	 30.100	 99.497	 -0.398
44419	  0.115	 -0.176	  0.205	 -0.054	  0.239	 -9.409	  0.003	  0.008	 -0.013	 30.100	 99.485	  0.709
44469	  0.114	 -0.179	  0.202	  0.086	 -0.277	 -9.503	 -0.000	 -0.002	 -0.028	 30.000	 99.493	 -0.028
44519	  0.119	 -0.174	  0.203	  0.240	  0.273	 -9.359	  0.006	 -0.011	 -0.004	 30.100	 99.485	  0.709
44569	  0.114	 -0.167	  0.204	  0.078	  0.164	 -9.502	 -0.017	  0.073	 -0.103	 30.100	 99.497	 -0.398
44619	  0.115	 -0.172	  0.199	  0.666	  0.353	 -9.124	  0.027	 -0.083	  0.008	 30.100	 99.493	 -0.028
44669	  0.114	 -0.169	  0.200	  0.105	  0.133	 -9.432	  0.003	 -0.006	  0.009	 30.100	 99.485	  0.709
44719	  0.112	 -0.170	  0.200	  0.082	  0.138	 -9.499	  0.001	  0.003	  0.009	 30.100	 99.497	 -0.398
44769	  0.117	 -0.167	  0.205	  0.000	  0.153	 -9.483	  0.002	  0.001	 -0.002	 30.100	 99.497	 -0.398
44819	  0.114	 -0.169	  0.203	 -0.061	  0.012	 -9.640	 -0.023	  0.101	 -0.056	 30.100	 99.497	 -0.398
44869	  0.110	 -0.158	  0.201	  0.078	  0.067	 -9.529	 -0.032	  0.154	 -0.083	 30.100	 99.473	  1.815
44919	  0.114	 -0.165	  0.206	  0.385	  0.181	 -9.404	 -0.012	  0.081	 -0.392	 30.000	 99.493	 -0.028
44969	  0.112	 -0.149	  0.211	  0.345	  0.055	 -9.483	  0.005	  0.007	 -0.409	 30.100	 99.485	  0.709
45019	  0.118	 -0.151	  0.207	 -0.076	  0.445	 -9.586	  0.003	 -0.000	 -0.150	 30.100	 99.497	 -0.398
45069	  0.117	 -0.146	  0.213	  0.330	  0.073	 -9.442	  0.006	  0.001	 -0.128	 30.100	 99.497	 -0.398
45119	  0.123	 -0.138	  0.209	  8.305	  2.915	 -4.432	  0.082	 -0.385	  0.139	 30.000	 99.493	 -0.028
45169	  0.121	 -0.158	  0.200	  8.121	 -0.232	 -7.679	  0.047	  0.193	  1.197	 30.100	 99.485	  0.709
45219	  0.111	 -0.177	  0.208	 -1.403	 -0.034	 -10.126	 -0.009	  0.128	  0.455	 30.100	 99.497	 -0.398
45269	  0.108	 -0.159	  0.211	 -0.561	 -0.043	 -9.066	 -0.003	  0.067	 -0.135	 30.100	 99.497	 -0.398
45319	  0.106	 -0.173	  0.212	 -0.611	  0.659	 -9.639	  0.003	  0.007	 -0.120	 30.100	 99.497	 -0.398
45369	  0.104	 -0.168	  0.213	 -0.136	  0.571	 -9.533	  0.003	 -0.002	 -0.013	 30.000	 99.485	  0.709
45419	  0.105	 -0.165	  0.215	  0.124	  0.125	 -9.337	 -0.003	 -0.029	  0.011	 30.100	 99.497	 -0.398
45469	  0.105	 -0.169	  0.211	  0.251	  0.217	 -9.414	  0.004	 -0.002	  0.012	 30.100	 99.497	 -0.398
45519	  0.105	 -0.168	  0.212	 -0.033	  0.148	 -9.626	  0.002	  0.001	  0.010	 30.100	 99.497	 -0.398
45569	  0.105	 -0.167	  0.209	  0.134	  0.162	 -9.420	  0.003	 -0.002	  0.011	 30.100	 99.497	 -0.398
45619	  0.106	 -0.167	  0.213	  0.061	  0.154	 -9.473	  0.002	 -0.000	  0.012	 30.100	 99.497	 -0.398
45669	  0.106	 -0.172	  0.214	  0.147	  0.166	 -9.443	  0.003	 -0.003	  0.011	 30.000	 99.497	 -0.398
45719	  0.108	 -0.165	  0.212	  0.056	  0.144	 -9.496	  0.003	  0.001	  0.010	 30.100	 99.497	 -0.398
45769	  0.108	 -0.167	  0.212	 -0.011	  0.145	 -9.529	  0.002	 -0.002	  0.011	 30.100	 99.497	 -0.398
45819	  0.108	 -0.167	  0.208	  0.078	  0.161	 -9.474	  0.003	 -0.001	  0.011	 30.100	 99.497	 -0.398
45869	  0.109	 -0.167	  0.210	  0.041	  0.171	 -9.473	  0.003	 -0.001	  0.011	 30.100	 99.497	 -0.398
45920	  0.108	 -0.165	  0.207	  0.106	  0.162	 -9.496	  0.002	 -0.001	  0.010	 30.100	 99.497	 -0.398
45969	  0.109	 -0.151	  0.215	  0.086	  0.162	 -9.481	  0.004	 -0.001	  0.011	 30.100	 99.510	 -1.596
46019	  0.106	 -0.160	  0.207	  0.088	  0.152	 -9.466	  0.003	 -0.000	  0.010	 30.100	 99.497	 -0.398
46069	  0.106	 -0.149	  0.214	  0.052	  0.151	 -9.477	  0.002	 -0.001	  0.011	 30.100	 99.485	  0.709
46119	  0.109	 -0.164	  0.211	  0.119	  0.160	 -9.453	  0.003	 -0.001	  0.010	 30.100	 99.510	 -1.596
46169	  0.106	 -0.165	  0.215	  0.028	  0.141	 -9.495	  0.002	 -0.000	  0.009	 30.100	 99.485	  0.709
46219	  0.106	 -0.153	  0.212	  0.092	  0.147	 -9.506	  0.002	  0.001	  0.011	 30.100	 99.485	  0.709
46269	  0.104	 -0.168	  0.212	  0.047	  0.192	 -9.477	  0.002	 -0.002	  0.011	 30.100	 99.497	 -0.398
46319	  0.109	 -0.159	  0.205	  0.057	  0.160	 -9.482	  0.003	  0.001	  0.012	 30.100	 99.497	 -0.398
46370	  0.105	 -0.163	  0.215	  0.058	  0.163	 -9.440	  0.004	 -0.004	  0.011	 30.000	 99.497	 -0.398
46419	  0.105	 -0.165	  0.221	  0.035	  0.171	 -9.495	  0.003	  0.001	  0.011	 30.000	 99.510	 -1.596
46470	  0.108	 -0.164	  0.212	  0.006	  0.175	 -9.451	  0.003	 -0.003	  0.011	 30.100	 99.485	  0.709
46519	  0.104	 -0.167	  0.211	  0.095	  0.143	 -9.462	  0.003	 -0.001	  0.010	 30.100	 99.481	  1.077
46570	  0.106	 -0.165	  0.205	  0.014	  0.163	 -9.491	  0.003	  0.001	  0.011	 30.100	 99.493	 -0.028
46620	  0.102	 -0.170	  0.216	  0.012	  0.163	 -9.476	  0.003	 -0.000	  0.011	 30.000	 99.497	 -0.398
46670	  0.102	 -0.167	  0.200	  0.018	  0.114	 -9.494	  0.001	 -0.001	  0.011	 30.000	 99.493	 -0.028
46720	  0.102	 -0.167	  0.216	  0.070	  0.118	 -9.487	  0.002	 -0.002	  0.013	 30.100	 99.497	 -0.398
46770	  0.103	 -0.165	  0.215	  0.123	  0.149	 -9.485	  0.003	 -0.000	  0.010	 30.100	 99.497	 -0.398
46820	  0.100	 -0.159	  0.213	  0.010	  0.142	 -9.514	  0.002	  0.001	  0.011	 30.100	 99.505	 -1.135
46870	  0.104	 -0.172	  0.211	  0.133	  0.121	 -9.495	  0.001	 -0.000	  0.010	 30.100	 99.497	 -0.398
46920	  0.104	 -0.160	  0.213	 -0.033	  0.203	 -9.484	  0.003	  0.004	  0.009	 30.000	 99.497	 -0.398
46970	  0.104	 -0.167	  0.215	  0.017	  0.129	 -9.510	  0.003	  0.000	  0.012	 30.100	 99.497	 -0.398
47020	  0.104	 -0.164	  0.215	  0.326	  0.210	 -9.445	  0.004	 -0.004	  0.013	 30.100	 99.485	  0.709
47070	  0.104	 -0.167	  0.212	 -0.133	  0.156	 -9.510	  0.003	  0.002	  0.012	 30.000	 99.505	 -1.135
47120	  0.104	 -0.165	  0.211	  0.156	  0.186	 -9.486	  0.003	 -0.003	  0.010	 30.100	 99.481	  1.077
47170	  0.102	 -0.169	  0.211	  0.014	  0.165	 -9.514	  0.002	 -0.000	  0.011	 30.100	 99.497	 -0.398
47220	  0.103	 -0.168	  0.212	  0.075	  0.183	 -9.475	  0.003	 -0.001	  0.011	 30.100	 99.485	  0.709
47270	  0.103	 -0.170	  0.213	  0.077	  0.150	 -9.478	  0.002	 -0.002	  0.011	 30.100	 99.497	 -0.398
47320	  0.100	 -0.165	  0.205	  0.075	  0.198	 -9.509	  0.003	 -0.003	  0.011	 30.100	 99.497	 -0.398
47370	  0.102	 -0.167	  0.216	  0.062	  0.135	 -9.458	  0.003	 -0.001	  0.010	 30.100	 99.485	  0.709
47420	  0.102	 -0.170	  0.211	  0.007	  0.185	 -9.467	  0.003	 -0.002	  0.010	 30.100	 99.497	 -0.398
47470	  0.104	 -0.172	  0.209	  0.056	  0.130	 -9.489	  0.002	 -0.000	  0.011	 30.100	 99.497	 -0.398
47520	  0.103	 -0.168	  0.213	  0.102	  0.173	 -9.494	  0.003	 -0.003	  0.011	 30.100	 99.497	 -0.398
47570	  0.101	 -0.153	  0.213	  0.039	  0.130	 -9.462	  0.002	 -0.003	  0.011	 30.100	 99.485	  0.709
47620	  0.104	 -0.164	  0.209	  0.003	  0.183	 -9.510	  0.001	 -0.000	  0.011	 30.100	 99.497	 -0.398
47670	  0.105	 -0.167	  0.205	  0.121	  0.137	 -9.497	  0.003	 -0.001	  0.010	 30.000	 99.481	  1.077
47720	  0.103	 -0.167	  0.212	  0.033	  0.162	 -9.480	  0.001	 -0.003	  0.011	 30.100	 99.497	 -0.398
47770	  0.103	 -0.168	  0.211	  0.069	  0.147	 -9.447	  0.003	 -0.001	  0.011	 30.100	 99.497	 -0.398
47820	  0.102	 -0.172	  0.209	  0.078	  0.163	 -9.490	  0.004	 -0.000	  0.011	 30.100	 99.497	 -0.398
47870	  0.101	 -0.155	  0.217	  0.071	  0.119	 -9.519	  0.004	 -0.000	  0.012	 30.100	 99.497	 -0.398
47920	  0.103	 -0.167	  0.215	  0.036	  0.171	 -9.498	  0.002	 -0.000	  0.010	 30.000	 99.497	 -0.398
47970	  0.104	 -0.158	  0.208	  0.095	  0.156	 -9.497	  0.004	 -0.002	  0.010	 30.000	 99.493	 -0.028
48020	  0.099	 -0.165	  0.212	  0.052	  0.169	 -9.518	  0.004	 -0.002	  0.010	 30.100	 99.497	 -0.398
48070	  0.104	 -0.170	  0.212	  0.107	  0.137	 -9.480	  0.002	 -0.003	  0.011	 30.100	 99.485	  0.709
48120	  0.100	 -0.170	  0.211	 -0.105	  0.179	 -9.511	  0.002	  0.003	  0.011	 30.000	 99.485	  0.709
48170	  0.104	 -0.169	  0.212	 -0.070	  0.120	 -9.559	  0.003	  0.010	  0.011	 30.100	 99.497	 -0.398
48220	  0.102	 -0.168	  0.216	 -0.116	  0.153	 -9.559	  0.003	 -0.006	  0.011	 30.100	 99.485	  0.709
48270	  0.104	 -0.168	  0.208	  0.140	  0.139	 -9.516	  0.002	  0.004	  0.010	 30.100	 99.497	 -0.398
48320	  0.102	 -0.165	  0.212	  0.197	  0.184	 -9.441	  0.002	 -0.002	  0.011	 30.100	 99.497	 -0.398
48370	  0.104	 -0.164	  0.213	  0.136	  0.139	 -9.504	  0.002	 -0.005	  0.011	 30.100	 99.497	 -0.398
48420	  0.103	 -0.168	  0.211	 -0.001	  0.155	 -9.451	  0.001	 -0.001	  0.011	 30.100	 99.497	 -0.398
48470	  0.103	 -0.168	  0.215	  0.043	  0.147	 -9.491	  0.001	  0.001	  0.010	 30.100	 99.485	  0.709
48520	  0.103	 -0.173	  0.212	  0.061	  0.162	 -9.497	  0.003	  0.002	  0.011	 30.100	 99.510	 -1.596
48570	  0.105	 -0.169	  0.213	  0.100	  0.156	 -9.455	  0.003	  0.001	  0.011	 30.100	 99.497	 -0.398
48620	  0.103	 -0.169	  0.200	  0.028	  0.134	 -9.440	  0.002	 -0.002	  0.011	 30.100	 99.485	  0.709
48670	  0.104	 -0.159	  0.209	  0.078	  0.131	 -9.459	  0.004	 -0.000	  0.010	 30.000	 99.493	 -0.028
48720	  0.105	 -0.153	  0.213	  0.034	  0.174	 -9.498	  0.002	  0.008	  0.008	 30.100	 99.497	 -0.398
48770	  0.103	 -0.169	  0.211	  0.064	  0.112	 -9.500	  0.002	 -0.003	  0.005	 30.100	 99.497	 -0.398
48820	  0.103	 -0.164	  0.207	  0.059	  0.229	 -9.458	  0.002	 -0.001	 -0.003	 30.000	 99.485	  0.709
48870	  0.101	 -0.153	  0.213	  0.061	  0.140	 -9.501	  0.001	 -0.001	 -0.019	 30.000	 99.493	 -0.028
48920	  0.104	 -0.165	  0.207	  0.066	  0.182	 -9.462	  0.002	 -0.001	 -0.057	 30.100	 99.497	 -0.398
48970	  0.108	 -0.165	  0.218	  0.042	  0.092	 -9.468	  0.002	 -0.000	 -0.059	 30.100	 99.497	 -0.398
49020	  0.104	 -0.159	  0.212	 -0.066	  0.040	 -9.518	  0.002	  0.000	 -0.005	 30.000	 99.485	  0.709
49070	  0.104	 -0.165	  0.213	  0.054	  0.134	 -9.495	  0.003	 -0.000	  0.010	 30.100	 99.485	  0.709
49120	  0.105	 -0.163	  0.216	  0.029	  0.151	 -9.479	  0.001	 -0.001	  0.011	 30.100	 99.497	 -0.398
49170	  0.105	 -0.160	  0.208	  0.112	  0.157	 -9.468	  0.004	 -0.002	  0.012	 30.100	 99.485	  0.709
49220	  0.104	 -0.163	  0.216	  0.052	  0.167	 -9.537	  0.003	 -0.000	  0.011	 30.100	 99.493	 -0.028
49270	  0.106	 -0.155	  0.203	  0.076	  0.142	 -9.530	  0.002	 -0.003	  0.011	 30.100	 99.485	  0.709
49320	  0.105	 -0.162	  0.208	  0.071	  0.165	 -9.483	  0.004	 -0.003	  0.012	 30.100	 99.497	 -0.398
49370	  0.101	 -0.163	  0.209	  0.097	  0.147	 -9.482	  0.002	 -0.002	  0.010	 30.100	 99.497	 -0.398
49420	  0.104	 -0.167	  0.208	  0.083	  0.168	 -9.468	  0.002	 -0.007	  0.011	 30.000	 99.497	 -0.398
49470	  0.100	 -0.162	  0.214	  0.272	  0.134	 -9.462	 -0.000	 -0.052	  0.010	 30.100	 99.485	  0.709
49520	  0.104	 -0.163	  0.212	 -0.462	  0.077	 -9.561	  0.004	 -0.011	  0.012	 30.000	 99.485	  0.709
49570	  0.101	 -0.164	  0.212	 -0.166	  0.080	 -9.566	 -0.001	  0.025	  0.010	 30.100	 99.485	  0.709
49620	  0.104	 -0.160	  0.213	  0.113	  0.146	 -9.475	  0.001	 -0.002	  0.010	 30.100	 99.497	 -0.398
49670	  0.105	 -0.159	  0.213	  1.473	  0.256	 -9.132	  0.007	 -0.039	 -0.019	 30.000	 99.481	  1.077
49720	  0.104	 -0.158	  0.206	  0.264	  0.159	 -9.417	  0.004	  0.003	  0.010	 30.100	 99.485	  0.709
49770	  0.106	 -0.165	  0.212	  0.328	  0.127	 -9.447	  0.001	 -0.038	  0.011	 30.100	 99.497	 -0.398
49820	  0.105	 -0.158	  0.204	  0.042	  0.001	 -9.596	  0.003	  0.073	  0.006	 30.100	 99.497	 -0.398
49870	  0.106	 -0.163	  0.212	  0.672	  0.208	 -9.301	  0.004	 -0.009	 -0.124	 30.100	 99.497	 -0.398
49920	  0.110	 -0.149	  0.206	  0.112	  0.369	 -9.469	 -0.002	 -0.044	 -0.483	 30.100	 99.497	 -0.398
49970	  0.111	 -0.143	  0.214	  0.908	 -0.242	 -9.300	 -0.005	  0.055	 -0.278	 30.100	 99.497	 -0.398
50020	  0.115	 -0.134	  0.214	  0.581	 -0.007	 -9.415	  0.003	 -0.066	  0.022	 30.000	 99.497	 -0.398
50070	  0.115	 -0.141	  0.209	 -0.335	  0.080	 -9.515	  0.009	 -0.023	  0.033	 30.100	 99.497	 -0.398
50119	  0.109	 -0.136	  0.212	  0.770	  0.272	 -9.487	 -0.001	  0.079	  0.026	 30.000	 99.497	 -0.398
50169	  0.110	 -0.134	  0.212	  0.599	  0.159	 -9.386	  0.006	  0.023	  0.012	 30.000	 99.493	 -0.028
50219	  0.111	 -0.141	  0.209	  0.207	  0.191	 -9.459	  0.003	  0.001	  0.013	 30.100	 99.481	  1.077
50269	  0.111	 -0.125	  0.214	  0.010	  0.112	 -9.505	  0.006	 -0.013	  0.171	 30.100	 99.485	  0.709
50319	  0.111	 -0.140	  0.213	  0.438	  0.089	 -9.493	  0.009	  0.085	 -0.038	 30.100	 99.497	 -0.398
50369	  0.112	 -0.138	  0.206	  0.726	  0.076	 -9.408	  0.000	 -0.054	  0.012	 30.100	 99.497	 -0.398
50419	  0.107	 -0.140	  0.216	  0.845	  0.241	 -9.472	 -0.001	  0.003	  0.016	 30.100	 99.497	 -0.398
50469	  0.112	 -0.146	  0.211	  0.104	  0.112	 -9.503	  0.004	  0.030	  0.010	 30.100	 99.485	  0.709
50520	  0.106	 -0.148	  0.208	  0.021	  0.114	 -9.506	  0.002	 -0.021	  0.010	 30.100	 99.497	 -0.398
50569	  0.111	 -0.143	  0.202	  0.674	  0.253	 -9.309	  0.005	 -0.018	  0.012	 30.100	 99.485	  0.709
50619	  0.110	 -0.143	  0.211	 -0.109	  0.208	 -9.513	  0.001	 -0.009	  0.010	 30.100	 99.497	 -0.398
50669	  0.112	 -0.143	  0.215	  0.046	  0.097	 -9.521	  0.003	 -0.004	  0.011	 30.100	 99.497	 -0.398
50719	  0.110	 -0.145	  0.213	  0.036	  0.201	 -9.473	  0.004	 -0.003	  0.011	 30.100	 99.493	 -0.028
50769	  0.109	 -0.145	  0.214	  0.027	  0.142	 -9.456	  0.002	 -0.013	  0.010	 30.000	 99.481	  1.077
50819	  0.106	 -0.143	  0.208	  0.063	  0.175	 -9.452	  0.002	 -0.017	  0.009	 30.100	 99.497	 -0.398
50869	  0.110	 -0.136	  0.212	  0.027	  0.148	 -9.477	  0.002	 -0.006	  0.010	 30.100	 99.497	 -0.398
50919	  0.109	 -0.141	  0.212	 -0.073	  0.336	 -9.505	  0.003	 -0.009	 -0.039	 30.100	 99.493	 -0.028
50969	  0.113	 -0.136	  0.213	 -0.131	 -0.209	 -9.486	  0.002	  0.014	 -0.024	 30.100	 99.497	 -0.398
51019	  0.112	 -0.143	  0.212	  0.054	  0.161	 -9.481	  0.002	 -0.007	  0.012	 30.100	 99.485	  0.709
51069	  0.111	 -0.144	  0.211	 -0.179	  0.140	 -9.521	  0.006	  0.079	 -0.000	 30.100	 99.485	  0.709
51119	  0.111	 -0.144	  0.211	  0.048	  0.183	 -9.488	  0.002	 -0.003	 -0.187	 30.100	 99.497	 -0.398
51169	  0.111	 -0.139	  0.214	  0.230	  0.177	 -9.495	  0.002	 -0.013	 -0.015	 30.000	 99.493	 -0.028
51219	  0.108	 -0.129	  0.213	 -0.428	  0.190	 -9.495	  0.004	 -0.014	  0.003	 30.100	 99.497	 -0.398
51269	  0.112	 -0.127	  0.213	  0.085	  0.377	 -9.510	  0.002	  0.049	 -0.354	 30.100	 99.485	  0.709
51319	  0.117	 -0.115	  0.207	  0.184	  0.358	 -9.318	  0.003	 -0.013	 -0.513	 30.100	 99.497	 -0.398
51369	  0.119	 -0.117	  0.212	  0.329	  0.033	 -9.470	  0.019	 -0.117	  0.070	 30.100	 99.473	  1.815
51419	  0.116	 -0.117	  0.213	  0.389	  0.479	 -9.431	  0.007	 -0.059	  0.119	 30.100	 99.497	 -0.398
51469	  0.118	 -0.110	  0.213	  0.300	  0.212	 -9.427	  0.009	 -0.047	  0.011	 30.100	 99.485	  0.709
51519	  0.116	 -0.117	  0.209	  0.870	  0.241	 -9.417	  0.005	  0.010	  0.013	 30.100	 99.497	 -0.398
51569	  0.119	 -0.120	  0.213	  0.053	  0.259	 -9.488	 -0.003	  0.071	  0.009	 30.100	 99.485	  0.709
51619	  0.117	 -0.119	  0.213	 -0.678	  0.117	 -9.582	 -0.002	  0.025	  0.011	 30.100	 99.485	  0.709
51669	  0.118	 -0.117	  0.205	 -0.550	  0.141	 -9.566	  0.005	 -0.024	  0.011	 30.100	 99.485	  0.709
51719	  0.118	 -0.124	  0.205	 -0.054	  0.203	 -9.470	  0.001	  0.023	  0.010	 30.100	 99.497	 -0.398
51770	  0.116	 -0.121	  0.209	  0.085	  0.155	 -9.454	  0.003	  0.010	  0.011	 30.100	 99.485	  0.709
51819	  0.116	 -0.122	  0.214	 -0.283	  0.259	 -9.525	 -0.001	 -0.011	  0.011	 30.100	 99.497	 -0.398
51870	  0.113	 -0.121	  0.212	 -0.099	  0.148	 -9.532	  0.001	  0.002	  0.010	 30.100	 99.485	  0.709
51919	  0.116	 -0.108	  0.211	 -0.014	  0.196	 -9.481	  0.002	 -0.001	  0.010	 30.100	 99.489	  0.340
51969	  0.116	 -0.117	  0.213	  0.110	  0.128	 -9.450	  0.003	  0.000	  0.011	 30.000	 99.493	 -0.028
52019	  0.116	 -0.105	  0.215	  0.014	  0.170	 -9.496	  0.003	 -0.002	  0.011	 30.100	 99.485	  0.709
52070	  0.117	 -0.117	  0.207	  0.127	  0.139	 -9.469	  0.002	  0.000	  0.011	 30.100	 99.485	  0.709
52120	  0.114	 -0.115	  0.215	  0.034	  0.183	 -9.525	  0.002	 -0.002	  0.011	 30.100	 99.485	  0.709
52170	  0.114	 -0.106	  0.208	  0.125	  0.132	 -9.509	  0.003	 -0.003	  0.012	 30.100	 99.497	 -0.398
52220	  0.116	 -0.116	  0.212	  0.038	  0.199	 -9.470	  0.002	 -0.001	  0.012	 30.100	 99.497	 -0.398
52270	  0.116	 -0.117	  0.212	  0.105	  0.194	 -9.455	  0.002	 -0.025	  0.010	 30.100	 99.485	  0.709
52320	  0.117	 -0.117	  0.207	 -0.022	  0.172	 -9.522	  0.005	  0.025	  0.010	 30.100	 99.489	  0.340
52370	  0.118	 -0.113	  0.217	 -0.070	  0.109	 -9.558	  0.000	 -0.005	  0.010	 30.100	 99.485	  0.709
52420	  0.116	 -0.122	  0.214	 -1.000	 -0.138	 -9.753	 -0.003	  0.035	  0.027	 30.100	 99.497	 -0.398
52470	  0.116	 -0.110	  0.214	  0.041	  0.094	 -9.567	  0.003	 -0.013	  0.013	 30.100	 99.485	  0.709
52520	  0.117	 -0.117	  0.205	  0.028	  0.282	 -9.467	  0.004	  0.002	  0.011	 30.100	 99.497	 -0.398
52570	  0.117	 -0.119	  0.213	  0.067	  0.171	 -9.494	  0.004	  0.000	  0.012	 30.100	 99.485	  0.709
52619	  0.116	 -0.115	  0.209	 -0.012	  0.181	 -9.465	  0.003	 -0.000	  0.011	 30.100	 99.497	 -0.398
52670	  0.114	 -0.106	  0.213	  0.131	  0.167	 -9.479	  0.003	 -0.002	  0.010	 30.100	 99.497	 -0.398
52720	  0.116	 -0.116	  0.212	  0.046	  0.153	 -9.433	  0.002	 -0.001	  0.012	 30.100	 99.497	 -0.398
52770	  0.117	 -0.112	  0.213	  0.060	  0.170	 -9.471	  0.002	  0.000	  0.010	 30.100	 99.485	  0.709
52820	  0.116	 -0.111	  0.213	  0.005	  0.186	 -9.490	  0.002	  0.000	  0.010	 30.100	 99.485	  0.709
52870	  0.117	 -0.110	  0.217	  0.093	  0.163	 -9.468	  0.002	 -0.002	  0.011	 30.100	 99.497	 -0.398
52920	  0.119	 -0.110	  0.213	  0.061	  0.164	 -9.499	  0.003	  0.002	  0.010	 30.100	 99.497	 -0.398
52970	  0.114	 -0.113	  0.206	  0.100	  0.154	 -9.494	  0.002	 -0.000	  0.010	 30.100	 99.485	  0.709
53020	  0.117	 -0.113	  0.213	  0.038	  0.187	 -9.505	  0.003	 -0.000	  0.011	 30.100	 99.497	 -0.398
53070	  0.116	 -0.119	  0.213	  0.098	  0.137	 -9.483	  0.003	 -0.002	  0.011	 30.000	 99.481	  1.077
53120	  0.114	 -0.110	  0.214	  0.013	  0.189	 -9.503	  0.004	 -0.001	  0.009	 30.100	 99.473	  1.815
53170	  0.117	 -0.120	  0.213	  0.082	  0.150	 -9.485	  0.002	 -0.001	  0.010	 30.100	 99.497	 -0.398
53220	  0.114	 -0.106	  0.217	  0.024	  0.178	 -9.537	  0.001	 -0.001	  0.010	 30.100	 99.502	 -0.858
53270	  0.116	 -0.119	  0.210	  0.087	  0.176	 -9.494	  0.003	 -0.001	  0.010	 30.100	 99.485	  0.709
53320	  0.116	 -0.120	  0.209	  0.031	  0.181	 -9.474	  0.003	 -0.001	  0.011	 30.100	 99.485	  0.709
53370	  0.117	 -0.117	  0.214	  0.113	  0.139	 -9.491	  0.004	 -0.002	  0.011	 30.100	 99.485	  0.709
53420	  0.116	 -0.119	  0.217	  0.019	  0.193	 -9.506	  0.003	  0.001	  0.011	 30.100	 99.485	  0.709
53470	  0.116	 -0.117	  0.209	  0.176	  0.165	 -9.490	  0.003	 -0.011	  0.010	 30.100	 99.497	 -0.398
53520	  0.117	 -0.120	  0.214	 -0.128	  0.431	 -9.400	  0.002	  0.060	  0.005	 30.100	 99.485	  0.709
53570	  0.118	 -0.113	  0.214	  0.746	  0.197	 -9.399	  0.005	  0.015	  0.011	 30.100	 99.497	 -0.398
53620	  0.116	 -0.119	  0.213	 -0.454	  0.151	 -9.531	  0.002	 -0.000	  0.011	 30.100	 99.497	 -0.398
53670	  0.117	 -0.119	  0.212	  0.162	  0.167	 -9.482	  0.004	 -0.012	  0.011	 30.100	 99.473	  1.815
53720	  0.116	 -0.105	  0.207	  0.141	  0.197	 -9.476	  0.002	 -0.001	  0.012	 30.100	 99.485	  0.709
53770	  0.119	 -0.121	  0.216	  0.064	  0.126	 -9.503	  0.002	  0.005	  0.011	 30.100	 99.497	 -0.398
53820	  0.119	 -0.108	  0.210	  0.514	  0.206	 -9.419	  0.002	 -0.004	  0.011	 30.100	 99.485	  0.709
53870	  0.118	 -0.117	  0.209	  0.069	  0.122	 -9.469	 -0.002	  0.021	  0.003	 30.100	 99.485	  0.709
53920	  0.116	 -0.113	  0.205	  0.265	  0.228	 -9.499	 -0.001	  0.008	 -0.139	 30.100	 99.497	 -0.398
53970	  0.118	 -0.108	  0.213	  0.449	  0.152	 -9.427	  0.001	 -0.004	 -0.252	 30.100	 99.489	  0.340
54020	  0.119	 -0.108	  0.206	 -0.543	  0.101	 -9.466	  0.001	  0.003	 -0.157	 30.100	 99.497	 -0.398
54070	  0.120	 -0.094	  0.217	  0.129	  0.113	 -9.491	  0.002	  0.005	  0.013	 30.100	 99.485	  0.709
54120	  0.119	 -0.091	  0.215	  1.200	  0.385	 -9.167	  0.009	 -0.043	  0.004	 30.100	 99.497	 -0.398
54170	  0.119	 -0.102	  0.206	 -0.029	  0.156	 -9.494	  0.003	  0.001	  0.010	 30.100	 99.497	 -0.398
54220	  0.117	 -0.100	  0.213	  0.007	  0.171	 -9.485	  0.004	 -0.002	  0.011	 30.100	 99.497	 -0.398
54270	  0.119	 -0.101	  0.215	  0.113	  0.121	 -9.491	  0.002	 -0.002	  0.012	 30.100	 99.497	 -0.398
54320	  0.119	 -0.098	  0.214	  0.012	  0.166	 -9.484	  0.002	 -0.001	  0.010	 30.100	 99.497	 -0.398
54370	  0.114	 -0.105	  0.214	  0.087	  0.164	 -9.498	  0.002	  0.002	  0.010	 30.100	 99.485	  0.709
54420	  0.117	 -0.100	  0.215	  0.026	  0.203	 -9.472	  0.002	 -0.002	  0.012	 30.100	 99.485	  0.709
54470	  0.114	 -0.105	  0.208	  0.090	  0.160	 -9.493	  0.004	 -0.001	  0.011	 30.100	 99.497	 -0.398
54520	  0.118	 -0.101	  0.208	  0.030	  0.194	 -9.499	  0.003	 -0.001	  0.011	 30.100	 99.485	  0.709
54570	  0.118	 -0.098	  0.208	  0.137	  0.145	 -9.487	  0.003	 -0.002	  0.010	 30.100	 99.497	 -0.398
54620	  0.118	 -0.103	  0.211	  0.013	  0.183	 -9.528	  0.003	 -0.002	  0.011	 30.100	 99.497	 -0.398
54670	  0.118	 -0.100	  0.207	  0.095	  0.130	 -9.476	  0.002	 -0.001	  0.010	 30.100	 99.497	 -0.398
54720	  0.113	 -0.096	  0.219	  0.035	  0.202	 -9.472	  0.002	 -0.001	  0.010	 30.100	 99.497	 -0.398
54770	  0.119	 -0.102	  0.217	  0.096	  0.176	 -9.503	  0.002	  0.000	  0.011	 30.000	 99.493	 -0.028
54820	  0.117	 -0.102	  0.215	 -0.004	  0.173	 -9.508	  0.003	 -0.001	  0.010	 30.100	 99.485	  0.709
54870	  0.117	 -0.101	  0.207	  0.074	  0.150	 -9.475	  0.004	  0.000	  0.011	 30.100	 99.485	  0.709
54920	  0.118	 -0.093	  0.215	  0.007	  0.190	 -9.474	  0.002	 -0.001	  0.010	 30.100	 99.485	  0.709
54970	  0.117	 -0.103	  0.218	  0.115	  0.136	 -9.490	  0.003	 -0.000	  0.010	 30.100	 99.485	  0.709
55020	  0.120	 -0.105	  0.214	  0.025	  0.168	 -9.496	  0.003	 -0.001	  0.010	 30.100	 99.497	 -0.398
55070	  0.122	 -0.106	  0.220	  0.102	  0.156	 -9.456	  0.003	 -0.000	  0.010	 30.100	 99.497	 -0.398
55120	  0.122	 -0.110	  0.213	 -0.009	  0.186	 -9.510	  0.003	  0.000	  0.010	 30.100	 99.510	 -1.596
55170	  0.121	 -0.088	  0.214	  0.088	  0.133	 -9.454	  0.002	 -0.002	  0.010	 30.100	 99.497	 -0.398
55220	  0.119	 -0.108	  0.214	 -0.007	  0.188	 -9.499	  0.005	 -0.002	  0.011	 30.100	 99.502	 -0.858
55270	  0.119	 -0.100	  0.211	  0.070	  0.156	 -9.513	  0.002	 -0.002	  0.011	 30.100	 99.497	 -0.398
55320	  0.120	 -0.105	  0.211	  0.029	  0.206	 -9.460	  0.003	 -0.000	  0.010	 30.100	 99.485	  0.709
55370	  0.120	 -0.107	  0.213	  0.117	  0.150	 -9.461	  0.003	 -0.002	  0.010	 30.100	 99.485	  0.709
55420	  0.123	 -0.103	  0.212	  0.038	  0.194	 -9.494	  0.004	 -0.001	  0.010	 30.100	 99.497	 -0.398
55470	  0.120	 -0.105	  0.209	  0.107	  0.184	 -9.498	  0.003	 -0.002	  0.011	 30.100	 99.485	  0.709
55520	  0.125	 -0.105	  0.213	  0.033	  0.177	 -9.473	  0.003	 -0.002	  0.012	 30.100	 99.497	 -0.398
55570	  0.125	 -0.110	  0.209	  0.072	  0.170	 -9.506	  0.003	 -0.002	  0.011	 30.100	 99.485	  0.709
55620	  0.123	 -0.108	  0.213	  0.011	  0.205	 -9.495	  0.003	  0.000	  0.010	 30.100	 99.514	 -1.965
55670	  0.122	 -0.106	  0.199	  0.073	  0.157	 -9.539	  0.003	 -0.000	  0.010	 30.100	 99.485	  0.709
55720	  0.123	 -0.112	  0.217	  0.045	  0.197	 -9.518	  0.003	 -0.001	  0.011	 30.100	 99.502	 -0.858
55770	  0.123	 -0.111	  0.212	  0.101	  0.149	 -9.478	  0.003	 -0.001	  0.011	 30.100	 99.497	 -0.398
55820	  0.120	 -0.103	  0.210	  0.031	  0.202	 -9.505	  0.002	 -0.001	  0.011	 30.000	 99.481	  1.077
55870	  0.123	 -0.108	  0.207	  0.098	  0.174	 -9.500	  0.002	 -0.002	  0.010	 30.100	 99.497	 -0.398
55920	  0.120	 -0.106	  0.210	  0.012	  0.189	 -9.498	  0.003	 -0.000	  0.011	 30.100	 99.497	 -0.398
55970	  0.123	 -0.107	  0.202	  0.107	  0.157	 -9.482	  0.003	 -0.002	  0.011	 30.100	 99.497	 -0.398
56020	  0.124	 -0.102	  0.213	  0.012	  0.212	 -9.467	  0.001	 -0.001	  0.010	 30.100	 99.497	 -0.398
56070	  0.120	 -0.102	  0.211	  0.117	  0.146	 -9.469	  0.004	 -0.001	  0.011	 30.100	 99.502	 -0.858
56120	  0.120	 -0.103	  0.215	  0.009	  0.177	 -9.491	  0.003	 -0.000	  0.012	 30.100	 99.485	  0.709
56170	  0.122	 -0.110	  0.212	  0.075	  0.138	 -9.503	  0.003	  0.001	  0.010	 30.100	 99.502	 -0.858
56220	  0.125	 -0.110	  0.206	 -0.009	  0.162	 -9.485	  0.002	 -0.000	  0.010	 30.100	 99.485	  0.709
56270	  0.123	 -0.113	  0.214	  0.077	  0.136	 -9.472	  0.004	  0.000	  0.011	 30.100	 99.497	 -0.398
56320	  0.122	 -0.111	  0.212	  0.008	  0.177	 -9.463	  0.002	 -0.002	  0.011	 30.100	 99.497	 -0.398
56370	  0.122	 -0.093	  0.214	  0.075	  0.167	 -9.518	  0.003	 -0.000	  0.011	 30.100	 99.497	 -0.398
56420	  0.118	 -0.112	  0.207	  0.027	  0.202	 -9.472	  0.002	 -0.001	  0.012	 30.100	 99.485	  0.709
56469	  0.122	 -0.098	  0.210	  0.100	  0.165	 -9.504	  0.003	 -0.002	  0.011	 30.100	 99.485	  0.709
56520	  0.124	 -0.113	  0.212	  0.007	  0.214	 -9.479	  0.003	 -0.002	  0.011	 30.100	 99.485	  0.709
56570	  0.120	 -0.110	  0.207	  0.100	  0.142	 -9.492	  0.003	 -0.002	  0.010	 30.100	 99.497	 -0.398
56619	  0.120	 -0.094	  0.215	  0.012	  0.186	 -9.493	  0.002	 -0.000	  0.011	 30.100	 99.485	  0.709
56669	  0.122	 -0.101	  0.206	  0.098	  0.144	 -9.491	  0.003	 -0.001	  0.011	 30.100	 99.485	  0.709
56719	  0.120	 -0.110	  0.209	  0.041	  0.192	 -9.504	  0.002	 -0.002	  0.011	 30.100	 99.485	  0.709
56769	  0.120	 -0.106	  0.214	  0.123	  0.143	 -9.508	  0.002	 -0.002	  0.010	 30.100	 99.502	 -0.858
56819	  0.120	 -0.106	  0.206	  0.042	  0.194	 -9.500	  0.002	 -0.001	  0.011	 30.100	 99.485	  0.709
56869	  0.123	 -0.106	  0.212	  0.094	  0.192	 -9.478	  0.003	 -0.000	  0.011	 30.100	 99.497	 -0.398
56919	  0.124	 -0.108	  0.212	  0.037	  0.187	 -9.523	  0.002	 -0.001	  0.010	 30.100	 99.497	 -0.398
56969	  0.123	 -0.102	  0.210	  0.057	  0.166	 -9.500	  0.004	 -0.001	  0.010	 30.100	 99.497	 -0.398
57019	  0.122	 -0.111	  0.212	  0.080	  0.159	 -9.451	  0.002	  0.000	  0.011	 30.100	 99.485	  0.709
57069	  0.120	 -0.102	  0.210	  0.053	  0.149	 -9.491	  0.002	 -0.000	  0.011	 30.100	 99.485	  0.709
57119	  0.120	 -0.105	  0.213	  0.053	  0.184	 -9.478	  0.002	 -0.002	  0.011	 30.100	 99.485	  0.709
57169	  0.124	 -0.108	  0.213	  0.045	  0.184	 -9.491	  0.003	  0.000	  0.011	 30.100	 99.485	  0.709
57219	  0.124	 -0.110	  0.216	  0.030	  0.189	 -9.509	  0.003	  0.001	  0.011	 30.100	 99.497	 -0.398
57269	  0.122	 -0.102	  0.213	  0.076	  0.176	 -9.486	  0.002	 -0.000	  0.012	 30.100	 99.497	 -0.398
57319	  0.125	 -0.103	  0.210	  0.055	  0.172	 -9.482	  0.003	 -0.000	  0.010	 30.100	 99.481	  1.077
57369	  0.124	 -0.106	  0.210	  0.037	  0.147	 -9.484	  0.003	  0.000	  0.010	 30.100	 99.497	 -0.398
57419	  0.123	 -0.102	  0.210	  0.041	  0.182	 -9.506	  0.003	 -0.002	  0.011	 30.100	 99.485	  0.709
57469	  0.123	 -0.102	  0.214	  0.045	  0.162	 -9.458	  0.003	 -0.002	  0.011	 30.100	 99.485	  0.709
57519	  0.122	 -0.097	  0.213	  0.060	  0.168	 -9.486	  0.004	 -0.000	  0.011	 30.100	 99.485	  0.709
57569	  0.122	 -0.097	  0.215	  0.067	  0.174	 -9.479	  0.004	 -0.001	  0.011	 30.100	 99.485	  0.709
57620	  0.122	 -0.102	  0.213	  0.046	  0.180	 -9.498	  0.003	 -0.002	  0.010	 30.100	 99.497	 -0.398
57669	  0.123	 -0.108	  0.216	  0.112	  0.171	 -9.467	  0.002	  0.000	  0.011	 30.100	 99.489	  0.340
57719	  0.120	 -0.108	  0.212	  0.043	  0.179	 -9.507	  0.004	 -0.000	  0.011	 30.100	 99.497	 -0.398
57769	  0.123	 -0.093	  0.213	  0.069	  0.158	 -9.463	  0.002	 -0.002	  0.011	 30.100	 99.485	  0.709
57820	  0.124	 -0.107	  0.202	  0.059	  0.173	 -9.507	  0.002	 -0.002	  0.012	 30.100	 99.485	  0.709
57869	  0.123	 -0.106	  0.212	  0.127	  0.150	 -9.438	  0.003	 -0.001	  0.011	 30.100	 99.485	  0.709
57920	  0.123	 -0.110	  0.212	  0.065	  0.179	 -9.490	  0.002	 -0.002	  0.011	 30.000	 99.481	  1.077
57970	  0.123	 -0.105	  0.214	  0.113	  0.153	 -9.470	  0.003	 -0.000	  0.010	 30.100	 99.485	  0.709
58020	  0.124	 -0.103	  0.209	  0.030	  0.206	 -9.521	  0.003	 -0.000	  0.010	 30.100	 99.485	  0.709
58070	  0.122	 -0.108	  0.216	  0.110	  0.155	 -9.493	  0.002	  0.001	  0.011	 30.100	 99.497	 -0.398
58120	  0.122	 -0.106	  0.212	  0.024	  0.194	 -9.534	  0.003	 -0.001	  0.010	 30.100	 99.497	 -0.398
58170	  0.123	 -0.108	  0.212	  0.100	  0.139	 -9.465	  0.003	 -0.000	  0.011	 30.100	 99.485	  0.709
58220	  0.123	 -0.097	  0.213	  0.010	  0.185	 -9.471	  0.002	 -0.001	  0.011	 30.100	 99.497	 -0.398
58270	  0.124	 -0.098	  0.209	  0.108	  0.160	 -9.466	  0.002	  0.000	  0.011	 30.100	 99.497	 -0.398
58320	  0.122	 -0.113	  0.210	  0.010	  0.179	 -9.512	  0.002	  0.000	  0.011	 30.100	 99.489	  0.340
58370	  0.125	 -0.105	  0.206	  0.125	  0.141	 -9.471	  0.003	  0.000	  0.011	 30.100	 99.497	 -0.398
58420	  0.120	 -0.094	  0.214	 -0.005	  0.179	 -9.488	  0.003	 -0.001	  0.011	 30.100	 99.497	 -0.398
58470	  0.123	 -0.103	  0.210	  0.108	  0.171	 -9.493	  0.002	 -0.002	  0.011	 30.100	 99.485	  0.709
58520	  0.120	 -0.103	  0.211	 -0.002	  0.179	 -9.504	  0.003	 -0.000	  0.011	 30.100	 99.497	 -0.398
58570	  0.125	 -0.106	  0.212	  0.115	  0.124	 -9.464	  0.003	  0.000	  0.010	 30.100	 99.497	 -0.398
58620	  0.121	 -0.091	  0.214	  0.017	  0.182	 -9.514	  0.002	 -0.000	  0.011	 30.100	 99.485	  0.709
58670	  0.124	 -0.097	  0.210	  0.099	  0.125	 -9.476	  0.003	  0.001	  0.011	 30.100	 99.497	 -0.398
58720	  0.123	 -0.091	  0.213	  0.007	  0.202	 -9.506	  0.004	 -0.001	  0.011	 30.100	 99.497	 -0.398
58770	  0.124	 -0.105	  0.210	  0.130	  0.138	 -9.510	  0.004	  0.000	  0.011	 30.100	 99.485	  0.709
58820	  0.123	 -0.110	  0.212	  0.002	  0.194	 -9.486	  0.002	 -0.001	  0.010	 30.100	 99.497	 -0.398
58870	  0.122	 -0.110	  0.212	  0.109	  0.157	 -9.484	  0.003	 -0.000	  0.011	 30.100	 99.497	 -0.398
58920	  0.122	 -0.105	  0.210	  0.017	  0.201	 -9.487	  0.003	 -0.001	  0.011	 30.100	 99.485	  0.709
58970	  0.120	 -0.105	  0.202	  0.134	  0.155	 -9.486	  0.002	 -0.002	  0.011	 30.100	 99.485	  0.709
59020	  0.124	 -0.105	  0.206	  0.036	  0.200	 -9.448	  0.003	 -0.000	  0.011	 30.100	 99.497	 -0.398
59070	  0.119	 -0.107	  0.209	  0.132	  0.150	 -9.489	  0.002	 -0.001	  0.011	 30.100	 99.497	 -0.398
59120	  0.123	 -0.103	  0.212	  0.020	  0.184	 -9.508	  0.003	 -0.000	  0.011	 30.100	 99.485	  0.709
59170	  0.123	 -0.102	  0.210	  0.109	  0.168	 -9.506	  0.002	  0.001	  0.011	 30.100	 99.485	  0.709
59220	  0.120	 -0.106	  0.209	  0.013	  0.188	 -9.506	  0.001	 -0.000	  0.012	 30.100	 99.485	  0.709
59270	  0.119	 -0.101	  0.211	  0.115	  0.127	 -9.454	  0.002	 -0.001	  0.011	 30.100	 99.485	  0.709
59320	  0.122	 -0.094	  0.210	  0.005	  0.188	 -9.459	  0.004	  0.000	  0.010	 30.100	 99.485	  0.709
59370	  0.120	 -0.103	  0.213	  0.196	  0.088	 -9.499	  0.003	  0.001	  0.011	 30.100	 99.485	  0.709
59420	  0.123	 -0.107	  0.205	 -0.060	  0.175	 -9.522	 -0.002	  0.003	  0.011	 30.100	 99.489	  0.340
59470	  0.123	 -0.107	  0.212	  0.105	  0.149	 -9.483	  0.002	  0.000	  0.012	 30.100	 99.485	  0.709
59520	  0.123	 -0.110	  0.212	 -0.087	  0.258	 -9.451	 -0.001	  0.006	  0.012	 30.100	 99.497	 -0.398
59570	  0.124	 -0.108	  0.210	 -0.911	  0.432	 -9.433	 -0.002	 -0.008	  0.396	 30.100	 99.485	  0.709
59620	  0.118	 -0.125	  0.204	  0.955	  0.153	 -11.265	 -0.114	 -0.306	  0.681	 30.100	 99.485	  0.709
