Time	 MagX	 MagY	 MagZ	 AccelX	 AccelY	 AccelZ	 Yaw	 Pitch	 Roll	 Temperature	 Pressure	 Altitude
1259	  0.240	  0.149	  1.077	 -0.283	 -0.110	 -9.523	  0.002	 -0.001	  0.018	 29.200	 99.518	 -99999.000
1308	  0.241	  0.151	  1.074	 -0.256	 -0.068	 -9.491	  0.002	 -0.001	  0.019	 29.200	 99.505	 -99999.000
1358	  0.237	  0.151	  1.075	 -0.206	 -0.127	 -9.460	  0.001	 -0.002	  0.018	 29.200	 99.505	 -99999.000
1408	  0.242	  0.154	  1.074	 -0.213	 -0.084	 -9.491	  0.003	 -0.001	  0.018	 29.200	 99.505	 -99999.000
1458	  0.239	  0.147	  1.077	 -0.264	 -0.085	 -9.492	  0.004	 -0.001	  0.020	 29.200	 99.510	 -99999.000
1509	  0.241	  0.144	  1.064	 -0.159	 -0.093	 -9.470	  0.003	 -0.001	  0.020	 29.200	 99.505	 -99999.000
1558	  0.239	  0.154	  1.078	 -0.289	 -0.113	 -9.497	  0.003	 -0.001	  0.019	 29.200	 99.510	 -99999.000
1609	  0.241	  0.146	  1.071	 -0.188	 -0.104	 -9.463	  0.003	 -0.001	  0.019	 29.200	 99.510	 -99999.000
1658	  0.243	  0.151	  1.077	 -0.287	 -0.121	 -9.483	  0.003	 -0.001	  0.018	 29.200	 99.505	 -99999.000
1708	  0.237	  0.148	  1.071	 -0.218	 -0.112	 -9.483	  0.003	 -0.001	  0.020	 29.200	 99.493	 -99999.000
1758	  0.241	  0.148	  1.070	 -0.225	 -0.099	 -9.485	  0.003	  0.000	  0.020	 29.200	 99.493	 -99999.000
1809	  0.240	  0.153	  1.071	 -0.256	 -0.089	 -9.456	  0.003	 -0.001	  0.019	 29.200	 99.505	 -99999.000
1858	  0.240	  0.144	  1.077	 -0.225	 -0.077	 -9.476	  0.003	 -0.001	  0.020	 29.200	 99.518	 -99999.000
1909	  0.240	  0.151	  1.079	 -0.277	 -0.078	 -9.484	  0.003	 -0.001	  0.019	 29.200	 99.522	 -99999.000
1959	  0.237	  0.147	  1.074	 -0.196	 -0.091	 -9.500	  0.003	  0.000	  0.019	 29.200	 99.505	 -99999.000
2009	  0.241	  0.142	  1.067	 -0.282	 -0.095	 -9.506	  0.003	 -0.001	  0.020	 29.200	 99.505	 -99999.000
2059	  0.239	  0.147	  1.075	 -0.173	 -0.124	 -9.490	  0.003	 -0.000	  0.019	 29.200	 99.505	 -99999.000
2109	  0.241	  0.149	  1.077	 -0.273	 -0.085	 -9.496	  0.003	 -0.001	  0.019	 29.200	 99.493	 -99999.000
2159	  0.239	  0.144	  1.072	 -0.198	 -0.117	 -9.461	  0.003	 -0.000	  0.019	 29.200	 99.518	 -99999.000
2209	  0.239	  0.149	  1.074	 -0.223	 -0.093	 -9.481	  0.002	 -0.000	  0.018	 29.200	 99.510	 -99999.000
2259	  0.239	  0.151	  1.075	 -0.247	 -0.081	 -9.507	  0.002	 -0.000	  0.019	 29.200	 99.505	 -99999.000
2309	  0.244	  0.164	  1.075	 -0.181	 -0.105	 -9.463	  0.003	 -0.000	  0.019	 29.200	 99.505	 -99999.000
2359	  0.240	  0.151	  1.075	 -0.264	 -0.098	 -9.475	  0.002	 -0.001	  0.020	 29.200	 99.510	 -99999.000
2409	  0.239	  0.159	  1.071	 -0.171	 -0.118	 -9.473	  0.002	 -0.002	  0.019	 29.200	 99.493	 -99999.000
2459	  0.241	  0.144	  1.079	 -0.268	 -0.104	 -9.492	  0.003	  0.000	  0.019	 29.200	 99.505	 -99999.000
2509	  0.241	  0.149	  1.072	 -0.198	 -0.111	 -9.485	  0.003	 -0.001	  0.019	 29.200	 99.510	 -99999.000
2559	  0.239	  0.152	  1.076	 -0.261	 -0.072	 -9.480	  0.003	 -0.000	  0.018	 29.200	 99.497	 -99999.000
2609	  0.240	  0.156	  1.076	 -0.252	 -0.111	 -9.450	  0.002	 -0.001	  0.020	 29.200	 99.505	 -99999.000
2659	  0.242	  0.147	  1.079	 -0.205	 -0.089	 -9.474	  0.002	 -0.001	  0.019	 29.200	 99.505	 -99999.000
2709	  0.240	  0.153	  1.074	 -0.283	 -0.095	 -9.463	  0.003	 -0.001	  0.019	 29.200	 99.510	 -99999.000
2759	  0.241	  0.146	  1.075	 -0.157	 -0.125	 -9.468	  0.004	 -0.001	  0.019	 29.200	 99.510	 -99999.000
2809	  0.240	  0.146	  1.077	 -0.290	 -0.067	 -9.529	  0.003	 -0.001	  0.018	 29.200	 99.510	 -99999.000
2859	  0.240	  0.146	  1.077	 -0.200	 -0.122	 -9.491	  0.002	 -0.001	  0.019	 29.200	 99.493	 -99999.000
2909	  0.241	  0.159	  1.075	 -0.263	 -0.074	 -9.497	  0.002	 -0.001	  0.019	 29.200	 99.493	 -99999.000
2959	  0.243	  0.148	  1.077	 -0.234	 -0.089	 -9.525	  0.003	 -0.000	  0.019	 29.200	 99.522	 -99999.000
3009	  0.239	  0.151	  1.076	 -0.223	 -0.087	 -9.478	  0.001	 -0.001	  0.018	 29.200	 99.493	 -99999.000
3059	  0.242	  0.147	  1.073	 -0.289	 -0.088	 -9.507	  0.003	 -0.002	  0.019	 29.200	 99.505	 -99999.000
3109	  0.242	  0.148	  1.079	 -0.181	 -0.091	 -9.488	  0.002	  0.000	  0.019	 29.200	 99.505	 -99999.000
3159	  0.241	  0.149	  1.074	 -0.288	 -0.090	 -9.494	  0.003	 -0.000	  0.019	 29.200	 99.497	 -99999.000
3209	  0.241	  0.154	  1.075	 -0.176	 -0.109	 -9.473	  0.002	 -0.000	  0.019	 29.200	 99.493	 -99999.000
3259	  0.241	  0.149	  1.078	 -0.251	 -0.077	 -9.470	  0.002	 -0.001	  0.019	 29.200	 99.505	 -99999.000
3309	  0.240	  0.148	  1.072	 -0.210	 -0.085	 -9.453	  0.003	 -0.000	  0.019	 29.200	 99.510	 -99999.000
3359	  0.242	  0.148	  1.074	 -0.223	 -0.084	 -9.462	  0.003	  0.001	  0.019	 29.200	 99.497	 -99999.000
3409	  0.240	  0.149	  1.075	 -0.254	 -0.084	 -9.470	  0.003	 -0.001	  0.020	 29.200	 99.505	 -99999.000
3459	  0.239	  0.146	  1.072	 -0.195	 -0.104	 -9.473	  0.002	 -0.000	  0.019	 29.200	 99.505	 -99999.000
3509	  0.241	  0.150	  1.068	 -0.289	 -0.076	 -9.500	  0.002	 -0.000	  0.019	 29.200	 99.505	 -99999.000
3559	  0.242	  0.150	  1.069	 -0.177	 -0.114	 -9.490	  0.003	 -0.001	  0.019	 29.200	 99.505	 -99999.000
3609	  0.242	  0.156	  1.076	 -0.269	 -0.088	 -9.491	  0.002	 -0.001	  0.018	 29.200	 99.510	 -99999.000
3659	  0.243	  0.161	  1.074	 -0.208	 -0.109	 -9.423	  0.003	 -0.001	  0.019	 29.200	 99.510	 -99999.000
3709	  0.241	  0.148	  1.071	 -0.233	 -0.093	 -9.519	  0.003	 -0.000	  0.018	 29.200	 99.493	 -99999.000
3759	  0.240	  0.147	  1.078	 -0.257	 -0.105	 -9.452	  0.001	 -0.001	  0.019	 29.200	 99.505	 -99999.000
3809	  0.240	  0.159	  1.076	 -0.170	 -0.108	 -9.500	  0.003	 -0.001	  0.019	 29.200	 99.505	 -99999.000
3859	  0.239	  0.162	  1.077	 -0.302	 -0.096	 -9.480	  0.001	 -0.001	  0.019	 29.200	 99.493	 -99999.000
3909	  0.241	  0.154	  1.070	 -0.193	 -0.115	 -9.505	  0.004	 -0.000	  0.019	 29.200	 99.497	 -99999.000
3959	  0.242	  0.144	  1.074	 -0.280	 -0.093	 -9.459	  0.004	 -0.002	  0.019	 29.200	 99.505	 -99999.000
4009	  0.236	  0.156	  1.079	 -0.217	 -0.114	 -9.473	  0.002	 -0.001	  0.019	 29.200	 99.510	 -99999.000
4059	  0.242	  0.149	  1.075	 -0.246	 -0.078	 -9.488	  0.002	 -0.001	  0.018	 29.200	 99.510	 -99999.000
4109	  0.241	  0.147	  1.071	 -0.241	 -0.074	 -9.508	  0.003	 -0.001	  0.019	 29.200	 99.505	 -99999.000
4159	  0.242	  0.151	  1.077	 -0.182	 -0.098	 -9.442	  0.003	  0.000	  0.018	 29.200	 99.497	 -99999.000
4209	  0.241	  0.144	  1.067	 -0.277	 -0.083	 -9.521	  0.002	  0.001	  0.019	 29.200	 99.510	 -99999.000
5259	  0.241	  0.159	  1.078	 -0.281	 -0.098	 -9.488	  0.002	 -0.000	  0.019	 29.200	 99.505	 -99999.000
5309	  0.239	  0.151	  1.072	 -0.169	 -0.093	 -9.455	  0.002	 -0.001	  0.019	 29.200	 99.510	 -99999.000
5359	  0.237	  0.147	  1.077	 -0.295	 -0.072	 -9.494	  0.003	 -0.002	  0.019	 29.200	 99.510	 -99999.000
5409	  0.239	  0.147	  1.078	 -0.246	 -0.113	 -9.451	  0.002	  0.000	  0.019	 29.200	 99.493	 -99999.000
5458	  0.240	  0.147	  1.078	 -0.183	 -0.104	 -9.480	  0.002	 -0.001	  0.018	 29.200	 99.505	 -99999.000
5508	  0.241	  0.148	  1.077	 -0.268	 -0.096	 -9.487	  0.002	 -0.002	  0.018	 29.200	 99.510	 -99999.000
5558	  0.240	  0.151	  1.077	 -0.177	 -0.095	 -9.469	  0.003	 -0.001	  0.019	 29.200	 99.497	 -99999.000
5608	  0.237	  0.148	  1.071	 -0.291	 -0.092	 -9.485	  0.002	 -0.002	  0.018	 29.200	 99.510	 -99999.000
5659	  0.242	  0.144	  1.071	 -0.174	 -0.137	 -9.472	  0.003	 -0.001	  0.018	 29.200	 99.510	 -99999.000
5708	  0.239	  0.161	  1.075	 -0.271	 -0.074	 -9.498	  0.003	 -0.001	  0.019	 29.200	 99.510	 -99999.000
5758	  0.239	  0.149	  1.075	 -0.208	 -0.131	 -9.467	  0.002	  0.000	  0.019	 29.200	 99.510	 -99999.000
5808	  0.239	  0.144	  1.075	 -0.230	 -0.081	 -9.514	  0.002	 -0.002	  0.019	 29.200	 99.493	 -99999.000
5858	  0.243	  0.148	  1.069	 -0.273	 -0.086	 -9.497	  0.003	 -0.001	  0.019	 29.200	 99.493	 -99999.000
5908	  0.239	  0.147	  1.072	 -0.173	 -0.106	 -9.484	  0.002	  0.001	  0.018	 29.200	 99.497	 -99999.000
5958	  0.241	  0.144	  1.070	 -0.271	 -0.094	 -9.497	  0.003	 -0.001	  0.019	 29.200	 99.510	 -99999.000
6008	  0.241	  0.148	  1.075	 -0.204	 -0.111	 -9.489	  0.003	 -0.001	  0.020	 29.200	 99.510	 -99999.000
6058	  0.243	  0.148	  1.073	 -0.255	 -0.065	 -9.499	  0.003	  0.000	  0.018	 29.200	 99.497	 -99999.000
6108	  0.240	  0.148	  1.069	 -0.226	 -0.106	 -9.518	  0.003	 -0.002	  0.019	 29.200	 99.497	 -99999.000
6158	  0.241	  0.151	  1.079	 -0.210	 -0.082	 -9.470	  0.003	  0.001	  0.019	 29.200	 99.510	 -99999.000
6208	  0.241	  0.153	  1.071	 -0.258	 -0.087	 -9.513	  0.002	 -0.001	  0.020	 29.200	 99.510	 -99999.000
6258	  0.240	  0.158	  1.078	 -0.182	 -0.093	 -9.480	  0.004	  0.001	  0.018	 29.200	 99.510	 -99999.000
6308	  0.240	  0.156	  1.076	 -0.277	 -0.077	 -9.524	  0.002	 -0.000	  0.019	 29.200	 99.505	 -99999.000
6358	  0.239	  0.144	  1.079	 -0.185	 -0.119	 -9.465	  0.002	 -0.001	  0.018	 29.200	 99.510	 -99999.000
6408	  0.239	  0.144	  1.069	 -0.263	 -0.074	 -9.512	  0.003	 -0.000	  0.019	 29.200	 99.514	 -99999.000
6458	  0.237	  0.151	  1.078	 -0.202	 -0.085	 -9.489	  0.003	 -0.000	  0.018	 29.200	 99.497	 -99999.000
6508	  0.242	  0.148	  1.081	 -0.243	 -0.112	 -9.479	  0.003	 -0.000	  0.018	 29.200	 99.510	 -99999.000
6558	  0.239	  0.143	  1.073	 -0.254	 -0.118	 -9.483	  0.004	 -0.001	  0.018	 29.200	 99.505	 -99999.000
6608	  0.241	  0.151	  1.077	 -0.185	 -0.108	 -9.494	  0.001	 -0.001	  0.020	 29.200	 99.510	 -99999.000
6658	  0.241	  0.144	  1.069	 -0.265	 -0.104	 -9.467	  0.002	 -0.000	  0.018	 29.200	 99.510	 -99999.000
6709	  0.241	  0.143	  1.071	 -0.163	 -0.111	 -9.532	  0.003	 -0.001	  0.019	 29.200	 99.510	 -99999.000
6758	  0.239	  0.152	  1.078	 -0.270	 -0.092	 -9.481	  0.003	 -0.000	  0.018	 29.200	 99.510	 -99999.000
6808	  0.243	  0.147	  1.081	 -0.184	 -0.130	 -9.479	  0.002	 -0.001	  0.018	 29.200	 99.510	 -99999.000
6858	  0.240	  0.158	  1.076	 -0.242	 -0.105	 -9.475	  0.002	 -0.001	  0.020	 29.200	 99.510	 -99999.000
6908	  0.241	  0.146	  1.073	 -0.243	 -0.100	 -9.483	  0.002	 -0.002	  0.019	 29.200	 99.485	 -99999.000
6958	  0.240	  0.148	  1.066	 -0.188	 -0.127	 -9.487	  0.002	 -0.000	  0.018	 29.200	 99.485	 -99999.000
7008	  0.240	  0.151	  1.075	 -0.270	 -0.075	 -9.493	  0.003	 -0.000	  0.019	 29.200	 99.510	 -99999.000
7058	  0.240	  0.147	  1.075	 -0.158	 -0.116	 -9.485	  0.002	 -0.001	  0.018	 29.200	 99.510	 -99999.000
7108	  0.240	  0.149	  1.078	 -0.273	 -0.075	 -9.494	  0.003	 -0.001	  0.020	 29.200	 99.510	 -99999.000
7158	  0.242	  0.148	  1.075	 -0.186	 -0.133	 -9.480	  0.002	 -0.003	  0.020	 29.200	 99.522	 -99999.000
7208	  0.242	  0.154	  1.078	 -0.241	 -0.084	 -9.450	  0.002	 -0.001	  0.019	 29.200	 99.497	 -99999.000
7259	  0.242	  0.147	  1.069	 -0.241	 -0.101	 -9.504	  0.002	 -0.001	  0.018	 29.200	 99.510	 -99999.000
7309	  0.242	  0.153	  1.075	 -0.237	 -0.087	 -9.480	  0.002	 -0.001	  0.020	 29.200	 99.497	 -99999.000
7359	  0.239	  0.153	  1.072	 -0.226	 -0.096	 -9.513	  0.003	 -0.001	  0.018	 29.200	 99.510	 -99999.000
7409	  0.242	  0.154	  1.067	 -0.220	 -0.083	 -9.439	  0.003	 -0.002	  0.019	 29.200	 99.510	 -99999.000
7459	  0.237	  0.150	  1.067	 -0.275	 -0.080	 -9.500	  0.002	  0.000	  0.019	 29.200	 99.510	 -99999.000
7509	  0.242	  0.154	  1.074	 -0.176	 -0.128	 -9.482	  0.003	 -0.001	  0.019	 29.200	 99.510	 -99999.000
7559	  0.239	  0.143	  1.075	 -0.260	 -0.087	 -9.496	  0.004	 -0.001	  0.019	 29.200	 99.497	 -99999.000
7609	  0.242	  0.144	  1.070	 -0.198	 -0.117	 -9.473	  0.002	  0.001	  0.019	 29.200	 99.510	 -99999.000
7659	  0.240	  0.161	  1.079	 -0.261	 -0.059	 -9.492	  0.002	 -0.001	  0.018	 29.200	 99.510	 -99999.000
7709	  0.240	  0.147	  1.074	 -0.208	 -0.121	 -9.476	  0.002	 -0.000	  0.019	 29.200	 99.510	 -99999.000
7759	  0.240	  0.156	  1.076	 -0.228	 -0.100	 -9.470	  0.002	 -0.002	  0.019	 29.200	 99.510	 -99999.000
7809	  0.245	  0.152	  1.079	 -0.266	 -0.096	 -9.458	  0.003	 -0.000	  0.019	 29.200	 99.510	 -99999.000
7859	  0.240	  0.146	  1.077	 -0.172	 -0.121	 -9.468	  0.003	 -0.001	  0.020	 29.200	 99.497	 -99999.000
7909	  0.241	  0.146	  1.078	 -0.277	 -0.090	 -9.472	  0.001	 -0.001	  0.020	 29.200	 99.497	 -99999.000
7959	  0.240	  0.151	  1.077	 -0.178	 -0.121	 -9.497	  0.002	 -0.001	  0.018	 29.200	 99.497	 -99999.000
8009	  0.240	  0.144	  1.073	 -0.268	 -0.084	 -9.514	  0.003	 -0.000	  0.020	 29.200	 99.510	 -99999.000
8059	  0.239	  0.149	  1.074	 -0.231	 -0.112	 -9.493	  0.003	 -0.001	  0.019	 29.200	 99.497	 -99999.000
8109	  0.239	  0.146	  1.069	 -0.218	 -0.073	 -9.470	  0.003	 -0.002	  0.020	 29.200	 99.510	 -99999.000
8159	  0.241	  0.146	  1.067	 -0.258	 -0.089	 -9.477	  0.003	 -0.001	  0.019	 29.200	 99.510	 -99999.000
8209	  0.240	  0.157	  1.076	 -0.180	 -0.118	 -9.453	  0.003	 -0.001	  0.019	 29.200	 99.493	 -99999.000
22009	  0.240	  0.153	  1.077	 -0.236	 -0.092	 -9.509	  0.002	 -0.001	  0.019	 29.300	 99.518	 -1.164
22059	  0.239	  0.161	  1.079	 -0.227	 -0.115	 -9.493	  0.002	 -0.001	  0.019	 29.300	 99.506	 -0.061
22109	  0.240	  0.151	  1.079	 -0.197	 -0.092	 -9.465	  0.002	 -0.001	  0.019	 29.300	 99.506	 -0.061
22159	  0.241	  0.152	  1.071	 -0.256	 -0.068	 -9.521	  0.002	 -0.001	  0.019	 29.200	 99.514	 -0.797
22209	  0.239	  0.152	  1.081	 -0.159	 -0.123	 -9.472	  0.003	 -0.001	  0.019	 29.200	 99.502	  0.306
22259	  0.240	  0.147	  1.071	 -0.282	 -0.056	 -9.520	  0.002	 -0.001	  0.019	 29.300	 99.506	 -0.061
22309	  0.242	  0.148	  1.081	 -0.210	 -0.137	 -9.454	  0.003	 -0.002	  0.019	 29.300	 99.506	 -0.061
22359	  0.239	  0.152	  1.072	 -0.249	 -0.070	 -9.504	  0.003	 -0.000	  0.019	 29.300	 99.518	 -1.164
22409	  0.242	  0.161	  1.075	 -0.232	 -0.119	 -9.482	  0.002	 -0.001	  0.019	 29.300	 99.518	 -1.164
22459	  0.242	  0.156	  1.077	 -0.233	 -0.103	 -9.511	  0.003	 -0.000	  0.018	 29.300	 99.506	 -0.061
22509	  0.242	  0.152	  1.078	 -0.258	 -0.124	 -9.479	  0.002	 -0.001	  0.018	 29.300	 99.518	 -1.164
22559	  0.240	  0.151	  1.075	 -0.180	 -0.121	 -9.493	  0.003	 -0.000	  0.019	 29.300	 99.494	  1.041
22609	  0.240	  0.149	  1.079	 -0.270	 -0.073	 -9.485	  0.002	 -0.001	  0.019	 29.300	 99.506	 -0.061
22659	  0.240	  0.151	  1.079	 -0.147	 -0.115	 -9.486	  0.002	 -0.001	  0.019	 29.300	 99.518	 -1.164
22709	  0.240	  0.153	  1.077	 -0.275	 -0.099	 -9.508	  0.003	 -0.001	  0.019	 29.300	 99.506	 -0.061
22759	  0.241	  0.149	  1.079	 -0.202	 -0.118	 -9.496	  0.003	 -0.001	  0.019	 29.300	 99.506	 -0.061
22809	  0.240	  0.148	  1.075	 -0.252	 -0.076	 -9.462	  0.003	  0.000	  0.020	 29.200	 99.502	  0.306
22859	  0.239	  0.147	  1.081	 -0.258	 -0.139	 -9.411	  0.001	 -0.003	  0.019	 29.300	 99.506	 -0.061
22909	  0.239	  0.152	  1.077	 -0.211	 -0.079	 -9.602	  0.003	 -0.001	  0.018	 29.300	 99.518	 -1.164
22959	  0.240	  0.149	  1.078	 -0.269	 -0.089	 -9.426	  0.003	 -0.002	  0.020	 29.200	 99.489	  1.501
23009	  0.239	  0.152	  1.077	 -0.144	 -0.122	 -9.480	  0.003	 -0.002	  0.019	 29.200	 99.502	  0.306
23059	  0.242	  0.151	  1.075	 -0.280	 -0.074	 -9.487	  0.002	 -0.001	  0.019	 29.300	 99.506	 -0.061
23109	  0.241	  0.151	  1.075	 -0.185	 -0.110	 -9.480	  0.002	 -0.001	  0.018	 29.300	 99.506	 -0.061
23159	  0.242	  0.146	  1.078	 -0.247	 -0.104	 -9.488	  0.003	 -0.000	  0.019	 29.200	 99.489	  1.501
23209	  0.239	  0.153	  1.074	 -0.247	 -0.075	 -9.514	  0.003	 -0.001	  0.019	 29.300	 99.506	 -0.061
23259	  0.243	  0.147	  1.077	 -0.208	 -0.121	 -9.489	  0.003	 -0.001	  0.018	 29.300	 99.506	 -0.061
23309	  0.237	  0.151	  1.074	 -0.263	 -0.085	 -9.536	  0.003	 -0.001	  0.019	 29.300	 99.506	 -0.061
23359	  0.239	  0.154	  1.081	 -0.188	 -0.133	 -9.442	  0.003	  0.000	  0.019	 29.300	 99.494	  1.041
23409	  0.240	  0.148	  1.070	 -0.283	 -0.085	 -9.498	  0.002	  0.001	  0.018	 29.300	 99.518	 -1.164
23459	  0.237	  0.151	  1.074	 -0.193	 -0.127	 -9.464	  0.003	 -0.001	  0.019	 29.300	 99.518	 -1.164
23509	  0.237	  0.148	  1.073	 -0.252	 -0.066	 -9.484	  0.003	 -0.001	  0.018	 29.200	 99.502	  0.306
23559	  0.239	  0.146	  1.077	 -0.239	 -0.103	 -9.487	  0.002	 -0.001	  0.019	 29.300	 99.506	 -0.061
23610	  0.241	  0.147	  1.077	 -0.219	 -0.107	 -9.501	  0.003	 -0.001	  0.018	 29.300	 99.506	 -0.061
23659	  0.240	  0.151	  1.077	 -0.270	 -0.103	 -9.483	  0.002	 -0.001	  0.019	 29.300	 99.494	  1.041
23710	  0.243	  0.152	  1.079	 -0.188	 -0.110	 -9.484	  0.003	 -0.001	  0.020	 29.300	 99.494	  1.041
23759	  0.241	  0.152	  1.078	 -0.275	 -0.085	 -9.480	  0.002	 -0.000	  0.018	 29.200	 99.502	  0.306
23809	  0.241	  0.147	  1.066	 -0.236	 -0.128	 -9.464	  0.002	 -0.002	  0.019	 29.300	 99.506	 -0.061
23859	  0.242	  0.148	  1.073	 -0.232	 -0.106	 -9.470	  0.003	 -0.001	  0.020	 29.300	 99.494	  1.041
23909	  0.240	  0.149	  1.069	 -0.282	 -0.090	 -9.485	  0.002	 -0.002	  0.018	 29.200	 99.506	 -0.061
23959	  0.240	  0.147	  1.077	 -0.194	 -0.080	 -9.492	  0.003	 -0.001	  0.019	 29.300	 99.506	 -0.061
24009	  0.242	  0.149	  1.083	 -0.291	 -0.084	 -9.473	  0.003	 -0.000	  0.018	 29.300	 99.518	 -1.164
24059	  0.241	  0.152	  1.071	 -0.197	 -0.128	 -9.495	  0.003	  0.000	  0.019	 29.300	 99.506	 -0.061
24110	  0.241	  0.148	  1.079	 -0.254	 -0.094	 -9.505	  0.003	 -0.000	  0.019	 29.300	 99.514	 -0.797
24160	  0.242	  0.149	  1.078	 -0.194	 -0.128	 -9.477	  0.002	 -0.001	  0.019	 29.300	 99.518	 -1.164
24210	  0.240	  0.148	  1.081	 -0.263	 -0.066	 -9.477	  0.003	  0.001	  0.018	 29.200	 99.502	  0.306
24260	  0.242	  0.148	  1.078	 -0.225	 -0.094	 -9.474	  0.002	 -0.001	  0.019	 29.300	 99.494	  1.041
24310	  0.242	  0.163	  1.079	 -0.237	 -0.076	 -9.498	  0.002	 -0.002	  0.019	 29.300	 99.506	 -0.061
24360	  0.241	  0.144	  1.074	 -0.270	 -0.092	 -9.502	  0.003	 -0.001	  0.019	 29.300	 99.506	 -0.061
24410	  0.240	  0.153	  1.078	 -0.201	 -0.116	 -9.486	  0.003	  0.000	  0.018	 29.300	 99.506	 -0.061
24460	  0.239	  0.157	  1.076	 -0.271	 -0.095	 -9.471	  0.002	 -0.002	  0.019	 29.300	 99.510	 -0.430
24510	  0.243	  0.144	  1.071	 -0.187	 -0.098	 -9.472	  0.004	 -0.000	  0.019	 29.300	 99.506	 -0.061
24560	  0.241	  0.153	  1.078	 -0.274	 -0.089	 -9.530	  0.002	 -0.001	  0.019	 29.300	 99.518	 -1.164
24610	  0.239	  0.152	  1.077	 -0.207	 -0.105	 -9.489	  0.003	 -0.000	  0.018	 29.300	 99.506	 -0.061
24660	  0.239	  0.151	  1.081	 -0.235	 -0.104	 -9.452	  0.003	 -0.001	  0.018	 29.300	 99.494	  1.041
24710	  0.241	  0.146	  1.075	 -0.250	 -0.093	 -9.483	  0.002	  0.001	  0.020	 29.300	 99.506	 -0.061
24760	  0.242	  0.148	  1.078	 -0.204	 -0.092	 -9.507	  0.002	  0.000	  0.018	 29.300	 99.518	 -1.164
24810	  0.239	  0.148	  1.078	 -0.295	 -0.092	 -9.461	  0.003	 -0.001	  0.019	 29.200	 99.502	  0.306
24860	  0.243	  0.149	  1.073	 -0.198	 -0.095	 -9.459	  0.001	 -0.001	  0.018	 29.200	 99.489	  1.501
24910	  0.240	  0.161	  1.079	 -0.300	 -0.064	 -9.459	  0.002	  0.000	  0.018	 29.300	 99.506	 -0.061
24960	  0.240	  0.151	  1.075	 -0.183	 -0.099	 -9.496	  0.002	 -0.002	  0.019	 29.300	 99.494	  1.041
25010	  0.240	  0.150	  1.064	 -0.233	 -0.074	 -9.465	  0.003	 -0.002	  0.019	 29.300	 99.494	  1.041
25060	  0.245	  0.153	  1.077	 -0.239	 -0.127	 -9.489	  0.002	 -0.000	  0.020	 29.300	 99.510	 -0.430
25110	  0.242	  0.161	  1.078	 -0.192	 -0.113	 -9.463	  0.003	 -0.002	  0.019	 29.200	 99.502	  0.306
25160	  0.242	  0.146	  1.074	 -0.265	 -0.078	 -9.461	  0.002	 -0.002	  0.019	 29.300	 99.506	 -0.061
25210	  0.239	  0.149	  1.079	 -0.181	 -0.108	 -9.455	  0.003	  0.000	  0.018	 29.300	 99.506	 -0.061
25260	  0.243	  0.147	  1.078	 -0.285	 -0.061	 -9.513	  0.002	 -0.001	  0.018	 29.300	 99.506	 -0.061
25310	  0.241	  0.156	  1.078	 -0.182	 -0.115	 -9.488	  0.002	 -0.001	  0.017	 29.300	 99.494	  1.041
25360	  0.242	  0.147	  1.071	 -0.226	 -0.071	 -9.488	  0.001	 -0.001	  0.018	 29.300	 99.506	 -0.061
25410	  0.240	  0.147	  1.075	 -0.214	 -0.112	 -9.514	  0.003	 -0.001	  0.019	 29.300	 99.506	 -0.061
25460	  0.241	  0.161	  1.075	 -0.207	 -0.102	 -9.495	  0.003	 -0.001	  0.019	 29.300	 99.494	  1.041
25510	  0.241	  0.162	  1.070	 -0.263	 -0.089	 -9.484	  0.001	 -0.001	  0.019	 29.300	 99.506	 -0.061
25560	  0.245	  0.147	  1.077	 -0.165	 -0.128	 -9.489	  0.003	 -0.001	  0.019	 29.300	 99.518	 -1.164
25610	  0.241	  0.148	  1.078	 -0.276	 -0.066	 -9.476	  0.003	 -0.000	  0.019	 29.200	 99.502	  0.306
25660	  0.241	  0.147	  1.074	 -0.194	 -0.120	 -9.513	  0.003	 -0.001	  0.019	 29.300	 99.506	 -0.061
25710	  0.245	  0.154	  1.077	 -0.250	 -0.092	 -9.490	  0.003	 -0.002	  0.020	 29.300	 99.506	 -0.061
25760	  0.241	  0.148	  1.074	 -0.233	 -0.075	 -9.473	  0.004	 -0.000	  0.019	 29.300	 99.518	 -1.164
25810	  0.237	  0.149	  1.077	 -0.212	 -0.086	 -9.499	  0.002	 -0.001	  0.019	 29.300	 99.518	 -1.164
25860	  0.241	  0.153	  1.077	 -0.263	 -0.094	 -9.440	  0.002	 -0.000	  0.018	 29.300	 99.506	 -0.061
25910	  0.240	  0.146	  1.078	 -0.182	 -0.105	 -9.477	  0.003	 -0.000	  0.019	 29.200	 99.502	  0.306
25960	  0.239	  0.151	  1.074	 -0.297	 -0.074	 -9.470	  0.002	 -0.001	  0.019	 29.300	 99.506	 -0.061
26009	  0.243	  0.153	  1.079	 -0.173	 -0.106	 -9.475	  0.003	 -0.002	  0.019	 29.300	 99.518	 -1.164
26059	  0.243	  0.148	  1.077	 -0.258	 -0.091	 -9.514	  0.003	 -0.002	  0.019	 29.300	 99.506	 -0.061
26109	  0.239	  0.151	  1.077	 -0.223	 -0.125	 -9.500	  0.003	 -0.001	  0.019	 29.300	 99.506	 -0.061
26159	  0.240	  0.158	  1.077	 -0.209	 -0.097	 -9.508	  0.003	 -0.001	  0.019	 29.300	 99.506	 -0.061
26209	  0.239	  0.152	  1.078	 -0.283	 -0.092	 -9.515	  0.003	 -0.002	  0.018	 29.300	 99.506	 -0.061
26259	  0.241	  0.151	  1.079	 -0.182	 -0.103	 -9.502	  0.003	 -0.002	  0.018	 29.300	 99.494	  1.041
26309	  0.242	  0.167	  1.072	 -0.250	 -0.111	 -9.475	  0.002	 -0.001	  0.019	 29.300	 99.506	 -0.061
26360	  0.237	  0.149	  1.074	 -0.193	 -0.115	 -9.489	  0.003	 -0.000	  0.020	 29.300	 99.506	 -0.061
26409	  0.239	  0.147	  1.070	 -0.251	 -0.066	 -9.462	  0.003	 -0.001	  0.019	 29.300	 99.506	 -0.061
26459	  0.240	  0.148	  1.079	 -0.221	 -0.116	 -9.477	  0.002	 -0.001	  0.018	 29.300	 99.506	 -0.061
26509	  0.242	  0.149	  1.079	 -0.229	 -0.094	 -9.477	  0.002	  0.001	  0.019	 29.300	 99.494	  1.041
26559	  0.241	  0.149	  1.081	 -0.224	 -0.084	 -9.491	  0.003	 -0.000	  0.018	 29.300	 99.506	 -0.061
26609	  0.242	  0.153	  1.079	 -0.198	 -0.085	 -9.472	  0.002	  0.000	  0.019	 29.300	 99.506	 -0.061
26659	  0.241	  0.151	  1.078	 -0.278	 -0.075	 -9.461	  0.002	  0.000	  0.019	 29.300	 99.518	 -1.164
26709	  0.241	  0.149	  1.078	 -0.167	 -0.135	 -9.503	  0.003	 -0.001	  0.020	 29.300	 99.510	 -0.430
26759	  0.240	  0.148	  1.077	 -0.261	 -0.122	 -9.493	  0.002	 -0.002	  0.018	 29.300	 99.494	  1.041
26809	  0.240	  0.161	  1.079	 -0.187	 -0.130	 -9.495	  0.002	 -0.000	  0.020	 29.300	 99.506	 -0.061
26859	  0.240	  0.148	  1.077	 -0.242	 -0.080	 -9.502	  0.003	  0.000	  0.019	 29.300	 99.518	 -1.164
26909	  0.239	  0.152	  1.081	 -0.265	 -0.106	 -9.517	  0.003	 -0.002	  0.020	 29.300	 99.506	 -0.061
26959	  0.242	  0.151	  1.075	 -0.208	 -0.098	 -9.501	  0.002	  0.000	  0.018	 29.300	 99.506	 -0.061
27009	  0.239	  0.152	  1.072	 -0.281	 -0.086	 -9.434	  0.004	 -0.001	  0.019	 29.300	 99.506	 -0.061
27059	  0.243	  0.158	  1.077	 -0.180	 -0.096	 -9.496	  0.003	 -0.002	  0.019	 29.300	 99.506	 -0.061
27109	  0.241	  0.147	  1.073	 -0.262	 -0.074	 -9.499	  0.003	 -0.002	  0.018	 29.300	 99.506	 -0.061
27159	  0.242	  0.144	  1.077	 -0.193	 -0.113	 -9.475	  0.003	 -0.001	  0.020	 29.300	 99.506	 -0.061
27209	  0.239	  0.147	  1.069	 -0.258	 -0.070	 -9.490	  0.002	 -0.000	  0.017	 29.300	 99.518	 -1.164
27259	  0.242	  0.152	  1.079	 -0.244	 -0.111	 -9.500	  0.000	 -0.000	  0.020	 29.300	 99.506	 -0.061
27309	  0.243	  0.146	  1.078	 -0.221	 -0.095	 -9.469	  0.003	 -0.001	  0.019	 29.300	 99.494	  1.041
27359	  0.240	  0.148	  1.078	 -0.271	 -0.076	 -9.506	  0.002	 -0.001	  0.020	 29.300	 99.522	 -1.532
27409	  0.242	  0.148	  1.079	 -0.161	 -0.107	 -9.493	  0.002	 -0.001	  0.021	 29.300	 99.498	  0.674
27459	  0.241	  0.149	  1.070	 -0.291	 -0.084	 -9.473	  0.002	 -0.001	  0.019	 29.300	 99.506	 -0.061
27509	  0.242	  0.148	  1.066	 -0.211	 -0.104	 -9.502	  0.002	 -0.000	  0.019	 29.300	 99.506	 -0.061
27559	  0.241	  0.158	  1.074	 -0.266	 -0.080	 -9.487	  0.002	 -0.001	  0.018	 29.300	 99.506	 -0.061
27609	  0.241	  0.157	  1.075	 -0.205	 -0.116	 -9.471	  0.003	 -0.000	  0.020	 29.300	 99.506	 -0.061
27659	  0.240	  0.152	  1.079	 -0.225	 -0.089	 -9.467	  0.002	 -0.001	  0.019	 29.300	 99.506	 -0.061
27709	  0.241	  0.146	  1.075	 -0.262	 -0.075	 -9.486	  0.003	  0.001	  0.019	 29.300	 99.506	 -0.061
27759	  0.241	  0.146	  1.075	 -0.169	 -0.126	 -9.464	  0.004	 -0.002	  0.019	 29.300	 99.506	 -0.061
27809	  0.242	  0.146	  1.071	 -0.262	 -0.089	 -9.514	  0.003	 -0.000	  0.018	 29.300	 99.506	 -0.061
27859	  0.240	  0.162	  1.078	 -0.202	 -0.100	 -9.455	  0.002	  0.000	  0.019	 29.300	 99.494	  1.041
27909	  0.239	  0.147	  1.077	 -0.253	 -0.073	 -9.514	  0.002	 -0.001	  0.018	 29.300	 99.506	 -0.061
27959	  0.240	  0.148	  1.077	 -0.185	 -0.105	 -9.478	  0.003	  0.001	  0.019	 29.300	 99.506	 -0.061
28009	  0.241	  0.159	  1.075	 -0.231	 -0.094	 -9.488	  0.002	 -0.000	  0.018	 29.300	 99.506	 -0.061
28059	  0.241	  0.163	  1.076	 -0.272	 -0.090	 -9.451	  0.003	 -0.001	  0.018	 29.300	 99.506	 -0.061
28109	  0.242	  0.163	  1.079	 -0.190	 -0.110	 -9.524	  0.002	 -0.002	  0.018	 29.300	 99.506	 -0.061
28159	  0.241	  0.144	  1.076	 -0.287	 -0.087	 -9.478	  0.002	 -0.001	  0.018	 29.300	 99.506	 -0.061
28209	  0.241	  0.153	  1.073	 -0.187	 -0.111	 -9.489	  0.003	  0.000	  0.018	 29.300	 99.518	 -1.164
28259	  0.241	  0.151	  1.078	 -0.271	 -0.070	 -9.475	  0.002	 -0.002	  0.019	 29.300	 99.506	 -0.061
28309	  0.240	  0.153	  1.071	 -0.217	 -0.110	 -9.454	  0.003	 -0.001	  0.019	 29.300	 99.518	 -1.164
28359	  0.241	  0.146	  1.074	 -0.219	 -0.095	 -9.484	  0.002	 -0.000	  0.019	 29.300	 99.494	  1.041
28409	  0.243	  0.162	  1.075	 -0.252	 -0.094	 -9.491	  0.002	 -0.002	  0.018	 29.300	 99.494	  1.041
28459	  0.241	  0.152	  1.079	 -0.190	 -0.108	 -9.497	  0.002	 -0.001	  0.019	 29.300	 99.506	 -0.061
28509	  0.241	  0.151	  1.079	 -0.275	 -0.062	 -9.470	  0.003	  0.000	  0.019	 29.300	 99.510	 -0.430
28559	  0.240	  0.156	  1.079	 -0.170	 -0.127	 -9.479	  0.003	 -0.001	  0.020	 29.300	 99.510	 -0.430
28609	  0.239	  0.144	  1.079	 -0.284	 -0.082	 -9.478	  0.002	 -0.001	  0.020	 29.300	 99.510	 -0.430
28659	  0.241	  0.164	  1.079	 -0.186	 -0.139	 -9.499	  0.003	 -0.001	  0.019	 29.300	 99.506	 -0.061
28709	  0.242	  0.149	  1.073	 -0.217	 -0.087	 -9.454	  0.003	 -0.001	  0.019	 29.300	 99.494	  1.041
28759	  0.242	  0.149	  1.079	 -0.252	 -0.101	 -9.489	  0.002	 -0.000	  0.017	 29.300	 99.498	  0.674
28809	  0.240	  0.154	  1.069	 -0.205	 -0.112	 -9.502	  0.003	 -0.001	  0.018	 29.300	 99.510	 -0.430
28859	  0.239	  0.151	  1.082	 -0.279	 -0.090	 -9.494	  0.003	 -0.001	  0.020	 29.300	 99.506	 -0.061
28909	  0.239	  0.149	  1.079	 -0.205	 -0.106	 -9.494	  0.003	 -0.000	  0.019	 29.300	 99.494	  1.041
28959	  0.240	  0.151	  1.078	 -0.245	 -0.100	 -9.480	  0.002	 -0.000	  0.019	 29.300	 99.510	 -0.430
29009	  0.241	  0.146	  1.078	 -0.236	 -0.107	 -9.478	  0.004	 -0.001	  0.019	 29.300	 99.494	  1.041
29059	  0.240	  0.152	  1.071	 -0.174	 -0.099	 -9.488	  0.004	 -0.000	  0.019	 29.300	 99.506	 -0.061
29109	  0.240	  0.149	  1.074	 -0.269	 -0.090	 -9.475	  0.003	  0.000	  0.019	 29.300	 99.506	 -0.061
29159	  0.240	  0.149	  1.075	 -0.176	 -0.100	 -9.510	  0.002	  0.001	  0.019	 29.300	 99.506	 -0.061
29209	  0.237	  0.149	  1.069	 -0.286	 -0.070	 -9.446	  0.002	 -0.001	  0.019	 29.300	 99.506	 -0.061
29259	  0.240	  0.146	  1.077	 -0.196	 -0.107	 -9.507	  0.001	 -0.000	  0.019	 29.300	 99.510	 -0.430
29309	  0.241	  0.156	  1.077	 -0.251	 -0.103	 -9.460	  0.003	 -0.000	  0.019	 29.300	 99.506	 -0.061
29359	  0.242	  0.147	  1.077	 -0.235	 -0.101	 -9.469	  0.003	 -0.000	  0.019	 29.300	 99.506	 -0.061
29410	  0.239	  0.148	  1.077	 -0.226	 -0.112	 -9.466	  0.003	  0.000	  0.019	 29.300	 99.510	 -0.430
29460	  0.241	  0.147	  1.081	 -0.238	 -0.079	 -9.476	  0.003	 -0.001	  0.020	 29.300	 99.506	 -0.061
29509	  0.239	  0.151	  1.073	 -0.202	 -0.081	 -9.509	  0.003	 -0.001	  0.019	 29.300	 99.510	 -0.430
29560	  0.242	  0.144	  1.082	 -0.276	 -0.076	 -9.486	  0.003	  0.000	  0.020	 29.300	 99.506	 -0.061
29610	  0.241	  0.151	  1.078	 -0.186	 -0.121	 -9.531	  0.002	 -0.001	  0.018	 29.300	 99.510	 -0.430
29659	  0.238	  0.144	  1.075	 -0.289	 -0.086	 -9.470	  0.003	 -0.001	  0.019	 29.300	 99.506	 -0.061
29710	  0.239	  0.146	  1.075	 -0.220	 -0.106	 -9.485	  0.002	 -0.001	  0.018	 29.300	 99.510	 -0.430
29760	  0.237	  0.160	  1.084	 -0.259	 -0.087	 -9.465	  0.003	 -0.000	  0.020	 29.300	 99.506	 -0.061
29810	  0.242	  0.149	  1.070	 -0.220	 -0.111	 -9.474	  0.001	 -0.001	  0.018	 29.300	 99.506	 -0.061
29860	  0.239	  0.149	  1.079	 -0.228	 -0.079	 -9.491	  0.003	 -0.001	  0.020	 29.300	 99.510	 -0.430
29910	  0.241	  0.152	  1.075	 -0.271	 -0.094	 -9.481	  0.003	 -0.000	  0.019	 29.300	 99.498	  0.674
29960	  0.241	  0.148	  1.082	 -0.187	 -0.132	 -9.461	  0.003	 -0.000	  0.019	 29.300	 99.522	 -1.532
30010	  0.241	  0.147	  1.078	 -0.282	 -0.101	 -9.486	  0.003	  0.001	  0.019	 29.300	 99.522	 -1.532
30060	  0.240	  0.149	  1.075	 -0.198	 -0.116	 -9.491	  0.002	 -0.001	  0.019	 29.300	 99.506	 -0.061
30110	  0.240	  0.159	  1.078	 -0.277	 -0.072	 -9.518	  0.003	  0.000	  0.019	 29.300	 99.506	 -0.061
30160	  0.240	  0.148	  1.074	 -0.223	 -0.106	 -9.463	  0.002	 -0.002	  0.018	 29.300	 99.506	 -0.061
30209	  0.241	  0.151	  1.073	 -0.214	 -0.098	 -9.480	  0.003	 -0.001	  0.019	 29.300	 99.506	 -0.061
30259	  0.242	  0.163	  1.078	 -0.265	 -0.073	 -9.436	  0.003	 -0.001	  0.019	 29.300	 99.510	 -0.430
30309	  0.240	  0.153	  1.075	 -0.193	 -0.116	 -9.508	  0.002	 -0.002	  0.019	 29.300	 99.494	  1.041
30359	  0.239	  0.143	  1.071	 -0.296	 -0.073	 -9.460	  0.002	 -0.001	  0.019	 29.300	 99.506	 -0.061
30409	  0.242	  0.149	  1.081	 -0.168	 -0.113	 -9.497	  0.001	 -0.001	  0.019	 29.300	 99.506	 -0.061
30459	  0.241	  0.159	  1.078	 -0.265	 -0.083	 -9.492	  0.002	  0.000	  0.019	 29.300	 99.498	  0.674
30509	  0.239	  0.149	  1.074	 -0.211	 -0.105	 -9.482	  0.002	 -0.001	  0.018	 29.300	 99.498	  0.674
30559	  0.239	  0.149	  1.077	 -0.243	 -0.081	 -9.488	  0.002	 -0.001	  0.020	 29.300	 99.522	 -1.532
30609	  0.242	  0.160	  1.081	 -0.262	 -0.076	 -9.480	  0.002	 -0.000	  0.018	 29.300	 99.506	 -0.061
30659	  0.240	  0.147	  1.077	 -0.200	 -0.105	 -9.517	  0.004	 -0.001	  0.019	 29.300	 99.506	 -0.061
30709	  0.242	  0.154	  1.078	 -0.278	 -0.075	 -9.460	  0.003	 -0.000	  0.019	 29.300	 99.506	 -0.061
30759	  0.239	  0.149	  1.078	 -0.175	 -0.129	 -9.472	  0.002	 -0.001	  0.018	 29.300	 99.510	 -0.430
30809	  0.235	  0.152	  1.076	 -0.270	 -0.092	 -9.474	  0.002	 -0.000	  0.019	 29.300	 99.510	 -0.430
30859	  0.240	  0.161	  1.074	 -0.180	 -0.089	 -9.505	  0.001	 -0.000	  0.019	 29.300	 99.510	 -0.430
30909	  0.243	  0.151	  1.075	 -0.242	 -0.082	 -9.485	  0.002	 -0.001	  0.019	 29.300	 99.506	 -0.061
30959	  0.242	  0.146	  1.071	 -0.243	 -0.089	 -9.486	  0.002	  0.001	  0.020	 29.300	 99.510	 -0.430
31009	  0.239	  0.146	  1.073	 -0.200	 -0.125	 -9.433	  0.003	 -0.001	  0.020	 29.300	 99.506	 -0.061
31059	  0.236	  0.146	  1.075	 -0.272	 -0.083	 -9.483	  0.003	 -0.001	  0.018	 29.300	 99.506	 -0.061
31109	  0.239	  0.148	  1.075	 -0.168	 -0.113	 -9.460	  0.003	 -0.001	  0.018	 29.300	 99.506	 -0.061
31159	  0.240	  0.162	  1.079	 -0.286	 -0.070	 -9.464	  0.001	 -0.001	  0.020	 29.300	 99.506	 -0.061
31209	  0.241	  0.144	  1.074	 -0.207	 -0.109	 -9.511	  0.003	 -0.002	  0.019	 29.300	 99.510	 -0.430
31259	  0.240	  0.162	  1.072	 -0.220	 -0.094	 -9.482	  0.002	 -0.000	  0.017	 29.300	 99.510	 -0.430
31309	  0.240	  0.153	  1.079	 -0.245	 -0.101	 -9.440	  0.002	 -0.000	  0.019	 29.300	 99.510	 -0.430
31359	  0.240	  0.152	  1.078	 -0.213	 -0.109	 -9.513	  0.003	 -0.000	  0.020	 29.300	 99.510	 -0.430
31409	  0.241	  0.143	  1.076	 -0.260	 -0.085	 -9.487	  0.002	 -0.001	  0.019	 29.300	 99.506	 -0.061
31459	  0.241	  0.148	  1.079	 -0.169	 -0.109	 -9.536	  0.003	 -0.001	  0.018	 29.300	 99.510	 -0.430
31509	  0.241	  0.154	  1.074	 -0.285	 -0.090	 -9.479	  0.003	 -0.001	  0.019	 29.300	 99.522	 -1.532
31559	  0.242	  0.146	  1.078	 -0.225	 -0.077	 -9.500	  0.003	 -0.001	  0.019	 29.300	 99.510	 -0.430
31609	  0.242	  0.148	  1.076	 -0.253	 -0.074	 -9.502	  0.002	 -0.001	  0.018	 29.300	 99.506	 -0.061
31659	  0.240	  0.151	  1.074	 -0.220	 -0.094	 -9.507	  0.002	 -0.000	  0.019	 29.300	 99.506	 -0.061
31709	  0.240	  0.146	  1.079	 -0.202	 -0.098	 -9.463	  0.003	 -0.001	  0.019	 29.300	 99.498	  0.674
31759	  0.242	  0.161	  1.078	 -0.292	 -0.111	 -9.477	  0.002	 -0.000	  0.018	 29.300	 99.510	 -0.430
31809	  0.239	  0.152	  1.078	 -0.175	 -0.118	 -9.482	  0.003	 -0.001	  0.019	 29.300	 99.522	 -1.532
31859	  0.240	  0.151	  1.067	 -0.279	 -0.094	 -9.463	  0.001	 -0.001	  0.018	 29.300	 99.506	 -0.061
31909	  0.241	  0.147	  1.075	 -0.170	 -0.130	 -9.496	  0.003	 -0.000	  0.018	 29.300	 99.510	 -0.430
31959	  0.240	  0.147	  1.071	 -0.281	 -0.098	 -9.471	  0.003	  0.000	  0.019	 29.300	 99.506	 -0.061
32009	  0.241	  0.151	  1.078	 -0.223	 -0.116	 -9.476	  0.002	 -0.001	  0.020	 29.300	 99.510	 -0.430
32059	  0.240	  0.148	  1.079	 -0.238	 -0.099	 -9.483	  0.003	  0.000	  0.019	 29.300	 99.498	  0.674
32109	  0.241	  0.148	  1.075	 -0.258	 -0.087	 -9.455	  0.001	 -0.000	  0.021	 29.300	 99.506	 -0.061
32159	  0.241	  0.144	  1.073	 -0.204	 -0.100	 -9.492	  0.002	  0.001	  0.018	 29.300	 99.506	 -0.061
32209	  0.243	  0.149	  1.069	 -0.309	 -0.086	 -9.455	  0.003	 -0.002	  0.019	 29.300	 99.494	  1.041
32259	  0.240	  0.159	  1.077	 -0.183	 -0.110	 -9.458	  0.002	 -0.002	  0.020	 29.300	 99.506	 -0.061
32309	  0.242	  0.153	  1.075	 -0.274	 -0.078	 -9.477	  0.002	  0.000	  0.021	 29.300	 99.510	 -0.430
32359	  0.242	  0.147	  1.076	 -0.217	 -0.099	 -9.495	  0.002	  0.000	  0.018	 29.300	 99.506	 -0.061
32409	  0.240	  0.148	  1.077	 -0.231	 -0.096	 -9.528	  0.002	 -0.001	  0.019	 29.300	 99.506	 -0.061
32459	  0.239	  0.149	  1.081	 -0.275	 -0.097	 -9.489	  0.003	 -0.001	  0.020	 29.300	 99.510	 -0.430
32509	  0.241	  0.148	  1.070	 -0.192	 -0.107	 -9.499	  0.003	 -0.001	  0.020	 29.300	 99.510	 -0.430
32559	  0.239	  0.146	  1.077	 -0.270	 -0.076	 -9.464	  0.003	 -0.001	  0.019	 29.300	 99.510	 -0.430
32609	  0.240	  0.147	  1.079	 -0.180	 -0.119	 -9.487	  0.002	 -0.001	  0.018	 29.300	 99.510	 -0.430
32659	  0.239	  0.151	  1.077	 -0.280	 -0.089	 -9.506	  0.002	 -0.002	  0.019	 29.300	 99.510	 -0.430
32709	  0.242	  0.149	  1.074	 -0.205	 -0.110	 -9.471	  0.002	 -0.000	  0.020	 29.300	 99.498	  0.674
32759	  0.240	  0.154	  1.077	 -0.227	 -0.091	 -9.507	  0.002	 -0.002	  0.018	 29.300	 99.510	 -0.430
32809	  0.241	  0.146	  1.079	 -0.278	 -0.051	 -9.496	  0.003	  0.000	  0.019	 29.300	 99.510	 -0.430
32859	  0.239	  0.151	  1.078	 -0.159	 -0.119	 -9.488	  0.003	 -0.001	  0.019	 29.300	 99.510	 -0.430
32909	  0.241	  0.159	  1.075	 -0.267	 -0.084	 -9.486	  0.003	 -0.001	  0.020	 29.300	 99.498	  0.674
32959	  0.240	  0.151	  1.067	 -0.197	 -0.110	 -9.475	  0.003	 -0.001	  0.018	 29.300	 99.510	 -0.430
33009	  0.240	  0.144	  1.077	 -0.242	 -0.098	 -9.484	  0.001	 -0.001	  0.019	 29.300	 99.510	 -0.430
33059	  0.236	  0.142	  1.073	 -0.244	 -0.097	 -9.510	  0.003	 -0.001	  0.019	 29.300	 99.498	  0.674
33109	  0.239	  0.151	  1.082	 -0.191	 -0.087	 -9.514	  0.002	 -0.000	  0.020	 29.300	 99.510	 -0.430
33159	  0.241	  0.148	  1.077	 -0.265	 -0.077	 -9.520	  0.003	 -0.001	  0.019	 29.300	 99.510	 -0.430
33209	  0.239	  0.162	  1.076	 -0.170	 -0.092	 -9.452	  0.003	 -0.001	  0.019	 29.300	 99.510	 -0.430
33259	  0.242	  0.148	  1.074	 -0.266	 -0.059	 -9.491	  0.002	 -0.001	  0.019	 29.300	 99.506	 -0.061
33309	  0.241	  0.148	  1.077	 -0.193	 -0.101	 -9.463	  0.003	 -0.000	  0.019	 29.300	 99.494	  1.041
33359	  0.239	  0.148	  1.075	 -0.247	 -0.078	 -9.513	  0.002	 -0.001	  0.019	 29.300	 99.510	 -0.430
33409	  0.237	  0.149	  1.075	 -0.241	 -0.099	 -9.491	  0.002	 -0.000	  0.019	 29.300	 99.510	 -0.430
33459	  0.241	  0.146	  1.078	 -0.198	 -0.088	 -9.492	  0.003	 -0.000	  0.020	 29.300	 99.522	 -1.532
33509	  0.241	  0.151	  1.069	 -0.267	 -0.056	 -9.461	  0.003	 -0.001	  0.020	 29.300	 99.510	 -0.430
33559	  0.242	  0.154	  1.078	 -0.178	 -0.114	 -9.485	  0.003	 -0.000	  0.019	 29.300	 99.498	  0.674
33609	  0.240	  0.157	  1.071	 -0.287	 -0.087	 -9.469	  0.003	 -0.001	  0.019	 29.300	 99.510	 -0.430
33659	  0.241	  0.149	  1.078	 -0.190	 -0.098	 -9.513	  0.002	 -0.002	  0.019	 29.300	 99.510	 -0.430
33709	  0.242	  0.143	  1.076	 -0.254	 -0.073	 -9.448	  0.003	 -0.002	  0.019	 29.300	 99.510	 -0.430
33759	  0.237	  0.148	  1.074	 -0.226	 -0.100	 -9.475	  0.002	 -0.000	  0.019	 29.300	 99.510	 -0.430
33809	  0.241	  0.146	  1.078	 -0.202	 -0.085	 -9.483	  0.003	 -0.001	  0.019	 29.300	 99.498	  0.674
33859	  0.246	  0.148	  1.076	 -0.288	 -0.075	 -9.471	  0.002	 -0.000	  0.019	 29.300	 99.510	 -0.430
33909	  0.242	  0.161	  1.074	 -0.176	 -0.098	 -9.479	  0.002	 -0.001	  0.019	 29.300	 99.498	  0.674
33959	  0.240	  0.147	  1.079	 -0.261	 -0.115	 -9.483	  0.002	 -0.001	  0.019	 29.300	 99.498	  0.674
34009	  0.240	  0.146	  1.075	 -0.177	 -0.113	 -9.461	  0.002	 -0.001	  0.019	 29.300	 99.510	 -0.430
34059	  0.242	  0.162	  1.072	 -0.277	 -0.095	 -9.522	  0.002	 -0.001	  0.018	 29.300	 99.498	  0.674
34109	  0.242	  0.153	  1.074	 -0.180	 -0.111	 -9.493	  0.003	 -0.001	  0.020	 29.300	 99.498	  0.674
34159	  0.241	  0.153	  1.078	 -0.294	 -0.074	 -9.484	  0.001	  0.001	  0.019	 29.300	 99.498	  0.674
34209	  0.241	  0.149	  1.079	 -0.209	 -0.114	 -9.484	  0.003	 -0.001	  0.020	 29.300	 99.510	 -0.430
34259	  0.241	  0.149	  1.077	 -0.222	 -0.105	 -9.465	  0.003	 -0.000	  0.019	 29.300	 99.510	 -0.430
34309	  0.239	  0.148	  1.079	 -0.230	 -0.093	 -9.477	  0.003	 -0.000	  0.019	 29.300	 99.510	 -0.430
34359	  0.241	  0.144	  1.077	 -0.191	 -0.115	 -9.483	  0.003	 -0.001	  0.019	 29.300	 99.510	 -0.430
34409	  0.243	  0.161	  1.079	 -0.284	 -0.086	 -9.529	  0.003	  0.001	  0.019	 29.300	 99.510	 -0.430
34459	  0.243	  0.149	  1.071	 -0.169	 -0.095	 -9.459	  0.002	  0.001	  0.019	 29.300	 99.510	 -0.430
34509	  0.243	  0.151	  1.078	 -0.254	 -0.073	 -9.498	  0.002	 -0.001	  0.019	 29.300	 99.510	 -0.430
34560	  0.240	  0.151	  1.075	 -0.202	 -0.096	 -9.456	  0.003	 -0.001	  0.019	 29.300	 99.510	 -0.430
34609	  0.241	  0.152	  1.074	 -0.255	 -0.105	 -9.531	  0.002	  0.000	  0.019	 29.300	 99.510	 -0.430
34660	  0.242	  0.144	  1.076	 -0.254	 -0.075	 -9.459	  0.003	 -0.000	  0.019	 29.300	 99.498	  0.674
34709	  0.236	  0.163	  1.080	 -0.210	 -0.104	 -9.539	  0.000	  0.000	  0.020	 29.300	 99.510	 -0.430
34760	  0.237	  0.149	  1.078	 -0.278	 -0.086	 -9.453	  0.003	  0.000	  0.019	 29.300	 99.510	 -0.430
34809	  0.244	  0.147	  1.074	 -0.187	 -0.107	 -9.475	  0.003	 -0.001	  0.019	 29.300	 99.510	 -0.430
34859	  0.243	  0.162	  1.074	 -0.217	 -0.088	 -9.480	  0.001	 -0.002	  0.019	 29.300	 99.498	  0.674
34909	  0.241	  0.147	  1.073	 -0.256	 -0.101	 -9.495	  0.003	 -0.000	  0.018	 29.300	 99.498	  0.674
34960	  0.237	  0.148	  1.073	 -0.194	 -0.120	 -9.440	  0.002	 -0.001	  0.020	 29.300	 99.510	 -0.430
35009	  0.237	  0.147	  1.073	 -0.248	 -0.110	 -9.479	  0.002	 -0.001	  0.020	 29.300	 99.510	 -0.430
35059	  0.237	  0.149	  1.074	 -0.204	 -0.082	 -9.530	  0.001	 -0.001	  0.019	 29.300	 99.510	 -0.430
35109	  0.242	  0.154	  1.081	 -0.267	 -0.090	 -9.483	  0.002	 -0.001	  0.020	 29.300	 99.510	 -0.430
35159	  0.239	  0.147	  1.077	 -0.201	 -0.135	 -9.457	  0.002	 -0.002	  0.019	 29.300	 99.498	  0.674
35209	  0.240	  0.143	  1.077	 -0.252	 -0.098	 -9.467	  0.003	 -0.001	  0.018	 29.300	 99.498	  0.674
35260	  0.241	  0.147	  1.077	 -0.226	 -0.088	 -9.500	  0.003	 -0.001	  0.018	 29.300	 99.510	 -0.430
35310	  0.241	  0.149	  1.077	 -0.257	 -0.069	 -9.470	  0.003	 -0.000	  0.019	 29.300	 99.510	 -0.430
35360	  0.241	  0.148	  1.077	 -0.222	 -0.090	 -9.505	  0.003	 -0.002	  0.019	 29.300	 99.510	 -0.430
35410	  0.241	  0.149	  1.078	 -0.230	 -0.086	 -9.474	  0.003	 -0.001	  0.019	 29.300	 99.510	 -0.430
35460	  0.241	  0.156	  1.077	 -0.257	 -0.086	 -9.510	  0.003	 -0.001	  0.018	 29.300	 99.498	  0.674
35510	  0.242	  0.146	  1.076	 -0.176	 -0.115	 -9.456	  0.002	 -0.000	  0.019	 29.300	 99.498	  0.674
35560	  0.239	  0.144	  1.073	 -0.290	 -0.072	 -9.501	  0.002	 -0.001	  0.019	 29.300	 99.502	  0.306
35610	  0.240	  0.147	  1.081	 -0.183	 -0.107	 -9.469	  0.003	 -0.001	  0.018	 29.300	 99.514	 -0.797
35660	  0.240	  0.163	  1.079	 -0.265	 -0.099	 -9.489	  0.003	 -0.000	  0.018	 29.300	 99.498	  0.674
35710	  0.245	  0.157	  1.079	 -0.232	 -0.098	 -9.457	  0.003	 -0.001	  0.020	 29.300	 99.510	 -0.430
35760	  0.240	  0.151	  1.075	 -0.210	 -0.086	 -9.506	  0.002	  0.000	  0.019	 29.300	 99.510	 -0.430
35810	  0.242	  0.148	  1.076	 -0.282	 -0.085	 -9.478	  0.003	 -0.001	  0.018	 29.300	 99.510	 -0.430
35860	  0.242	  0.157	  1.079	 -0.174	 -0.111	 -9.472	  0.004	 -0.001	  0.018	 29.300	 99.498	  0.674
35910	  0.241	  0.147	  1.078	 -0.268	 -0.080	 -9.478	  0.002	 -0.002	  0.019	 29.300	 99.510	 -0.430
35960	  0.239	  0.146	  1.078	 -0.170	 -0.088	 -9.521	  0.002	 -0.000	  0.019	 29.300	 99.510	 -0.430
36010	  0.239	  0.152	  1.074	 -0.241	 -0.084	 -9.506	  0.003	 -0.001	  0.020	 29.300	 99.498	  0.674
36060	  0.240	  0.153	  1.071	 -0.224	 -0.097	 -9.465	  0.002	 -0.002	  0.019	 29.300	 99.510	 -0.430
36110	  0.240	  0.144	  1.077	 -0.218	 -0.086	 -9.501	  0.002	 -0.001	  0.019	 29.300	 99.510	 -0.430
36160	  0.241	  0.153	  1.078	 -0.280	 -0.088	 -9.484	  0.003	  0.000	  0.019	 29.300	 99.510	 -0.430
36210	  0.241	  0.148	  1.073	 -0.199	 -0.101	 -9.429	  0.004	 -0.002	  0.020	 29.300	 99.514	 -0.797
36260	  0.239	  0.154	  1.082	 -0.278	 -0.084	 -9.461	  0.004	 -0.001	  0.018	 29.300	 99.510	 -0.430
36310	  0.239	  0.149	  1.070	 -0.212	 -0.104	 -9.501	  0.003	  0.001	  0.019	 29.300	 99.510	 -0.430
36360	  0.241	  0.151	  1.077	 -0.256	 -0.102	 -9.486	  0.002	 -0.002	  0.019	 29.300	 99.498	  0.674
36410	  0.242	  0.157	  1.077	 -0.214	 -0.138	 -9.490	  0.002	 -0.001	  0.019	 29.300	 99.510	 -0.430
36460	  0.240	  0.147	  1.067	 -0.232	 -0.069	 -9.493	  0.002	 -0.001	  0.019	 29.300	 99.510	 -0.430
36510	  0.243	  0.153	  1.074	 -0.258	 -0.081	 -9.468	  0.004	 -0.001	  0.019	 29.300	 99.510	 -0.430
36560	  0.241	  0.151	  1.073	 -0.167	 -0.118	 -9.501	  0.003	 -0.000	  0.019	 29.300	 99.498	  0.674
36610	  0.241	  0.148	  1.078	 -0.272	 -0.075	 -9.479	  0.003	 -0.000	  0.018	 29.300	 99.510	 -0.430
36660	  0.237	  0.167	  1.078	 -0.179	 -0.114	 -9.486	  0.002	 -0.001	  0.019	 29.300	 99.498	  0.674
36710	  0.241	  0.149	  1.071	 -0.259	 -0.069	 -9.492	  0.003	 -0.000	  0.019	 29.300	 99.510	 -0.430
36760	  0.243	  0.149	  1.078	 -0.211	 -0.119	 -9.472	  0.002	 -0.001	  0.018	 29.300	 99.514	 -0.797
36810	  0.239	  0.149	  1.071	 -0.226	 -0.123	 -9.487	  0.003	 -0.001	  0.019	 29.300	 99.510	 -0.430
36860	  0.240	  0.149	  1.075	 -0.227	 -0.063	 -9.448	  0.003	 -0.001	  0.019	 29.300	 99.510	 -0.430
36910	  0.241	  0.148	  1.078	 -0.202	 -0.094	 -9.470	  0.004	 -0.001	  0.019	 29.300	 99.514	 -0.797
36960	  0.242	  0.143	  1.076	 -0.275	 -0.095	 -9.466	  0.003	 -0.000	  0.019	 29.300	 99.510	 -0.430
37010	  0.241	  0.157	  1.081	 -0.164	 -0.102	 -9.457	  0.004	  0.000	  0.019	 29.300	 99.498	  0.674
37060	  0.245	  0.148	  1.078	 -0.276	 -0.097	 -9.488	  0.002	  0.000	  0.019	 29.300	 99.514	 -0.797
37110	  0.241	  0.151	  1.082	 -0.201	 -0.106	 -9.511	  0.003	 -0.001	  0.019	 29.300	 99.498	  0.674
37160	  0.242	  0.146	  1.071	 -0.229	 -0.076	 -9.495	  0.003	 -0.001	  0.019	 29.300	 99.510	 -0.430
37210	  0.245	  0.149	  1.078	 -0.222	 -0.097	 -9.506	  0.003	 -0.001	  0.019	 29.300	 99.510	 -0.430
37260	  0.236	  0.149	  1.081	 -0.175	 -0.109	 -9.489	  0.002	 -0.002	  0.020	 29.300	 99.510	 -0.430
37310	  0.240	  0.152	  1.075	 -0.277	 -0.084	 -9.437	  0.003	  0.000	  0.019	 29.300	 99.510	 -0.430
37360	  0.242	  0.153	  1.077	 -0.170	 -0.128	 -9.482	  0.000	  0.000	  0.019	 29.300	 99.510	 -0.430
37410	  0.241	  0.153	  1.077	 -0.272	 -0.097	 -9.485	  0.001	 -0.001	  0.019	 29.300	 99.498	  0.674
37460	  0.243	  0.158	  1.073	 -0.265	 -0.198	 -9.473	  0.005	 -0.001	  0.026	 29.300	 99.510	 -0.430
37510	  0.240	  0.146	  1.079	 -0.241	 -0.692	 -9.535	 -0.003	  0.002	  0.414	 29.300	 99.510	 -0.430
37560	  0.250	  0.144	  1.084	  0.118	 -0.412	 -9.510	  0.013	  0.002	  0.571	 29.300	 99.510	 -0.430
37610	  0.253	  0.142	  1.092	  0.172	 -0.624	 -9.633	  0.010	  0.000	  0.644	 29.300	 99.510	 -0.430
37660	  0.250	  0.131	  1.104	  0.515	 -0.708	 -9.625	  0.009	  0.001	  0.598	 29.300	 99.490	  1.410
37710	  0.240	  0.128	  1.124	  0.149	 -0.294	 -9.408	  0.008	  0.003	  0.446	 29.300	 99.502	  0.306
37760	  0.220	  0.136	  1.139	  0.180	 -0.154	 -9.331	  0.019	  0.000	  0.409	 29.300	 99.514	 -0.797
37810	  0.199	  0.142	  1.176	 -0.244	 -0.138	 -9.192	  0.007	 -0.009	  0.352	 29.300	 99.510	 -0.430
37860	  0.179	  0.150	  1.191	 -0.146	  0.257	 -9.269	  0.019	  0.003	  0.358	 29.300	 99.510	 -0.430
37910	  0.161	  0.160	  1.207	 -0.959	  0.657	 -9.550	 -0.000	 -0.009	  0.204	 29.300	 99.514	 -0.797
37960	  0.145	  0.166	  1.213	 -0.087	  0.043	 -9.411	  0.011	 -0.005	  0.061	 29.300	 99.522	 -1.532
38010	  0.131	  0.172	  1.216	 -0.473	  0.101	 -9.885	 -0.051	 -0.048	 -0.107	 29.300	 99.498	  0.674
38060	  0.121	  0.167	  1.219	 -0.670	  0.293	 -9.401	 -0.260	 -0.192	  0.026	 29.300	 99.514	 -0.797
38109	  0.123	  0.163	  1.217	  0.646	  0.318	 -9.296	  0.044	  0.014	  0.029	 29.300	 99.502	  0.306
38159	  0.113	  0.162	  1.210	 -0.935	  0.636	 -9.127	  0.089	  0.046	  0.311	 29.300	 99.510	 -0.430
38209	  0.110	  0.176	  1.219	  0.010	 -0.561	 -9.724	  0.117	  0.037	  1.019	 29.300	 99.510	 -0.430
38259	  0.120	  0.147	  1.215	 -0.317	 -0.411	 -9.277	 -0.010	 -0.019	  1.160	 29.300	 99.502	  0.306
38309	  0.127	  0.132	  1.213	 -0.351	 -0.640	 -9.517	  0.020	  0.005	  0.618	 29.300	 99.510	 -0.430
38359	  0.129	  0.123	  1.209	 -0.384	 -0.639	 -9.651	 -0.001	  0.005	  0.013	 29.300	 99.514	 -0.797
38409	  0.127	  0.134	  1.202	 -0.166	 -0.111	 -9.495	  0.003	 -0.001	  0.019	 29.300	 99.498	  0.674
38459	  0.130	  0.123	  1.209	 -0.299	 -0.080	 -9.468	  0.002	 -0.001	  0.018	 29.300	 99.510	 -0.430
38509	  0.125	  0.124	  1.207	 -0.206	 -0.107	 -9.468	  0.002	 -0.000	  0.018	 29.300	 99.502	  0.306
38559	  0.126	  0.129	  1.214	 -0.281	 -0.100	 -9.482	  0.001	 -0.001	  0.019	 29.300	 99.514	 -0.797
38609	  0.127	  0.126	  1.212	 -0.268	 -0.073	 -9.490	  0.003	 -0.000	  0.019	 29.300	 99.514	 -0.797
38659	  0.129	  0.125	  1.201	 -0.243	 -0.091	 -9.480	  0.003	 -0.001	  0.018	 29.300	 99.502	  0.306
38709	  0.127	  0.129	  1.210	 -0.153	 -0.250	 -9.566	 -0.013	 -0.012	  0.019	 29.300	 99.514	 -0.797
38759	  0.130	  0.122	  1.210	 -0.087	 -0.253	 -9.580	 -0.110	 -0.083	  0.021	 29.300	 99.502	  0.306
38809	  0.133	  0.109	  1.207	 -0.446	  0.079	 -9.446	 -0.183	 -0.137	  0.023	 29.300	 99.514	 -0.797
38859	  0.136	  0.108	  1.206	 -0.608	  0.481	 -9.302	 -0.038	 -0.031	  0.020	 29.300	 99.498	  0.674
38909	  0.133	  0.109	  1.204	 -0.613	  0.380	 -9.337	  0.119	  0.086	  0.016	 29.300	 99.514	 -0.797
38959	  0.132	  0.123	  1.210	 -0.318	  0.049	 -9.415	  0.218	  0.158	  0.013	 29.300	 99.498	  0.674
39009	  0.129	  0.127	  1.212	  0.917	  0.197	 -10.437	 -0.205	 -0.085	  0.014	 29.300	 99.514	 -0.797
39059	  0.129	  0.122	  1.210	 -0.449	  0.079	 -9.461	  0.058	  0.041	  0.018	 29.300	 99.498	  0.674
39109	  0.130	  0.124	  1.213	 -0.289	 -0.012	 -9.460	 -0.044	 -0.036	  0.022	 29.300	 99.514	 -0.797
39159	  0.124	  0.120	  1.209	 -0.389	  0.081	 -9.441	  0.003	 -0.000	  0.017	 29.300	 99.502	  0.306
39209	  0.129	  0.122	  1.210	 -0.193	 -0.269	 -9.469	 -0.011	 -0.012	  0.016	 29.300	 99.498	  0.674
39259	  0.125	  0.124	  1.203	 -0.498	  0.146	 -9.413	  0.028	  0.019	  0.017	 29.300	 99.502	  0.306
39309	  0.125	  0.125	  1.202	 -0.425	  0.358	 -9.154	 -0.044	 -0.042	  0.024	 29.300	 99.498	  0.674
39359	  0.125	  0.128	  1.203	 -0.466	  0.277	 -9.250	 -0.016	 -0.012	  0.015	 29.300	 99.514	 -0.797
39409	  0.127	  0.132	  1.206	 -0.782	  0.632	 -9.342	  0.014	  0.006	  0.021	 29.300	 99.527	 -1.992
39459	  0.124	  0.122	  1.201	 -0.269	  0.044	 -9.417	  0.003	 -0.004	  0.018	 29.300	 99.514	 -0.797
39509	  0.125	  0.119	  1.204	 -0.275	 -0.089	 -9.486	  0.002	 -0.002	  0.019	 29.300	 99.498	  0.674
39559	  0.126	  0.119	  1.204	 -0.180	 -0.132	 -9.488	  0.003	  0.001	  0.019	 29.300	 99.502	  0.306
39609	  0.123	  0.123	  1.201	 -0.529	  0.241	 -9.494	  0.003	  0.001	  0.085	 29.300	 99.498	  0.674
39659	  0.129	  0.113	  1.198	 -0.236	 -0.108	 -9.491	  0.009	  0.003	  0.324	 29.300	 99.502	  0.306
39709	  0.131	  0.112	  1.199	  0.103	 -0.016	 -9.533	  0.004	  0.001	  0.242	 29.300	 99.502	  0.306
39759	  0.132	  0.110	  1.199	  0.248	 -0.049	 -9.528	  0.006	  0.001	  0.238	 29.300	 99.514	 -0.797
39809	  0.122	  0.103	  1.193	 -0.283	  0.213	 -9.556	  0.007	 -0.003	  0.243	 29.300	 99.514	 -0.797
39860	  0.114	  0.096	  1.191	 -0.202	 -0.156	 -9.479	  0.012	  0.003	  0.106	 29.300	 99.498	  0.674
39909	  0.095	  0.101	  1.192	 -0.140	 -0.822	 -10.054	 -0.089	  0.294	 -0.171	 29.300	 99.510	 -0.430
39960	  0.053	  0.101	  1.181	 -0.043	 -0.071	 -9.603	 -0.153	  0.448	 -0.351	 29.300	 99.498	  0.674
40009	  0.015	  0.096	  1.166	  0.358	 -0.314	 -10.030	 -0.745	  0.337	 -0.358	 29.300	 99.498	  0.674
40059	 -0.005	  0.068	  1.137	 -0.963	  1.430	 -10.076	 -0.299	 -0.050	 -0.236	 29.300	 99.498	  0.674
40109	  0.012	  0.079	  1.097	 -0.413	  1.602	 -9.755	  0.395	 -0.237	  0.232	 29.300	 99.486	  1.777
40159	  0.054	  0.113	  1.055	  0.154	 -0.123	 -10.173	  0.643	 -0.708	  0.178	 29.300	 99.510	 -0.430
40209	  0.092	  0.161	  1.000	 -1.034	 -0.077	 -9.768	  0.521	 -0.257	 -0.345	 29.300	 99.502	  0.306
40259	  0.118	  0.190	  0.953	 -0.455	  0.033	 -7.947	  0.304	 -0.357	 -0.418	 29.300	 99.498	  0.674
40309	  0.146	  0.207	  0.919	 -1.557	 -0.684	 -8.384	  0.125	 -0.557	 -0.503	 29.300	 99.522	 -1.532
40359	  0.180	  0.218	  0.896	 -1.031	 -0.292	 -8.600	  0.137	 -0.152	 -0.772	 29.300	 99.510	 -0.430
40410	  0.202	  0.225	  0.876	 -0.680	 -0.107	 -8.845	  0.050	 -0.182	 -0.613	 29.300	 99.498	  0.674
40459	  0.226	  0.237	  0.869	 -0.876	 -0.824	 -9.034	  0.270	 -0.221	 -0.702	 29.300	 99.514	 -0.797
40510	  0.246	  0.262	  0.862	 -1.345	 -1.010	 -10.645	  0.339	 -0.171	 -0.510	 29.300	 99.498	  0.674
40559	  0.270	  0.278	  0.848	 -0.887	 -0.748	 -9.811	  0.235	 -0.073	 -0.330	 29.300	 99.514	 -0.797
40610	  0.289	  0.286	  0.831	 -0.089	 -1.548	 -9.025	  0.114	 -0.290	 -0.049	 29.300	 99.514	 -0.797
40660	  0.311	  0.283	  0.807	 -0.818	 -1.730	 -9.306	 -0.054	 -0.380	 -0.150	 29.300	 99.510	 -0.430
40710	  0.324	  0.283	  0.806	 -0.906	 -1.333	 -8.736	 -0.302	 -0.229	 -0.381	 29.300	 99.498	  0.674
40760	  0.332	  0.280	  0.803	 -1.892	 -0.052	 -8.738	 -0.224	 -0.173	 -0.228	 29.300	 99.502	  0.306
40810	  0.338	  0.285	  0.813	 -1.785	 -1.537	 -10.021	 -0.119	  0.169	 -0.534	 29.300	 99.498	  0.674
40860	  0.333	  0.295	  0.807	 -1.489	 -0.723	 -9.141	  0.050	  0.057	 -0.559	 29.300	 99.502	  0.306
40910	  0.335	  0.306	  0.807	 -1.327	 -1.332	 -9.207	 -0.055	  0.160	 -0.645	 29.300	 99.502	  0.306
40960	  0.326	  0.323	  0.808	 -0.751	 -1.262	 -10.027	 -0.060	  0.071	 -0.665	 29.300	 99.514	 -0.797
41010	  0.319	  0.342	  0.800	 -2.010	 -0.600	 -10.208	  0.098	  0.112	 -0.390	 29.300	 99.514	 -0.797
41060	  0.309	  0.350	  0.789	 -0.613	 -1.682	 -9.810	 -0.038	  0.155	 -0.382	 29.300	 99.514	 -0.797
41110	  0.298	  0.356	  0.776	 -0.973	 -1.301	 -8.933	 -0.068	 -0.088	 -0.118	 29.300	 99.502	  0.306
41160	  0.306	  0.356	  0.765	 -1.165	 -2.133	 -8.662	 -0.175	 -0.544	 -0.002	 29.300	 99.502	  0.306
41210	  0.331	  0.358	  0.744	 -1.805	 -0.852	 -8.492	 -0.211	 -0.502	 -0.228	 29.300	 99.502	  0.306
41260	  0.336	  0.383	  0.732	 -1.934	 -0.991	 -9.240	  0.340	  0.159	 -0.812	 29.300	 99.514	 -0.797
41310	  0.312	  0.418	  0.729	 -0.543	 -0.527	 -12.167	  0.023	  0.634	 -0.460	 29.300	 99.502	  0.306
41360	  0.276	  0.419	  0.725	 -0.941	 -0.216	 -11.896	 -0.167	  0.372	 -0.118	 29.300	 99.514	 -0.797
41410	  0.235	  0.404	  0.714	 -0.126	 -0.263	 -9.345	 -0.376	  0.367	  0.203	 29.300	 99.514	 -0.797
41460	  0.203	  0.371	  0.723	 -1.039	 -0.914	 -9.131	 -0.740	  0.451	  0.076	 29.300	 99.502	  0.306
41510	  0.149	  0.349	  0.721	  0.217	 -0.121	 -9.167	 -0.345	  0.661	 -0.152	 29.300	 99.510	 -0.430
41560	  0.119	  0.338	  0.719	 -1.164	  0.884	 -9.221	 -0.394	  0.286	 -0.050	 29.300	 99.510	 -0.430
41610	  0.079	  0.322	  0.713	  0.117	  0.063	 -8.924	 -0.183	  0.739	 -0.064	 29.300	 99.498	  0.674
41660	  0.055	  0.308	  0.717	 -0.007	 -0.726	 -9.237	 -0.417	  0.331	 -0.040	 29.300	 99.502	  0.306
41710	  0.030	  0.298	  0.717	  1.566	  0.771	 -8.923	  0.138	  0.388	 -0.194	 29.300	 99.514	 -0.797
41760	  0.016	  0.303	  0.715	 -0.137	 -0.201	 -7.860	  0.018	 -0.209	 -0.217	 29.300	 99.502	  0.306
41810	  0.014	  0.301	  0.712	 -0.381	  0.186	 -9.370	  0.126	  0.185	 -0.147	 29.300	 99.510	 -0.430
41860	  0.004	  0.307	  0.712	  0.514	  0.233	 -8.993	  0.337	  0.093	  0.085	 29.300	 99.502	  0.306
41910	  0.003	  0.317	  0.699	 -0.161	 -0.524	 -13.834	  0.096	  0.331	 -0.065	 29.300	 99.498	  0.674
41960	 -0.031	  0.316	  0.686	  0.442	  1.123	 -14.541	  0.019	  0.605	 -0.024	 29.300	 99.502	  0.306
42010	 -0.027	  0.313	  0.638	  1.606	 -0.319	 -7.765	  0.489	 -0.793	  0.570	 29.300	 99.498	  0.674
42060	  0.015	  0.317	  0.594	  2.129	 -1.860	 -2.433	  0.019	 -1.090	  0.683	 29.300	 99.502	  0.306
42110	  0.028	  0.317	  0.601	  1.622	 -1.239	 -0.090	 -0.228	  0.422	  0.285	 29.300	 99.514	 -0.797
42160	  0.019	  0.297	  0.635	  0.727	  0.173	 -6.307	  0.088	  0.629	 -0.378	 29.300	 99.514	 -0.797
42210	  0.004	  0.318	  0.678	  0.219	 -0.967	 -16.322	  0.719	  0.548	 -0.273	 29.300	 99.514	 -0.797
42259	 -0.009	  0.322	  0.710	  0.883	 -2.359	 -20.761	 -0.202	  0.393	  0.072	 29.300	 99.490	  1.410
42309	 -0.015	  0.319	  0.676	  1.271	 -1.926	 -14.481	  0.311	 -0.520	  0.044	 29.300	 99.514	 -0.797
42359	  0.014	  0.344	  0.612	  0.931	 -0.944	 -6.764	  0.462	 -1.334	  0.122	 29.300	 99.502	  0.306
42409	  0.048	  0.337	  0.578	  0.824	 -0.914	 -1.820	 -0.446	 -1.053	  0.202	 29.300	 99.514	 -0.797
42459	  0.065	  0.309	  0.586	  1.229	  0.282	  0.167	 -0.785	  0.061	 -0.011	 29.300	 99.490	  1.410
42509	  0.055	  0.299	  0.626	  0.326	  0.364	 -7.956	  0.065	  0.907	 -0.443	 29.300	 99.514	 -0.797
42559	  0.034	  0.298	  0.678	 -0.017	 -2.431	 -21.287	 -0.538	  0.640	 -0.209	 29.300	 99.514	 -0.797
42609	  0.014	  0.273	  0.689	 -0.677	 -0.332	 -17.625	 -0.288	 -0.075	 -0.160	 29.300	 99.502	  0.306
42659	  0.032	  0.292	  0.642	 -0.989	 -0.520	 -10.109	  0.871	 -1.110	 -0.028	 29.300	 99.514	 -0.797
42709	  0.057	  0.315	  0.587	  0.694	 -0.769	 -4.851	 -0.086	 -0.744	  0.459	 29.300	 99.502	  0.306
42759	  0.073	  0.284	  0.586	  1.753	 -1.039	 -0.797	 -1.110	 -0.068	  0.257	 29.300	 99.502	  0.306
42809	  0.060	  0.261	  0.618	  2.081	  1.166	 -1.518	 -0.051	  1.134	 -0.563	 29.300	 99.490	  1.410
42859	  0.020	  0.279	  0.671	  0.720	  1.024	 -13.784	  1.150	  1.089	 -0.787	 29.300	 99.514	 -0.797
42909	  0.002	  0.308	  0.706	  0.311	 -1.732	 -18.452	  0.378	  0.407	 -0.244	 29.300	 99.514	 -0.797
42959	 -0.016	  0.313	  0.712	 -0.464	 -1.356	 -12.310	 -0.229	  0.286	  0.179	 29.300	 99.502	  0.306
43009	 -0.028	  0.284	  0.706	  0.713	 -0.842	 -8.806	 -0.697	  0.247	  0.335	 29.300	 99.502	  0.306
43059	 -0.036	  0.260	  0.699	  1.040	  0.092	 -7.493	 -0.481	  0.177	  0.118	 29.300	 99.502	  0.306
43109	 -0.040	  0.252	  0.694	  0.896	  0.602	 -8.021	  0.068	  0.133	 -0.017	 29.300	 99.514	 -0.797
43159	 -0.041	  0.261	  0.693	  1.373	  0.119	 -9.784	  0.141	 -0.026	  0.036	 29.300	 99.502	  0.306
43209	 -0.035	  0.256	  0.688	  0.946	  0.346	 -9.588	 -0.028	  0.034	  0.152	 29.300	 99.502	  0.306
43259	 -0.031	  0.257	  0.682	  1.216	 -0.220	 -9.512	 -0.010	  0.008	  0.270	 29.300	 99.502	  0.306
43309	 -0.029	  0.265	  0.682	  1.642	 -0.357	 -9.140	  0.029	 -0.007	  0.174	 29.300	 99.498	  0.674
43359	 -0.024	  0.260	  0.681	  1.510	 -0.661	 -9.525	  0.033	 -0.110	 -0.003	 29.300	 99.502	  0.306
43409	 -0.018	  0.260	  0.678	  1.192	 -0.218	 -9.530	  0.050	 -0.189	 -0.078	 29.300	 99.514	 -0.797
43459	 -0.010	  0.265	  0.677	  1.225	 -0.128	 -9.186	  0.066	 -0.170	 -0.066	 29.300	 99.502	  0.306
43509	 -0.006	  0.269	  0.676	  1.206	 -0.044	 -8.845	  0.047	 -0.187	  0.007	 29.300	 99.502	  0.306
43559	 -0.001	  0.263	  0.679	  0.927	 -0.221	 -8.628	 -0.078	 -0.010	  0.112	 29.300	 99.502	  0.306
43609	 -0.005	  0.259	  0.689	  0.862	 -0.612	 -8.283	 -0.242	  0.234	 -0.177	 29.300	 99.502	  0.306
43659	 -0.007	  0.273	  0.707	  0.495	  0.185	 -9.115	  0.133	  0.233	 -0.159	 29.300	 99.502	  0.306
43709	 -0.015	  0.266	  0.708	 -0.934	  0.378	 -22.357	  0.132	  0.543	  0.107	 29.300	 99.502	  0.306
43759	 -0.035	  0.257	  0.672	  3.500	  1.147	 -19.472	 -1.091	 -0.512	  0.613	 29.300	 99.514	 -0.797
43809	 -0.009	  0.223	  0.613	  2.866	  0.806	 -4.375	 -1.084	 -1.481	  0.708	 29.300	 99.514	 -0.797
43859	  0.017	  0.191	  0.575	  0.661	 -0.226	  3.405	 -0.710	 -0.774	  0.120	 29.300	 99.502	  0.306
43909	  0.024	  0.191	  0.575	  0.592	 -1.034	  5.182	  0.474	  0.237	 -0.302	 29.300	 99.514	 -0.797
43959	 -0.006	  0.199	  0.617	  0.666	  0.645	 -2.411	  0.170	  1.732	 -0.885	 29.300	 99.502	  0.306
44009	 -0.051	  0.174	  0.698	  0.328	  2.233	 -20.289	 -0.544	  1.987	  0.008	 29.300	 99.502	  0.306
44059	 -0.102	  0.135	  0.733	  6.843	  3.127	 -28.321	 -0.392	  0.488	  0.215	 29.300	 99.502	  0.306
44109	 -0.064	  0.184	  0.693	  1.717	  0.673	 -12.526	  1.452	 -1.861	  0.201	 29.300	 99.502	  0.306
44159	 -0.023	  0.251	  0.623	  0.975	  0.686	 -1.167	  1.075	 -1.324	  0.163	 29.300	 99.502	  0.306
44209	  0.008	  0.277	  0.590	  1.944	 -1.574	  5.097	  0.620	 -0.475	  0.119	 29.300	 99.502	  0.306
44259	  0.006	  0.290	  0.623	  1.981	 -0.156	 -2.523	  0.040	  1.069	 -0.566	 29.300	 99.502	  0.306
44309	 -0.025	  0.278	  0.690	  0.639	  0.685	 -23.020	 -0.208	  1.338	 -0.175	 29.300	 99.502	  0.306
44359	 -0.045	  0.274	  0.702	  3.747	  1.500	 -22.544	  0.159	 -0.598	  0.175	 29.300	 99.514	 -0.797
44409	 -0.012	  0.295	  0.636	 -0.495	 -0.554	 -6.387	  0.589	 -1.537	  0.219	 29.300	 99.502	  0.306
44459	  0.022	  0.327	  0.591	  0.310	 -0.147	  3.109	  0.454	 -0.488	  0.589	 29.300	 99.502	  0.306
44509	  0.029	  0.319	  0.610	  0.565	 -1.419	  0.750	 -0.574	  0.848	  0.039	 29.300	 99.502	  0.306
44559	 -0.015	  0.276	  0.692	  2.834	 -0.031	 -18.975	 -1.481	  2.250	 -0.375	 29.300	 99.514	 -0.797
44609	 -0.056	  0.228	  0.725	  7.420	  1.961	 -26.588	 -0.355	 -0.384	  0.498	 29.300	 99.502	  0.306
44659	 -0.024	  0.245	  0.660	  0.239	  0.637	 -9.477	  0.349	 -1.717	  0.306	 29.300	 99.514	 -0.797
44709	  0.024	  0.270	  0.607	 -0.390	 -0.540	  3.544	  0.890	 -1.284	  0.362	 29.300	 99.502	  0.306
44759	  0.042	  0.291	  0.602	 -1.366	 -0.850	  5.433	  0.017	  0.408	 -0.137	 29.300	 99.502	  0.306
44809	  0.006	  0.264	  0.676	  0.278	  1.367	 -11.060	 -0.797	  2.274	 -0.227	 29.300	 99.514	 -0.797
44859	 -0.037	  0.230	  0.745	  6.400	  1.057	 -28.407	 -0.255	  1.198	  0.214	 29.300	 99.514	 -0.797
44909	 -0.039	  0.216	  0.723	  5.413	  1.520	 -18.901	  0.160	 -1.324	  0.235	 29.300	 99.514	 -0.797
44959	 -0.006	  0.264	  0.646	 -0.235	  0.288	 -4.978	  1.119	 -1.782	  0.126	 29.300	 99.502	  0.306
45009	  0.038	  0.301	  0.587	 -2.968	 -0.875	  4.980	  0.722	 -1.081	  0.344	 29.300	 99.502	  0.306
45059	  0.056	  0.305	  0.589	 -0.707	 -1.138	  3.790	 -0.470	  1.075	  0.311	 29.300	 99.502	  0.306
45109	  0.032	  0.274	  0.672	  3.892	  0.921	 -13.619	 -0.688	  1.947	 -0.325	 29.300	 99.514	 -0.797
