Time	 MagX	 MagY	 MagZ	 AccelX	 AccelY	 AccelZ	 Yaw	 Pitch	 Roll	 Temperature	 Pressure	 Altitude
2243	  0.130	 -0.139	  0.219	  0.074	  0.149	 -9.466	  0.001	 -0.001	  0.010	 30.000	 99.484	 -99999.000
2293	  0.131	 -0.139	  0.226	  0.040	  0.174	 -9.461	  0.002	 -0.001	  0.012	 30.000	 99.501	 -99999.000
2343	  0.134	 -0.125	  0.234	  0.055	  0.171	 -9.491	  0.004	 -0.001	  0.010	 30.000	 99.496	 -99999.000
2393	  0.133	 -0.137	  0.223	  0.019	  0.184	 -9.454	  0.003	 -0.001	  0.011	 29.900	 99.496	 -99999.000
2443	  0.130	 -0.140	  0.227	  0.052	  0.179	 -9.499	  0.003	 -0.001	  0.011	 29.900	 99.484	 -99999.000
2493	  0.132	 -0.127	  0.223	  0.035	  0.145	 -9.474	  0.003	 -0.000	  0.011	 30.000	 99.501	 -99999.000
2543	  0.133	 -0.136	  0.223	  0.052	  0.155	 -9.511	  0.002	  0.000	  0.012	 29.900	 99.496	 -99999.000
2593	  0.131	 -0.140	  0.225	  0.028	  0.159	 -9.485	  0.002	 -0.001	  0.010	 30.000	 99.488	 -99999.000
2643	  0.137	 -0.135	  0.226	  0.064	  0.175	 -9.470	  0.003	 -0.001	  0.011	 29.900	 99.496	 -99999.000
2693	  0.135	 -0.125	  0.228	  0.036	  0.173	 -9.479	  0.003	 -0.001	  0.011	 30.000	 99.472	 -99999.000
2743	  0.131	 -0.136	  0.226	  0.061	  0.172	 -9.477	  0.002	 -0.002	  0.012	 30.000	 99.496	 -99999.000
2793	  0.131	 -0.123	  0.226	  0.056	  0.157	 -9.484	  0.003	 -0.002	  0.012	 30.000	 99.488	 -99999.000
2843	  0.133	 -0.144	  0.229	  0.083	  0.185	 -9.503	  0.002	 -0.000	  0.011	 30.000	 99.501	 -99999.000
2893	  0.136	 -0.132	  0.221	  0.048	  0.143	 -9.480	  0.003	 -0.002	  0.011	 30.000	 99.496	 -99999.000
2943	  0.133	 -0.136	  0.226	  0.033	  0.163	 -9.500	  0.002	 -0.002	  0.010	 29.900	 99.496	 -99999.000
2993	  0.134	 -0.137	  0.227	  0.051	  0.195	 -9.467	  0.003	 -0.002	  0.013	 30.000	 99.513	 -99999.000
3043	  0.129	 -0.142	  0.226	  0.051	  0.168	 -9.496	  0.002	 -0.001	  0.011	 30.000	 99.496	 -99999.000
3093	  0.133	 -0.141	  0.227	  0.042	  0.170	 -9.488	  0.004	 -0.000	  0.011	 30.000	 99.501	 -99999.000
3143	  0.133	 -0.136	  0.223	  0.060	  0.191	 -9.461	  0.003	 -0.001	  0.011	 30.000	 99.501	 -99999.000
3193	  0.134	 -0.141	  0.223	  0.037	  0.181	 -9.444	  0.002	 -0.001	  0.011	 30.000	 99.496	 -99999.000
3243	  0.133	 -0.139	  0.225	  0.061	  0.190	 -9.463	  0.002	 -0.000	  0.010	 30.000	 99.484	 -99999.000
3293	  0.135	 -0.140	  0.229	  0.050	  0.157	 -9.417	  0.004	 -0.001	  0.011	 30.000	 99.496	 -99999.000
3343	  0.134	 -0.140	  0.227	  0.037	  0.169	 -9.453	  0.002	 -0.002	  0.011	 29.900	 99.496	 -99999.000
3393	  0.135	 -0.125	  0.226	  0.050	  0.152	 -9.480	  0.002	 -0.001	  0.012	 29.900	 99.496	 -99999.000
3443	  0.135	 -0.133	  0.227	  0.038	  0.159	 -9.495	  0.003	 -0.001	  0.012	 29.900	 99.484	 -99999.000
12368	  0.134	 -0.139	  0.227	  0.090	  0.140	 -9.404	  0.004	 -0.002	  0.012	 29.900	 99.496	 -0.170
12418	  0.133	 -0.140	  0.226	  0.064	  0.161	 -9.465	  0.002	 -0.001	  0.012	 30.000	 99.484	  0.938
12468	  0.131	 -0.126	  0.227	  0.124	  0.170	 -9.426	  0.003	 -0.001	  0.010	 30.000	 99.501	 -0.630
12518	  0.131	 -0.131	  0.233	 -0.015	  0.154	 -9.435	  0.004	  0.001	  0.011	 30.000	 99.496	 -0.170
12568	  0.135	 -0.130	  0.227	  0.058	  0.151	 -9.482	  0.002	  0.000	  0.011	 29.900	 99.484	  0.938
12618	  0.133	 -0.139	  0.229	  0.009	  0.179	 -9.458	  0.003	 -0.000	  0.010	 30.000	 99.496	 -0.170
12668	  0.133	 -0.139	  0.225	  0.072	  0.170	 -9.481	  0.001	 -0.000	  0.012	 30.000	 99.488	  0.568
12718	  0.132	 -0.131	  0.227	  0.022	  0.174	 -9.483	  0.001	 -0.001	  0.011	 30.000	 99.501	 -0.630
12768	  0.133	 -0.142	  0.227	  0.079	  0.170	 -9.474	  0.002	 -0.001	  0.010	 30.000	 99.501	 -0.630
12818	  0.134	 -0.141	  0.226	  0.053	  0.170	 -9.478	  0.003	 -0.000	  0.011	 30.000	 99.501	 -0.630
12868	  0.131	 -0.139	  0.226	  0.177	  0.162	 -9.521	  0.002	 -0.004	  0.012	 29.900	 99.496	 -0.170
12918	  0.135	 -0.141	  0.231	  0.008	  0.193	 -9.510	  0.002	  0.001	  0.011	 30.000	 99.488	  0.568
12968	  0.131	 -0.141	  0.229	  0.109	  0.166	 -9.441	  0.003	 -0.000	  0.011	 30.000	 99.501	 -0.630
13018	  0.130	 -0.142	  0.229	  0.032	  0.163	 -9.506	  0.002	  0.001	  0.011	 30.000	 99.488	  0.568
13068	  0.130	 -0.145	  0.229	  0.109	  0.185	 -9.447	  0.004	 -0.002	  0.011	 29.900	 99.484	  0.938
13119	  0.133	 -0.144	  0.229	  0.047	  0.188	 -9.475	  0.002	 -0.001	  0.011	 30.000	 99.484	  0.938
13168	  0.132	 -0.145	  0.231	  0.085	  0.165	 -9.527	  0.004	 -0.001	  0.010	 29.900	 99.484	  0.938
13218	  0.129	 -0.141	  0.229	  0.045	  0.175	 -9.502	  0.002	 -0.000	  0.011	 30.000	 99.496	 -0.170
13268	  0.134	 -0.144	  0.230	  0.084	  0.184	 -9.504	  0.003	 -0.001	  0.010	 29.900	 99.496	 -0.170
13318	  0.130	 -0.146	  0.226	  0.030	  0.200	 -9.438	  0.003	 -0.002	  0.011	 30.000	 99.484	  0.938
13368	  0.130	 -0.149	  0.228	  0.069	  0.133	 -9.474	  0.004	 -0.001	  0.011	 30.000	 99.501	 -0.630
13418	  0.133	 -0.132	  0.231	  0.046	  0.177	 -9.482	  0.002	 -0.001	  0.011	 30.000	 99.488	  0.568
13468	  0.133	 -0.153	  0.230	  0.071	  0.139	 -9.451	  0.003	 -0.000	  0.011	 30.000	 99.488	  0.568
13518	  0.134	 -0.144	  0.225	  0.015	  0.163	 -9.468	  0.001	 -0.001	  0.011	 30.000	 99.501	 -0.630
13567	  0.134	 -0.150	  0.232	  0.112	  0.170	 -9.482	  0.002	  0.001	  0.011	 30.000	 99.488	  0.568
13617	  0.134	 -0.145	  0.229	 -0.010	  0.177	 -9.491	  0.003	 -0.001	  0.011	 29.900	 99.496	 -0.170
13667	  0.133	 -0.149	  0.229	  0.096	  0.158	 -9.460	  0.002	 -0.001	  0.011	 29.900	 99.496	 -0.170
13717	  0.134	 -0.137	  0.227	  0.009	  0.162	 -9.499	  0.003	  0.001	  0.010	 30.000	 99.488	  0.568
13768	  0.132	 -0.150	  0.222	 -0.048	  0.210	 -9.494	  0.003	  0.003	  0.011	 30.000	 99.484	  0.938
13818	  0.130	 -0.135	  0.231	 -0.065	  0.160	 -9.560	  0.003	  0.002	  0.010	 30.000	 99.501	 -0.630
13868	  0.132	 -0.151	  0.228	  0.023	  0.151	 -9.492	  0.003	  0.002	  0.011	 30.000	 99.501	 -0.630
13919	  0.133	 -0.146	  0.230	 -0.019	  0.178	 -9.484	  0.002	  0.002	  0.011	 30.000	 99.501	 -0.630
13969	  0.133	 -0.145	  0.218	  0.031	  0.178	 -9.538	  0.003	 -0.001	  0.011	 29.900	 99.496	 -0.170
14019	  0.132	 -0.151	  0.225	  0.025	  0.149	 -9.505	  0.003	 -0.002	  0.011	 30.000	 99.501	 -0.630
14069	  0.134	 -0.144	  0.226	  0.065	  0.159	 -9.493	  0.004	 -0.002	  0.012	 30.000	 99.501	 -0.630
14119	  0.130	 -0.136	  0.230	  0.053	  0.174	 -9.506	 -0.000	 -0.001	  0.011	 29.900	 99.496	 -0.170
14169	  0.131	 -0.144	  0.223	  0.062	  0.179	 -9.499	  0.001	 -0.001	  0.011	 29.900	 99.484	  0.938
14219	  0.133	 -0.154	  0.232	  0.070	  0.170	 -9.471	  0.000	  0.003	  0.012	 29.900	 99.496	 -0.170
14269	  0.131	 -0.135	  0.223	  0.119	  0.214	 -9.474	  0.002	  0.001	  0.011	 30.000	 99.513	 -1.737
14319	  0.134	 -0.133	  0.231	  0.235	  0.275	 -9.565	 -0.001	 -0.004	 -0.017	 30.000	 99.501	 -0.630
14369	  0.132	 -0.146	  0.230	 -0.556	  0.013	 -9.812	 -0.026	  0.088	 -0.067	 29.900	 99.496	 -0.170
14419	  0.125	 -0.153	  0.230	 -0.431	  1.120	 -12.180	  0.030	  0.211	  0.127	 30.000	 99.501	 -0.630
14469	  0.115	 -0.156	  0.234	  0.139	  0.664	 -15.306	  0.116	  0.243	  0.214	 30.000	 99.488	  0.568
14519	  0.098	 -0.141	  0.221	  1.172	 -0.217	 -14.557	 -0.345	  0.038	  0.067	 30.000	 99.501	 -0.630
14569	  0.085	 -0.150	  0.208	  1.057	 -0.131	 -9.719	 -1.195	 -0.275	 -0.248	 30.000	 99.488	  0.568
14619	  0.069	 -0.162	  0.178	  0.039	  0.214	 -4.272	 -1.427	 -0.305	 -0.175	 30.000	 99.501	 -0.630
14668	  0.056	 -0.171	  0.163	 -0.275	  0.411	 -2.848	 -1.091	  0.090	 -0.152	 30.000	 99.488	  0.568
14718	  0.051	 -0.196	  0.161	  0.064	  1.485	 -3.943	 -0.302	  0.347	  0.031	 30.000	 99.501	 -0.630
14768	  0.050	 -0.200	  0.168	  0.609	  1.823	 -5.860	  0.439	  0.141	  0.191	 30.000	 99.501	 -0.630
14819	  0.056	 -0.176	  0.176	  0.267	  1.850	 -8.302	  0.811	  0.013	  0.232	 30.000	 99.484	  0.938
14868	  0.061	 -0.181	  0.189	  0.522	  1.477	 -9.569	  0.695	  0.002	  0.217	 29.900	 99.496	 -0.170
14918	  0.075	 -0.167	  0.190	  0.703	  1.001	 -9.852	  0.389	 -0.204	  0.148	 30.000	 99.496	 -0.170
14968	  0.087	 -0.177	  0.198	  0.608	  1.108	 -10.206	  0.266	 -0.228	  0.219	 30.000	 99.488	  0.568
15019	  0.092	 -0.169	  0.201	  0.001	  1.108	 -10.450	  0.426	 -0.041	  0.171	 30.000	 99.496	 -0.170
15069	  0.096	 -0.173	  0.215	 -0.385	  0.996	 -10.758	  0.840	  0.208	  0.210	 29.900	 99.496	 -0.170
15118	  0.095	 -0.153	  0.236	 -0.042	  0.206	 -11.399	  0.805	  0.338	  0.169	 30.000	 99.484	  0.938
15168	  0.094	 -0.154	  0.250	 -0.083	 -0.019	 -13.290	  0.472	  0.395	  0.091	 30.000	 99.501	 -0.630
15218	  0.085	 -0.146	  0.257	 -0.037	  0.241	 -15.433	  0.212	  0.386	 -0.038	 30.000	 99.501	 -0.630
15268	  0.067	 -0.140	  0.249	  1.941	 -0.353	 -14.560	 -0.362	  0.091	  0.129	 30.000	 99.488	  0.568
15318	  0.057	 -0.152	  0.228	  2.108	  0.080	 -10.724	 -0.661	 -0.510	  0.124	 30.000	 99.513	 -1.737
15368	  0.042	 -0.149	  0.205	  1.718	 -0.049	 -4.819	 -0.849	 -0.516	 -0.127	 30.000	 99.488	  0.568
15418	  0.044	 -0.145	  0.184	  0.235	  0.407	  0.903	 -0.640	 -0.952	 -0.296	 30.000	 99.501	 -0.630
15468	  0.068	 -0.153	  0.155	 -1.628	 -0.988	  0.442	  0.685	 -1.536	  0.084	 29.900	 99.496	 -0.170
15518	  0.100	 -0.148	  0.143	 -0.464	 -1.264	 -8.758	  1.091	 -0.852	  0.144	 30.000	 99.484	  0.938
15568	  0.119	 -0.135	  0.143	 -1.425	 -0.250	 -12.599	  0.426	  0.813	 -0.219	 30.000	 99.501	 -0.630
15618	  0.108	 -0.131	  0.187	 -0.798	 -0.158	 -12.243	  0.020	  1.823	 -0.154	 30.000	 99.496	 -0.170
15668	  0.093	 -0.139	  0.218	  0.798	 -0.074	 -11.768	 -0.162	  0.923	 -0.041	 30.000	 99.501	 -0.630
15718	  0.087	 -0.146	  0.227	  0.351	  0.426	 -11.114	 -0.337	 -0.117	  0.182	 29.900	 99.496	 -0.170
15768	  0.092	 -0.160	  0.222	  0.362	  0.183	 -10.113	 -0.268	 -0.505	  0.152	 30.000	 99.488	  0.568
15818	  0.103	 -0.164	  0.212	 -0.075	  0.057	 -10.000	 -0.008	 -0.296	  0.081	 30.000	 99.488	  0.568
15868	  0.110	 -0.164	  0.215	 -0.022	 -0.049	 -9.899	  0.160	  0.079	 -0.024	 29.900	 99.496	 -0.170
15918	  0.100	 -0.160	  0.219	  0.018	  0.354	 -10.051	  0.167	  0.317	 -0.012	 30.000	 99.501	 -0.630
15968	  0.092	 -0.153	  0.228	 -0.546	  0.519	 -12.363	  0.177	  0.395	 -0.001	 29.900	 99.496	 -0.170
16018	  0.076	 -0.148	  0.235	 -0.270	  0.629	 -16.063	  0.084	  0.751	 -0.055	 30.000	 99.496	 -0.170
16068	  0.056	 -0.148	  0.241	  0.992	  0.400	 -15.197	 -0.344	  0.482	  0.180	 30.000	 99.513	 -1.737
16118	  0.028	 -0.153	  0.216	  2.520	 -0.541	 -10.963	 -1.056	 -0.140	  0.349	 30.000	 99.513	 -1.737
16168	  0.009	 -0.172	  0.193	  1.492	 -0.367	 -3.966	 -0.852	 -0.738	  0.111	 30.000	 99.501	 -0.630
16218	  0.015	 -0.167	  0.175	  1.090	  0.178	 -1.156	  0.208	 -1.043	 -0.339	 30.000	 99.488	  0.568
16268	  0.027	 -0.139	  0.163	 -0.347	  0.120	 -3.511	  0.997	 -0.846	 -0.410	 29.900	 99.484	  0.938
16318	  0.040	 -0.123	  0.158	  0.014	 -0.372	 -6.209	  0.805	 -0.124	 -0.030	 30.000	 99.488	  0.568
16368	  0.045	 -0.113	  0.162	  0.068	 -0.578	 -7.731	  0.099	  0.361	 -0.043	 30.000	 99.488	  0.568
16418	  0.048	 -0.124	  0.184	  0.018	 -0.039	 -8.950	 -0.306	  0.570	 -0.077	 30.000	 99.488	  0.568
16468	  0.045	 -0.129	  0.190	 -0.033	  0.033	 -10.009	 -0.347	  0.478	  0.098	 30.000	 99.501	 -0.630
16518	  0.053	 -0.143	  0.203	  0.480	  0.243	 -10.408	 -0.077	  0.326	  0.076	 30.000	 99.501	 -0.630
16568	  0.051	 -0.140	  0.207	  0.367	  0.161	 -10.313	  0.361	  0.119	  0.031	 30.000	 99.488	  0.568
16618	  0.060	 -0.130	  0.219	  0.339	 -0.205	 -10.784	  0.556	 -0.062	 -0.080	 30.000	 99.501	 -0.630
16668	  0.068	 -0.126	  0.222	  0.182	 -0.375	 -10.740	  0.428	 -0.157	 -0.151	 30.000	 99.488	  0.568
16718	  0.076	 -0.122	  0.222	  0.123	 -0.373	 -10.415	  0.209	 -0.191	 -0.042	 30.000	 99.484	  0.938
16768	  0.082	 -0.112	  0.225	  0.114	 -0.364	 -9.954	  0.004	 -0.038	 -0.033	 29.900	 99.496	 -0.170
16818	  0.086	 -0.113	  0.233	  0.493	 -0.519	 -9.144	 -0.096	 -0.003	 -0.047	 30.000	 99.488	  0.568
16868	  0.090	 -0.115	  0.229	  0.443	 -0.417	 -9.040	 -0.016	 -0.108	 -0.014	 30.000	 99.501	 -0.630
16918	  0.094	 -0.117	  0.229	  0.427	 -0.504	 -9.402	 -0.018	 -0.087	 -0.023	 30.000	 99.484	  0.938
16968	  0.097	 -0.107	  0.231	  0.187	 -0.334	 -9.638	  0.049	  0.073	 -0.056	 29.900	 99.496	 -0.170
17018	  0.096	 -0.122	  0.241	  0.175	 -0.338	 -9.862	  0.044	  0.244	 -0.035	 30.000	 99.496	 -0.170
17068	  0.095	 -0.113	  0.248	  0.445	 -0.442	 -9.870	 -0.010	  0.249	 -0.019	 29.900	 99.484	  0.938
17118	  0.090	 -0.123	  0.251	  0.565	 -0.351	 -9.658	 -0.034	  0.082	 -0.016	 30.000	 99.501	 -0.630
17168	  0.096	 -0.123	  0.258	  0.431	 -0.326	 -9.740	 -0.030	 -0.043	 -0.007	 29.900	 99.484	  0.938
17218	  0.096	 -0.108	  0.252	  0.403	 -0.262	 -9.538	  0.002	 -0.092	 -0.024	 30.000	 99.488	  0.568
17268	  0.101	 -0.122	  0.243	  0.318	 -0.336	 -9.706	  0.060	 -0.089	 -0.044	 29.900	 99.496	 -0.170
17318	  0.101	 -0.120	  0.253	  0.451	 -0.429	 -9.591	  0.015	 -0.011	 -0.062	 30.000	 99.501	 -0.630
17368	  0.102	 -0.122	  0.255	  0.428	 -0.437	 -9.608	  0.006	 -0.002	 -0.020	 30.000	 99.488	  0.568
17418	  0.104	 -0.118	  0.257	  0.488	 -0.436	 -9.492	 -0.017	  0.034	 -0.028	 30.000	 99.488	  0.568
17468	  0.105	 -0.122	  0.256	  0.398	 -0.375	 -9.315	 -0.017	  0.059	 -0.022	 29.900	 99.484	  0.938
17518	  0.106	 -0.116	  0.255	  0.530	 -0.487	 -9.587	 -0.085	 -0.051	 -0.011	 30.000	 99.501	 -0.630
17568	  0.105	 -0.118	  0.255	  0.416	 -0.422	 -9.600	 -0.093	 -0.134	 -0.027	 29.900	 99.484	  0.938
17618	  0.112	 -0.112	  0.257	  0.387	 -0.276	 -9.442	 -0.021	 -0.103	 -0.061	 29.900	 99.496	 -0.170
17668	  0.111	 -0.119	  0.253	  0.261	 -0.290	 -9.455	  0.051	 -0.018	 -0.054	 30.000	 99.501	 -0.630
17718	  0.111	 -0.118	  0.254	  0.302	 -0.292	 -9.437	  0.050	  0.019	 -0.051	 30.000	 99.484	  0.938
17768	  0.111	 -0.113	  0.252	  0.246	 -0.291	 -9.488	  0.012	  0.017	 -0.029	 30.000	 99.501	 -0.630
17818	  0.112	 -0.113	  0.260	  0.354	 -0.422	 -9.552	 -0.052	 -0.031	 -0.008	 30.000	 99.484	  0.938
17868	  0.114	 -0.102	  0.254	  0.249	 -0.309	 -9.467	 -0.083	 -0.040	 -0.022	 30.000	 99.501	 -0.630
17918	  0.116	 -0.119	  0.245	  0.321	 -0.318	 -9.431	 -0.041	 -0.022	 -0.020	 30.000	 99.501	 -0.630
17968	  0.114	 -0.114	  0.256	  0.205	 -0.236	 -9.391	 -0.009	 -0.003	 -0.024	 29.900	 99.496	 -0.170
18018	  0.116	 -0.117	  0.255	  0.115	 -0.213	 -9.138	 -0.104	 -0.113	 -0.048	 30.000	 99.501	 -0.630
18068	  0.119	 -0.121	  0.256	  0.251	 -0.142	 -9.347	 -0.119	 -0.128	 -0.014	 30.000	 99.501	 -0.630
18118	  0.122	 -0.119	  0.243	  0.358	 -0.185	 -9.389	 -0.174	 -0.074	 -0.050	 30.000	 99.501	 -0.630
18168	  0.123	 -0.127	  0.247	  0.100	 -0.155	 -9.578	 -0.346	 -0.110	 -0.078	 29.900	 99.484	  0.938
18218	  0.126	 -0.123	  0.239	 -0.430	  0.574	 -9.067	  0.005	  0.048	 -0.017	 30.000	 99.488	  0.568
18268	  0.126	 -0.132	  0.239	  0.098	  0.207	 -9.495	  0.002	 -0.002	  0.010	 30.000	 99.488	  0.568
18319	  0.120	 -0.127	  0.239	  0.067	  0.185	 -9.413	  0.004	 -0.004	  0.011	 30.000	 99.488	  0.568
18368	  0.123	 -0.130	  0.243	  0.018	  0.180	 -9.504	  0.003	 -0.004	  0.014	 29.900	 99.484	  0.938
18418	  0.124	 -0.123	  0.233	  0.067	  0.132	 -9.506	  0.000	 -0.019	  0.012	 30.000	 99.501	 -0.630
18468	  0.125	 -0.128	  0.244	  0.025	  0.181	 -9.545	 -0.001	 -0.030	  0.011	 30.000	 99.488	  0.568
18518	  0.126	 -0.127	  0.232	  1.738	  0.228	 -8.994	  0.001	  0.002	  0.013	 30.000	 99.501	 -0.630
18568	  0.126	 -0.130	  0.238	 -0.395	  0.177	 -9.573	  0.002	 -0.005	  0.012	 30.000	 99.501	 -0.630
18618	  0.127	 -0.133	  0.238	  0.044	  0.184	 -9.510	  0.003	  0.001	  0.011	 30.000	 99.484	  0.938
18668	  0.124	 -0.135	  0.242	  0.047	  0.156	 -9.481	  0.002	 -0.002	  0.011	 30.000	 99.501	 -0.630
18718	  0.127	 -0.133	  0.242	  0.065	  0.166	 -9.500	  0.002	 -0.002	  0.010	 30.000	 99.501	 -0.630
18768	  0.129	 -0.127	  0.243	 -0.019	  0.155	 -9.546	  0.001	  0.001	  0.009	 30.000	 99.501	 -0.630
18817	  0.123	 -0.128	  0.239	  0.134	  0.165	 -9.440	  0.002	  0.001	  0.011	 30.000	 99.501	 -0.630
18867	  0.124	 -0.132	  0.238	  0.098	  0.177	 -9.472	  0.002	 -0.003	  0.011	 30.000	 99.496	 -0.170
18917	  0.126	 -0.128	  0.238	  0.073	  0.140	 -9.513	  0.001	  0.000	  0.012	 30.000	 99.501	 -0.630
18968	  0.125	 -0.125	  0.239	 -0.041	  0.188	 -9.463	  0.003	 -0.001	  0.011	 30.000	 99.488	  0.568
19017	  0.122	 -0.126	  0.242	  0.045	  0.160	 -9.504	  0.003	 -0.001	  0.010	 30.000	 99.484	  0.938
19067	  0.128	 -0.137	  0.239	  0.020	  0.188	 -9.482	  0.002	 -0.002	  0.011	 30.000	 99.501	 -0.630
19117	  0.130	 -0.130	  0.241	  0.086	  0.158	 -9.514	  0.003	 -0.000	  0.012	 30.000	 99.488	  0.568
19167	  0.125	 -0.128	  0.239	  0.006	  0.199	 -9.497	  0.002	  0.000	  0.011	 30.000	 99.488	  0.568
19217	  0.125	 -0.133	  0.239	  0.108	  0.166	 -9.489	  0.002	 -0.001	  0.011	 30.000	 99.496	 -0.170
19267	  0.120	 -0.130	  0.239	  0.042	  0.210	 -9.489	  0.003	 -0.001	  0.011	 30.000	 99.496	 -0.170
19317	  0.125	 -0.140	  0.236	  0.090	  0.167	 -9.524	  0.003	 -0.000	  0.011	 30.000	 99.484	  0.938
19367	  0.128	 -0.130	  0.235	 -0.005	  0.171	 -9.473	  0.003	 -0.001	  0.011	 30.000	 99.488	  0.568
19417	  0.124	 -0.127	  0.247	  0.095	  0.158	 -9.469	  0.002	  0.001	  0.010	 30.000	 99.501	 -0.630
19468	  0.125	 -0.131	  0.242	 -0.020	  0.174	 -9.475	  0.003	 -0.002	  0.012	 30.000	 99.488	  0.568
19518	  0.125	 -0.126	  0.238	 -0.003	  0.202	 -9.485	  0.003	 -0.005	  0.011	 30.000	 99.488	  0.568
19568	  0.126	 -0.126	  0.242	  0.079	  0.157	 -9.493	  0.002	 -0.002	  0.011	 30.000	 99.501	 -0.630
19618	  0.123	 -0.125	  0.239	  0.054	  0.177	 -9.462	  0.005	  0.001	  0.010	 30.000	 99.501	 -0.630
19668	  0.124	 -0.132	  0.239	  0.223	  0.121	 -9.479	 -0.001	 -0.039	  0.010	 30.000	 99.513	 -1.737
19718	  0.125	 -0.123	  0.229	 -0.015	  0.186	 -9.516	  0.006	  0.041	  0.012	 29.900	 99.484	  0.938
19768	  0.124	 -0.126	  0.237	 -0.048	  0.087	 -9.546	  0.003	 -0.004	  0.010	 30.000	 99.488	  0.568
19818	  0.125	 -0.130	  0.240	  0.128	  0.187	 -9.489	  0.003	  0.000	  0.010	 30.000	 99.488	  0.568
19868	  0.125	 -0.135	  0.242	  0.087	  0.184	 -9.494	  0.004	 -0.001	  0.011	 30.000	 99.488	  0.568
19918	  0.120	 -0.133	  0.235	  0.025	  0.211	 -9.478	  0.004	 -0.003	  0.010	 30.000	 99.501	 -0.630
19968	  0.125	 -0.128	  0.247	  0.105	  0.099	 -9.468	  0.002	  0.000	 -0.086	 30.000	 99.488	  0.568
20018	  0.125	 -0.125	  0.237	  0.043	  0.196	 -9.504	  0.004	 -0.002	 -0.022	 30.000	 99.501	 -0.630
20068	  0.126	 -0.127	  0.242	  0.085	  0.165	 -9.418	  0.003	  0.002	 -0.016	 30.000	 99.501	 -0.630
20118	  0.126	 -0.115	  0.244	  0.031	  0.175	 -9.478	  0.002	  0.001	  0.012	 30.000	 99.488	  0.568
20168	  0.124	 -0.128	  0.232	  0.085	  0.166	 -9.455	  0.003	  0.000	  0.011	 29.900	 99.496	 -0.170
20218	  0.123	 -0.133	  0.235	  0.068	  0.179	 -9.473	  0.004	 -0.003	  0.011	 30.000	 99.501	 -0.630
20268	  0.123	 -0.125	  0.245	  0.068	  0.165	 -9.451	  0.003	 -0.001	  0.009	 30.000	 99.488	  0.568
20318	  0.124	 -0.131	  0.239	  0.043	  0.202	 -9.476	  0.003	  0.001	  0.011	 30.000	 99.484	  0.938
20368	  0.122	 -0.121	  0.233	  0.065	  0.175	 -9.461	  0.001	 -0.001	  0.012	 30.000	 99.501	 -0.630
20418	  0.125	 -0.127	  0.242	  0.056	  0.173	 -9.500	  0.002	 -0.001	  0.011	 30.000	 99.496	 -0.170
20468	  0.124	 -0.121	  0.236	  0.093	  0.167	 -9.472	  0.002	  0.000	  0.010	 30.000	 99.488	  0.568
20518	  0.125	 -0.135	  0.238	  0.013	  0.104	 -9.530	  0.000	 -0.001	  0.010	 30.000	 99.501	 -0.630
20568	  0.122	 -0.132	  0.239	  0.825	 -1.058	 -9.465	 -0.001	 -0.023	  0.009	 30.000	 99.488	  0.568
20618	  0.128	 -0.140	  0.238	  0.338	 -0.206	 -9.427	 -0.007	  0.007	 -0.371	 30.000	 99.488	  0.568
20668	  0.124	 -0.139	  0.235	 -0.476	  0.799	 -9.590	  0.004	  0.007	 -0.481	 29.900	 99.496	 -0.170
20718	  0.126	 -0.128	  0.238	 -0.721	  1.211	 -9.509	  0.004	  0.002	 -0.063	 30.000	 99.501	 -0.630
20768	  0.126	 -0.126	  0.240	  0.121	  0.080	 -9.522	  0.001	 -0.002	 -0.002	 30.000	 99.488	  0.568
20818	  0.124	 -0.127	  0.248	  0.092	  0.221	 -9.470	  0.002	 -0.005	  0.013	 30.000	 99.501	 -0.630
20868	  0.119	 -0.133	  0.252	  0.152	  0.208	 -9.466	  0.003	 -0.003	  0.013	 29.900	 99.484	  0.938
20918	  0.115	 -0.131	  0.249	 -0.029	  0.241	 -9.507	  0.004	  0.001	  0.015	 30.000	 99.488	  0.568
20968	  0.113	 -0.136	  0.252	  0.071	  0.164	 -9.479	  0.002	  0.001	  0.011	 30.000	 99.488	  0.568
21018	  0.115	 -0.130	  0.251	  0.022	  0.234	 -9.444	  0.002	  0.002	  0.012	 30.000	 99.484	  0.938
21068	  0.117	 -0.130	  0.251	  0.080	  0.143	 -9.499	  0.004	 -0.001	  0.011	 30.000	 99.501	 -0.630
21118	  0.113	 -0.127	  0.245	 -0.127	  0.218	 -9.494	  0.002	  0.000	  0.013	 30.000	 99.488	  0.568
21168	  0.116	 -0.125	  0.245	  0.080	  0.164	 -9.473	  0.001	  0.000	  0.012	 30.000	 99.501	 -0.630
21218	  0.117	 -0.117	  0.250	  0.048	  0.302	 -9.388	  0.003	 -0.005	  0.011	 30.000	 99.501	 -0.630
21268	  0.118	 -0.130	  0.245	  0.093	  0.180	 -9.492	  0.003	  0.003	  0.011	 30.000	 99.488	  0.568
21318	  0.116	 -0.131	  0.247	 -0.269	  0.185	 -9.639	 -0.014	  0.069	  0.019	 30.000	 99.488	  0.568
21368	  0.111	 -0.132	  0.241	  0.084	  0.270	 -9.480	 -0.051	  0.211	  0.159	 30.000	 99.488	  0.568
21418	  0.108	 -0.133	  0.240	 -0.211	  0.806	 -9.525	  0.016	  0.013	  0.184	 30.000	 99.484	  0.938
21468	  0.105	 -0.134	  0.233	  0.397	  0.824	 -9.205	  0.029	 -0.097	  0.161	 29.900	 99.484	  0.938
21518	  0.113	 -0.141	  0.229	  0.854	 -0.410	 -9.324	  0.104	 -0.407	  0.084	 30.000	 99.488	  0.568
21568	  0.110	 -0.141	  0.227	 -0.305	  0.141	 -9.651	  0.003	  0.003	  0.012	 30.000	 99.501	 -0.630
21618	  0.113	 -0.141	  0.220	  0.046	  0.211	 -9.515	  0.002	 -0.001	  0.013	 30.000	 99.488	  0.568
21668	  0.120	 -0.120	  0.236	  0.907	 -1.096	 -9.487	  0.005	 -0.002	 -0.106	 30.000	 99.488	  0.568
21718	  0.135	 -0.137	  0.231	  0.292	 -0.423	 -9.601	  0.002	 -0.004	 -0.501	 30.000	 99.484	  0.938
21768	  0.130	 -0.122	  0.227	 -0.439	  1.310	 -9.373	  0.005	  0.004	 -0.548	 30.000	 99.488	  0.568
21818	  0.129	 -0.125	  0.227	  0.165	 -0.131	 -9.594	  0.004	 -0.006	  0.009	 30.000	 99.501	 -0.630
21868	  0.125	 -0.122	  0.225	  0.095	  0.166	 -9.509	  0.002	 -0.001	  0.012	 30.000	 99.488	  0.568
21918	  0.125	 -0.121	  0.225	  0.034	  0.212	 -9.467	  0.003	  0.001	  0.011	 30.000	 99.513	 -1.737
21968	  0.123	 -0.116	  0.227	  0.092	  0.118	 -9.489	  0.004	 -0.000	  0.013	 30.000	 99.488	  0.568
22018	  0.120	 -0.108	  0.228	  0.052	  0.175	 -9.497	  0.006	  0.002	  0.010	 30.000	 99.501	 -0.630
22068	  0.125	 -0.111	  0.227	 -0.000	 -0.033	 -9.580	  0.002	 -0.013	  0.010	 30.000	 99.488	  0.568
22118	  0.124	 -0.111	  0.216	  0.002	  0.176	 -9.496	  0.003	 -0.002	  0.011	 30.000	 99.488	  0.568
22168	  0.123	 -0.122	  0.227	  0.081	  0.179	 -9.459	  0.004	 -0.000	  0.012	 30.000	 99.476	  1.676
22218	  0.125	 -0.101	  0.228	  0.022	  0.203	 -9.530	  0.002	 -0.001	  0.011	 30.000	 99.501	 -0.630
22268	  0.122	 -0.116	  0.229	  0.078	  0.176	 -9.524	  0.004	 -0.000	  0.010	 30.000	 99.501	 -0.630
22318	  0.120	 -0.116	  0.224	  0.024	  0.211	 -9.476	  0.003	 -0.001	  0.011	 30.000	 99.488	  0.568
22368	  0.125	 -0.102	  0.226	  0.098	  0.173	 -9.471	  0.003	 -0.000	  0.011	 29.900	 99.496	 -0.170
22418	  0.124	 -0.118	  0.221	  0.054	  0.181	 -9.490	  0.002	 -0.001	  0.011	 30.000	 99.501	 -0.630
22468	  0.126	 -0.125	  0.220	  0.102	  0.184	 -9.489	  0.002	 -0.001	  0.010	 30.000	 99.501	 -0.630
22518	  0.127	 -0.107	  0.217	  0.017	  0.208	 -9.498	  0.002	 -0.000	  0.011	 30.000	 99.501	 -0.630
22568	  0.128	 -0.117	  0.217	 -0.208	  1.104	 -9.600	 -0.009	  0.009	  0.004	 30.000	 99.488	  0.568
22618	  0.129	 -0.118	  0.219	 -0.012	  0.245	 -9.487	  0.004	  0.001	  0.011	 30.000	 99.501	 -0.630
22668	  0.128	 -0.116	  0.215	  0.048	  0.169	 -9.465	  0.002	 -0.001	  0.011	 30.000	 99.501	 -0.630
22718	  0.125	 -0.116	  0.213	  0.046	  0.198	 -9.477	  0.003	 -0.001	  0.010	 30.000	 99.501	 -0.630
22768	  0.128	 -0.115	  0.211	  0.074	  0.207	 -9.530	  0.002	  0.000	  0.011	 30.000	 99.488	  0.568
22818	  0.126	 -0.115	  0.208	  0.063	  0.177	 -9.500	  0.002	 -0.000	  0.011	 30.000	 99.501	 -0.630
22868	  0.129	 -0.120	  0.213	  0.064	  0.201	 -9.462	  0.002	 -0.001	  0.009	 30.000	 99.501	 -0.630
22918	  0.129	 -0.103	  0.217	 -0.006	  0.169	 -9.496	  0.003	 -0.000	  0.010	 30.000	 99.501	 -0.630
22968	  0.128	 -0.113	  0.217	  0.074	  0.156	 -9.502	  0.002	 -0.002	  0.011	 30.000	 99.501	 -0.630
23018	  0.130	 -0.103	  0.218	  0.104	  0.205	 -9.477	  0.003	 -0.007	  0.011	 30.000	 99.484	  0.938
23068	  0.131	 -0.115	  0.207	 -1.132	 -0.165	 -9.760	  0.001	  0.021	  0.026	 30.000	 99.488	  0.568
23118	  0.131	 -0.117	  0.213	  0.204	  0.166	 -9.473	  0.003	  0.003	  0.010	 30.000	 99.488	  0.568
23168	  0.128	 -0.113	  0.213	  0.050	  0.156	 -9.457	  0.003	  0.045	  0.010	 30.000	 99.488	  0.568
23218	  0.126	 -0.120	  0.220	 -0.088	  0.257	 -9.515	  0.003	  0.002	 -0.008	 30.000	 99.488	  0.568
23268	  0.125	 -0.113	  0.213	  0.070	  0.178	 -9.486	  0.004	  0.002	  0.009	 30.000	 99.496	 -0.170
23318	  0.128	 -0.113	  0.217	  0.034	  0.236	 -9.482	  0.004	 -0.002	 -0.036	 30.000	 99.501	 -0.630
23368	  0.129	 -0.109	  0.217	  0.056	  0.173	 -9.515	  0.002	  0.003	  0.010	 30.000	 99.496	 -0.170
23418	  0.126	 -0.120	  0.217	  0.040	  0.166	 -9.457	  0.003	 -0.002	  0.010	 30.000	 99.488	  0.568
23468	  0.128	 -0.118	  0.216	  0.068	  0.142	 -9.463	  0.000	  0.007	  0.005	 30.000	 99.501	 -0.630
23518	  0.127	 -0.105	  0.217	  0.034	  0.242	 -9.475	  0.002	 -0.001	 -0.095	 30.000	 99.501	 -0.630
23568	  0.126	 -0.107	  0.217	  0.081	  0.142	 -9.475	  0.003	  0.002	 -0.077	 30.000	 99.501	 -0.630
23618	  0.129	 -0.107	  0.214	  0.100	  0.112	 -9.506	  0.005	 -0.005	 -0.058	 30.000	 99.501	 -0.630
23668	  0.130	 -0.104	  0.217	  0.037	  0.207	 -9.526	  0.002	  0.001	 -0.059	 30.000	 99.501	 -0.630
23718	  0.129	 -0.105	  0.213	  0.060	  0.213	 -9.472	  0.004	  0.001	  0.010	 30.000	 99.488	  0.568
23768	  0.128	 -0.108	  0.216	  0.069	  0.175	 -9.457	  0.005	 -0.012	  0.014	 30.000	 99.496	 -0.170
23818	  0.129	 -0.107	  0.206	 -0.216	  0.213	 -9.562	  0.002	 -0.024	  0.009	 30.000	 99.501	 -0.630
23868	  0.131	 -0.103	  0.220	 -0.135	  0.101	 -9.577	  0.000	  0.008	  0.010	 30.000	 99.501	 -0.630
23918	  0.127	 -0.105	  0.216	  0.029	  0.197	 -9.509	  0.002	 -0.000	  0.001	 30.000	 99.501	 -0.630
23968	  0.131	 -0.102	  0.214	  0.134	  0.126	 -9.458	  0.004	 -0.002	 -0.127	 30.000	 99.484	  0.938
24018	  0.127	 -0.087	  0.218	 -0.028	  0.195	 -9.473	  0.002	  0.000	 -0.100	 30.000	 99.501	 -0.630
24068	  0.133	 -0.094	  0.217	  0.117	  0.180	 -9.467	  0.004	 -0.001	  0.002	 30.000	 99.501	 -0.630
24118	  0.129	 -0.102	  0.214	 -0.026	  0.199	 -9.493	  0.003	  0.001	  0.010	 30.000	 99.488	  0.568
24168	  0.132	 -0.097	  0.216	  0.073	  0.157	 -9.483	  0.002	 -0.001	  0.009	 30.000	 99.488	  0.568
24218	  0.131	 -0.097	  0.224	  0.012	  0.173	 -9.482	  0.002	  0.001	  0.011	 30.000	 99.484	  0.938
24268	  0.132	 -0.102	  0.220	  0.100	  0.170	 -9.496	  0.005	 -0.005	  0.012	 30.000	 99.488	  0.568
24318	  0.131	 -0.094	  0.222	 -0.002	  0.192	 -9.465	  0.003	  0.001	  0.010	 30.000	 99.488	  0.568
24368	  0.131	 -0.094	  0.218	  0.111	  0.174	 -9.497	  0.004	 -0.001	  0.010	 30.000	 99.501	 -0.630
24418	  0.131	 -0.101	  0.216	  0.007	  0.208	 -9.474	  0.002	  0.001	  0.009	 30.000	 99.501	 -0.630
24468	  0.130	 -0.096	  0.212	  0.073	  0.175	 -9.485	  0.004	 -0.004	  0.011	 30.000	 99.501	 -0.630
24518	  0.132	 -0.087	  0.220	  0.246	  0.272	 -9.471	  0.004	  0.003	 -0.261	 30.000	 99.501	 -0.630
24568	  0.132	 -0.084	  0.215	 -0.083	 -0.035	 -9.559	 -0.000	  0.006	 -0.391	 30.000	 99.488	  0.568
24618	  0.131	 -0.083	  0.219	  0.031	  0.095	 -9.480	  0.001	  0.006	 -0.429	 30.000	 99.501	 -0.630
24668	  0.132	 -0.073	  0.214	  0.222	  0.206	 -9.494	  0.002	 -0.002	  0.013	 30.000	 99.501	 -0.630
24719	  0.134	 -0.075	  0.215	  0.004	  0.205	 -9.500	  0.000	 -0.003	 -0.019	 30.000	 99.484	  0.938
24768	  0.132	 -0.068	  0.207	  0.099	  0.196	 -9.490	  0.003	 -0.002	  0.008	 30.000	 99.488	  0.568
24819	  0.132	 -0.069	  0.214	  0.028	  0.171	 -9.469	  0.002	  0.000	 -0.043	 30.000	 99.501	 -0.630
24868	  0.133	 -0.067	  0.215	  0.063	  0.175	 -9.507	  0.003	  0.000	 -0.122	 30.000	 99.501	 -0.630
24919	  0.133	 -0.053	  0.213	  0.077	 -0.036	 -9.495	  0.000	  0.006	 -0.127	 30.000	 99.501	 -0.630
24968	  0.138	 -0.047	  0.216	 -4.757	 -1.475	 -10.036	  0.044	 -0.070	  0.469	 30.000	 99.501	 -0.630
25018	  0.132	 -0.078	  0.209	  1.784	 -0.320	 -9.297	  0.007	  0.012	  0.530	 30.000	 99.501	 -0.630
25068	  0.129	 -0.093	  0.209	  0.102	  0.459	 -9.173	  0.012	 -0.059	  0.094	 30.000	 99.484	  0.938
25118	  0.124	 -0.090	  0.218	  0.557	 -0.196	 -9.816	 -0.003	  0.133	  0.005	 30.000	 99.496	 -0.170
25168	  0.130	 -0.088	  0.218	 -0.009	  0.167	 -9.454	  0.009	 -0.009	  0.012	 30.000	 99.488	  0.568
25219	  0.125	 -0.088	  0.219	  0.099	  0.233	 -9.472	  0.004	 -0.008	  0.013	 30.000	 99.488	  0.568
25269	  0.130	 -0.079	  0.222	  0.126	  0.174	 -9.466	  0.002	  0.003	  0.011	 30.000	 99.501	 -0.630
25319	  0.126	 -0.086	  0.218	 -0.022	  0.198	 -9.421	  0.004	 -0.000	  0.010	 29.900	 99.484	  0.938
25369	  0.126	 -0.087	  0.219	  0.102	  0.177	 -9.487	  0.002	 -0.002	  0.012	 30.000	 99.501	 -0.630
25419	  0.125	 -0.084	  0.216	  0.029	  0.195	 -9.492	  0.002	 -0.001	  0.011	 30.000	 99.488	  0.568
25469	  0.127	 -0.082	  0.211	  0.088	  0.152	 -9.512	  0.003	 -0.002	  0.009	 30.000	 99.501	 -0.630
25519	  0.130	 -0.082	  0.219	  0.016	  0.187	 -9.485	  0.003	 -0.002	  0.011	 30.000	 99.488	  0.568
25569	  0.126	 -0.087	  0.215	  0.102	  0.184	 -9.442	  0.003	 -0.001	  0.010	 30.000	 99.488	  0.568
25619	  0.129	 -0.087	  0.214	 -0.005	  0.230	 -9.506	  0.003	 -0.002	  0.012	 30.000	 99.488	  0.568
25669	  0.129	 -0.083	  0.213	  0.120	  0.179	 -9.496	  0.003	 -0.008	  0.012	 29.900	 99.496	 -0.170
25719	  0.131	 -0.088	  0.218	 -0.025	  0.187	 -9.491	  0.003	  0.001	  0.012	 30.000	 99.501	 -0.630
25769	  0.130	 -0.082	  0.218	 -0.033	  0.197	 -9.490	  0.003	  0.001	  0.011	 29.900	 99.484	  0.938
25819	  0.127	 -0.087	  0.217	 -0.006	  0.201	 -9.501	  0.002	 -0.003	  0.011	 30.000	 99.488	  0.568
25869	  0.129	 -0.083	  0.218	  0.133	  0.194	 -9.532	  0.002	 -0.002	  0.011	 29.900	 99.484	  0.938
25919	  0.131	 -0.084	  0.214	  0.025	  0.211	 -9.480	  0.003	 -0.001	  0.010	 30.000	 99.501	 -0.630
25969	  0.131	 -0.067	  0.216	  0.101	  0.194	 -9.500	  0.003	 -0.002	  0.010	 30.000	 99.501	 -0.630
26019	  0.128	 -0.078	  0.211	  0.065	  0.222	 -9.477	  0.003	 -0.000	  0.011	 30.000	 99.496	 -0.170
26069	  0.131	 -0.083	  0.206	  0.064	  0.174	 -9.504	  0.003	 -0.000	  0.011	 30.000	 99.501	 -0.630
26119	  0.127	 -0.080	  0.215	  0.041	  0.159	 -9.497	  0.003	 -0.001	  0.010	 30.000	 99.501	 -0.630
26169	  0.130	 -0.087	  0.211	  0.127	  0.202	 -9.459	  0.003	 -0.003	  0.010	 30.000	 99.488	  0.568
26219	  0.130	 -0.075	  0.214	 -0.000	  0.206	 -9.490	  0.001	  0.001	  0.011	 30.000	 99.501	 -0.630
26269	  0.127	 -0.082	  0.215	  0.069	  0.179	 -9.487	  0.004	 -0.003	  0.012	 30.000	 99.488	  0.568
26319	  0.130	 -0.080	  0.210	  0.042	  0.158	 -9.515	  0.001	 -0.008	  0.010	 30.000	 99.496	 -0.170
26369	  0.128	 -0.082	  0.211	  2.111	 -0.192	 -9.417	  0.040	 -0.180	 -0.333	 30.000	 99.488	  0.568
26419	  0.134	 -0.061	  0.212	 -1.162	 -0.698	 -10.220	  0.733	 -0.018	 -0.342	 30.000	 99.501	 -0.630
26469	  0.127	 -0.037	  0.224	 -0.094	 -2.206	 -11.113	  0.916	  0.660	  0.132	 30.000	 99.501	 -0.630
26519	  0.105	 -0.022	  0.240	  2.840	 -2.435	 -11.120	  0.146	  0.508	 -0.488	 30.000	 99.501	 -0.630
26569	  0.088	 -0.017	  0.252	  0.920	 -1.809	 -10.639	 -0.613	  0.046	 -0.479	 29.900	 99.484	  0.938
26619	  0.075	 -0.035	  0.250	  0.387	 -1.130	 -9.572	 -0.766	  0.027	  0.381	 30.000	 99.501	 -0.630
26668	  0.064	 -0.067	  0.249	  1.199	 -1.821	 -9.752	 -0.900	 -0.251	  0.804	 30.000	 99.488	  0.568
26718	  0.054	 -0.106	  0.231	  2.147	 -0.639	 -9.602	 -0.632	 -0.763	  0.900	 30.000	 99.488	  0.568
26769	  0.051	 -0.127	  0.219	  0.292	 -0.441	 -10.018	 -0.409	 -0.981	  1.185	 30.000	 99.501	 -0.630
26819	  0.045	 -0.164	  0.214	  0.473	 -0.814	 -9.942	 -0.126	 -0.711	  1.365	 30.000	 99.488	  0.568
26869	  0.034	 -0.183	  0.199	  0.697	 -0.185	 -10.204	  0.050	 -0.664	  1.059	 30.000	 99.501	 -0.630
26919	  0.023	 -0.193	  0.200	 -0.521	 -0.444	 -10.217	  0.268	 -0.494	  1.342	 30.000	 99.501	 -0.630
26969	  0.003	 -0.205	  0.211	 -0.563	 -1.310	 -9.799	  0.227	  0.015	  1.298	 30.000	 99.501	 -0.630
27019	 -0.024	 -0.224	  0.226	 -0.815	 -0.817	 -9.312	 -0.041	  0.562	  1.263	 30.000	 99.488	  0.568
27068	 -0.068	 -0.234	  0.246	 -0.773	  0.005	 -8.684	 -0.152	  0.683	  1.338	 30.000	 99.488	  0.568
27119	 -0.105	 -0.252	  0.263	 -0.846	  0.464	 -8.744	  0.144	  0.788	  1.457	 30.000	 99.501	 -0.630
27168	 -0.146	 -0.248	  0.283	  0.960	  0.226	 -9.456	  0.487	  0.284	  1.610	 30.000	 99.488	  0.568
27219	 -0.162	 -0.248	  0.288	  0.317	  0.049	 -10.025	  0.126	 -0.588	  1.032	 30.000	 99.501	 -0.630
27268	 -0.164	 -0.234	  0.290	 -2.605	  1.946	 -9.192	  0.323	 -0.340	  0.966	 30.000	 99.488	  0.568
27318	 -0.179	 -0.231	  0.296	 -0.914	  0.597	 -9.488	  0.622	  0.087	  1.520	 30.000	 99.484	  0.938
27368	 -0.201	 -0.222	  0.307	 -0.095	  0.847	 -9.370	  0.347	 -0.036	  1.104	 30.000	 99.488	  0.568
27418	 -0.210	 -0.217	  0.308	 -0.652	  0.556	 -8.558	  0.279	 -0.006	  0.876	 30.000	 99.488	  0.568
27468	 -0.219	 -0.217	  0.312	 -0.103	  0.259	 -8.320	 -0.063	 -0.007	  0.754	 30.000	 99.488	  0.568
27518	 -0.227	 -0.205	  0.310	 -0.419	  0.595	 -7.779	 -0.590	 -0.097	  0.507	 30.000	 99.501	 -0.630
27568	 -0.232	 -0.232	  0.306	 -1.094	  0.937	 -7.480	 -0.643	 -0.005	  0.519	 30.000	 99.488	  0.568
27618	 -0.242	 -0.247	  0.293	 -0.734	  1.083	 -7.620	 -0.174	  0.200	  0.684	 30.000	 99.501	 -0.630
27668	 -0.254	 -0.247	  0.287	 -0.740	  1.410	 -8.071	  0.169	  0.112	  0.566	 30.000	 99.501	 -0.630
27718	 -0.262	 -0.235	  0.301	 -0.667	  0.939	 -8.354	  0.649	 -0.006	  0.674	 30.000	 99.484	  0.938
27768	 -0.267	 -0.223	  0.308	 -0.743	  0.242	 -9.028	  0.876	 -0.018	  0.647	 30.000	 99.501	 -0.630
27818	 -0.274	 -0.189	  0.311	 -0.669	 -0.209	 -9.977	  0.871	  0.041	  0.473	 30.000	 99.488	  0.568
27868	 -0.279	 -0.168	  0.315	 -0.122	 -1.030	 -11.071	  0.815	 -0.013	  0.463	 30.000	 99.488	  0.568
27918	 -0.278	 -0.130	  0.315	 -0.787	 -1.150	 -12.184	  0.006	 -0.193	  0.342	 30.000	 99.488	  0.568
27968	 -0.278	 -0.154	  0.295	 -0.890	 -0.322	 -11.199	 -0.544	 -0.028	  0.300	 29.900	 99.484	  0.938
28018	 -0.287	 -0.170	  0.296	 -0.007	  0.067	 -10.990	 -0.666	 -0.071	  0.212	 30.000	 99.501	 -0.630
28068	 -0.285	 -0.180	  0.283	  0.141	  0.810	 -9.707	 -0.592	 -0.507	  0.388	 30.000	 99.488	  0.568
28118	 -0.276	 -0.184	  0.277	  0.226	  0.829	 -9.076	  0.190	 -0.532	  0.225	 30.000	 99.496	 -0.170
28168	 -0.269	 -0.167	  0.261	 -0.393	 -0.096	 -8.108	  0.328	 -0.603	  0.112	 30.000	 99.488	  0.568
28218	 -0.263	 -0.163	  0.263	 -0.991	 -0.855	 -8.104	 -0.104	 -0.332	 -0.061	 30.000	 99.496	 -0.170
28268	 -0.259	 -0.170	  0.252	 -0.970	 -0.136	 -7.371	 -0.509	  0.067	 -0.502	 30.000	 99.488	  0.568
28318	 -0.265	 -0.183	  0.243	 -1.868	  0.204	 -8.221	 -0.414	  0.493	 -0.685	 30.000	 99.488	  0.568
28368	 -0.276	 -0.179	  0.244	 -1.616	  0.157	 -8.981	 -0.341	  0.726	 -0.575	 30.000	 99.488	  0.568
28418	 -0.290	 -0.191	  0.236	 -0.654	  0.476	 -9.621	 -0.363	  0.443	 -0.543	 30.000	 99.488	  0.568
28468	 -0.289	 -0.192	  0.221	  0.587	  1.076	 -9.963	 -0.265	 -0.305	 -0.281	 30.000	 99.488	  0.568
28518	 -0.276	 -0.184	  0.222	  0.423	  1.733	 -10.673	  0.479	 -0.927	 -0.613	 30.000	 99.488	  0.568
28568	 -0.256	 -0.169	  0.215	 -1.300	  1.239	 -11.781	  0.807	 -0.956	 -0.371	 30.000	 99.488	  0.568
28618	 -0.242	 -0.148	  0.221	 -0.552	  0.444	 -11.620	  0.797	 -0.552	 -0.430	 30.000	 99.488	  0.568
28668	 -0.230	 -0.134	  0.221	 -0.761	  0.301	 -10.762	  0.486	 -0.299	 -0.841	 30.000	 99.501	 -0.630
28718	 -0.228	 -0.124	  0.207	 -1.176	  0.093	 -9.480	  0.055	 -0.086	 -0.895	 30.000	 99.488	  0.568
28768	 -0.221	 -0.129	  0.220	 -1.394	  0.159	 -8.209	 -0.389	  0.122	 -1.104	 30.000	 99.488	  0.568
28818	 -0.225	 -0.115	  0.213	 -1.942	  0.424	 -6.558	 -0.272	  0.475	 -0.970	 30.000	 99.484	  0.938
28868	 -0.233	 -0.116	  0.219	 -2.037	  0.016	 -6.873	 -0.014	  0.776	 -0.762	 30.000	 99.488	  0.568
28918	 -0.245	 -0.119	  0.217	 -0.996	 -0.165	 -8.594	  0.020	  0.640	 -0.553	 30.000	 99.488	  0.568
28968	 -0.245	 -0.136	  0.212	 -0.508	 -0.230	 -9.686	  0.151	  0.121	 -0.572	 30.000	 99.476	  1.676
29018	 -0.241	 -0.129	  0.201	 -0.729	 -0.098	 -9.482	  0.265	 -0.309	 -0.488	 30.000	 99.488	  0.568
29068	 -0.231	 -0.126	  0.210	 -0.898	 -0.217	 -10.023	  0.099	 -0.583	 -0.328	 29.900	 99.484	  0.938
29118	 -0.224	 -0.126	  0.197	 -1.290	 -0.179	 -10.959	 -0.069	 -0.519	 -0.183	 30.000	 99.488	  0.568
29168	 -0.215	 -0.112	  0.197	 -1.244	  0.879	 -11.181	  0.131	 -0.179	 -0.007	 30.000	 99.488	  0.568
29218	 -0.222	 -0.120	  0.187	 -0.495	 -0.633	 -11.819	  0.039	  0.165	 -0.259	 30.000	 99.488	  0.568
29268	 -0.230	 -0.114	  0.187	 -0.471	 -0.246	 -10.468	 -0.348	  0.278	 -0.427	 30.000	 99.501	 -0.630
29318	 -0.238	 -0.138	  0.182	  0.028	  0.107	 -9.554	 -0.382	  0.264	 -0.586	 30.000	 99.488	  0.568
29368	 -0.246	 -0.142	  0.169	 -0.233	 -0.017	 -8.410	 -0.311	  0.119	 -0.757	 29.900	 99.496	 -0.170
29418	 -0.252	 -0.156	  0.159	 -0.153	 -0.255	 -7.865	 -0.479	 -0.070	 -0.894	 30.000	 99.488	  0.568
29468	 -0.250	 -0.168	  0.143	 -0.768	  0.386	 -7.358	 -0.549	 -0.226	 -1.146	 30.000	 99.501	 -0.630
29518	 -0.244	 -0.187	  0.145	 -1.567	  0.947	 -7.648	 -0.141	 -0.195	 -1.118	 30.000	 99.501	 -0.630
29568	 -0.240	 -0.201	  0.136	 -0.988	  0.443	 -8.727	  0.289	 -0.107	 -0.910	 30.000	 99.488	  0.568
29618	 -0.234	 -0.209	  0.135	 -0.070	 -0.194	 -9.544	  0.362	 -0.317	 -1.165	 30.000	 99.488	  0.568
29668	 -0.213	 -0.218	  0.124	 -0.212	 -0.552	 -10.644	 -0.018	 -0.659	 -1.431	 30.000	 99.476	  1.676
29718	 -0.186	 -0.212	  0.127	 -1.651	 -0.048	 -10.335	 -0.041	 -0.444	 -1.207	 30.000	 99.501	 -0.630
29768	 -0.162	 -0.233	  0.108	 -1.885	 -0.340	 -10.937	 -0.028	  0.194	 -0.856	 30.000	 99.488	  0.568
29818	 -0.146	 -0.236	  0.116	 -1.032	 -0.582	 -11.250	 -0.306	  0.516	 -0.899	 30.000	 99.484	  0.938
29868	 -0.119	 -0.241	  0.107	  0.554	  0.150	 -9.909	 -0.851	  0.130	 -0.848	 29.900	 99.484	  0.938
29918	 -0.089	 -0.234	  0.101	  0.437	  0.578	 -8.180	 -0.249	 -0.027	 -1.328	 29.900	 99.484	  0.938
29968	 -0.056	 -0.206	  0.106	 -1.549	  0.420	 -8.365	  0.281	  0.273	 -1.571	 30.000	 99.501	 -0.630
30019	 -0.036	 -0.150	  0.116	 -1.115	 -0.015	 -8.388	  0.137	  0.472	 -1.256	 30.000	 99.488	  0.568
30068	 -0.024	 -0.119	  0.122	 -1.047	 -0.061	 -8.277	  0.162	  0.513	 -1.107	 30.000	 99.488	  0.568
30118	 -0.020	 -0.083	  0.132	 -0.431	 -0.809	 -8.486	 -0.136	  0.248	 -0.635	 30.000	 99.488	  0.568
30168	 -0.017	 -0.064	  0.149	 -1.024	 -0.447	 -9.124	 -0.460	 -0.103	 -0.443	 30.000	 99.501	 -0.630
30218	 -0.016	 -0.048	  0.147	 -0.924	  0.463	 -9.241	 -0.302	 -0.268	 -0.085	 30.000	 99.488	  0.568
30268	 -0.016	 -0.037	  0.145	 -0.581	  0.366	 -10.098	  0.205	 -0.366	  0.201	 30.000	 99.501	 -0.630
30318	 -0.020	 -0.019	  0.156	 -0.527	 -0.477	 -11.235	  0.443	 -0.370	  0.411	 30.000	 99.501	 -0.630
30368	 -0.023	 -0.008	  0.154	 -1.156	 -0.781	 -11.744	  0.287	 -0.045	  0.604	 30.000	 99.501	 -0.630
30418	 -0.033	  0.009	  0.171	 -0.732	 -1.373	 -11.744	  0.366	  0.544	  0.638	 30.000	 99.501	 -0.630
30468	 -0.054	  0.007	  0.188	 -0.179	 -1.494	 -10.744	 -0.079	  0.592	  0.634	 30.000	 99.501	 -0.630
30518	 -0.069	  0.014	  0.202	  0.565	 -0.349	 -9.040	 -0.401	  0.242	  0.260	 30.000	 99.501	 -0.630
30568	 -0.078	 -0.008	  0.202	  0.469	  0.308	 -7.980	 -0.353	 -0.270	  0.161	 30.000	 99.488	  0.568
30618	 -0.074	 -0.009	  0.209	 -0.145	  0.244	 -7.689	 -0.284	 -0.544	 -0.042	 30.000	 99.501	 -0.630
30669	 -0.068	 -0.014	  0.196	 -1.036	  0.573	 -7.425	 -0.201	 -0.498	 -0.160	 30.000	 99.488	  0.568
30718	 -0.066	 -0.009	  0.199	 -1.665	  0.642	 -8.317	  0.071	 -0.208	 -0.205	 30.000	 99.484	  0.938
30769	 -0.072	  0.005	  0.209	 -1.140	  0.600	 -8.865	  0.377	 -0.018	 -0.389	 30.000	 99.501	 -0.630
30818	 -0.074	  0.021	  0.214	 -1.034	  0.086	 -9.944	  0.515	  0.009	 -0.594	 30.000	 99.501	 -0.630
30867	 -0.073	  0.036	  0.211	 -0.318	  0.046	 -10.496	  0.180	 -0.335	 -0.834	 30.000	 99.488	  0.568
30917	 -0.066	  0.042	  0.212	 -1.240	  0.425	 -11.229	 -0.032	 -0.685	 -0.775	 30.000	 99.501	 -0.630
30968	 -0.057	  0.054	  0.208	 -2.061	 -0.018	 -11.391	 -0.125	 -0.569	 -0.570	 30.000	 99.496	 -0.170
31019	 -0.043	  0.063	  0.214	 -1.083	 -0.093	 -10.653	 -0.318	 -0.344	 -0.536	 30.000	 99.488	  0.568
31069	 -0.039	  0.064	  0.204	 -0.538	  1.207	 -9.619	  0.028	 -0.120	 -0.978	 29.900	 99.496	 -0.170
31119	 -0.040	  0.090	  0.208	  0.027	  0.506	 -9.278	  0.507	  0.035	 -1.484	 30.000	 99.484	  0.938
31169	 -0.041	  0.119	  0.213	 -1.068	  0.053	 -8.393	 -0.009	 -0.024	 -1.756	 29.900	 99.484	  0.938
31219	 -0.052	  0.152	  0.216	 -2.088	  0.172	 -7.475	 -0.189	  0.334	 -1.225	 30.000	 99.488	  0.568
31269	 -0.067	  0.148	  0.232	 -2.573	 -0.423	 -7.961	 -0.267	  0.961	 -0.677	 30.000	 99.488	  0.568
31319	 -0.092	  0.147	  0.247	 -1.193	 -0.228	 -8.855	 -0.550	  1.093	 -0.277	 30.000	 99.496	 -0.170
31368	 -0.103	  0.138	  0.255	  0.029	 -0.010	 -8.926	 -0.411	  0.597	 -0.198	 30.000	 99.488	  0.568
31418	 -0.105	  0.135	  0.260	  0.258	 -0.066	 -9.257	 -0.133	 -0.027	 -0.087	 30.000	 99.501	 -0.630
31468	 -0.093	  0.139	  0.265	  0.020	  0.155	 -10.039	  0.056	 -0.464	 -0.170	 30.000	 99.488	  0.568
31518	 -0.081	  0.142	  0.256	 -0.551	  0.336	 -10.538	  0.453	 -0.499	 -0.097	 30.000	 99.488	  0.568
31568	 -0.074	  0.153	  0.239	 -0.438	 -0.019	 -11.422	  1.018	 -0.065	  0.228	 30.000	 99.488	  0.568
31618	 -0.065	  0.182	  0.231	  1.524	 -1.785	 -11.862	  0.770	 -0.037	  0.053	 30.000	 99.488	  0.568
31668	 -0.059	  0.185	  0.223	  0.899	 -1.598	 -10.822	 -0.015	 -0.315	 -0.393	 29.900	 99.484	  0.938
31718	 -0.059	  0.158	  0.216	  0.405	 -0.623	 -8.654	 -0.253	 -0.349	 -0.448	 30.000	 99.488	  0.568
31768	 -0.056	  0.163	  0.209	  0.035	 -0.764	 -7.510	 -0.165	 -0.181	 -0.485	 30.000	 99.488	  0.568
31818	 -0.061	  0.153	  0.199	 -0.335	 -0.983	 -7.280	 -0.353	  0.006	 -0.557	 30.000	 99.488	  0.568
31868	 -0.073	  0.143	  0.209	 -0.645	 -0.762	 -7.681	 -0.743	  0.133	 -0.872	 30.000	 99.488	  0.568
31918	 -0.081	  0.124	  0.203	 -1.678	 -0.420	 -8.370	 -0.670	  0.395	 -0.909	 30.000	 99.484	  0.938
31968	 -0.108	  0.113	  0.208	 -0.452	 -0.229	 -8.958	 -0.268	  0.402	 -0.937	 29.900	 99.484	  0.938
32018	 -0.123	  0.115	  0.210	  0.486	  0.272	 -9.348	 -0.133	 -0.240	 -1.417	 30.000	 99.501	 -0.630
32068	 -0.133	  0.121	  0.193	 -0.885	  0.915	 -9.521	  0.191	 -0.659	 -1.416	 30.000	 99.476	  1.676
32118	 -0.138	  0.128	  0.196	 -1.034	  0.308	 -10.689	  0.614	 -0.523	 -1.065	 30.000	 99.488	  0.568
32168	 -0.152	  0.155	  0.187	 -0.688	 -0.321	 -11.671	  0.387	 -0.478	 -1.085	 30.000	 99.488	  0.568
32218	 -0.157	  0.149	  0.189	 -0.721	 -0.372	 -11.050	  0.099	 -0.384	 -0.726	 30.000	 99.484	  0.938
32268	 -0.166	  0.150	  0.197	 -0.053	 -0.550	 -10.580	 -0.226	 -0.266	 -0.663	 30.000	 99.488	  0.568
32318	 -0.176	  0.153	  0.212	 -0.066	 -0.139	 -9.413	 -0.456	 -0.124	 -1.304	 30.000	 99.484	  0.938
32368	 -0.193	  0.156	  0.220	 -0.775	  0.607	 -8.329	 -0.321	  0.126	 -1.527	 30.000	 99.488	  0.568
32418	 -0.209	  0.166	  0.233	 -1.251	  0.463	 -8.148	 -0.176	  0.324	 -0.970	 30.000	 99.476	  1.676
32468	 -0.228	  0.173	  0.242	 -1.637	 -0.125	 -7.999	 -0.153	  0.571	 -0.462	 30.000	 99.488	  0.568
32518	 -0.252	  0.159	  0.252	 -1.175	 -0.648	 -8.732	 -0.279	  0.605	 -0.096	 30.000	 99.488	  0.568
32568	 -0.267	  0.144	  0.261	 -0.135	 -0.247	 -9.714	 -0.352	  0.171	  0.114	 30.000	 99.488	  0.568
32618	 -0.262	  0.141	  0.271	  0.193	  0.328	 -9.887	 -0.032	 -0.440	 -0.013	 30.000	 99.488	  0.568
32668	 -0.247	  0.146	  0.275	 -0.428	  0.495	 -10.561	  0.306	 -0.835	 -0.116	 29.900	 99.496	 -0.170
32718	 -0.235	  0.165	  0.267	 -1.647	  0.206	 -10.747	  0.422	 -0.688	 -0.064	 30.000	 99.501	 -0.630
32768	 -0.228	  0.179	  0.270	 -1.385	  0.172	 -10.611	  0.529	 -0.193	  0.035	 30.000	 99.488	  0.568
32818	 -0.227	  0.197	  0.256	 -0.695	 -0.887	 -10.937	  0.290	  0.040	  0.292	 30.000	 99.488	  0.568
32868	 -0.228	  0.182	  0.267	 -0.478	 -0.881	 -10.085	 -0.219	  0.144	  0.282	 29.900	 99.484	  0.938
32918	 -0.236	  0.188	  0.269	 -0.099	 -0.777	 -8.913	 -0.398	  0.216	  0.026	 30.000	 99.476	  1.676
32968	 -0.245	  0.175	  0.272	 -0.760	 -0.496	 -7.962	 -0.568	  0.250	 -0.164	 30.000	 99.476	  1.676
33018	 -0.256	  0.166	  0.276	 -1.294	  0.047	 -7.576	 -0.530	  0.382	 -0.241	 30.000	 99.488	  0.568
33068	 -0.272	  0.170	  0.283	 -1.168	  0.393	 -7.768	 -0.238	  0.444	 -0.220	 30.000	 99.488	  0.568
33118	 -0.286	  0.159	  0.271	 -0.244	  0.287	 -8.482	 -0.014	  0.121	 -0.363	 30.000	 99.488	  0.568
33168	 -0.294	  0.166	  0.266	 -0.219	  0.342	 -9.420	  0.118	 -0.334	 -0.657	 29.900	 99.484	  0.938
33218	 -0.298	  0.192	  0.278	 -0.078	  0.253	 -10.350	  0.357	 -0.629	 -0.912	 30.000	 99.488	  0.568
33268	 -0.302	  0.197	  0.267	 -0.916	  0.058	 -11.230	  0.675	 -0.627	 -0.989	 29.900	 99.496	 -0.170
33318	 -0.307	  0.224	  0.269	 -1.740	 -0.305	 -11.978	  0.534	 -0.208	 -0.780	 30.000	 99.484	  0.938
33368	 -0.319	  0.240	  0.276	 -1.016	 -0.815	 -12.070	 -0.090	  0.102	 -0.471	 30.000	 99.488	  0.568
33418	 -0.324	  0.231	  0.292	 -0.438	 -0.955	 -10.343	 -1.132	 -0.078	 -0.437	 30.000	 99.488	  0.568
33468	 -0.328	  0.207	  0.310	 -0.895	  0.200	 -7.870	 -1.234	  0.083	 -0.617	 30.000	 99.488	  0.568
33518	 -0.336	  0.201	  0.330	 -0.699	  0.880	 -7.198	 -0.431	  0.430	 -0.649	 30.000	 99.496	 -0.170
33568	 -0.352	  0.199	  0.333	 -0.171	  0.323	 -7.602	  0.583	  0.528	 -0.666	 30.000	 99.501	 -0.630
33618	 -0.365	  0.216	  0.331	  0.189	 -0.665	 -8.115	  0.743	  0.170	 -0.706	 30.000	 99.488	  0.568
33668	 -0.370	  0.247	  0.331	 -0.446	 -1.082	 -8.560	  0.482	 -0.162	 -0.839	 30.000	 99.488	  0.568
33718	 -0.368	  0.256	  0.325	 -1.096	 -1.265	 -9.102	 -0.038	 -0.315	 -0.560	 30.000	 99.496	 -0.170
33768	 -0.358	  0.249	  0.334	 -1.636	 -0.827	 -9.629	 -0.339	 -0.132	 -0.032	 30.000	 99.488	  0.568
33818	 -0.346	  0.251	  0.331	 -0.907	 -0.786	 -10.672	 -0.267	  0.134	  0.471	 30.000	 99.501	 -0.630
33868	 -0.340	  0.244	  0.337	 -0.097	 -1.711	 -11.268	 -0.241	  0.178	  0.832	 30.000	 99.488	  0.568
33918	 -0.325	  0.250	  0.327	  0.720	 -1.069	 -11.851	 -0.127	  0.065	  0.854	 30.000	 99.488	  0.568
33968	 -0.305	  0.242	  0.327	  1.715	 -0.940	 -11.351	  0.199	 -0.313	  1.202	 30.000	 99.488	  0.568
34018	 -0.282	  0.248	  0.317	  0.677	 -1.590	 -10.231	  0.097	 -0.508	  1.370	 30.000	 99.488	  0.568
34068	 -0.254	  0.235	  0.313	 -0.365	 -1.606	 -9.378	 -0.212	 -0.140	  1.492	 30.000	 99.488	  0.568
34118	 -0.244	  0.230	  0.311	 -0.603	 -1.201	 -8.206	 -0.068	  0.533	  1.346	 30.000	 99.488	  0.568
34168	 -0.251	  0.210	  0.309	 -0.009	 -1.161	 -7.143	 -0.051	  0.858	  1.274	 30.000	 99.488	  0.568
34218	 -0.263	  0.205	  0.301	  0.274	 -1.346	 -7.863	 -0.396	  0.700	  1.005	 30.000	 99.501	 -0.630
34268	 -0.273	  0.187	  0.311	  0.411	 -0.698	 -8.045	 -0.480	  0.397	  0.517	 30.000	 99.501	 -0.630
34318	 -0.273	  0.188	  0.314	  0.245	 -0.511	 -9.105	 -0.204	 -0.052	  0.314	 30.000	 99.496	 -0.170
34368	 -0.267	  0.168	  0.312	 -0.130	 -0.179	 -9.551	 -0.133	 -0.537	  0.143	 30.000	 99.501	 -0.630
34418	 -0.254	  0.167	  0.303	 -0.891	  0.202	 -9.891	  0.226	 -0.611	  0.127	 30.000	 99.501	 -0.630
34468	 -0.245	  0.178	  0.289	 -0.740	 -0.020	 -10.656	  0.484	 -0.401	  0.373	 30.000	 99.476	  1.676
34518	 -0.234	  0.188	  0.295	 -0.557	 -0.728	 -11.497	  0.291	 -0.126	  0.133	 30.000	 99.501	 -0.630
34568	 -0.243	  0.186	  0.293	 -0.957	  0.123	 -11.653	  0.007	  0.394	 -0.136	 30.000	 99.484	  0.938
34618	 -0.258	  0.183	  0.303	  0.441	  0.762	 -10.719	  0.024	  0.481	  0.298	 29.900	 99.484	  0.938
34668	 -0.263	  0.187	  0.303	  2.052	  0.395	 -9.975	  0.061	 -0.030	  0.103	 30.000	 99.488	  0.568
34718	 -0.260	  0.187	  0.312	  0.681	  0.603	 -9.057	 -0.084	 -0.502	 -0.433	 30.000	 99.488	  0.568
34768	 -0.248	  0.184	  0.312	 -0.920	  0.805	 -8.537	  0.013	 -0.397	 -0.324	 30.000	 99.501	 -0.630
34818	 -0.242	  0.178	  0.318	 -0.996	  0.335	 -8.428	  0.125	 -0.003	 -0.059	 30.000	 99.501	 -0.630
34868	 -0.244	  0.195	  0.329	 -1.122	  0.168	 -8.223	  0.175	  0.357	  0.192	 30.000	 99.501	 -0.630
34918	 -0.250	  0.184	  0.343	 -1.165	  0.141	 -8.013	  0.354	  0.575	  0.456	 30.000	 99.484	  0.938
34968	 -0.256	  0.205	  0.350	 -0.309	  0.048	 -8.216	  0.563	  0.478	  0.896	 30.000	 99.501	 -0.630
35018	 -0.251	  0.206	  0.364	  0.584	 -0.554	 -9.286	  0.607	  0.066	  0.729	 30.000	 99.484	  0.938
35068	 -0.233	  0.210	  0.377	  0.746	 -0.771	 -9.974	  0.522	 -0.362	  0.481	 30.000	 99.484	  0.938
35118	 -0.216	  0.209	  0.383	  0.231	 -1.016	 -10.365	  0.480	 -0.573	  0.634	 29.900	 99.484	  0.938
35168	 -0.183	  0.228	  0.405	  0.365	 -1.206	 -10.898	  0.267	 -0.438	  0.413	 30.000	 99.484	  0.938
35218	 -0.155	  0.207	  0.421	  0.321	 -1.364	 -10.390	 -0.318	 -0.358	  0.013	 30.000	 99.488	  0.568
35268	 -0.130	  0.180	  0.447	 -0.279	 -0.386	 -8.990	 -0.275	 -0.081	 -0.140	 30.000	 99.484	  0.938
35318	 -0.105	  0.164	  0.470	 -0.390	 -0.512	 -8.013	  0.050	  0.277	 -0.027	 29.900	 99.496	 -0.170
35368	 -0.086	  0.149	  0.500	  0.573	 -1.004	 -8.525	 -0.140	  0.181	  0.109	 29.900	 99.496	 -0.170
35418	 -0.048	  0.120	  0.535	  1.289	 -0.277	 -7.532	 -0.417	 -0.283	 -0.253	 30.000	 99.501	 -0.630
35468	 -0.006	  0.095	  0.558	  1.479	  0.706	 -8.195	  0.011	 -0.576	 -0.149	 30.000	 99.488	  0.568
35518	  0.046	  0.103	  0.580	  1.005	 -0.069	 -9.115	  0.446	 -0.605	 -0.479	 30.000	 99.488	  0.568
35568	  0.084	  0.107	  0.604	 -0.217	 -1.024	 -9.861	  0.120	 -0.290	 -0.774	 30.000	 99.488	  0.568
35618	  0.095	  0.114	  0.629	 -0.536	 -0.147	 -9.157	 -0.190	  0.307	 -0.877	 30.000	 99.488	  0.568
35668	  0.085	  0.113	  0.670	  0.265	  0.280	 -8.986	 -0.192	  0.614	 -0.828	 30.000	 99.484	  0.938
35718	  0.062	  0.123	  0.703	  0.636	  0.090	 -8.835	 -0.098	  0.552	 -0.586	 30.000	 99.488	  0.568
35768	  0.043	  0.134	  0.729	  0.869	 -0.062	 -9.096	  0.013	  0.400	 -0.458	 30.000	 99.488	  0.568
35818	  0.031	  0.134	  0.748	  0.480	 -0.464	 -9.994	  0.094	  0.224	 -0.355	 30.000	 99.484	  0.938
35869	  0.026	  0.145	  0.752	  0.768	 -0.819	 -10.278	 -0.039	  0.030	 -0.353	 30.000	 99.488	  0.568
35918	  0.031	  0.156	  0.755	  1.210	 -0.579	 -9.814	  0.111	 -0.174	 -0.286	 30.000	 99.484	  0.938
35968	  0.045	  0.188	  0.751	  0.497	 -1.078	 -10.252	  0.134	 -0.225	 -0.105	 29.900	 99.496	 -0.170
36018	  0.057	  0.186	  0.752	  0.917	 -2.048	 -10.544	 -0.306	 -0.066	 -0.065	 30.000	 99.484	  0.938
36068	  0.059	  0.155	  0.756	 -0.116	 -1.445	 -9.973	 -0.707	  0.158	 -0.356	 30.000	 99.476	  1.676
36118	  0.041	  0.122	  0.767	 -0.497	 -0.827	 -9.454	 -0.764	  0.336	 -0.268	 30.000	 99.501	 -0.630
36168	  0.026	  0.095	  0.781	  0.069	  0.014	 -9.210	 -0.617	  0.462	 -0.166	 30.000	 99.488	  0.568
36218	  0.011	  0.065	  0.787	  0.434	  0.471	 -8.820	 -0.366	  0.202	 -0.447	 30.000	 99.501	 -0.630
36268	  0.017	  0.080	  0.791	 -0.050	  0.232	 -9.102	 -0.045	 -0.233	 -0.270	 30.000	 99.488	  0.568
36318	  0.052	  0.065	  0.790	 -0.733	  0.310	 -8.912	 -0.083	 -0.825	  0.181	 29.900	 99.496	 -0.170
36368	  0.111	  0.082	  0.774	 -0.148	  1.309	 -9.428	  0.855	 -0.960	  0.306	 30.000	 99.488	  0.568
36418	  0.178	  0.129	  0.747	 -0.044	 -1.094	 -9.828	  1.028	 -1.437	 -0.103	 30.000	 99.501	 -0.630
36468	  0.259	  0.177	  0.711	 -2.868	 -0.525	 -9.446	  0.552	 -1.062	 -0.214	 30.000	 99.501	 -0.630
36519	  0.298	  0.191	  0.687	 -2.604	 -0.459	 -10.489	 -0.085	 -0.331	  0.097	 30.000	 99.501	 -0.630
36568	  0.308	  0.166	  0.696	 -1.231	 -1.317	 -11.094	 -0.502	  0.377	  0.023	 29.900	 99.484	  0.938
36619	  0.276	  0.153	  0.717	 -1.578	 -1.131	 -9.842	 -0.691	  1.025	 -0.138	 30.000	 99.484	  0.938
36669	  0.220	  0.119	  0.764	 -1.353	  0.144	 -9.127	 -0.519	  1.395	 -0.122	 30.000	 99.501	 -0.630
36719	  0.158	  0.106	  0.802	 -0.167	  0.251	 -8.443	 -0.194	  1.046	 -0.357	 30.000	 99.484	  0.938
36769	  0.131	  0.110	  0.820	 -0.181	  0.110	 -8.047	  0.088	  0.250	 -0.186	 30.000	 99.501	 -0.630
36819	  0.150	  0.121	  0.819	 -0.219	 -0.230	 -8.293	  0.465	 -0.514	  0.108	 30.000	 99.488	  0.568
36869	  0.215	  0.135	  0.812	 -0.066	 -1.208	 -10.181	  0.430	 -1.209	  0.004	 30.000	 99.501	 -0.630
36919	  0.292	  0.179	  0.776	 -1.544	 -1.466	 -10.992	  0.408	 -0.973	 -0.542	 30.000	 99.496	 -0.170
36969	  0.330	  0.210	  0.768	 -1.691	 -0.242	 -9.820	  0.179	 -0.240	 -0.559	 29.900	 99.496	 -0.170
37019	  0.340	  0.222	  0.763	 -2.051	  0.157	 -9.471	  0.138	  0.326	 -0.012	 30.000	 99.488	  0.568
37069	  0.318	  0.214	  0.775	 -0.500	 -1.236	 -10.416	 -0.285	  0.576	  0.120	 29.900	 99.484	  0.938
37119	  0.293	  0.194	  0.805	 -0.713	 -0.550	 -9.282	 -0.326	  0.665	 -0.169	 30.000	 99.501	 -0.630
37169	  0.258	  0.188	  0.834	 -0.801	 -0.670	 -9.183	 -0.149	  0.688	  0.089	 30.000	 99.488	  0.568
37219	  0.235	  0.183	  0.854	  0.104	 -0.344	 -9.219	  0.003	  0.433	 -0.017	 30.000	 99.501	 -0.630
37269	  0.228	  0.184	  0.858	 -0.512	 -0.759	 -9.916	 -0.038	  0.036	 -0.120	 30.000	 99.488	  0.568
37319	  0.234	  0.185	  0.858	 -0.297	 -0.400	 -8.891	 -0.029	 -0.196	 -0.082	 30.000	 99.488	  0.568
37369	  0.252	  0.194	  0.845	 -0.480	 -0.592	 -9.710	  0.036	 -0.309	 -0.082	 30.000	 99.476	  1.676
37419	  0.273	  0.185	  0.830	 -0.208	 -0.513	 -9.497	  0.060	 -0.291	  0.028	 30.000	 99.501	 -0.630
37469	  0.288	  0.191	  0.822	 -1.085	  0.073	 -8.558	 -0.118	 -0.067	 -0.108	 30.000	 99.488	  0.568
37519	  0.283	  0.188	  0.828	 -0.673	 -0.446	 -9.483	 -0.078	  0.173	  0.134	 30.000	 99.501	 -0.630
37569	  0.271	  0.184	  0.833	 -0.524	 -0.219	 -9.485	 -0.026	  0.233	  0.061	 29.900	 99.496	 -0.170
37619	  0.262	  0.197	  0.835	 -0.203	 -0.366	 -9.422	 -0.125	  0.250	 -0.086	 30.000	 99.488	  0.568
37669	  0.247	  0.179	  0.834	  0.454	  0.013	 -9.377	 -0.125	  0.164	  0.221	 30.000	 99.488	  0.568
37719	  0.248	  0.156	  0.839	  0.477	  0.085	 -9.451	 -0.380	 -0.071	  0.411	 30.000	 99.501	 -0.630
37769	  0.247	  0.123	  0.847	 -0.662	  0.425	 -9.501	 -0.184	  0.152	  0.402	 30.000	 99.513	 -1.737
37819	  0.236	  0.098	  0.847	  0.347	 -0.404	 -8.495	 -0.053	  0.007	  0.383	 30.000	 99.501	 -0.630
37869	  0.236	  0.091	  0.852	  0.288	 -0.665	 -9.466	 -0.294	 -0.086	 -0.018	 30.000	 99.488	  0.568
37919	  0.246	  0.076	  0.854	 -0.190	  2.167	 -9.573	 -0.044	  0.066	  0.001	 30.000	 99.501	 -0.630
37969	  0.247	  0.075	  0.857	 -0.106	  0.130	 -9.484	 -0.001	  0.033	  0.004	 30.000	 99.488	  0.568
38019	  0.247	  0.074	  0.854	 -0.150	  0.133	 -9.554	  0.003	  0.000	  0.010	 30.000	 99.484	  0.938
38069	  0.243	  0.081	  0.853	 -0.180	  0.202	 -9.508	  0.003	 -0.003	  0.010	 30.000	 99.501	 -0.630
38119	  0.241	  0.074	  0.858	 -0.074	  0.199	 -9.481	  0.002	 -0.001	  0.012	 30.000	 99.501	 -0.630
38169	  0.243	  0.084	  0.854	 -0.156	  0.245	 -9.498	  0.001	  0.002	  0.010	 29.900	 99.484	  0.938
38219	  0.247	  0.074	  0.849	 -0.034	  0.191	 -9.483	  0.002	  0.000	  0.012	 30.000	 99.501	 -0.630
38269	  0.246	  0.076	  0.861	 -0.128	  0.283	 -9.497	  0.003	 -0.002	  0.011	 30.000	 99.501	 -0.630
38319	  0.246	  0.075	  0.857	 -0.052	  0.212	 -9.463	  0.003	 -0.002	  0.011	 29.900	 99.496	 -0.170
38369	  0.242	  0.074	  0.856	 -0.153	  0.226	 -9.498	  0.001	  0.000	  0.011	 30.000	 99.488	  0.568
38419	  0.245	  0.073	  0.857	 -0.031	  0.197	 -9.504	  0.002	 -0.000	  0.010	 30.000	 99.488	  0.568
38469	  0.241	  0.078	  0.854	 -0.158	  0.232	 -9.461	  0.003	 -0.001	  0.011	 29.900	 99.484	  0.938
38519	  0.243	  0.078	  0.861	 -0.042	  0.198	 -9.519	  0.003	 -0.000	  0.011	 29.900	 99.484	  0.938
38569	  0.244	  0.081	  0.858	 -0.123	  0.226	 -9.495	  0.003	 -0.002	  0.012	 30.000	 99.501	 -0.630
38619	  0.246	  0.090	  0.857	 -0.060	  0.207	 -9.553	  0.003	 -0.001	  0.011	 29.900	 99.484	  0.938
38669	  0.246	  0.076	  0.852	 -0.129	  0.235	 -9.460	  0.003	 -0.001	  0.011	 29.900	 99.484	  0.938
38719	  0.243	  0.089	  0.854	  0.112	  0.275	 -9.439	  0.000	 -0.005	  0.011	 30.000	 99.488	  0.568
38769	  0.241	  0.085	  0.859	 -0.202	  0.109	 -9.568	  0.005	 -0.002	  0.011	 30.000	 99.501	 -0.630
38819	  0.246	  0.076	  0.857	 -0.151	  0.152	 -9.532	  0.002	  0.000	  0.010	 30.000	 99.472	  2.045
38869	  0.243	  0.075	  0.857	 -0.137	  0.287	 -9.437	  0.004	 -0.001	  0.010	 30.000	 99.501	 -0.630
38919	  0.243	  0.088	  0.855	 -0.046	  0.242	 -9.464	  0.003	 -0.000	  0.012	 29.900	 99.496	 -0.170
38969	  0.243	  0.079	  0.856	 -0.137	  0.251	 -9.498	  0.003	 -0.001	  0.011	 29.900	 99.496	 -0.170
39019	  0.246	  0.075	  0.852	 -0.053	  0.188	 -9.460	  0.002	 -0.001	  0.011	 30.000	 99.488	  0.568
39069	  0.245	  0.074	  0.860	 -0.171	  0.228	 -9.513	  0.002	 -0.001	  0.011	 30.000	 99.488	  0.568
39119	  0.243	  0.074	  0.854	 -0.081	  0.201	 -9.492	  0.002	 -0.001	  0.011	 30.000	 99.488	  0.568
39169	  0.241	  0.072	  0.850	 -0.151	  0.246	 -9.472	  0.002	 -0.001	  0.011	 30.000	 99.501	 -0.630
39219	  0.243	  0.078	  0.853	 -0.076	  0.231	 -9.465	  0.002	  0.001	  0.011	 30.000	 99.488	  0.568
39269	  0.241	  0.072	  0.850	 -0.135	  0.254	 -9.475	  0.003	 -0.003	  0.011	 30.000	 99.488	  0.568
39319	  0.248	  0.079	  0.854	 -0.044	  0.226	 -9.444	  0.002	 -0.001	  0.010	 29.900	 99.484	  0.938
39369	  0.243	  0.080	  0.854	 -0.140	  0.248	 -9.504	  0.003	 -0.000	  0.011	 30.000	 99.501	 -0.630
39418	  0.242	  0.071	  0.860	 -0.073	  0.216	 -9.499	  0.002	 -0.001	  0.010	 30.000	 99.513	 -1.737
39468	  0.243	  0.084	  0.855	 -0.137	  0.252	 -9.461	  0.003	 -0.002	  0.010	 29.900	 99.484	  0.938
39519	  0.246	  0.074	  0.857	 -0.058	  0.130	 -9.533	  0.000	 -0.001	  0.011	 29.900	 99.484	  0.938
39569	  0.243	  0.076	  0.860	 -0.146	  0.229	 -9.502	  0.004	 -0.002	  0.011	 30.000	 99.501	 -0.630
39619	  0.241	  0.080	  0.857	 -0.037	  0.236	 -9.487	  0.004	  0.001	  0.011	 30.000	 99.488	  0.568
39669	  0.243	  0.072	  0.850	 -0.132	  0.221	 -9.490	  0.003	 -0.001	  0.011	 30.000	 99.501	 -0.630
39719	  0.244	  0.084	  0.855	 -0.001	  0.218	 -9.467	  0.004	 -0.001	  0.010	 29.900	 99.484	  0.938
39769	  0.244	  0.089	  0.853	  0.159	  0.655	 -9.343	  0.033	 -0.038	  0.011	 29.900	 99.484	  0.938
39819	  0.243	  0.085	  0.851	  0.136	  1.497	 -8.351	  0.024	 -0.053	 -0.031	 30.000	 99.501	 -0.630
39868	  0.244	  0.075	  0.849	  0.645	 -0.144	 -9.541	 -0.009	  0.006	  0.006	 30.000	 99.488	  0.568
39918	  0.244	  0.080	  0.858	  0.839	  0.233	 -9.431	 -0.003	 -0.032	  0.011	 30.000	 99.488	  0.568
39968	  0.244	  0.075	  0.850	  0.035	  0.634	 -9.335	  0.020	 -0.029	  0.014	 30.000	 99.488	  0.568
40018	  0.246	  0.074	  0.856	 -0.561	 -0.304	 -9.908	  0.013	 -0.012	  0.019	 29.900	 99.496	 -0.170
40068	  0.243	  0.074	  0.852	 -0.503	  0.283	 -9.531	  0.003	 -0.007	  0.014	 29.900	 99.496	 -0.170
40118	  0.242	  0.078	  0.855	 -0.216	  0.147	 -9.525	  0.001	  0.001	  0.011	 30.000	 99.501	 -0.630
40168	  0.245	  0.069	  0.856	 -0.668	  0.087	 -9.515	  0.001	  0.025	  0.010	 30.000	 99.488	  0.568
40218	  0.243	  0.075	  0.850	 -0.572	 -0.001	 -9.638	  0.004	 -0.000	  0.012	 30.000	 99.496	 -0.170
40268	  0.244	  0.075	  0.852	  0.207	  0.237	 -9.460	 -0.005	  0.000	  0.010	 29.900	 99.496	 -0.170
40318	  0.243	  0.075	  0.846	 -0.123	  0.060	 -9.647	  0.002	 -0.002	  0.011	 30.000	 99.501	 -0.630
