Time	 MagX	 MagY	 MagZ	 AccelX	 AccelY	 AccelZ	 Yaw	 Pitch	 Roll	 Temperature	 Pressure	 Altitude
5291	  0.466	  0.247	  0.398	  0.057	 -0.005	 -9.792	 -0.004	  0.003	  0.000	 33.000	 99.119	 -99999.000
5341	  0.468	  0.250	  0.394	  0.034	 -0.020	 -9.754	 -0.004	  0.004	  0.000	 33.000	 99.119	 -99999.000
5391	  0.467	  0.250	  0.393	  0.048	 -0.015	 -9.718	 -0.004	  0.002	  0.000	 33.000	 99.119	 -99999.000
5441	  0.468	  0.247	  0.395	  0.066	 -0.006	 -9.785	 -0.003	  0.003	  0.000	 33.000	 99.119	 -99999.000
5491	  0.468	  0.247	  0.395	  0.048	 -0.022	 -9.740	 -0.004	  0.002	  0.000	 33.100	 99.112	 -99999.000
5541	  0.467	  0.248	  0.395	  0.048	 -0.007	 -9.773	 -0.004	  0.003	  0.000	 33.100	 99.123	 -99999.000
5591	  0.466	  0.250	  0.398	  0.044	 -0.025	 -9.773	 -0.002	  0.002	 -0.000	 33.000	 99.130	 -99999.000
5641	  0.468	  0.251	  0.397	  0.060	  0.004	 -9.757	 -0.003	  0.002	  0.000	 33.000	 99.119	 -99999.000
5691	  0.467	  0.248	  0.395	  0.063	  0.004	 -9.733	 -0.004	  0.003	  0.001	 33.000	 99.119	 -99999.000
5741	  0.468	  0.248	  0.397	  0.066	 -0.021	 -9.749	 -0.005	  0.002	  0.001	 33.000	 99.112	 -99999.000
5791	  0.468	  0.249	  0.394	  0.045	 -0.013	 -9.747	 -0.003	  0.002	  0.001	 33.000	 99.108	 -99999.000
5841	  0.464	  0.248	  0.398	  0.049	 -0.006	 -9.779	 -0.003	  0.002	 -0.001	 33.000	 99.119	 -99999.000
5891	  0.468	  0.250	  0.394	  0.049	 -0.023	 -9.770	 -0.003	  0.002	 -0.000	 33.000	 99.108	 -99999.000
5941	  0.467	  0.245	  0.396	  0.069	  0.001	 -9.740	 -0.003	  0.002	  0.001	 33.000	 99.135	 -99999.000
5991	  0.468	  0.249	  0.396	  0.068	 -0.030	 -9.756	 -0.004	  0.003	  0.001	 33.000	 99.123	 -99999.000
6041	  0.466	  0.248	  0.401	  0.041	 -0.005	 -9.751	 -0.003	  0.003	  0.000	 33.000	 99.108	 -99999.000
6091	  0.468	  0.249	  0.395	  0.056	 -0.001	 -9.747	 -0.004	  0.002	  0.000	 33.000	 99.119	 -99999.000
6141	  0.467	  0.249	  0.393	  0.053	 -0.022	 -9.759	 -0.003	  0.002	  0.001	 33.000	 99.119	 -99999.000
6191	  0.467	  0.252	  0.394	  0.061	 -0.020	 -9.725	 -0.004	  0.002	  0.001	 33.000	 99.123	 -99999.000
6241	  0.467	  0.248	  0.393	  0.091	  0.017	 -9.746	 -0.004	  0.002	  0.001	 33.000	 99.112	 -99999.000
6291	  0.466	  0.247	  0.399	  0.060	 -0.026	 -9.759	 -0.004	  0.001	 -0.000	 33.000	 99.119	 -99999.000
6342	  0.468	  0.247	  0.396	  0.049	  0.018	 -9.783	 -0.004	  0.002	 -0.000	 33.100	 99.123	 -99999.000
6391	  0.464	  0.247	  0.398	  0.059	 -0.024	 -9.738	 -0.003	  0.004	  0.000	 33.000	 99.123	 -99999.000
6441	  0.465	  0.249	  0.396	  0.054	  0.000	 -9.774	 -0.002	  0.002	  0.002	 33.100	 99.123	 -99999.000
6491	  0.467	  0.245	  0.395	  0.056	 -0.027	 -9.735	 -0.003	  0.002	  0.001	 33.000	 99.123	 -99999.000
6541	  0.468	  0.246	  0.396	  0.055	 -0.012	 -9.762	 -0.003	  0.003	  0.002	 33.000	 99.108	 -99999.000
6591	  0.468	  0.252	  0.398	  0.060	 -0.018	 -9.797	 -0.003	  0.004	 -0.000	 33.000	 99.123	 -99999.000
6641	  0.467	  0.246	  0.395	  0.063	 -0.029	 -9.722	 -0.004	  0.003	  0.000	 33.000	 99.123	 -99999.000
6691	  0.468	  0.247	  0.397	  0.067	  0.029	 -9.749	 -0.003	  0.002	  0.000	 33.000	 99.119	 -99999.000
6741	  0.470	  0.252	  0.394	  0.054	 -0.007	 -9.739	 -0.004	  0.002	 -0.000	 33.000	 99.123	 -99999.000
6792	  0.466	  0.249	  0.397	  0.071	 -0.013	 -9.747	 -0.003	  0.002	  0.001	 33.100	 99.112	 -99999.000
6842	  0.467	  0.246	  0.397	  0.069	 -0.032	 -9.738	 -0.003	  0.002	 -0.000	 33.000	 99.130	 -99999.000
6892	  0.467	  0.250	  0.393	  0.057	 -0.010	 -9.775	 -0.003	  0.003	  0.000	 33.000	 99.123	 -99999.000
6942	  0.468	  0.247	  0.391	  0.033	 -0.017	 -9.748	 -0.002	  0.001	  0.000	 33.000	 99.123	 -99999.000
6992	  0.470	  0.252	  0.394	  0.042	 -0.004	 -9.786	 -0.003	  0.002	  0.001	 33.000	 99.112	 -99999.000
7042	  0.466	  0.250	  0.396	  0.068	  0.006	 -9.760	 -0.004	  0.003	  0.001	 33.000	 99.119	 -99999.000
7092	  0.467	  0.248	  0.395	  0.045	 -0.001	 -9.769	 -0.003	  0.003	  0.001	 33.100	 99.112	 -99999.000
7142	  0.466	  0.250	  0.394	  0.075	 -0.002	 -9.787	 -0.003	  0.003	  0.001	 33.000	 99.119	 -99999.000
7192	  0.466	  0.249	  0.396	  0.064	  0.005	 -9.761	 -0.004	  0.003	  0.000	 33.000	 99.123	 -99999.000
7242	  0.467	  0.249	  0.393	  0.046	 -0.028	 -9.759	 -0.004	  0.003	  0.001	 33.000	 99.123	 -99999.000
7292	  0.468	  0.248	  0.394	  0.082	  0.002	 -9.761	 -0.005	  0.002	  0.001	 33.000	 99.119	 -99999.000
7342	  0.467	  0.249	  0.396	  0.051	 -0.031	 -9.753	 -0.003	  0.001	  0.001	 33.000	 99.112	 -99999.000
7392	  0.468	  0.247	  0.397	  0.088	 -0.009	 -9.768	 -0.004	  0.001	  0.001	 33.000	 99.123	 -99999.000
7442	  0.468	  0.250	  0.392	  0.047	 -0.017	 -9.739	 -0.002	  0.002	  0.001	 33.000	 99.119	 -99999.000
7492	  0.466	  0.256	  0.396	  0.071	 -0.008	 -9.747	 -0.003	  0.002	  0.000	 33.000	 99.123	 -99999.000
7542	  0.466	  0.253	  0.396	  0.078	 -0.010	 -9.753	 -0.004	  0.004	  0.000	 33.000	 99.135	 -99999.000
7592	  0.468	  0.247	  0.394	  0.054	 -0.012	 -9.777	 -0.003	  0.002	  0.001	 33.000	 99.123	 -99999.000
7642	  0.466	  0.249	  0.397	  0.069	 -0.007	 -9.771	 -0.002	  0.003	  0.000	 33.000	 99.123	 -99999.000
7692	  0.469	  0.253	  0.398	  0.037	 -0.005	 -9.752	 -0.003	  0.003	  0.000	 33.000	 99.112	 -99999.000
7742	  0.468	  0.249	  0.395	  0.050	 -0.024	 -9.767	 -0.004	  0.002	  0.000	 33.000	 99.112	 -99999.000
7792	  0.468	  0.248	  0.396	  0.074	 -0.030	 -9.793	 -0.003	  0.002	  0.001	 33.000	 99.123	 -99999.000
7842	  0.468	  0.253	  0.392	  0.080	 -0.006	 -9.761	 -0.003	  0.002	  0.001	 33.000	 99.119	 -99999.000
7892	  0.467	  0.252	  0.393	  0.050	 -0.012	 -9.782	 -0.005	  0.004	  0.000	 33.000	 99.130	 -99999.000
7942	  0.468	  0.248	  0.399	  0.080	 -0.028	 -9.725	 -0.004	  0.002	  0.001	 33.000	 99.112	 -99999.000
7992	  0.470	  0.249	  0.394	  0.066	 -0.018	 -9.754	 -0.004	  0.003	  0.001	 33.000	 99.108	 -99999.000
8042	  0.467	  0.250	  0.396	  0.081	 -0.029	 -9.757	 -0.004	  0.002	  0.000	 33.000	 99.123	 -99999.000
8092	  0.470	  0.249	  0.395	  0.064	  0.015	 -9.761	 -0.003	  0.003	  0.001	 33.000	 99.112	 -99999.000
8142	  0.468	  0.249	  0.397	  0.063	  0.001	 -9.724	 -0.004	  0.004	  0.001	 33.000	 99.112	 -99999.000
8192	  0.468	  0.249	  0.395	  0.057	  0.003	 -9.766	 -0.003	  0.001	  0.001	 33.000	 99.108	 -99999.000
8242	  0.467	  0.244	  0.395	  0.045	 -0.011	 -9.776	 -0.004	  0.002	  0.001	 33.000	 99.123	 -99999.000
8292	  0.468	  0.247	  0.396	  0.061	  0.009	 -9.751	 -0.004	  0.003	  0.002	 33.000	 99.123	 -99999.000
8342	  0.468	  0.245	  0.398	  0.070	 -0.019	 -9.771	 -0.003	  0.002	  0.001	 33.000	 99.119	 -99999.000
8392	  0.467	  0.251	  0.393	  0.052	 -0.013	 -9.758	 -0.002	  0.002	  0.001	 33.000	 99.135	 -99999.000
8442	  0.468	  0.249	  0.389	  0.052	 -0.014	 -9.747	 -0.004	  0.003	  0.002	 33.000	 99.123	 -99999.000
8492	  0.467	  0.245	  0.397	  0.068	  0.001	 -9.744	 -0.003	  0.003	  0.000	 33.000	 99.123	 -99999.000
8542	  0.466	  0.248	  0.396	  0.054	  0.003	 -9.792	 -0.003	  0.003	  0.002	 33.000	 99.123	 -99999.000
8592	  0.467	  0.248	  0.398	  0.055	  0.001	 -9.765	 -0.004	  0.003	 -0.000	 33.000	 99.123	 -99999.000
8642	  0.468	  0.249	  0.395	  0.071	 -0.020	 -9.772	 -0.004	  0.002	  0.001	 33.000	 99.112	 -99999.000
8692	  0.468	  0.250	  0.396	  0.056	 -0.002	 -9.774	 -0.004	  0.002	  0.000	 33.000	 99.119	 -99999.000
8742	  0.467	  0.247	  0.398	  0.070	 -0.007	 -9.761	 -0.004	  0.003	 -0.000	 33.000	 99.112	 -99999.000
8792	  0.466	  0.247	  0.399	  0.074	  0.011	 -9.754	 -0.003	  0.002	  0.000	 33.000	 99.123	 -99999.000
8842	  0.468	  0.250	  0.398	  0.067	 -0.015	 -9.781	 -0.003	  0.004	  0.001	 33.000	 99.123	 -99999.000
8892	  0.468	  0.248	  0.395	  0.058	 -0.017	 -9.733	 -0.004	  0.002	  0.001	 33.000	 99.108	 -99999.000
8942	  0.468	  0.250	  0.394	  0.061	 -0.010	 -9.751	 -0.004	  0.001	  0.000	 33.000	 99.108	 -99999.000
8992	  0.467	  0.248	  0.391	  0.065	  0.021	 -9.779	 -0.004	  0.001	  0.001	 33.000	 99.112	 -99999.000
9042	  0.467	  0.247	  0.398	  0.085	 -0.037	 -9.770	 -0.003	  0.004	 -0.000	 33.000	 99.123	 -99999.000
9092	  0.468	  0.249	  0.394	  0.066	  0.001	 -9.754	 -0.004	  0.003	  0.001	 33.000	 99.112	 -99999.000
9142	  0.467	  0.251	  0.399	  0.059	 -0.018	 -9.739	 -0.003	  0.001	  0.000	 33.000	 99.123	 -99999.000
9192	  0.465	  0.249	  0.398	  0.076	 -0.026	 -9.764	 -0.003	  0.003	  0.000	 33.000	 99.123	 -99999.000
9242	  0.467	  0.245	  0.392	  0.061	 -0.027	 -9.786	 -0.004	  0.004	 -0.000	 33.000	 99.123	 -99999.000
9292	  0.466	  0.250	  0.396	  0.056	 -0.005	 -9.780	 -0.003	  0.002	  0.001	 33.000	 99.123	 -99999.000
9342	  0.468	  0.249	  0.398	  0.055	  0.005	 -9.752	 -0.005	  0.002	  0.002	 33.000	 99.123	 -99999.000
9392	  0.468	  0.248	  0.397	  0.060	 -0.001	 -9.775	 -0.004	  0.001	  0.000	 33.000	 99.108	 -99999.000
9442	  0.466	  0.249	  0.396	  0.051	 -0.044	 -9.744	 -0.004	  0.004	  0.000	 33.000	 99.123	 -99999.000
9492	  0.467	  0.250	  0.397	  0.034	 -0.002	 -9.795	 -0.004	  0.004	  0.001	 33.000	 99.112	 -99999.000
9542	  0.466	  0.248	  0.393	  0.037	 -0.025	 -9.756	 -0.003	  0.001	 -0.000	 33.000	 99.119	 -99999.000
9592	  0.468	  0.248	  0.396	  0.081	  0.002	 -9.755	 -0.005	  0.004	 -0.000	 33.000	 99.119	 -99999.000
9641	  0.466	  0.252	  0.396	  0.056	  0.004	 -9.787	 -0.004	  0.001	  0.000	 33.000	 99.123	 -99999.000
9691	  0.466	  0.249	  0.393	  0.041	 -0.006	 -9.767	 -0.003	  0.001	 -0.001	 33.000	 99.112	 -99999.000
9741	  0.468	  0.253	  0.395	  0.071	 -0.007	 -9.780	 -0.004	  0.002	  0.000	 33.000	 99.112	 -99999.000
9791	  0.467	  0.252	  0.396	  0.065	 -0.008	 -9.772	 -0.003	  0.002	  0.001	 33.100	 99.123	 -99999.000
9841	  0.467	  0.249	  0.396	  0.068	 -0.015	 -9.765	 -0.003	  0.003	  0.001	 33.000	 99.112	 -99999.000
9891	  0.467	  0.249	  0.391	  0.074	 -0.001	 -9.766	 -0.002	  0.002	  0.002	 33.000	 99.112	 -99999.000
9941	  0.468	  0.247	  0.395	  0.060	 -0.026	 -9.753	 -0.004	  0.004	  0.001	 33.000	 99.123	 -99999.000
9991	  0.468	  0.249	  0.395	  0.057	 -0.014	 -9.755	 -0.003	  0.002	  0.001	 33.000	 99.108	 -99999.000
10041	  0.470	  0.250	  0.397	  0.073	 -0.013	 -9.778	 -0.004	  0.002	  0.000	 33.000	 99.112	 -99999.000
10091	  0.467	  0.248	  0.387	  0.065	  0.009	 -9.753	 -0.003	  0.001	  0.001	 33.000	 99.119	 -99999.000
10141	  0.467	  0.246	  0.397	  0.079	 -0.008	 -9.753	 -0.003	  0.003	  0.001	 33.000	 99.112	 -99999.000
10192	  0.467	  0.249	  0.392	  0.051	 -0.043	 -9.740	 -0.006	  0.002	  0.000	 33.100	 99.112	 -99999.000
10242	  0.468	  0.250	  0.397	  0.063	 -0.023	 -9.750	 -0.003	  0.002	  0.000	 33.000	 99.112	 -99999.000
10291	  0.468	  0.249	  0.398	  0.055	 -0.017	 -9.741	 -0.004	  0.002	  0.001	 33.000	 99.123	 -99999.000
10341	  0.467	  0.248	  0.396	  0.038	 -0.033	 -9.771	 -0.004	  0.003	  0.002	 33.000	 99.108	 -99999.000
10391	  0.468	  0.248	  0.394	  0.050	 -0.013	 -9.775	 -0.003	  0.003	 -0.000	 33.000	 99.112	 -99999.000
10441	  0.468	  0.252	  0.397	  0.056	 -0.012	 -9.771	 -0.004	  0.002	  0.000	 33.000	 99.112	 -99999.000
10491	  0.465	  0.251	  0.394	  0.047	 -0.002	 -9.756	 -0.003	  0.002	  0.000	 33.000	 99.135	 -99999.000
10541	  0.468	  0.248	  0.390	  0.075	 -0.014	 -9.727	 -0.004	  0.003	  0.001	 33.000	 99.135	 -99999.000
10591	  0.467	  0.247	  0.396	  0.045	 -0.013	 -9.779	 -0.003	  0.004	  0.001	 33.000	 99.123	 -99999.000
10641	  0.467	  0.251	  0.393	  0.038	 -0.037	 -9.774	 -0.003	  0.003	 -0.001	 33.000	 99.112	 -99999.000
10691	  0.468	  0.246	  0.398	  0.063	  0.007	 -9.757	 -0.005	  0.002	 -0.001	 33.000	 99.123	 -99999.000
10741	  0.467	  0.245	  0.394	  0.052	 -0.013	 -9.780	 -0.004	  0.002	 -0.000	 33.100	 99.112	 -99999.000
10791	  0.468	  0.247	  0.396	  0.045	 -0.025	 -9.785	 -0.004	  0.001	  0.000	 33.000	 99.112	 -99999.000
10841	  0.469	  0.258	  0.393	  0.062	 -0.022	 -9.745	 -0.003	  0.002	  0.000	 33.000	 99.112	 -99999.000
10891	  0.466	  0.249	  0.394	  0.061	 -0.015	 -9.735	 -0.004	  0.002	  0.000	 33.000	 99.123	 -99999.000
10941	  0.468	  0.246	  0.392	  0.052	 -0.031	 -9.744	 -0.004	  0.002	 -0.000	 33.000	 99.112	 -99999.000
10991	  0.467	  0.247	  0.393	  0.062	 -0.027	 -9.765	 -0.004	  0.002	  0.001	 33.000	 99.123	 -99999.000
11041	  0.468	  0.250	  0.395	  0.057	 -0.010	 -9.761	 -0.005	  0.003	  0.001	 33.000	 99.108	 -99999.000
11091	  0.466	  0.251	  0.396	  0.040	 -0.022	 -9.776	 -0.003	  0.002	  0.001	 33.000	 99.123	 -99999.000
11141	  0.468	  0.249	  0.397	  0.061	 -0.024	 -9.745	 -0.004	  0.003	  0.001	 33.000	 99.119	 -99999.000
11191	  0.468	  0.247	  0.395	  0.034	 -0.026	 -9.774	 -0.003	  0.001	  0.001	 33.100	 99.112	 -99999.000
11241	  0.467	  0.249	  0.397	  0.057	 -0.007	 -9.730	 -0.003	  0.003	 -0.000	 33.000	 99.123	 -99999.000
24067	  0.467	  0.248	  0.396	  0.080	 -0.018	 -9.809	 -0.004	  0.001	  0.000	 33.100	 99.112	  0.530
24117	  0.467	  0.248	  0.392	  0.046	 -0.024	 -9.766	 -0.003	  0.003	  0.001	 33.000	 99.123	 -0.469
24167	  0.468	  0.247	  0.398	  0.063	 -0.017	 -9.760	 -0.005	  0.002	  0.001	 33.000	 99.123	 -0.469
24217	  0.469	  0.253	  0.396	  0.059	 -0.012	 -9.768	 -0.004	  0.001	 -0.000	 33.000	 99.123	 -0.469
24267	  0.468	  0.255	  0.395	  0.058	 -0.011	 -9.793	 -0.005	  0.002	  0.001	 33.100	 99.127	 -0.832
24317	  0.468	  0.249	  0.397	  0.071	 -0.004	 -9.764	 -0.005	  0.003	  0.001	 33.000	 99.123	 -0.469
24367	  0.468	  0.245	  0.399	  0.048	 -0.014	 -9.778	 -0.002	  0.003	  0.001	 33.000	 99.112	  0.530
24417	  0.468	  0.247	  0.396	  0.076	  0.003	 -9.756	 -0.003	  0.001	  0.001	 33.000	 99.135	 -1.559
24467	  0.466	  0.248	  0.397	  0.047	 -0.014	 -9.759	 -0.005	  0.002	  0.001	 33.000	 99.123	 -0.469
24517	  0.468	  0.249	  0.397	  0.065	 -0.024	 -9.734	 -0.004	  0.002	  0.001	 33.000	 99.123	 -0.469
24567	  0.468	  0.254	  0.395	  0.036	 -0.025	 -9.777	 -0.003	  0.004	  0.001	 33.100	 99.105	  1.165
24617	  0.468	  0.246	  0.400	  0.072	 -0.006	 -9.735	 -0.005	  0.003	 -0.000	 33.000	 99.123	 -0.469
24667	  0.468	  0.249	  0.395	  0.049	 -0.020	 -9.762	 -0.003	  0.001	  0.000	 33.000	 99.123	 -0.469
24717	  0.467	  0.251	  0.398	  0.064	  0.012	 -9.737	 -0.004	  0.002	  0.002	 33.000	 99.123	 -0.469
24767	  0.469	  0.253	  0.392	  0.067	 -0.035	 -9.785	 -0.004	  0.004	  0.000	 33.000	 99.112	  0.530
24817	  0.465	  0.248	  0.394	  0.063	 -0.039	 -9.778	 -0.003	  0.003	  0.001	 33.100	 99.123	 -0.469
24867	  0.468	  0.249	  0.396	  0.075	 -0.008	 -9.768	 -0.003	  0.002	  0.000	 33.000	 99.123	 -0.469
24917	  0.466	  0.249	  0.398	  0.091	 -0.021	 -9.742	 -0.003	  0.004	  0.001	 33.000	 99.112	  0.530
24967	  0.466	  0.247	  0.396	  0.036	  0.001	 -9.768	 -0.004	  0.003	  0.000	 33.100	 99.105	  1.165
25017	  0.466	  0.251	  0.398	  0.072	 -0.016	 -9.762	 -0.005	  0.002	 -0.000	 33.000	 99.112	  0.530
25067	  0.467	  0.249	  0.396	  0.051	 -0.019	 -9.794	 -0.004	  0.002	  0.000	 33.000	 99.123	 -0.469
25117	  0.465	  0.249	  0.391	  0.059	  0.005	 -9.778	 -0.003	  0.002	  0.001	 33.100	 99.112	  0.530
25167	  0.466	  0.246	  0.394	  0.068	 -0.015	 -9.771	 -0.004	  0.003	  0.000	 33.000	 99.123	 -0.469
25217	  0.467	  0.251	  0.396	  0.049	 -0.006	 -9.750	 -0.003	  0.002	  0.001	 33.000	 99.112	  0.530
25267	  0.467	  0.247	  0.392	  0.058	 -0.020	 -9.761	 -0.004	  0.002	  0.001	 33.000	 99.123	 -0.469
25317	  0.465	  0.247	  0.397	  0.106	 -0.002	 -9.846	 -0.003	  0.005	  0.001	 33.100	 99.127	 -0.832
25367	  0.465	  0.249	  0.397	  0.016	 -0.038	 -9.788	 -0.004	  0.001	  0.000	 33.000	 99.123	 -0.469
25417	  0.467	  0.250	  0.396	  0.073	  0.013	 -9.760	 -0.003	  0.002	  0.000	 33.000	 99.123	 -0.469
25467	  0.469	  0.251	  0.397	  0.045	 -0.014	 -9.747	 -0.002	  0.004	 -0.001	 33.100	 99.127	 -0.832
25517	  0.467	  0.246	  0.395	  0.056	 -0.003	 -9.782	 -0.004	  0.003	  0.001	 33.000	 99.123	 -0.469
25567	  0.466	  0.252	  0.393	  0.080	 -0.020	 -9.746	 -0.004	  0.002	 -0.000	 33.000	 99.112	  0.530
25617	  0.468	  0.251	  0.396	  0.053	  0.026	 -9.759	 -0.002	  0.003	  0.002	 33.000	 99.112	  0.530
25667	  0.468	  0.251	  0.394	  0.067	  0.003	 -9.760	 -0.004	  0.002	  0.002	 33.000	 99.135	 -1.559
25717	  0.470	  0.246	  0.395	  0.039	 -0.033	 -9.757	 -0.003	  0.002	  0.000	 33.000	 99.123	 -0.469
25767	  0.468	  0.248	  0.396	  0.072	 -0.018	 -9.773	 -0.004	  0.003	  0.000	 33.000	 99.123	 -0.469
25817	  0.466	  0.247	  0.397	  0.071	 -0.034	 -9.781	 -0.003	  0.003	  0.001	 33.100	 99.127	 -0.832
25867	  0.468	  0.247	  0.396	  0.052	  0.012	 -9.743	 -0.004	  0.002	  0.001	 33.000	 99.112	  0.530
25917	  0.467	  0.247	  0.397	  0.057	 -0.022	 -9.745	 -0.004	  0.003	  0.000	 33.000	 99.112	  0.530
25967	  0.468	  0.247	  0.397	  0.046	  0.005	 -9.794	 -0.003	  0.002	  0.001	 33.000	 99.112	  0.530
26017	  0.470	  0.250	  0.396	  0.070	  0.023	 -9.794	 -0.004	  0.002	 -0.000	 33.000	 99.112	  0.530
26067	  0.470	  0.248	  0.399	  0.054	 -0.009	 -9.773	 -0.004	  0.003	  0.000	 33.000	 99.112	  0.530
26117	  0.468	  0.246	  0.394	  0.058	  0.003	 -9.777	 -0.004	  0.003	  0.000	 33.000	 99.112	  0.530
26167	  0.468	  0.250	  0.399	  0.052	 -0.022	 -9.752	 -0.004	  0.002	 -0.000	 33.000	 99.123	 -0.469
26217	  0.468	  0.248	  0.397	  0.068	 -0.002	 -9.728	 -0.004	  0.004	  0.000	 33.100	 99.116	  0.167
26267	  0.470	  0.250	  0.396	  0.052	 -0.014	 -9.755	 -0.003	  0.003	 -0.001	 33.000	 99.123	 -0.469
26317	  0.467	  0.246	  0.396	  0.054	 -0.014	 -9.760	 -0.003	  0.002	  0.000	 33.000	 99.112	  0.530
26367	  0.468	  0.244	  0.402	  0.085	 -0.015	 -9.765	 -0.002	  0.002	  0.000	 33.000	 99.101	  1.529
26417	  0.468	  0.247	  0.397	  0.064	 -0.009	 -9.787	 -0.003	  0.003	  0.000	 33.100	 99.123	 -0.469
26467	  0.468	  0.247	  0.391	  0.050	 -0.012	 -9.770	 -0.003	  0.002	 -0.000	 33.000	 99.112	  0.530
26517	  0.470	  0.247	  0.399	  0.031	 -0.036	 -9.754	 -0.002	  0.001	 -0.000	 33.100	 99.127	 -0.832
26567	  0.469	  0.251	  0.398	  0.032	 -0.004	 -9.780	 -0.003	  0.003	  0.001	 33.000	 99.123	 -0.469
26617	  0.470	  0.252	  0.397	  0.056	 -0.020	 -9.768	 -0.004	  0.003	 -0.000	 33.000	 99.112	  0.530
26667	  0.468	  0.253	  0.392	  0.068	 -0.004	 -9.777	 -0.003	  0.004	  0.000	 33.000	 99.123	 -0.469
26717	  0.470	  0.249	  0.396	  0.054	 -0.019	 -9.775	 -0.003	  0.002	  0.002	 33.000	 99.101	  1.529
26767	  0.468	  0.249	  0.397	  0.041	 -0.009	 -9.736	 -0.004	  0.002	 -0.000	 33.100	 99.127	 -0.832
26817	  0.468	  0.244	  0.397	  0.060	 -0.019	 -9.787	 -0.002	  0.003	  0.000	 33.000	 99.112	  0.530
26867	  0.468	  0.249	  0.399	  0.058	 -0.034	 -9.788	 -0.003	  0.000	  0.001	 33.000	 99.112	  0.530
26917	  0.470	  0.248	  0.391	  0.053	 -0.020	 -9.740	 -0.002	  0.003	  0.000	 33.000	 99.123	 -0.469
26967	  0.470	  0.248	  0.399	  0.035	 -0.007	 -9.772	 -0.003	  0.004	 -0.000	 33.100	 99.127	 -0.832
27017	  0.470	  0.246	  0.394	  0.058	 -0.008	 -9.726	 -0.003	  0.001	  0.001	 33.000	 99.123	 -0.469
27067	  0.470	  0.246	  0.396	  0.073	 -0.024	 -9.745	 -0.004	  0.003	 -0.000	 33.100	 99.127	 -0.832
27117	  0.471	  0.254	  0.395	  0.053	 -0.024	 -9.775	 -0.003	  0.004	 -0.000	 33.000	 99.123	 -0.469
27167	  0.468	  0.249	  0.399	  0.052	 -0.003	 -9.775	 -0.004	  0.002	 -0.000	 33.100	 99.116	  0.167
27217	  0.470	  0.246	  0.395	  0.048	 -0.001	 -9.714	 -0.002	  0.003	  0.000	 33.100	 99.123	 -0.469
27267	  0.468	  0.248	  0.399	  0.067	 -0.016	 -9.769	 -0.004	  0.002	  0.000	 33.100	 99.127	 -0.832
27317	  0.468	  0.246	  0.397	  0.057	 -0.014	 -9.777	 -0.003	  0.001	  0.001	 33.100	 99.112	  0.530
27367	  0.466	  0.247	  0.399	  0.053	 -0.007	 -9.769	 -0.003	  0.002	  0.001	 33.100	 99.127	 -0.832
27417	  0.467	  0.246	  0.395	  0.067	 -0.017	 -9.760	 -0.002	  0.002	  0.001	 33.000	 99.112	  0.530
27467	  0.470	  0.251	  0.395	  0.104	  0.003	 -9.731	 -0.003	  0.004	 -0.000	 33.000	 99.112	  0.530
27517	  0.467	  0.248	  0.397	  0.060	 -0.027	 -9.764	 -0.004	  0.002	 -0.000	 33.100	 99.112	  0.530
27567	  0.466	  0.248	  0.396	  0.066	 -0.036	 -9.769	 -0.004	  0.003	  0.000	 33.100	 99.127	 -0.832
27617	  0.466	  0.246	  0.396	  0.074	 -0.015	 -9.766	 -0.004	  0.004	  0.000	 33.000	 99.112	  0.530
27667	  0.470	  0.249	  0.397	  0.052	 -0.022	 -9.766	 -0.003	  0.002	 -0.001	 33.000	 99.112	  0.530
27717	  0.469	  0.250	  0.396	  0.074	 -0.034	 -9.747	 -0.003	  0.003	  0.001	 33.000	 99.112	  0.530
27767	  0.468	  0.248	  0.396	  0.045	 -0.012	 -9.757	 -0.004	  0.002	  0.001	 33.100	 99.116	  0.167
27817	  0.468	  0.245	  0.395	  0.060	 -0.003	 -9.747	 -0.005	  0.003	  0.000	 33.000	 99.112	  0.530
27867	  0.470	  0.248	  0.397	  0.044	 -0.028	 -9.756	 -0.005	  0.003	 -0.000	 33.000	 99.123	 -0.469
27917	  0.469	  0.250	  0.399	  0.060	 -0.028	 -9.764	 -0.004	  0.001	  0.000	 33.100	 99.123	 -0.469
27967	  0.468	  0.246	  0.395	  0.075	 -0.008	 -9.762	 -0.002	  0.002	  0.001	 33.000	 99.123	 -0.469
28017	  0.470	  0.246	  0.396	  0.071	 -0.016	 -9.776	 -0.004	  0.002	 -0.001	 33.100	 99.123	 -0.469
28067	  0.468	  0.249	  0.400	  0.064	 -0.009	 -9.770	 -0.003	  0.003	 -0.001	 33.000	 99.123	 -0.469
28117	  0.466	  0.247	  0.398	  0.060	  0.004	 -9.778	 -0.003	  0.003	 -0.001	 33.100	 99.123	 -0.469
28167	  0.468	  0.245	  0.398	  0.068	 -0.001	 -9.762	 -0.003	  0.000	  0.002	 33.000	 99.112	  0.530
28217	  0.468	  0.250	  0.395	  0.073	 -0.008	 -9.750	 -0.002	  0.003	  0.001	 33.100	 99.116	  0.167
28267	  0.470	  0.248	  0.396	  0.062	  0.005	 -9.747	 -0.004	  0.002	 -0.000	 33.000	 99.112	  0.530
28317	  0.468	  0.246	  0.399	  0.077	 -0.034	 -9.728	 -0.003	  0.001	  0.000	 33.000	 99.123	 -0.469
28367	  0.470	  0.245	  0.398	  0.052	 -0.025	 -9.774	 -0.004	  0.001	 -0.000	 33.100	 99.116	  0.167
28417	  0.468	  0.248	  0.397	  0.056	 -0.019	 -9.764	 -0.003	  0.004	  0.001	 33.000	 99.112	  0.530
28467	  0.470	  0.248	  0.398	  0.041	  0.008	 -9.752	 -0.004	  0.004	 -0.000	 33.000	 99.123	 -0.469
28517	  0.467	  0.250	  0.398	  0.069	 -0.013	 -9.710	 -0.003	  0.003	  0.001	 33.100	 99.116	  0.167
28568	  0.468	  0.251	  0.399	  0.053	 -0.010	 -9.793	 -0.004	  0.004	  0.000	 33.000	 99.123	 -0.469
28617	  0.467	  0.245	  0.399	  0.068	 -0.023	 -9.752	 -0.004	  0.002	  0.001	 33.100	 99.127	 -0.832
28666	  0.467	  0.246	  0.396	  0.062	 -0.025	 -9.779	 -0.004	  0.002	  0.000	 33.000	 99.112	  0.530
28716	  0.470	  0.254	  0.397	  0.060	  0.003	 -9.743	 -0.005	  0.001	 -0.000	 33.000	 99.123	 -0.469
28766	  0.468	  0.247	  0.392	  0.049	 -0.006	 -9.776	 -0.003	  0.002	  0.001	 33.000	 99.112	  0.530
28816	  0.467	  0.246	  0.396	  0.050	  0.005	 -9.742	 -0.003	  0.002	  0.002	 33.000	 99.123	 -0.469
28866	  0.470	  0.249	  0.398	  0.065	 -0.024	 -9.783	 -0.003	  0.002	  0.000	 33.000	 99.112	  0.530
28916	  0.470	  0.245	  0.398	  0.067	  0.012	 -9.777	 -0.004	  0.003	  0.000	 33.000	 99.123	 -0.469
28966	  0.466	  0.249	  0.394	  0.061	  0.021	 -9.763	 -0.004	  0.001	 -0.000	 33.000	 99.101	  1.529
29016	  0.470	  0.250	  0.398	  0.042	 -0.007	 -9.754	 -0.004	  0.003	 -0.001	 33.100	 99.127	 -0.832
29066	  0.468	  0.247	  0.398	  0.032	 -0.015	 -9.754	 -0.005	  0.002	  0.001	 33.100	 99.127	 -0.832
29116	  0.467	  0.244	  0.397	  0.050	 -0.014	 -9.782	 -0.003	  0.004	  0.000	 33.100	 99.116	  0.167
29166	  0.468	  0.246	  0.400	  0.061	 -0.007	 -9.779	 -0.003	  0.002	  0.002	 33.000	 99.123	 -0.469
29217	  0.468	  0.251	  0.397	  0.043	 -0.016	 -9.764	 -0.004	  0.004	  0.000	 33.100	 99.127	 -0.832
29267	  0.468	  0.247	  0.398	  0.046	  0.002	 -9.733	 -0.003	  0.001	 -0.000	 33.000	 99.123	 -0.469
29317	  0.468	  0.250	  0.398	  0.061	 -0.019	 -9.747	 -0.003	  0.003	  0.001	 33.100	 99.116	  0.167
29367	  0.468	  0.248	  0.398	  0.068	 -0.024	 -9.750	 -0.003	  0.002	 -0.001	 33.100	 99.116	  0.167
29417	  0.468	  0.246	  0.398	  0.062	 -0.020	 -9.795	 -0.003	  0.004	  0.002	 33.000	 99.112	  0.530
29467	  0.468	  0.244	  0.399	  0.040	 -0.028	 -9.746	 -0.004	  0.003	  0.000	 33.100	 99.116	  0.167
29517	  0.467	  0.244	  0.397	  0.085	 -0.006	 -9.768	 -0.003	  0.003	  0.000	 33.000	 99.112	  0.530
29567	  0.467	  0.251	  0.401	  0.043	 -0.004	 -9.747	 -0.002	  0.001	 -0.001	 33.000	 99.123	 -0.469
29617	  0.468	  0.248	  0.397	  0.066	 -0.021	 -9.764	 -0.003	  0.004	  0.001	 33.000	 99.112	  0.530
29667	  0.468	  0.253	  0.395	  0.063	 -0.030	 -9.756	 -0.004	  0.003	  0.000	 33.100	 99.127	 -0.832
29717	  0.467	  0.246	  0.396	  0.064	 -0.027	 -9.743	 -0.004	  0.002	  0.001	 33.100	 99.105	  1.165
29767	  0.469	  0.251	  0.397	  0.071	 -0.002	 -9.783	 -0.004	  0.002	  0.000	 33.000	 99.112	  0.530
29817	  0.467	  0.247	  0.399	  0.062	  0.006	 -9.748	 -0.004	  0.002	  0.001	 33.000	 99.123	 -0.469
29867	  0.468	  0.248	  0.395	  0.048	 -0.017	 -9.790	 -0.004	  0.002	  0.001	 33.100	 99.127	 -0.832
29917	  0.468	  0.246	  0.394	  0.053	 -0.028	 -9.784	 -0.003	  0.004	  0.000	 33.100	 99.123	 -0.469
29967	  0.468	  0.248	  0.398	  0.056	 -0.029	 -9.771	 -0.002	  0.001	  0.000	 33.000	 99.112	  0.530
30017	  0.468	  0.248	  0.400	  0.069	 -0.011	 -9.748	 -0.003	  0.002	  0.002	 33.100	 99.116	  0.167
30067	  0.467	  0.246	  0.394	  0.091	  0.022	 -9.792	 -0.003	  0.002	  0.000	 33.000	 99.123	 -0.469
30117	  0.468	  0.249	  0.397	  0.055	 -0.005	 -9.753	 -0.003	  0.004	  0.001	 33.100	 99.127	 -0.832
30167	  0.465	  0.243	  0.398	  0.052	 -0.011	 -9.750	 -0.004	  0.004	  0.002	 33.000	 99.123	 -0.469
30217	  0.468	  0.252	  0.396	  0.056	 -0.024	 -9.806	 -0.004	  0.001	  0.001	 33.000	 99.123	 -0.469
30267	  0.468	  0.248	  0.395	  0.061	 -0.018	 -9.780	 -0.003	  0.004	  0.002	 33.000	 99.112	  0.530
30317	  0.470	  0.247	  0.397	  0.073	 -0.009	 -9.765	 -0.003	  0.003	  0.001	 33.000	 99.123	 -0.469
30367	  0.467	  0.246	  0.397	  0.061	 -0.005	 -9.757	 -0.003	  0.003	  0.001	 33.000	 99.123	 -0.469
30417	  0.468	  0.249	  0.397	  0.070	  0.004	 -9.757	 -0.003	  0.001	  0.001	 33.000	 99.123	 -0.469
30467	  0.467	  0.245	  0.398	  0.049	 -0.000	 -9.767	 -0.002	  0.001	  0.000	 33.000	 99.112	  0.530
30517	  0.468	  0.247	  0.397	  0.066	 -0.009	 -9.767	 -0.004	  0.003	  0.001	 33.100	 99.127	 -0.832
30567	  0.468	  0.248	  0.395	  0.051	 -0.038	 -9.758	 -0.004	  0.003	 -0.000	 33.100	 99.127	 -0.832
30617	  0.468	  0.247	  0.398	  0.050	 -0.019	 -9.748	 -0.004	  0.002	  0.000	 33.000	 99.123	 -0.469
30667	  0.468	  0.247	  0.398	  0.065	 -0.028	 -9.751	 -0.004	  0.003	 -0.000	 33.000	 99.123	 -0.469
30717	  0.468	  0.249	  0.398	  0.071	 -0.008	 -9.722	 -0.004	  0.003	 -0.001	 33.000	 99.123	 -0.469
30767	  0.468	  0.248	  0.396	  0.077	 -0.010	 -9.764	 -0.003	  0.003	  0.001	 33.000	 99.135	 -1.559
30817	  0.467	  0.246	  0.396	  0.043	 -0.014	 -9.748	 -0.004	  0.002	  0.001	 33.000	 99.101	  1.529
30867	  0.468	  0.248	  0.400	  0.076	  0.017	 -9.740	 -0.004	  0.001	  0.000	 33.100	 99.116	  0.167
30917	  0.466	  0.246	  0.399	  0.056	 -0.012	 -9.778	 -0.004	  0.001	 -0.000	 33.000	 99.112	  0.530
30967	  0.470	  0.246	  0.396	  0.036	  0.013	 -9.776	 -0.004	  0.003	  0.000	 33.000	 99.123	 -0.469
31017	  0.468	  0.249	  0.399	  0.077	 -0.019	 -9.742	 -0.003	  0.004	 -0.000	 33.100	 99.116	  0.167
31067	  0.468	  0.248	  0.398	  0.090	 -0.047	 -10.205	 -0.006	  0.005	  0.000	 33.000	 99.135	 -1.559
31117	  0.468	  0.249	  0.397	  0.024	 -0.011	 -9.673	 -0.004	  0.002	  0.001	 33.100	 99.116	  0.167
31167	  0.468	  0.250	  0.399	  0.038	 -0.010	 -9.687	 -0.004	  0.000	  0.000	 33.100	 99.116	  0.167
31217	  0.468	  0.250	  0.401	  0.072	 -0.021	 -9.760	 -0.002	  0.004	  0.000	 33.100	 99.116	  0.167
31267	  0.466	  0.245	  0.396	  0.076	 -0.012	 -9.781	 -0.005	  0.002	  0.001	 33.100	 99.116	  0.167
31317	  0.469	  0.252	  0.396	  0.074	 -0.009	 -9.758	 -0.004	  0.001	  0.000	 33.100	 99.116	  0.167
31367	  0.470	  0.248	  0.397	  0.049	  0.008	 -9.738	 -0.003	  0.002	 -0.000	 33.000	 99.112	  0.530
31417	  0.468	  0.249	  0.396	  0.047	  0.010	 -9.738	 -0.004	  0.003	  0.000	 33.000	 99.123	 -0.469
31467	  0.467	  0.248	  0.395	  0.065	 -0.014	 -9.752	 -0.004	  0.003	 -0.000	 33.000	 99.112	  0.530
31517	  0.468	  0.249	  0.395	  0.057	 -0.023	 -9.757	 -0.003	  0.003	  0.001	 33.100	 99.116	  0.167
31567	  0.467	  0.249	  0.397	  0.068	  0.008	 -9.777	 -0.005	  0.002	  0.000	 33.000	 99.123	 -0.469
31617	  0.468	  0.246	  0.395	  0.071	 -0.005	 -9.758	 -0.003	  0.003	  0.000	 33.100	 99.127	 -0.832
31667	  0.467	  0.247	  0.397	  0.062	 -0.010	 -9.757	 -0.003	  0.003	  0.001	 33.100	 99.127	 -0.832
31717	  0.468	  0.248	  0.397	  0.065	 -0.014	 -9.773	 -0.003	  0.002	  0.001	 33.000	 99.112	  0.530
31767	  0.468	  0.248	  0.399	  0.060	 -0.011	 -9.742	 -0.003	  0.004	  0.001	 33.000	 99.123	 -0.469
31817	  0.467	  0.247	  0.398	  0.073	 -0.015	 -9.761	 -0.003	  0.003	  0.001	 33.000	 99.123	 -0.469
31867	  0.470	  0.252	  0.398	  0.049	 -0.033	 -9.759	 -0.003	  0.004	  0.001	 33.100	 99.127	 -0.832
31917	  0.467	  0.249	  0.395	  0.082	  0.000	 -9.768	 -0.002	  0.003	  0.000	 33.100	 99.112	  0.530
31967	  0.467	  0.246	  0.400	  0.034	 -0.045	 -9.801	 -0.002	 -0.006	 -0.000	 33.100	 99.116	  0.167
32017	  0.466	  0.246	  0.400	  0.109	 -0.007	 -9.727	 -0.001	  0.005	 -0.002	 33.100	 99.127	 -0.832
32067	  0.465	  0.248	  0.397	  0.040	  0.572	 -9.683	 -0.020	 -0.011	 -0.059	 33.100	 99.127	 -0.832
32117	  0.468	  0.251	  0.395	 -0.219	 -1.227	 -9.911	 -0.013	  0.009	  0.045	 33.000	 99.112	  0.530
32167	  0.470	  0.250	  0.399	  0.086	 -0.026	 -9.770	 -0.003	  0.001	  0.007	 33.000	 99.112	  0.530
32217	  0.470	  0.252	  0.398	  0.104	 -0.038	 -9.754	 -0.004	  0.004	  0.008	 33.100	 99.127	 -0.832
32267	  0.472	  0.245	  0.395	 -0.352	  0.457	 -9.730	 -0.017	  0.005	  0.482	 33.000	 99.112	  0.530
32317	  0.478	  0.234	  0.392	  0.276	 -0.595	 -9.859	 -0.025	 -0.002	  0.334	 33.000	 99.123	 -0.469
32367	  0.483	  0.226	  0.391	  0.997	 -0.529	 -9.900	  0.009	  0.029	  0.219	 33.000	 99.112	  0.530
32417	  0.485	  0.224	  0.389	  0.078	 -0.016	 -9.762	 -0.011	 -0.007	 -0.004	 33.100	 99.112	  0.530
32467	  0.485	  0.225	  0.382	 -0.013	  0.062	 -9.749	 -0.006	 -0.007	 -0.015	 33.000	 99.112	  0.530
32517	  0.487	  0.226	  0.382	  0.097	 -0.001	 -9.778	 -0.003	  0.000	 -0.013	 33.000	 99.112	  0.530
32567	  0.487	  0.223	  0.377	  0.052	  0.015	 -9.750	 -0.003	  0.007	  0.015	 33.100	 99.116	  0.167
32617	  0.484	  0.219	  0.376	  0.094	 -0.005	 -9.748	 -0.003	 -0.008	 -0.004	 33.000	 99.123	 -0.469
32667	  0.486	  0.226	  0.380	  0.917	 -0.240	 -9.820	  0.000	 -0.015	 -0.171	 33.000	 99.123	 -0.469
32717	  0.484	  0.238	  0.388	  0.608	  0.001	 -9.742	  0.000	  0.026	 -0.467	 33.000	 99.112	  0.530
32767	  0.479	  0.249	  0.394	 -0.900	  0.091	 -9.839	 -0.004	  0.005	 -0.231	 33.000	 99.123	 -0.469
32817	  0.480	  0.244	  0.394	  0.105	 -0.024	 -9.797	 -0.000	  0.009	 -0.000	 33.100	 99.123	 -0.469
32867	  0.483	  0.245	  0.383	 -0.189	 -0.039	 -9.884	 -0.044	  0.002	  0.038	 33.000	 99.112	  0.530
32917	  0.485	  0.236	  0.385	 -0.237	 -0.119	 -10.510	 -0.359	  0.014	  0.488	 33.100	 99.123	 -0.469
32967	  0.488	  0.213	  0.393	 -0.301	  0.389	 -9.586	 -0.477	  0.033	  0.339	 33.000	 99.112	  0.530
33017	  0.486	  0.197	  0.393	  1.145	  0.171	 -9.364	 -0.093	  0.056	  0.300	 33.100	 99.127	 -0.832
33067	  0.488	  0.195	  0.392	  0.339	  0.475	 -9.078	  0.143	 -0.056	  0.321	 33.000	 99.119	 -0.106
33117	  0.489	  0.190	  0.384	 -1.199	 -0.198	 -9.349	  0.151	  0.163	  0.346	 33.100	 99.116	  0.167
33167	  0.489	  0.171	  0.384	  0.862	  0.319	 -9.357	  0.295	 -0.003	  0.546	 33.000	 99.112	  0.530
33217	  0.491	  0.171	  0.381	  1.217	 -0.704	 -10.657	  0.176	  0.016	  0.234	 33.000	 99.112	  0.530
33267	  0.492	  0.170	  0.377	  0.388	 -0.173	 -9.303	  0.192	 -0.228	 -0.021	 33.000	 99.123	 -0.469
33317	  0.496	  0.176	  0.373	  0.604	 -0.221	 -9.818	  0.023	  0.011	 -0.070	 33.000	 99.112	  0.530
33367	  0.495	  0.185	  0.368	  0.175	  0.118	 -9.695	  0.071	 -0.006	 -0.540	 33.000	 99.123	 -0.469
33417	  0.495	  0.198	  0.374	 -0.034	 -0.249	 -9.810	 -0.023	  0.026	 -0.011	 33.100	 99.116	  0.167
33466	  0.494	  0.194	  0.369	 -0.066	 -0.058	 -9.947	 -0.028	  0.003	  0.081	 33.000	 99.112	  0.530
33516	  0.490	  0.186	  0.378	  0.532	 -0.200	 -9.902	 -0.364	  0.377	  0.245	 33.000	 99.112	  0.530
33566	  0.488	  0.177	  0.379	  0.199	  0.242	 -9.724	  0.046	 -0.046	  0.016	 33.100	 99.112	  0.530
33616	  0.483	  0.175	  0.385	 -0.094	  0.239	 -10.450	 -0.289	  0.277	  0.132	 33.000	 99.101	  1.529
33666	  0.478	  0.164	  0.387	  0.698	  0.177	 -9.620	 -0.325	  0.098	  0.073	 33.000	 99.112	  0.530
33716	  0.475	  0.153	  0.395	  0.980	  0.548	 -8.418	 -0.042	  0.088	 -0.026	 33.100	 99.127	 -0.832
33766	  0.475	  0.162	  0.387	 -0.333	  0.438	 -10.854	  0.370	 -0.260	 -0.095	 33.000	 99.112	  0.530
33817	  0.477	  0.162	  0.385	  1.065	  0.034	 -9.238	 -0.140	  0.166	  0.040	 33.100	 99.116	  0.167
33866	  0.486	  0.186	  0.361	  1.075	 -3.222	 -10.844	  0.016	 -0.046	 -0.731	 33.000	 99.112	  0.530
33916	  0.466	  0.205	  0.361	 -2.313	  0.150	 -9.586	  0.006	 -0.009	 -0.455	 33.100	 99.116	  0.167
33966	  0.453	  0.207	  0.360	  0.123	  0.027	 -9.666	 -0.001	 -0.006	  0.001	 33.100	 99.116	  0.167
34016	  0.447	  0.209	  0.357	 -0.323	 -0.029	 -10.009	 -0.004	  0.024	 -0.258	 33.100	 99.127	 -0.832
34066	  0.439	  0.206	  0.361	  0.004	  0.004	 -9.762	 -0.007	  0.003	 -0.004	 33.100	 99.123	 -0.469
34116	  0.435	  0.206	  0.360	  0.152	 -0.060	 -9.763	 -0.005	  0.000	 -0.009	 33.100	 99.123	 -0.469
34166	  0.436	  0.211	  0.361	  0.212	  0.245	 -9.797	 -0.004	 -0.004	 -0.264	 33.100	 99.112	  0.530
34216	  0.438	  0.214	  0.363	  0.089	 -0.043	 -9.770	  0.002	  0.004	 -0.166	 33.000	 99.123	 -0.469
34267	  0.440	  0.215	  0.366	  0.065	 -0.011	 -9.768	 -0.002	  0.003	  0.001	 33.100	 99.127	 -0.832
34316	  0.439	  0.214	  0.361	  0.081	 -0.017	 -9.774	 -0.003	  0.003	  0.000	 33.100	 99.116	  0.167
34367	  0.445	  0.213	  0.356	 -0.101	  0.290	 -9.690	  0.001	  0.006	  0.176	 33.100	 99.116	  0.167
34416	  0.454	  0.211	  0.352	 -0.017	  0.001	 -9.817	 -0.005	  0.004	  0.001	 33.000	 99.112	  0.530
34466	  0.463	  0.214	  0.358	  0.089	 -0.018	 -9.725	 -0.003	 -0.001	  0.000	 33.100	 99.112	  0.530
34516	  0.467	  0.213	  0.363	  0.067	 -0.011	 -9.771	 -0.005	  0.002	  0.001	 33.000	 99.123	 -0.469
34566	  0.473	  0.207	  0.361	  0.047	 -0.001	 -9.779	 -0.003	  0.003	 -0.000	 33.100	 99.112	  0.530
34616	  0.474	  0.207	  0.360	  0.071	 -0.022	 -9.767	 -0.003	  0.002	  0.001	 33.100	 99.123	 -0.469
34666	  0.480	  0.201	  0.351	  0.070	 -0.028	 -9.740	 -0.003	  0.002	  0.001	 33.000	 99.123	 -0.469
34717	  0.482	  0.197	  0.348	  0.056	 -0.005	 -9.793	 -0.004	  0.003	  0.000	 33.100	 99.127	 -0.832
34767	  0.483	  0.194	  0.349	  0.067	 -0.024	 -9.750	 -0.003	  0.002	  0.001	 33.000	 99.123	 -0.469
34817	  0.483	  0.198	  0.352	  0.057	  0.000	 -9.745	 -0.002	  0.004	  0.001	 33.100	 99.127	 -0.832
34867	  0.485	  0.199	  0.347	  0.036	 -0.013	 -9.782	 -0.005	  0.003	  0.001	 33.000	 99.123	 -0.469
34917	  0.484	  0.196	  0.346	  0.073	 -0.008	 -9.741	 -0.003	  0.003	  0.001	 33.100	 99.139	 -1.921
34967	  0.487	  0.195	  0.347	  0.068	 -0.029	 -9.760	 -0.004	  0.004	  0.001	 33.000	 99.123	 -0.469
35017	  0.488	  0.200	  0.346	  0.070	 -0.009	 -9.724	 -0.003	  0.004	  0.000	 33.100	 99.116	  0.167
35067	  0.486	  0.199	  0.347	  0.061	 -0.015	 -9.750	 -0.003	  0.003	  0.001	 33.000	 99.123	 -0.469
35117	  0.484	  0.198	  0.347	  0.052	  0.005	 -9.770	 -0.004	  0.003	  0.001	 33.100	 99.127	 -0.832
35167	  0.484	  0.199	  0.345	  0.083	 -0.016	 -9.726	 -0.003	 -0.000	  0.000	 33.100	 99.116	  0.167
35217	  0.486	  0.200	  0.346	  0.058	  0.003	 -9.753	 -0.004	  0.004	 -0.000	 33.100	 99.123	 -0.469
35267	  0.486	  0.198	  0.341	  0.078	  0.005	 -9.791	 -0.003	  0.003	  0.000	 33.000	 99.123	 -0.469
35317	  0.484	  0.196	  0.345	  0.066	 -0.020	 -9.769	 -0.003	  0.004	  0.001	 33.100	 99.112	  0.530
35367	  0.486	  0.200	  0.347	  0.071	 -0.008	 -9.743	 -0.003	  0.003	  0.001	 33.000	 99.112	  0.530
35417	  0.488	  0.195	  0.340	  0.085	 -0.044	 -9.758	 -0.005	  0.001	  0.001	 33.000	 99.123	 -0.469
35467	  0.496	  0.196	  0.331	  0.061	 -0.005	 -9.770	 -0.003	  0.000	  0.000	 33.000	 99.123	 -0.469
35517	  0.493	  0.190	  0.329	  0.058	 -0.003	 -9.784	 -0.003	  0.004	 -0.000	 33.100	 99.116	  0.167
35567	  0.495	  0.188	  0.335	  0.081	 -0.007	 -9.766	 -0.003	  0.004	 -0.001	 33.100	 99.127	 -0.832
35617	  0.493	  0.192	  0.331	  0.083	 -0.018	 -9.737	 -0.003	  0.004	  0.000	 33.000	 99.123	 -0.469
35667	  0.494	  0.188	  0.334	  0.057	  0.003	 -9.749	 -0.003	  0.003	  0.000	 33.000	 99.123	 -0.469
35717	  0.499	  0.194	  0.323	  0.046	 -0.004	 -9.754	 -0.003	  0.002	 -0.001	 33.100	 99.127	 -0.832
35767	  0.493	  0.186	  0.332	  0.095	 -0.017	 -9.759	 -0.003	  0.004	  0.000	 33.100	 99.116	  0.167
35817	  0.492	  0.192	  0.335	  0.057	 -0.042	 -9.779	 -0.002	  0.000	  0.000	 33.000	 99.123	 -0.469
35867	  0.490	  0.195	  0.334	  0.078	 -0.008	 -9.754	 -0.003	  0.004	  0.001	 33.000	 99.112	  0.530
35917	  0.489	  0.198	  0.339	  0.054	 -0.034	 -9.773	 -0.003	  0.003	  0.001	 33.000	 99.123	 -0.469
35967	  0.496	  0.187	  0.333	  0.113	 -0.060	 -9.779	 -0.004	  0.010	  0.001	 33.000	 99.112	  0.530
36017	  0.497	  0.190	  0.325	  0.059	 -0.025	 -9.779	 -0.004	  0.002	 -0.001	 33.100	 99.112	  0.530
36067	  0.505	  0.193	  0.313	  0.033	 -0.002	 -9.725	 -0.003	  0.004	  0.001	 33.000	 99.112	  0.530
36117	  0.513	  0.184	  0.300	  0.074	 -0.017	 -9.774	 -0.003	  0.002	  0.000	 33.100	 99.105	  1.165
36167	  0.517	  0.176	  0.293	  0.060	  0.001	 -9.762	 -0.003	  0.003	  0.000	 33.000	 99.112	  0.530
36217	  0.517	  0.171	  0.291	  0.067	 -0.001	 -9.720	 -0.004	  0.002	 -0.000	 33.000	 99.123	 -0.469
36267	  0.520	  0.170	  0.290	  0.056	 -0.016	 -9.752	 -0.004	  0.003	  0.001	 33.000	 99.123	 -0.469
36317	  0.529	  0.173	  0.281	  0.061	 -0.025	 -9.785	 -0.004	  0.004	  0.001	 33.000	 99.112	  0.530
36367	  0.532	  0.173	  0.287	  0.073	 -0.001	 -9.736	 -0.002	  0.002	  0.000	 33.000	 99.123	 -0.469
36417	  0.531	  0.179	  0.288	  0.077	 -0.008	 -9.783	 -0.003	  0.003	  0.001	 33.100	 99.116	  0.167
36467	  0.532	  0.176	  0.296	  0.077	 -0.016	 -9.758	 -0.003	  0.002	  0.001	 33.000	 99.112	  0.530
36517	  0.540	  0.185	  0.290	  0.066	 -0.002	 -9.764	 -0.002	  0.003	  0.001	 33.100	 99.116	  0.167
36567	  0.555	  0.188	  0.282	  0.017	  0.012	 -9.753	 -0.001	  0.001	  0.050	 33.100	 99.127	 -0.832
36617	  0.568	  0.234	  0.253	  0.085	 -0.031	 -9.768	 -0.004	  0.001	 -0.001	 33.100	 99.127	 -0.832
36667	  0.559	  0.225	  0.253	  0.086	 -0.001	 -9.751	 -0.004	  0.003	  0.002	 33.000	 99.123	 -0.469
36717	  0.536	  0.230	  0.249	  0.082	 -0.015	 -9.784	 -0.005	  0.003	  0.001	 33.100	 99.116	  0.167
36767	  0.518	  0.248	  0.267	  0.066	 -0.011	 -9.773	 -0.004	  0.004	  0.000	 33.100	 99.105	  1.165
36817	  0.513	  0.254	  0.286	  0.042	 -0.013	 -9.762	 -0.003	  0.003	  0.000	 33.100	 99.116	  0.167
36867	  0.512	  0.267	  0.318	  0.064	 -0.009	 -9.791	 -0.004	  0.002	  0.001	 33.000	 99.101	  1.529
36917	  0.502	  0.270	  0.346	 -0.015	  0.008	 -9.788	 -0.005	  0.005	  0.001	 33.000	 99.123	 -0.469
36967	  0.488	  0.247	  0.381	  0.087	 -0.002	 -9.777	 -0.005	 -0.008	 -0.001	 33.100	 99.116	  0.167
37017	  0.478	  0.239	  0.394	  0.256	  0.009	 -9.666	 -0.003	  0.003	 -0.000	 33.000	 99.123	 -0.469
37067	  0.475	  0.241	  0.394	 -0.021	  0.006	 -9.771	 -0.003	  0.012	  0.003	 33.000	 99.112	  0.530
37117	  0.480	  0.248	  0.400	  0.045	 -0.008	 -9.796	 -0.004	 -0.004	 -0.002	 33.100	 99.123	 -0.469
37167	  0.474	  0.246	  0.410	  0.073	 -0.009	 -9.760	 -0.003	  0.002	  0.000	 33.100	 99.127	 -0.832
37217	  0.462	  0.248	  0.413	  0.052	  0.004	 -9.776	 -0.004	  0.002	  0.001	 33.100	 99.127	 -0.832
37267	  0.439	  0.256	  0.432	  0.035	  0.005	 -9.755	 -0.003	  0.002	 -0.000	 33.000	 99.112	  0.530
37317	  0.430	  0.250	  0.426	  0.074	 -0.018	 -9.764	 -0.004	  0.004	  0.000	 33.100	 99.116	  0.167
37367	  0.422	  0.245	  0.417	  0.061	 -0.032	 -9.743	 -0.003	  0.002	  0.000	 33.000	 99.112	  0.530
37417	  0.423	  0.239	  0.412	  0.049	 -0.018	 -9.756	 -0.004	  0.001	  0.001	 33.000	 99.123	 -0.469
37467	  0.426	  0.244	  0.413	  0.099	 -0.018	 -9.759	 -0.002	  0.003	  0.001	 33.100	 99.127	 -0.832
37517	  0.421	  0.239	  0.399	  0.041	 -0.032	 -9.784	 -0.003	  0.001	  0.002	 33.100	 99.127	 -0.832
37567	  0.421	  0.236	  0.406	  0.077	  0.008	 -9.757	 -0.004	  0.004	  0.001	 33.000	 99.123	 -0.469
37617	  0.423	  0.235	  0.404	  0.089	 -0.018	 -9.682	 -0.003	 -0.001	 -0.001	 33.000	 99.112	  0.530
37667	  0.424	  0.239	  0.404	  0.019	 -0.011	 -9.751	 -0.003	  0.003	  0.000	 33.000	 99.112	  0.530
37717	  0.421	  0.234	  0.404	  0.084	 -0.038	 -9.793	 -0.003	  0.000	  0.000	 33.100	 99.116	  0.167
37767	  0.423	  0.238	  0.399	  0.067	 -0.004	 -9.766	 -0.003	  0.003	  0.000	 33.100	 99.116	  0.167
37817	  0.421	  0.235	  0.402	  0.059	 -0.057	 -9.821	 -0.007	  0.003	  0.001	 33.100	 99.116	  0.167
37867	  0.422	  0.230	  0.399	  0.054	 -0.003	 -9.766	 -0.003	  0.005	  0.001	 33.000	 99.112	  0.530
37917	  0.422	  0.228	  0.404	  0.089	  0.005	 -9.750	 -0.001	  0.003	  0.001	 33.000	 99.112	  0.530
37967	  0.421	  0.236	  0.397	  0.042	  0.002	 -9.743	 -0.002	  0.004	  0.005	 33.100	 99.116	  0.167
38017	  0.419	  0.224	  0.399	 -0.042	  0.034	 -9.780	 -0.003	  0.002	  0.025	 33.100	 99.116	  0.167
38067	  0.419	  0.233	  0.397	  0.299	 -0.314	 -9.747	 -0.015	 -0.001	  0.084	 33.100	 99.112	  0.530
38117	  0.419	  0.236	  0.391	  0.101	 -0.014	 -9.736	 -0.009	  0.009	  0.001	 33.100	 99.112	  0.530
38167	  0.422	  0.230	  0.390	 -0.562	  0.682	 -9.781	 -0.007	  0.009	  0.216	 33.100	 99.116	  0.167
38217	  0.427	  0.222	  0.389	  0.201	 -0.326	 -9.820	 -0.011	  0.003	  0.396	 33.100	 99.116	  0.167
38267	  0.439	  0.206	  0.383	  0.244	 -0.130	 -9.725	 -0.010	 -0.004	 -0.004	 33.000	 99.123	 -0.469
38317	  0.451	  0.204	  0.389	  0.067	 -0.007	 -9.795	 -0.004	  0.004	  0.001	 33.100	 99.127	 -0.832
38367	  0.458	  0.207	  0.387	  0.048	 -0.016	 -9.771	 -0.003	  0.002	 -0.000	 33.100	 99.116	  0.167
38417	  0.465	  0.208	  0.388	  0.057	  0.004	 -9.762	 -0.004	  0.003	 -0.000	 33.000	 99.101	  1.529
38467	  0.470	  0.208	  0.384	  0.053	 -0.016	 -9.746	 -0.004	  0.005	  0.003	 33.100	 99.116	  0.167
38517	  0.475	  0.210	  0.387	  0.081	 -0.004	 -9.747	 -0.003	  0.002	  0.001	 33.100	 99.127	 -0.832
38567	  0.477	  0.213	  0.380	  0.048	  0.001	 -9.758	 -0.002	  0.005	  0.001	 33.000	 99.112	  0.530
38617	  0.482	  0.212	  0.390	  0.044	 -0.012	 -9.760	 -0.003	  0.002	  0.001	 33.100	 99.127	 -0.832
38667	  0.480	  0.221	  0.385	  0.057	 -0.004	 -9.771	 -0.003	  0.001	 -0.000	 33.100	 99.116	  0.167
38717	  0.480	  0.224	  0.383	  0.055	 -0.026	 -9.743	 -0.005	 -0.001	 -0.001	 33.100	 99.127	 -0.832
38767	  0.482	  0.223	  0.383	  0.129	  0.024	 -9.724	  0.000	  0.012	 -0.001	 33.000	 99.112	  0.530
38817	  0.479	  0.225	  0.387	  0.082	 -0.038	 -9.751	 -0.005	 -0.005	  0.001	 33.100	 99.116	  0.167
38867	  0.480	  0.225	  0.391	  0.276	  0.007	 -9.644	 -0.004	  0.004	  0.001	 33.100	 99.116	  0.167
38917	  0.481	  0.228	  0.391	  0.033	  0.009	 -9.707	 -0.003	  0.005	  0.001	 33.100	 99.116	  0.167
38967	  0.477	  0.227	  0.395	 -0.080	 -0.027	 -9.845	 -0.006	  0.016	  0.003	 33.100	 99.116	  0.167
39017	  0.468	  0.228	  0.402	  0.025	 -0.024	 -9.781	 -0.004	 -0.000	 -0.000	 33.000	 99.112	  0.530
39067	  0.466	  0.220	  0.404	  0.063	  0.014	 -9.779	 -0.005	  0.002	 -0.001	 33.000	 99.112	  0.530
39117	  0.451	  0.200	  0.398	  0.071	 -0.021	 -9.731	 -0.003	  0.001	  0.000	 33.100	 99.116	  0.167
39167	  0.474	  0.211	  0.392	  0.055	 -0.013	 -9.766	 -0.003	  0.006	 -0.001	 33.100	 99.116	  0.167
39217	  0.479	  0.218	  0.394	  0.038	 -0.025	 -9.761	 -0.003	  0.005	  0.001	 33.100	 99.116	  0.167
39267	  0.477	  0.219	  0.396	  0.066	  0.025	 -9.782	 -0.003	  0.001	  0.001	 33.000	 99.123	 -0.469
39317	  0.479	  0.219	  0.398	  0.067	 -0.025	 -9.792	 -0.005	  0.002	  0.001	 33.100	 99.112	  0.530
39367	  0.477	  0.222	  0.394	  0.053	  0.002	 -9.789	 -0.003	  0.001	 -0.001	 33.000	 99.123	 -0.469
39417	  0.476	  0.221	  0.395	  0.065	 -0.011	 -9.777	 -0.003	  0.002	  0.001	 33.100	 99.112	  0.530
39467	  0.475	  0.219	  0.394	  0.062	 -0.010	 -9.758	 -0.003	  0.000	  0.000	 33.100	 99.116	  0.167
39517	  0.476	  0.219	  0.399	  0.088	 -0.000	 -9.755	 -0.003	  0.003	 -0.000	 33.000	 99.123	 -0.469
39567	  0.478	  0.222	  0.397	  0.062	 -0.015	 -9.732	 -0.002	  0.005	 -0.000	 33.100	 99.116	  0.167
39618	  0.477	  0.221	  0.392	  0.084	 -0.015	 -9.775	 -0.004	  0.002	 -0.000	 33.100	 99.112	  0.530
39667	  0.474	  0.220	  0.396	  0.061	 -0.019	 -9.758	 -0.005	  0.001	 -0.000	 33.100	 99.105	  1.165
39717	  0.475	  0.219	  0.396	  0.056	 -0.007	 -9.802	 -0.003	  0.004	  0.001	 33.100	 99.116	  0.167
39767	  0.478	  0.220	  0.396	  0.057	 -0.001	 -9.759	 -0.004	  0.004	  0.001	 33.100	 99.112	  0.530
39817	  0.477	  0.221	  0.396	  0.064	 -0.015	 -9.758	 -0.001	  0.004	  0.001	 33.100	 99.112	  0.530
39866	  0.476	  0.217	  0.394	  0.058	 -0.018	 -9.748	 -0.004	  0.003	  0.001	 33.100	 99.112	  0.530
39916	  0.477	  0.216	  0.394	  0.027	  0.046	 -9.756	 -0.002	  0.004	  0.001	 33.100	 99.123	 -0.469
39966	  0.477	  0.221	  0.396	  1.108	 -0.348	 -9.631	  0.119	  0.154	 -0.214	 33.100	 99.116	  0.167
40016	  0.476	  0.225	  0.395	  0.019	  0.019	 -9.782	  0.000	  0.008	 -0.029	 33.100	 99.116	  0.167
40067	  0.477	  0.222	  0.398	  0.151	 -0.141	 -9.822	 -0.067	 -0.046	  0.005	 33.100	 99.116	  0.167
40117	  0.477	  0.222	  0.398	 -0.022	  0.083	 -9.776	 -0.003	  0.007	 -0.001	 33.000	 99.112	  0.530
40167	  0.478	  0.222	  0.398	 -0.015	  0.073	 -9.774	  0.014	  0.029	 -0.025	 33.100	 99.112	  0.530
40217	  0.478	  0.223	  0.392	 -0.000	  0.187	 -9.780	 -0.029	 -0.021	 -0.150	 33.100	 99.116	  0.167
40267	  0.477	  0.226	  0.395	  0.050	  0.011	 -9.792	 -0.007	  0.001	 -0.001	 33.100	 99.127	 -0.832
40318	  0.477	  0.230	  0.396	 -0.036	 -0.002	 -9.777	 -0.002	  0.006	 -0.041	 33.100	 99.116	  0.167
40368	  0.476	  0.225	  0.396	  0.342	  0.045	 -9.828	 -0.072	 -0.056	  0.175	 33.100	 99.116	  0.167
40418	  0.478	  0.221	  0.386	  0.624	 -1.418	 -10.512	 -0.010	 -0.419	 -0.020	 33.100	 99.116	  0.167
40468	  0.484	  0.215	  0.395	 -2.545	  1.555	 -9.365	 -0.609	 -0.315	 -0.134	 33.000	 99.123	 -0.469
40518	  0.468	  0.200	  0.412	 -0.044	  1.123	 -10.435	 -0.677	  0.377	  0.145	 33.100	 99.116	  0.167
40568	  0.455	  0.186	  0.429	 -0.148	 -0.846	 -9.755	  0.015	  0.530	  0.247	 33.100	 99.116	  0.167
40618	  0.426	  0.196	  0.436	 -0.797	  1.408	 -8.926	  0.602	  1.265	  0.328	 33.000	 99.123	 -0.469
40668	  0.405	  0.194	  0.447	  1.143	  0.400	 -8.729	  0.636	  0.239	  0.739	 33.100	 99.127	 -0.832
40718	  0.426	  0.207	  0.426	  1.197	  0.352	 -8.060	  1.122	 -1.415	  0.080	 33.100	 99.116	  0.167
40768	  0.469	  0.215	  0.382	  0.401	 -2.391	 -10.814	  0.276	 -1.621	  0.466	 33.100	 99.127	 -0.832
40818	  0.498	  0.203	  0.358	 -0.632	 -0.047	 -11.798	 -0.533	 -0.506	  0.654	 33.100	 99.112	  0.530
40868	  0.490	  0.173	  0.363	  2.289	 -0.696	 -8.596	 -0.513	  0.468	 -0.046	 33.100	 99.116	  0.167
40918	  0.474	  0.174	  0.390	 -0.663	  1.129	 -13.077	 -0.281	  1.213	 -0.432	 33.100	 99.116	  0.167
40968	  0.427	  0.169	  0.430	  1.790	 -0.088	 -13.024	 -0.365	  1.198	  0.200	 33.100	 99.127	 -0.832
41018	  0.423	  0.161	  0.435	 -1.732	 -0.818	  3.264	 -0.347	 -1.584	  0.778	 33.100	 99.123	 -0.469
41068	  0.452	  0.115	  0.417	  2.403	 -1.269	 -12.555	 -0.788	  1.179	  0.228	 33.100	 99.116	  0.167
41117	  0.415	  0.121	  0.445	  5.805	 -0.116	 -18.721	  1.406	  0.155	 -0.072	 33.100	 99.127	 -0.832
41167	  0.436	  0.156	  0.416	 -0.560	  2.382	 -3.487	 -0.475	 -1.729	 -0.375	 33.100	 99.116	  0.167
41217	  0.454	  0.124	  0.411	  0.585	  0.710	 -10.402	 -0.872	 -0.290	  0.089	 33.100	 99.116	  0.167
41267	  0.438	  0.128	  0.426	 -1.106	  0.193	 -13.014	  0.647	 -0.620	 -0.621	 33.000	 99.123	 -0.469
41317	  0.441	  0.157	  0.403	 -1.679	  2.334	  2.762	  0.656	  0.340	 -0.094	 33.100	 99.127	 -0.832
41367	  0.446	  0.149	  0.410	  5.656	 -4.677	 -27.752	 -1.114	  0.732	 -0.109	 33.000	 99.112	  0.530
41417	  0.449	  0.148	  0.407	 -5.365	  2.438	 -5.718	  0.856	 -0.858	  0.100	 33.100	 99.127	 -0.832
41467	  0.452	  0.165	  0.397	  1.716	  0.856	 -2.312	  1.122	  0.790	  0.688	 33.100	 99.116	  0.167
41518	  0.451	  0.165	  0.398	  0.468	 -2.943	 -23.309	 -0.468	 -0.218	 -0.778	 33.100	 99.112	  0.530
41567	  0.446	  0.180	  0.399	 -3.217	  3.292	 -0.723	  1.046	 -0.463	  0.023	 33.100	 99.127	 -0.832
41617	  0.449	  0.194	  0.384	  3.670	 -1.665	 -10.016	 -0.034	  0.743	  0.057	 33.100	 99.127	 -0.832
41667	  0.436	  0.200	  0.401	 -2.168	 -0.752	 -16.920	 -0.205	 -0.151	 -0.917	 33.100	 99.116	  0.167
41717	  0.424	  0.222	  0.401	  4.897	 -1.027	  1.896	  1.056	  0.581	  0.211	 33.100	 99.116	  0.167
41767	  0.443	  0.201	  0.392	  6.415	 -6.524	 -24.653	 -1.970	  0.016	  0.269	 33.100	 99.116	  0.167
41817	  0.444	  0.171	  0.411	 -2.370	  1.795	 -14.565	 -0.691	 -0.893	 -0.453	 33.100	 99.105	  1.165
41867	  0.452	  0.177	  0.391	 -1.776	  2.235	  1.474	  0.058	 -0.362	  0.305	 33.100	 99.127	 -0.832
41917	  0.451	  0.168	  0.395	  3.037	 -1.739	 -14.806	  0.150	  0.904	  0.003	 33.100	 99.112	  0.530
41967	  0.447	  0.179	  0.403	 -3.125	  0.030	 -13.458	  0.244	 -0.188	  0.055	 33.000	 99.112	  0.530
42017	  0.448	  0.182	  0.391	  0.350	  1.123	 -4.137	  0.062	 -0.171	 -0.013	 33.100	 99.116	  0.167
42067	  0.456	  0.169	  0.393	  0.257	 -0.060	 -10.058	 -0.659	 -0.250	  0.161	 33.100	 99.116	  0.167
42117	  0.463	  0.154	  0.392	 -0.539	 -0.210	 -12.144	 -0.437	 -0.011	 -0.121	 33.100	 99.127	 -0.832
42167	  0.464	  0.152	  0.403	 -0.730	  0.406	 -17.601	 -0.434	 -0.189	 -0.174	 33.000	 99.112	  0.530
42217	  0.455	  0.170	  0.393	 -4.725	  1.819	 -2.414	  1.945	 -0.404	  0.123	 33.100	 99.116	  0.167
42267	  0.440	  0.217	  0.387	  2.803	  1.418	  8.299	  1.706	  1.871	  0.182	 33.000	 99.112	  0.530
42317	  0.460	  0.186	  0.391	  3.153	 -15.907	 -40.909	 -2.594	  0.601	 -0.686	 33.100	 99.127	 -0.832
42367	  0.444	  0.186	  0.404	 -8.469	  2.092	 -5.316	  0.402	 -3.146	  0.832	 33.100	 99.116	  0.167
42417	  0.463	  0.183	  0.373	  0.372	  5.515	 -2.890	 -1.368	 -0.251	 -0.738	 33.100	 99.116	  0.167
42467	  0.475	  0.132	  0.395	 -4.685	 -0.281	 -13.392	 -0.197	  1.375	  0.713	 33.000	 99.135	 -1.559
42517	  0.458	  0.186	  0.387	 -7.938	  2.491	 -0.956	  1.477	 -0.527	 -1.282	 33.100	 99.112	  0.530
42567	  0.469	  0.153	  0.389	 10.582	  2.038	 -16.179	 -2.108	  0.515	  0.999	 33.100	 99.116	  0.167
42617	  0.466	  0.176	  0.395	 -4.590	  0.288	 -6.449	  1.186	  0.014	 -0.790	 33.100	 99.116	  0.167
42667	  0.458	  0.194	  0.386	  1.922	  4.971	 -14.703	 -1.888	 -0.739	  0.682	 33.100	 99.116	  0.167
42717	  0.477	  0.161	  0.384	 -6.150	  2.821	 -6.866	  2.235	  0.685	  0.152	 33.000	 99.112	  0.530
42767	  0.452	  0.234	  0.378	 -4.981	 -4.033	 -8.834	 -0.280	 -1.581	 -1.437	 33.100	 99.116	  0.167
42817	  0.461	  0.195	  0.389	  1.238	  9.588	 -8.693	 -0.474	  2.101	  1.424	 33.100	 99.112	  0.530
42867	  0.450	  0.214	  0.392	 -2.950	 -11.950	 -13.980	  0.189	 -2.311	 -1.595	 33.000	 99.123	 -0.469
42917	  0.458	  0.167	  0.398	  7.313	  4.165	 -4.154	 -0.598	  1.830	  2.061	 33.100	 99.127	 -0.832
42967	  0.446	  0.209	  0.403	 -2.917	 -13.938	 -18.330	  0.300	 -2.046	 -2.519	 33.000	 99.112	  0.530
43017	  0.462	  0.180	  0.380	  2.069	  7.681	 -2.041	  1.046	  0.172	  2.774	 33.100	 99.116	  0.167
43067	  0.467	  0.211	  0.379	 -3.614	 -3.619	 -18.766	 -1.756	 -1.220	 -3.036	 33.000	 99.112	  0.530
43117	  0.460	  0.193	  0.388	  0.346	  2.183	  1.764	  2.734	  0.127	  3.083	 33.100	 99.116	  0.167
43167	  0.469	  0.195	  0.382	 -3.590	 -3.630	 -15.913	 -4.287	 -1.103	 -3.148	 33.100	 99.127	 -0.832
43217	  0.452	  0.193	  0.392	  1.460	 -6.800	 -6.906	  6.010	  2.751	  3.998	 33.100	 99.116	  0.167
43267	  0.461	  0.226	  0.373	  2.608	 -12.253	 -25.450	 -5.805	 -2.674	 -3.169	 33.100	 99.127	 -0.832
43317	  0.433	  0.168	  0.418	  0.376	 10.837	 10.221	  2.897	  2.831	  2.497	 33.100	 99.105	  1.165
43367	  0.481	  0.197	  0.361	  0.191	 -8.047	 -12.734	 -4.028	 -2.973	 -1.961	 33.100	 99.116	  0.167
43417	  0.462	  0.183	  0.388	  5.944	  2.948	 -17.235	  4.062	  2.707	  1.449	 33.100	 99.116	  0.167
43467	  0.471	  0.206	  0.364	 -5.449	  0.362	 -7.068	 -4.438	 -3.401	 -1.305	 33.100	 99.116	  0.167
43517	  0.474	  0.167	  0.373	  6.820	  4.213	 -13.177	  5.359	  2.381	  1.917	 33.100	 99.112	  0.530
43567	  0.471	  0.216	  0.370	 -6.072	 -2.051	 -15.702	 -3.845	 -2.039	 -2.530	 33.000	 99.112	  0.530
43617	  0.469	  0.181	  0.383	 -2.028	  4.391	  2.260	  2.412	  0.945	  2.020	 33.100	 99.116	  0.167
43667	  0.468	  0.190	  0.374	  3.871	 -5.454	 -12.037	 -0.694	 -0.613	 -0.043	 33.100	 99.116	  0.167
43717	  0.476	  0.163	  0.374	 -0.638	  1.005	 -4.672	 -1.091	 -0.445	 -0.111	 33.100	 99.112	  0.530
43767	  0.477	  0.166	  0.369	  1.153	 -0.183	 -9.199	  0.268	  0.217	  0.553	 33.100	 99.116	  0.167
43817	  0.482	  0.171	  0.364	 -0.004	 -0.260	 -11.046	  0.036	 -0.094	 -0.232	 33.100	 99.116	  0.167
43867	  0.479	  0.168	  0.370	 -1.194	  0.443	 -9.572	  0.020	  0.260	  0.134	 33.100	 99.105	  1.165
43917	  0.481	  0.169	  0.370	 -0.549	  0.074	 -8.790	  0.299	 -0.045	 -0.017	 33.100	 99.116	  0.167
43967	  0.491	  0.174	  0.359	 -0.369	  0.164	 -9.921	  0.206	 -0.338	 -0.077	 33.000	 99.112	  0.530
44017	  0.496	  0.178	  0.352	  0.388	  0.066	 -11.129	  0.201	  0.218	  0.025	 33.100	 99.116	  0.167
44067	  0.485	  0.177	  0.362	 -1.015	  0.437	 -9.793	  0.231	  0.858	  0.072	 33.100	 99.116	  0.167
44117	  0.475	  0.183	  0.379	 -1.104	  0.218	 -9.975	 -0.122	  0.267	  0.213	 33.100	 99.123	 -0.469
44167	  0.470	  0.177	  0.376	  0.597	 -0.309	 -9.795	  0.016	  0.074	 -0.097	 33.000	 99.135	 -1.559
44217	  0.473	  0.183	  0.381	  0.930	 -0.444	 -10.111	  0.280	  0.275	 -0.021	 33.100	 99.127	 -0.832
44267	  0.465	  0.192	  0.385	 -0.554	 -0.571	 -9.549	  0.520	  0.362	  0.007	 33.100	 99.116	  0.167
44317	  0.461	  0.213	  0.383	 -0.996	 -1.412	 -8.995	  0.633	 -0.233	 -0.397	 33.100	 99.116	  0.167
44367	  0.465	  0.240	  0.364	 -0.032	  3.005	 -10.445	  0.420	 -0.444	 -0.124	 33.100	 99.116	  0.167
44417	  0.485	  0.235	  0.349	 -0.643	 -1.079	 -12.555	  0.071	 -0.630	 -0.236	 33.100	 99.112	  0.530
44467	  0.488	  0.239	  0.345	 -0.588	 -0.654	 -8.906	 -0.256	 -0.147	  0.148	 33.100	 99.116	  0.167
44517	  0.481	  0.226	  0.353	 -0.743	 -0.649	 -9.237	 -0.699	  0.485	 -0.002	 33.100	 99.116	  0.167
44567	  0.473	  0.219	  0.370	 -0.004	 -0.831	 -9.942	 -0.426	  0.298	 -0.279	 33.100	 99.116	  0.167
44617	  0.466	  0.212	  0.372	  0.447	 -0.057	 -9.404	 -0.011	  0.101	  0.138	 33.100	 99.123	 -0.469
44667	  0.469	  0.215	  0.372	 -0.367	 -0.653	 -10.105	  0.217	 -0.058	 -0.203	 33.000	 99.112	  0.530
44717	  0.466	  0.225	  0.371	 -0.142	 -0.278	 -9.741	  0.093	  0.111	 -0.047	 33.100	 99.116	  0.167
44767	  0.463	  0.220	  0.371	  0.011	 -0.576	 -9.937	  0.007	  0.085	  0.034	 33.000	 99.112	  0.530
44817	  0.460	  0.226	  0.376	  0.151	 -0.387	 -9.397	  0.014	  0.066	  0.075	 33.100	 99.116	  0.167
44867	  0.463	  0.223	  0.378	  0.053	 -0.902	 -10.262	 -0.005	  0.059	 -0.010	 33.100	 99.116	  0.167
44917	  0.456	  0.218	  0.381	 -0.030	 -0.252	 -9.667	 -0.168	  0.329	  0.059	 33.100	 99.101	  1.529
44967	  0.447	  0.214	  0.394	  0.706	 -0.653	 -10.144	 -0.383	  0.698	  0.076	 33.100	 99.116	  0.167
45017	  0.429	  0.205	  0.414	  0.901	 -0.601	 -9.486	 -0.248	  0.497	 -0.012	 33.100	 99.116	  0.167
45067	  0.428	  0.212	  0.414	  0.245	  0.757	 -9.329	  0.029	 -0.248	 -0.085	 33.100	 99.127	 -0.832
45117	  0.432	  0.207	  0.408	  0.889	 -0.452	 -10.495	 -0.083	  0.145	  0.095	 33.100	 99.116	  0.167
45167	  0.431	  0.202	  0.417	  0.463	  0.789	 -10.025	 -0.086	  0.032	  0.086	 33.100	 99.116	  0.167
45216	  0.425	  0.200	  0.421	  0.631	 -0.640	 -9.585	 -0.032	  0.260	 -0.126	 33.100	 99.116	  0.167
45266	  0.413	  0.203	  0.431	  1.361	  0.111	 -10.472	 -0.393	  0.598	 -0.040	 33.100	 99.116	  0.167
45316	  0.390	  0.189	  0.453	  1.678	  0.220	 -9.984	 -0.521	  0.804	 -0.175	 33.100	 99.112	  0.530
45366	  0.373	  0.183	  0.471	  1.189	  0.656	 -9.153	 -0.153	  0.309	  0.019	 33.100	 99.127	 -0.832
45417	  0.359	  0.184	  0.474	  1.135	  0.795	 -8.726	 -0.046	  0.583	  0.132	 33.000	 99.112	  0.530
45467	  0.354	  0.180	  0.477	  2.142	  0.027	 -9.953	  0.304	 -0.233	  0.073	 33.100	 99.116	  0.167
45517	  0.359	  0.191	  0.472	  2.378	 -0.051	 -10.442	 -0.036	  0.104	 -0.178	 33.100	 99.112	  0.530
45566	  0.344	  0.189	  0.485	  1.255	  1.039	 -8.603	 -0.223	  0.401	 -0.018	 33.100	 99.116	  0.167
45616	  0.334	  0.184	  0.489	  2.011	  0.774	 -8.927	 -0.025	 -0.054	  0.079	 33.100	 99.127	 -0.832
45666	  0.333	  0.182	  0.490	  1.994	  0.106	 -9.376	  0.087	  0.109	  0.028	 33.100	 99.116	  0.167
45718	  0.340	  0.195	  0.482	  2.688	 -0.323	 -8.026	  0.468	 -0.736	 -0.543	 33.100	 99.116	  0.167
45767	  0.380	  0.230	  0.451	  1.721	 -3.623	 -7.837	  0.305	 -2.476	 -0.286	 33.000	 99.112	  0.530
45816	  0.408	  0.201	  0.446	 -1.643	 -4.563	 -14.144	 -2.703	  0.984	 -0.948	 33.000	 99.112	  0.530
45867	  0.373	  0.190	  0.474	  0.021	  1.101	 -7.726	  0.225	 -0.359	 -0.168	 33.100	 99.116	  0.167
45916	  0.377	  0.186	  0.468	  0.922	  0.850	 -9.542	  0.140	 -0.568	  0.066	 33.100	 99.116	  0.167
45967	  0.378	  0.185	  0.464	  1.690	  0.624	 -9.127	 -0.105	  0.334	  0.335	 33.100	 99.116	  0.167
46016	  0.376	  0.183	  0.466	  1.548	  0.272	 -9.965	  0.020	  0.012	 -0.014	 33.100	 99.116	  0.167
46067	  0.372	  0.186	  0.463	  1.481	  0.647	 -9.310	  0.084	  0.126	 -0.028	 33.100	 99.127	 -0.832
46117	  0.366	  0.186	  0.468	  1.313	  0.649	 -10.073	 -0.031	  0.421	 -0.022	 33.100	 99.116	  0.167
46167	  0.376	  0.192	  0.456	  3.264	 -4.410	 -4.229	  1.994	 -1.410	  1.299	 33.100	 99.116	  0.167
46217	  0.410	  0.212	  0.435	 -0.802	 -2.071	 -12.211	  0.477	 -0.054	 -0.243	 33.100	 99.116	  0.167
46267	  0.395	  0.214	  0.438	  2.230	  0.692	 -10.515	 -0.185	  0.621	  0.218	 33.100	 99.116	  0.167
46317	  0.379	  0.216	  0.445	  0.469	 -2.760	 -7.413	  0.256	  0.162	 -0.013	 33.100	 99.116	  0.167
46367	  0.377	  0.232	  0.453	  1.402	  0.112	 -8.965	  0.612	 -0.001	 -0.142	 33.100	 99.116	  0.167
46417	  0.374	  0.236	  0.440	  1.897	 -0.641	 -10.262	 -0.068	  0.236	  0.084	 33.100	 99.116	  0.167
46467	  0.371	  0.237	  0.450	  1.927	 -0.643	 -9.499	  0.044	  0.001	  0.349	 33.100	 99.132	 -1.286
46517	  0.380	  0.232	  0.444	  1.306	 -0.308	 -9.326	 -0.144	 -0.493	  0.284	 33.100	 99.127	 -0.832
46567	  0.393	  0.220	  0.442	  1.154	 -1.920	 -8.952	 -0.067	 -0.278	  0.290	 33.100	 99.127	 -0.832
46617	  0.401	  0.213	  0.435	  1.247	 -0.891	 -9.079	 -0.526	 -0.399	  0.188	 33.100	 99.127	 -0.832
46667	  0.410	  0.195	  0.442	  0.220	  0.187	 -9.675	 -0.598	 -0.024	  0.382	 33.100	 99.116	  0.167
46717	  0.418	  0.172	  0.441	  1.303	 -0.075	 -10.654	 -0.543	 -0.232	  0.409	 33.100	 99.116	  0.167
46767	  0.426	  0.151	  0.451	  0.940	 -0.054	 -10.175	 -0.123	 -0.260	  0.583	 33.100	 99.105	  1.165
46817	  0.440	  0.141	  0.448	  0.992	  0.180	 -9.711	 -0.243	 -0.419	  0.595	 33.100	 99.116	  0.167
46867	  0.448	  0.126	  0.444	 -0.696	  0.235	 -10.019	 -0.162	 -0.256	  0.176	 33.100	 99.116	  0.167
46917	  0.450	  0.133	  0.442	 -1.260	  0.995	 -9.693	  0.612	 -0.180	 -0.046	 33.100	 99.116	  0.167
46967	  0.448	  0.153	  0.433	 -0.119	 -0.132	 -10.449	  0.772	  0.371	 -0.023	 33.100	 99.116	  0.167
47017	  0.430	  0.178	  0.433	  0.581	 -0.324	 -9.343	  1.128	  0.430	 -0.024	 33.100	 99.116	  0.167
47067	  0.420	  0.206	  0.426	  1.009	 -1.531	 -9.288	  0.967	  0.173	 -0.072	 33.100	 99.116	  0.167
47117	  0.417	  0.224	  0.420	  1.493	 -1.446	 -8.986	  0.392	  0.066	  0.083	 33.100	 99.116	  0.167
