Time	 MagX	 MagY	 MagZ	 AccelX	 AccelY	 AccelZ	 Yaw	 Pitch	 Roll	 Temperature	 Pressure	 Altitude
15213	  0.148	 -0.050	  0.230	 -0.007	 -0.088	 -9.520	  0.004	 -0.002	  0.009	 29.600	 99.505	 -99999.000
15263	  0.150	 -0.045	  0.227	 -0.023	 -0.065	 -9.479	  0.003	 -0.001	  0.011	 29.600	 99.505	 -99999.000
15313	  0.150	 -0.038	  0.227	 -0.090	 -0.053	 -9.500	  0.001	 -0.001	  0.012	 29.500	 99.501	 -99999.000
15363	  0.152	 -0.047	  0.214	 -0.013	 -0.075	 -9.476	  0.002	 -0.000	  0.011	 29.600	 99.505	 -99999.000
15413	  0.152	 -0.041	  0.230	 -0.102	 -0.066	 -9.496	  0.001	 -0.001	  0.012	 29.600	 99.493	 -99999.000
15463	  0.152	 -0.051	  0.228	 -0.039	 -0.072	 -9.491	  0.002	 -0.000	  0.011	 29.500	 99.488	 -99999.000
15513	  0.147	 -0.055	  0.223	 -0.066	 -0.049	 -9.473	  0.002	 -0.001	  0.011	 29.600	 99.493	 -99999.000
15563	  0.151	 -0.051	  0.226	 -0.046	 -0.075	 -9.547	  0.002	 -0.002	  0.011	 29.600	 99.488	 -99999.000
15613	  0.152	 -0.050	  0.221	 -0.056	 -0.048	 -9.469	  0.002	 -0.001	  0.010	 29.500	 99.488	 -99999.000
15663	  0.152	 -0.049	  0.219	 -0.056	 -0.035	 -9.475	  0.002	 -0.002	  0.011	 29.600	 99.505	 -99999.000
15713	  0.146	 -0.050	  0.226	 -0.047	 -0.041	 -9.468	  0.001	 -0.001	  0.012	 29.600	 99.493	 -99999.000
15763	  0.151	 -0.054	  0.222	 -0.057	 -0.081	 -9.524	  0.004	 -0.002	  0.011	 29.600	 99.493	 -99999.000
15813	  0.150	 -0.049	  0.226	 -0.034	 -0.074	 -9.481	  0.002	 -0.001	  0.011	 29.600	 99.493	 -99999.000
15863	  0.153	 -0.056	  0.225	 -0.058	 -0.046	 -9.489	  0.003	 -0.002	  0.011	 29.600	 99.481	 -99999.000
15913	  0.149	 -0.052	  0.223	 -0.031	 -0.065	 -9.504	  0.002	 -0.001	  0.011	 29.600	 99.493	 -99999.000
15963	  0.151	 -0.050	  0.229	 -0.051	 -0.037	 -9.527	  0.003	 -0.001	  0.010	 29.600	 99.505	 -99999.000
16013	  0.152	 -0.049	  0.226	 -0.019	 -0.057	 -9.476	  0.002	 -0.001	  0.011	 29.600	 99.493	 -99999.000
16063	  0.150	 -0.056	  0.228	 -0.070	 -0.017	 -9.489	  0.002	 -0.002	  0.010	 29.600	 99.488	 -99999.000
16113	  0.154	 -0.047	  0.226	 -0.014	 -0.086	 -9.480	  0.002	  0.001	  0.011	 29.500	 99.488	 -99999.000
16163	  0.148	 -0.050	  0.218	 -0.080	 -0.049	 -9.462	  0.003	 -0.000	  0.011	 29.600	 99.505	 -99999.000
16213	  0.155	 -0.054	  0.229	 -0.010	 -0.093	 -9.470	  0.003	  0.000	  0.011	 29.600	 99.505	 -99999.000
16263	  0.149	 -0.059	  0.228	 -0.116	 -0.046	 -9.508	  0.002	 -0.001	  0.011	 29.600	 99.493	 -99999.000
16313	  0.152	 -0.054	  0.228	  0.015	 -0.073	 -9.468	  0.003	  0.000	  0.011	 29.500	 99.488	 -99999.000
16363	  0.150	 -0.055	  0.230	 -0.091	 -0.059	 -9.462	  0.003	  0.000	  0.011	 29.600	 99.505	 -99999.000
16413	  0.151	 -0.056	  0.223	  0.001	 -0.066	 -9.510	  0.002	 -0.001	  0.011	 29.600	 99.505	 -99999.000
17663	  0.148	 -0.047	  0.221	 -0.120	 -0.070	 -9.501	  0.003	  0.002	  0.010	 29.600	 99.493	  0.272
17713	  0.151	 -0.051	  0.221	 -0.029	 -0.026	 -9.490	  0.002	 -0.001	  0.011	 29.500	 99.488	  0.732
17763	  0.151	 -0.052	  0.221	 -0.107	 -0.083	 -9.470	  0.004	 -0.000	  0.011	 29.600	 99.493	  0.272
17812	  0.149	 -0.052	  0.231	 -0.024	 -0.053	 -9.483	  0.002	 -0.002	  0.011	 29.600	 99.488	  0.732
17862	  0.151	 -0.051	  0.223	 -0.019	 -0.067	 -9.498	  0.002	  0.002	  0.011	 29.600	 99.493	  0.272
17913	  0.152	 -0.054	  0.218	 -0.109	 -0.055	 -9.528	  0.002	 -0.001	  0.012	 29.500	 99.501	 -0.465
17963	  0.147	 -0.045	  0.226	  0.037	 -0.091	 -9.501	  0.002	 -0.001	  0.010	 29.600	 99.505	 -0.833
18013	  0.150	 -0.050	  0.226	 -0.071	 -0.030	 -9.496	  0.002	 -0.001	  0.011	 29.600	 99.493	  0.272
18063	  0.150	 -0.038	  0.227	 -0.014	 -0.049	 -9.502	  0.002	 -0.000	  0.012	 29.600	 99.493	  0.272
18113	  0.150	 -0.051	  0.217	 -0.099	 -0.040	 -9.459	  0.003	 -0.004	  0.012	 29.600	 99.505	 -0.833
18163	  0.151	 -0.052	  0.227	  0.006	 -0.097	 -9.485	  0.002	  0.001	  0.011	 29.600	 99.493	  0.272
18213	  0.147	 -0.037	  0.227	 -0.082	 -0.018	 -9.544	  0.005	 -0.003	  0.012	 29.600	 99.493	  0.272
18263	  0.151	 -0.055	  0.217	 -0.068	 -0.153	 -9.618	 -0.001	  0.001	  0.009	 29.600	 99.505	 -0.833
18313	  0.151	 -0.049	  0.225	 -0.141	 -0.100	 -9.443	  0.004	 -0.006	  0.012	 29.500	 99.501	 -0.465
18363	  0.150	 -0.040	  0.223	  0.054	 -0.032	 -9.441	  0.003	  0.001	  0.010	 29.600	 99.493	  0.272
18413	  0.151	 -0.054	  0.223	 -0.136	 -0.052	 -9.495	  0.002	 -0.000	  0.011	 29.500	 99.501	 -0.465
18463	  0.150	 -0.052	  0.229	  0.020	 -0.062	 -9.457	  0.002	 -0.001	  0.011	 29.600	 99.481	  1.375
18513	  0.151	 -0.045	  0.225	 -0.055	 -0.069	 -9.475	  0.002	  0.000	  0.010	 29.600	 99.493	  0.272
18563	  0.150	 -0.050	  0.223	 -0.038	 -0.047	 -9.494	  0.002	 -0.002	  0.011	 29.500	 99.488	  0.732
18613	  0.152	 -0.045	  0.225	 -0.073	 -0.061	 -9.464	  0.002	 -0.002	  0.010	 29.600	 99.493	  0.272
18663	  0.151	 -0.052	  0.226	 -0.048	 -0.058	 -9.461	  0.002	 -0.001	  0.011	 29.600	 99.493	  0.272
18713	  0.152	 -0.050	  0.223	 -0.048	 -0.081	 -9.474	  0.003	 -0.002	  0.010	 29.600	 99.505	 -0.833
18763	  0.150	 -0.042	  0.225	 -0.046	 -0.056	 -9.466	  0.002	 -0.002	  0.011	 29.500	 99.488	  0.732
18813	  0.150	 -0.049	  0.218	 -0.041	 -0.121	 -9.464	  0.003	 -0.001	  0.011	 29.600	 99.493	  0.272
18863	  0.150	 -0.047	  0.227	 -0.064	 -0.044	 -9.499	  0.001	 -0.000	  0.011	 29.600	 99.505	 -0.833
18913	  0.150	 -0.049	  0.223	 -0.043	 -0.093	 -9.499	  0.004	 -0.000	  0.011	 29.600	 99.493	  0.272
18963	  0.150	 -0.040	  0.227	 -0.085	 -0.039	 -9.502	  0.002	 -0.002	  0.011	 29.600	 99.493	  0.272
19013	  0.151	 -0.052	  0.225	 -0.030	 -0.083	 -9.492	  0.001	 -0.000	  0.012	 29.600	 99.481	  1.375
19063	  0.150	 -0.050	  0.227	 -0.101	 -0.043	 -9.463	  0.002	 -0.000	  0.010	 29.600	 99.493	  0.272
19113	  0.150	 -0.049	  0.229	 -0.025	 -0.074	 -9.500	  0.002	 -0.002	  0.012	 29.500	 99.501	 -0.465
19164	  0.150	 -0.052	  0.218	 -0.079	 -0.067	 -9.450	  0.002	 -0.001	  0.010	 29.600	 99.493	  0.272
19213	  0.151	 -0.050	  0.229	 -0.010	 -0.063	 -9.504	  0.003	 -0.000	  0.011	 29.600	 99.493	  0.272
19264	  0.150	 -0.047	  0.223	 -0.091	 -0.031	 -9.475	  0.003	 -0.000	  0.011	 29.600	 99.505	 -0.833
19313	  0.147	 -0.049	  0.225	  0.024	 -0.083	 -9.507	  0.002	 -0.001	  0.011	 29.600	 99.493	  0.272
19363	  0.152	 -0.051	  0.221	 -0.074	 -0.034	 -9.503	  0.004	  0.001	  0.010	 29.600	 99.505	 -0.833
19413	  0.151	 -0.047	  0.226	 -0.001	 -0.083	 -9.450	  0.002	 -0.001	  0.011	 29.600	 99.505	 -0.833
19463	  0.151	 -0.054	  0.225	 -0.069	 -0.046	 -9.465	  0.003	 -0.000	  0.011	 29.600	 99.488	  0.732
19513	  0.149	 -0.056	  0.226	 -0.006	 -0.063	 -9.479	  0.003	 -0.000	  0.011	 29.600	 99.493	  0.272
19562	  0.150	 -0.047	  0.227	 -0.090	 -0.045	 -9.500	  0.002	 -0.001	  0.011	 29.600	 99.501	 -0.465
19612	  0.152	 -0.050	  0.223	 -0.008	 -0.070	 -9.462	  0.004	 -0.001	  0.010	 29.600	 99.488	  0.732
19662	  0.152	 -0.051	  0.225	 -0.083	 -0.037	 -9.515	  0.003	  0.001	  0.012	 29.600	 99.501	 -0.465
19713	  0.147	 -0.051	  0.225	  0.003	 -0.065	 -9.487	  0.002	 -0.000	  0.010	 29.600	 99.505	 -0.833
19763	  0.151	 -0.055	  0.222	 -0.079	 -0.041	 -9.508	  0.002	 -0.001	  0.012	 29.600	 99.488	  0.732
19814	  0.151	 -0.056	  0.223	 -0.027	 -0.078	 -9.454	  0.003	  0.001	  0.011	 29.600	 99.493	  0.272
19863	  0.150	 -0.050	  0.225	 -0.086	 -0.089	 -9.485	  0.003	 -0.000	  0.011	 29.500	 99.488	  0.732
19913	  0.150	 -0.037	  0.228	 -0.005	 -0.068	 -9.488	  0.001	 -0.000	  0.011	 29.600	 99.505	 -0.833
19963	  0.154	 -0.050	  0.221	 -0.118	 -0.079	 -9.677	 -0.000	 -0.000	  0.011	 29.600	 99.481	  1.375
20013	  0.150	 -0.050	  0.225	  0.030	 -0.042	 -9.500	  0.004	 -0.005	  0.011	 29.600	 99.493	  0.272
20064	  0.150	 -0.052	  0.222	 -0.021	 -0.038	 -9.463	  0.002	  0.001	  0.010	 29.600	 99.493	  0.272
20114	  0.150	 -0.052	  0.226	 -0.069	 -0.059	 -9.507	  0.002	 -0.002	  0.011	 29.500	 99.488	  0.732
20164	  0.151	 -0.047	  0.222	 -0.032	 -0.083	 -9.468	  0.004	 -0.002	  0.012	 29.500	 99.488	  0.732
20213	  0.151	 -0.054	  0.223	 -0.026	 -0.047	 -9.492	  0.002	  0.001	  0.011	 29.600	 99.493	  0.272
20264	  0.151	 -0.050	  0.229	 -0.026	 -0.093	 -9.505	  0.003	 -0.001	  0.011	 29.500	 99.501	 -0.465
20313	  0.151	 -0.052	  0.223	 -0.037	 -0.041	 -9.470	  0.001	 -0.000	  0.011	 29.600	 99.505	 -0.833
20364	  0.152	 -0.036	  0.226	 -0.052	 -0.077	 -9.561	  0.002	 -0.000	  0.012	 29.600	 99.493	  0.272
20414	  0.150	 -0.043	  0.227	 -0.054	 -0.044	 -9.450	  0.002	  0.000	  0.011	 29.500	 99.488	  0.732
20463	  0.151	 -0.045	  0.218	 -0.025	 -0.079	 -9.467	  0.002	 -0.001	  0.011	 29.600	 99.488	  0.732
20513	  0.148	 -0.038	  0.227	 -0.074	 -0.059	 -9.491	  0.003	 -0.000	  0.011	 29.600	 99.493	  0.272
20563	  0.152	 -0.046	  0.221	  0.042	 -0.051	 -9.389	  0.002	  0.001	  0.011	 29.600	 99.493	  0.272
20613	  0.152	 -0.054	  0.229	 -0.128	 -0.054	 -9.536	  0.001	 -0.001	  0.010	 29.600	 99.493	  0.272
20663	  0.152	 -0.051	  0.218	  0.027	 -0.093	 -9.393	  0.003	  0.001	  0.011	 29.600	 99.505	 -0.833
20713	  0.151	 -0.052	  0.226	 -0.125	 -0.067	 -9.504	  0.002	 -0.001	  0.010	 29.500	 99.488	  0.732
20763	  0.152	 -0.047	  0.227	  0.034	 -0.051	 -9.478	  0.002	 -0.001	  0.010	 29.600	 99.505	 -0.833
20813	  0.151	 -0.047	  0.219	 -0.090	 -0.048	 -9.471	  0.003	 -0.002	  0.011	 29.600	 99.493	  0.272
20863	  0.150	 -0.047	  0.227	 -0.008	 -0.090	 -9.483	  0.002	  0.000	  0.011	 29.600	 99.505	 -0.833
20913	  0.151	 -0.050	  0.229	 -0.092	 -0.061	 -9.511	  0.003	 -0.001	  0.012	 29.600	 99.493	  0.272
20963	  0.153	 -0.051	  0.226	  0.029	 -0.073	 -9.509	  0.002	 -0.000	  0.011	 29.500	 99.501	 -0.465
21013	  0.156	 -0.055	  0.226	 -0.113	 -0.074	 -9.555	  0.001	 -0.001	  0.009	 29.500	 99.501	 -0.465
21063	  0.153	 -0.052	  0.229	  0.002	 -0.076	 -9.416	  0.002	  0.001	  0.011	 29.500	 99.488	  0.732
21113	  0.155	 -0.055	  0.228	 -0.131	 -0.085	 -9.485	  0.003	 -0.003	  0.012	 29.600	 99.493	  0.272
21163	  0.153	 -0.046	  0.229	  0.001	 -0.009	 -9.515	  0.001	  0.003	  0.011	 29.600	 99.505	 -0.833
21213	  0.153	 -0.040	  0.225	 -0.023	 -0.013	 -9.412	  0.003	 -0.003	  0.012	 29.600	 99.505	 -0.833
21263	  0.154	 -0.042	  0.229	 -0.031	 -0.105	 -9.505	  0.003	 -0.001	  0.011	 29.600	 99.505	 -0.833
21313	  0.156	 -0.051	  0.222	 -0.050	 -0.032	 -9.452	  0.003	 -0.002	  0.011	 29.500	 99.488	  0.732
21363	  0.153	 -0.054	  0.226	  0.000	 -0.054	 -9.474	  0.003	 -0.002	  0.010	 29.600	 99.505	 -0.833
21413	  0.153	 -0.054	  0.223	 -0.105	 -0.067	 -9.535	  0.002	  0.000	  0.011	 29.500	 99.488	  0.732
21463	  0.154	 -0.049	  0.225	  0.025	 -0.063	 -9.435	  0.003	 -0.001	  0.010	 29.600	 99.493	  0.272
21513	  0.158	 -0.052	  0.220	 -0.072	 -0.071	 -9.487	  0.003	 -0.001	  0.012	 29.600	 99.505	 -0.833
21563	  0.154	 -0.051	  0.226	  0.006	 -0.037	 -9.501	  0.002	  0.000	  0.012	 29.500	 99.501	 -0.465
21613	  0.157	 -0.046	  0.226	 -0.078	 -0.090	 -9.516	  0.002	 -0.001	  0.010	 29.600	 99.505	 -0.833
21663	  0.156	 -0.047	  0.226	 -0.017	  0.020	 -9.474	  0.003	 -0.003	  0.011	 29.600	 99.501	 -0.465
21713	  0.152	 -0.050	  0.225	 -0.007	 -0.068	 -9.479	  0.002	  0.002	  0.011	 29.500	 99.488	  0.732
21763	  0.156	 -0.046	  0.223	 -0.088	 -0.055	 -9.524	  0.001	  0.001	  0.010	 29.600	 99.493	  0.272
21813	  0.151	 -0.051	  0.227	 -0.053	 -0.053	 -9.494	  0.002	 -0.002	  0.011	 29.500	 99.488	  0.732
21863	  0.156	 -0.037	  0.225	 -0.079	 -0.075	 -9.439	  0.002	 -0.003	  0.011	 29.600	 99.505	 -0.833
21913	  0.156	 -0.050	  0.225	 -0.005	 -0.090	 -9.470	  0.003	 -0.000	  0.011	 29.600	 99.505	 -0.833
21963	  0.157	 -0.049	  0.225	 -0.128	 -0.067	 -9.453	  0.003	 -0.001	  0.011	 29.600	 99.493	  0.272
22013	  0.152	 -0.052	  0.230	 -0.371	  0.090	 -9.491	 -0.004	 -0.002	  0.013	 29.500	 99.488	  0.732
22063	  0.155	 -0.052	  0.226	  0.003	 -0.059	 -9.450	  0.003	 -0.004	  0.012	 29.600	 99.488	  0.732
22113	  0.152	 -0.049	  0.229	 -0.005	 -0.077	 -9.472	  0.003	 -0.002	  0.011	 29.600	 99.505	 -0.833
22163	  0.154	 -0.049	  0.231	 -0.064	 -0.036	 -9.489	  0.002	 -0.001	 -0.003	 29.600	 99.488	  0.732
22213	  0.152	 -0.049	  0.222	 -0.007	 -0.073	 -9.481	  0.001	 -0.002	 -0.057	 29.500	 99.488	  0.732
22263	  0.152	 -0.049	  0.230	 -0.141	 -0.064	 -9.538	  0.002	 -0.001	  0.012	 29.500	 99.501	 -0.465
22313	  0.154	 -0.049	  0.230	 -0.007	 -0.097	 -9.500	 -0.001	 -0.001	  0.011	 29.600	 99.493	  0.272
22363	  0.158	 -0.052	  0.232	 -0.339	  0.039	 -9.504	 -0.004	  0.007	  0.040	 29.600	 99.505	 -0.833
22413	  0.155	 -0.060	  0.228	  0.258	  3.037	 -11.566	  0.619	  0.109	  0.609	 29.500	 99.488	  0.732
22463	  0.150	 -0.040	  0.233	 -1.259	 -1.603	 -19.110	  1.759	 -0.350	  0.876	 29.500	 99.488	  0.732
22513	  0.141	 -0.032	  0.203	  2.734	 -2.547	 -12.838	  0.398	 -0.984	  1.370	 29.500	 99.488	  0.732
22563	  0.127	 -0.064	  0.172	 -0.167	 -1.631	 -4.926	 -1.886	 -0.605	  0.774	 29.600	 99.493	  0.272
22613	  0.108	 -0.112	  0.148	 -2.006	 -0.416	  1.194	 -2.307	  0.306	  0.590	 29.600	 99.493	  0.272
22663	  0.094	 -0.150	  0.156	 -0.665	  0.397	 -2.239	 -0.762	  0.794	  0.207	 29.600	 99.493	  0.272
22713	  0.084	 -0.154	  0.181	 -0.413	  0.725	 -8.198	  0.911	  1.354	  0.118	 29.600	 99.493	  0.272
22763	  0.073	 -0.137	  0.217	  0.311	  0.190	 -12.305	  0.898	  1.107	 -0.100	 29.600	 99.505	 -0.833
22813	  0.073	 -0.132	  0.236	  1.489	  0.133	 -11.944	 -0.095	 -0.072	 -0.083	 29.600	 99.493	  0.272
22863	  0.088	 -0.144	  0.224	  0.683	  0.554	 -9.913	 -0.640	 -1.032	  0.121	 29.600	 99.505	 -0.833
22913	  0.105	 -0.154	  0.194	 -0.078	  0.993	 -8.535	 -0.114	 -0.926	  0.189	 29.600	 99.493	  0.272
22963	  0.124	 -0.156	  0.187	  0.002	  0.606	 -9.077	  0.649	 -0.352	  0.050	 29.600	 99.505	 -0.833
23013	  0.128	 -0.141	  0.196	 -0.566	 -0.237	 -9.781	  0.675	  0.250	 -0.129	 29.600	 99.505	 -0.833
23063	  0.126	 -0.130	  0.208	 -0.421	 -0.415	 -10.095	  0.239	  0.462	 -0.186	 29.500	 99.501	 -0.465
23113	  0.120	 -0.127	  0.222	 -0.616	  0.124	 -9.656	 -0.133	  0.360	 -0.062	 29.500	 99.488	  0.732
23163	  0.119	 -0.130	  0.222	 -0.015	  0.175	 -9.457	 -0.142	  0.199	 -0.009	 29.600	 99.493	  0.272
23213	  0.119	 -0.127	  0.232	  0.230	  0.376	 -9.690	  0.030	  0.028	 -0.018	 29.600	 99.493	  0.272
23262	  0.127	 -0.128	  0.235	  0.312	 -0.231	 -9.805	  0.210	 -0.200	 -0.053	 29.600	 99.501	 -0.465
23312	  0.132	 -0.122	  0.226	 -0.065	 -0.252	 -9.769	  0.108	 -0.283	 -0.062	 29.600	 99.505	 -0.833
23362	  0.142	 -0.118	  0.224	 -0.512	 -0.088	 -9.489	  0.033	 -0.198	  0.015	 29.600	 99.493	  0.272
23412	  0.144	 -0.122	  0.229	 -0.184	 -0.227	 -9.655	 -0.021	  0.014	  0.065	 29.500	 99.488	  0.732
23462	  0.143	 -0.131	  0.227	 -1.455	 -2.948	 -16.446	 -0.503	  0.111	  0.097	 29.600	 99.493	  0.272
23512	  0.143	 -0.129	  0.234	  0.035	 -0.329	 -9.443	 -0.029	  0.209	  0.036	 29.600	 99.493	  0.272
23562	  0.138	 -0.127	  0.233	  0.190	 -0.007	 -9.210	  0.024	 -0.074	  0.062	 29.600	 99.481	  1.375
23612	  0.141	 -0.119	  0.226	  0.404	 -0.065	 -9.457	  0.005	 -0.041	  0.003	 29.600	 99.488	  0.732
23662	  0.141	 -0.119	  0.233	 -0.210	 -0.263	 -9.549	  0.014	 -0.038	 -0.041	 29.500	 99.488	  0.732
23712	  0.140	 -0.123	  0.227	 -0.715	 -0.338	 -9.482	 -0.001	  0.016	 -0.006	 29.600	 99.501	 -0.465
23762	  0.140	 -0.122	  0.231	  0.486	 -0.140	 -9.444	  0.005	 -0.016	  0.011	 29.600	 99.505	 -0.833
23812	  0.142	 -0.127	  0.229	  0.066	 -0.063	 -9.460	  0.004	 -0.015	  0.010	 29.600	 99.505	 -0.833
23862	  0.141	 -0.127	  0.231	  0.011	 -0.086	 -9.465	  0.001	  0.006	  0.011	 29.600	 99.493	  0.272
23912	  0.142	 -0.126	  0.230	 -0.140	 -0.048	 -9.469	  0.002	  0.006	  0.011	 29.600	 99.505	 -0.833
23962	  0.141	 -0.134	  0.225	  0.076	 -0.119	 -9.533	  0.001	 -0.010	  0.011	 29.500	 99.488	  0.732
24012	  0.140	 -0.128	  0.225	 -0.143	 -0.057	 -9.478	  0.002	 -0.010	  0.011	 29.600	 99.505	 -0.833
24062	  0.140	 -0.128	  0.233	  0.022	 -0.084	 -9.485	  0.002	  0.004	  0.011	 29.500	 99.488	  0.732
24112	  0.140	 -0.129	  0.230	 -0.169	 -0.078	 -9.490	  0.002	 -0.001	  0.011	 29.600	 99.505	 -0.833
24162	  0.140	 -0.128	  0.229	  0.114	 -0.203	 -9.521	  0.004	  0.013	  0.011	 29.600	 99.493	  0.272
24212	  0.142	 -0.128	  0.222	  0.049	 -0.071	 -9.478	  0.003	 -0.009	  0.011	 29.600	 99.493	  0.272
24262	  0.140	 -0.132	  0.230	 -0.180	 -0.079	 -9.525	 -0.000	  0.009	  0.011	 29.600	 99.493	  0.272
24312	  0.141	 -0.127	  0.230	 -0.167	 -0.019	 -9.491	  0.002	  0.037	  0.011	 29.600	 99.501	 -0.465
24362	  0.141	 -0.126	  0.223	  0.353	 -0.106	 -9.486	  0.000	 -0.060	  0.011	 29.600	 99.493	  0.272
24412	  0.141	 -0.132	  0.234	  0.086	 -0.089	 -9.471	  0.004	 -0.006	  0.005	 29.600	 99.493	  0.272
24462	  0.141	 -0.127	  0.229	 -0.346	 -0.025	 -9.526	  0.005	  0.071	  0.012	 29.600	 99.488	  0.732
24512	  0.141	 -0.129	  0.231	  0.620	 -0.019	 -9.278	  0.004	 -0.001	  0.010	 29.600	 99.505	 -0.833
24562	  0.142	 -0.133	  0.231	  0.115	 -0.019	 -9.438	  0.004	  0.001	  0.011	 29.600	 99.493	  0.272
24612	  0.137	 -0.131	  0.227	  0.021	 -0.114	 -9.478	  0.004	 -0.001	  0.011	 29.500	 99.488	  0.732
24662	  0.137	 -0.133	  0.229	  0.140	 -0.122	 -9.492	  0.003	 -0.002	  0.010	 29.600	 99.493	  0.272
24712	  0.140	 -0.131	  0.231	  0.034	  0.065	 -9.494	  0.003	 -0.002	  0.059	 29.600	 99.505	 -0.833
24762	  0.138	 -0.124	  0.231	  0.269	  0.057	 -9.428	  0.004	 -0.003	  0.058	 29.600	 99.488	  0.732
24812	  0.133	 -0.131	  0.231	 -0.323	 -0.004	 -9.472	  0.004	  0.003	  0.042	 29.600	 99.488	  0.732
24862	  0.136	 -0.134	  0.229	 -0.098	 -0.383	 -9.433	  0.003	  0.001	  0.038	 29.600	 99.493	  0.272
24912	  0.138	 -0.131	  0.226	 -0.045	 -0.125	 -9.512	  0.003	  0.001	  0.004	 29.600	 99.493	  0.272
24962	  0.141	 -0.127	  0.233	  0.312	  0.041	 -9.471	  0.002	 -0.003	 -0.038	 29.600	 99.493	  0.272
25013	  0.140	 -0.118	  0.228	  0.190	  0.080	 -9.421	  0.002	  0.000	 -0.087	 29.600	 99.501	 -0.465
25062	  0.138	 -0.129	  0.230	 -0.295	 -0.005	 -9.447	  0.004	  0.004	  0.056	 29.600	 99.493	  0.272
25113	  0.136	 -0.128	  0.226	 -0.130	 -0.074	 -9.483	  0.004	  0.002	  0.121	 29.500	 99.488	  0.732
25162	  0.137	 -0.128	  0.223	 -0.353	  0.109	 -9.436	  0.002	  0.006	  0.206	 29.600	 99.493	  0.272
25212	  0.135	 -0.141	  0.222	 -0.287	 -1.143	 -9.950	 -0.028	  0.096	  0.126	 29.600	 99.493	  0.272
25262	  0.135	 -0.148	  0.226	  0.388	 -0.728	 -9.360	 -0.010	  0.060	 -0.201	 29.600	 99.501	 -0.465
25312	  0.136	 -0.151	  0.213	  0.214	  0.315	 -9.284	  0.032	 -0.121	 -0.287	 29.600	 99.493	  0.272
25362	  0.132	 -0.141	  0.214	 -0.955	  0.767	 -9.740	  0.011	 -0.028	 -0.037	 29.600	 99.476	  1.836
25412	  0.135	 -0.136	  0.211	  0.088	 -0.058	 -9.455	  0.004	 -0.003	  0.011	 29.600	 99.505	 -0.833
25462	  0.132	 -0.140	  0.219	 -0.076	 -0.066	 -9.536	  0.003	 -0.001	  0.012	 29.600	 99.488	  0.732
25513	  0.137	 -0.150	  0.222	  0.009	 -0.053	 -9.487	  0.003	 -0.002	  0.011	 29.600	 99.505	 -0.833
25563	  0.136	 -0.151	  0.232	 -0.078	 -0.151	 -9.550	  0.003	 -0.000	  0.012	 29.600	 99.476	  1.836
25614	  0.137	 -0.151	  0.228	 -0.074	 -0.010	 -9.449	  0.002	 -0.001	  0.012	 29.600	 99.493	  0.272
25663	  0.134	 -0.151	  0.234	  0.001	 -0.001	 -9.503	  0.005	  0.001	  0.117	 29.600	 99.493	  0.272
25713	  0.131	 -0.151	  0.231	  0.097	  0.057	 -9.492	  0.007	  0.004	  0.126	 29.500	 99.501	 -0.465
25763	  0.128	 -0.146	  0.216	 -0.426	  0.383	 -9.597	 -0.002	 -0.005	  0.228	 29.600	 99.488	  0.732
25813	  0.148	 -0.158	  0.246	 -0.072	 -0.953	 -9.704	  0.001	  0.012	 -0.099	 29.600	 99.493	  0.272
25863	  0.141	 -0.160	  0.214	  0.125	  0.180	 -9.337	 -0.003	 -0.002	 -0.295	 29.500	 99.488	  0.732
25913	  0.141	 -0.150	  0.214	 -0.140	  1.004	 -9.379	  0.001	 -0.002	 -0.161	 29.500	 99.501	 -0.465
25963	  0.141	 -0.136	  0.213	 -0.010	 -0.046	 -9.483	  0.002	 -0.004	 -0.063	 29.600	 99.493	  0.272
26013	  0.136	 -0.136	  0.216	 -0.034	 -0.047	 -9.496	  0.002	 -0.002	 -0.026	 29.600	 99.493	  0.272
26063	  0.137	 -0.142	  0.213	 -0.032	 -0.058	 -9.461	  0.003	 -0.001	  0.010	 29.600	 99.505	 -0.833
26113	  0.137	 -0.136	  0.215	 -0.113	 -0.079	 -9.382	  0.004	 -0.001	  0.010	 29.600	 99.493	  0.272
26163	  0.135	 -0.140	  0.208	  0.056	 -0.148	 -9.479	  0.002	  0.001	  0.012	 29.600	 99.505	 -0.833
26213	  0.140	 -0.140	  0.210	 -0.235	 -0.186	 -9.549	  0.004	 -0.000	  0.021	 29.500	 99.501	 -0.465
26263	  0.140	 -0.140	  0.213	  0.013	 -0.062	 -9.432	  0.001	 -0.002	  0.009	 29.600	 99.488	  0.732
26313	  0.138	 -0.137	  0.207	 -0.070	 -0.044	 -9.452	  0.002	 -0.002	  0.012	 29.600	 99.493	  0.272
26363	  0.136	 -0.135	  0.211	  0.031	 -0.123	 -9.490	  0.002	 -0.002	  0.012	 29.600	 99.488	  0.732
26413	  0.141	 -0.137	  0.205	 -0.118	  0.030	 -9.445	  0.003	 -0.002	  0.012	 29.500	 99.501	 -0.465
26463	  0.141	 -0.138	  0.210	  0.113	 -0.076	 -9.569	  0.001	 -0.115	  0.072	 29.600	 99.493	  0.272
26513	  0.138	 -0.141	  0.209	 -0.082	 -0.053	 -9.480	  0.002	 -0.036	  0.042	 29.500	 99.488	  0.732
26563	  0.134	 -0.148	  0.209	 -0.010	 -0.074	 -9.501	  0.004	  0.011	  0.037	 29.500	 99.488	  0.732
26613	  0.137	 -0.141	  0.205	 -0.248	 -0.057	 -9.518	  0.002	 -0.007	  0.047	 29.600	 99.493	  0.272
26663	  0.135	 -0.146	  0.217	  0.737	 -0.031	 -9.278	  0.003	 -0.018	  0.013	 29.600	 99.501	 -0.465
26713	  0.137	 -0.145	  0.217	  0.119	 -0.077	 -9.481	  0.002	 -0.009	  0.011	 29.500	 99.476	  1.836
26763	  0.137	 -0.146	  0.207	  0.389	 -0.037	 -9.459	  0.004	 -0.020	  0.007	 29.600	 99.488	  0.732
26813	  0.138	 -0.142	  0.205	 -0.320	 -0.080	 -9.574	  0.011	 -0.045	  0.081	 29.600	 99.493	  0.272
26863	  0.137	 -0.147	  0.209	 -0.635	 -0.479	 -9.544	 -0.012	  0.101	  0.134	 29.600	 99.488	  0.732
26913	  0.136	 -0.148	  0.211	 -0.183	 -0.112	 -9.543	 -0.002	 -0.028	  0.008	 29.500	 99.488	  0.732
26963	  0.136	 -0.152	  0.202	  0.339	 -0.131	 -9.326	  0.006	 -0.006	 -0.009	 29.600	 99.493	  0.272
27013	  0.135	 -0.152	  0.213	 -0.297	 -0.143	 -9.558	 -0.010	  0.037	 -0.081	 29.600	 99.505	 -0.833
27063	  0.141	 -0.147	  0.209	 -0.122	 -0.010	 -9.564	 -0.002	  0.011	 -0.077	 29.500	 99.488	  0.732
27113	  0.140	 -0.145	  0.210	 -0.315	 -0.041	 -9.590	  0.005	  0.040	 -0.073	 29.500	 99.488	  0.732
27163	  0.138	 -0.141	  0.206	  0.119	 -0.196	 -9.529	 -0.002	  0.002	 -0.175	 29.500	 99.484	  1.100
27213	  0.140	 -0.141	  0.213	 -0.529	 -0.150	 -9.443	  0.001	 -0.002	 -0.064	 29.500	 99.488	  0.732
27263	  0.141	 -0.141	  0.213	 -0.261	 -0.233	 -9.636	 -0.006	  0.019	 -0.006	 29.600	 99.493	  0.272
27313	  0.144	 -0.138	  0.207	 -1.513	  0.069	 -9.980	 -0.083	  0.195	 -0.042	 29.500	 99.488	  0.732
27363	  0.142	 -0.130	  0.211	 -1.591	 -0.807	 -9.928	  0.008	 -0.066	 -0.299	 29.600	 99.488	  0.732
27413	  0.142	 -0.127	  0.217	 -1.522	 -0.749	 -9.475	 -0.002	  0.045	 -0.226	 29.600	 99.493	  0.272
27463	  0.142	 -0.123	  0.208	  0.582	  0.184	 -9.200	  0.006	 -0.017	  0.014	 29.500	 99.501	 -0.465
27513	  0.142	 -0.127	  0.208	 -0.135	 -0.092	 -9.558	  0.001	  0.000	  0.012	 29.500	 99.501	 -0.465
27563	  0.142	 -0.132	  0.206	 -0.129	 -0.065	 -9.482	  0.003	  0.001	  0.029	 29.600	 99.505	 -0.833
27613	  0.137	 -0.133	  0.206	 -0.071	 -0.060	 -9.501	  0.004	  0.001	  0.046	 29.600	 99.505	 -0.833
27663	  0.137	 -0.135	  0.206	 -0.015	 -0.004	 -9.458	  0.006	 -0.003	  0.010	 29.600	 99.493	  0.272
27713	  0.140	 -0.125	  0.195	 -0.057	 -0.061	 -9.479	  0.003	 -0.002	  0.012	 29.500	 99.488	  0.732
27763	  0.140	 -0.133	  0.205	 -0.077	 -0.058	 -9.504	  0.003	  0.001	  0.012	 29.600	 99.493	  0.272
27813	  0.140	 -0.130	  0.200	  0.065	 -0.104	 -9.500	  0.003	 -0.008	  0.011	 29.500	 99.501	 -0.465
27863	  0.138	 -0.133	  0.198	 -0.486	 -0.136	 -9.564	  0.016	 -0.073	  0.016	 29.500	 99.488	  0.732
27913	  0.141	 -0.127	  0.200	  0.169	 -0.091	 -9.474	  0.003	 -0.015	  0.010	 29.500	 99.488	  0.732
27963	  0.136	 -0.132	  0.195	  0.162	  0.037	 -9.522	  0.011	 -0.022	  0.160	 29.600	 99.493	  0.272
28013	  0.135	 -0.137	  0.195	 -0.429	 -0.310	 -9.526	  0.003	  0.004	  0.221	 29.600	 99.493	  0.272
28063	  0.134	 -0.147	  0.203	  0.130	  0.102	 -9.459	  0.005	  0.026	  0.484	 29.600	 99.505	 -0.833
28113	  0.125	 -0.165	  0.197	 -0.159	 -0.119	 -11.115	 -0.035	  0.312	  0.709	 29.500	 99.501	 -0.465
28163	  0.116	 -0.173	  0.200	  0.679	 -0.880	 -11.063	  0.365	  0.036	  0.542	 29.600	 99.505	 -0.833
28213	  0.100	 -0.170	  0.216	  0.533	 -2.117	 -12.853	  0.031	  0.440	  0.336	 29.500	 99.488	  0.732
28263	  0.073	 -0.173	  0.212	  0.861	 -2.518	 -11.978	 -0.791	  0.429	  0.131	 29.600	 99.493	  0.272
28313	  0.048	 -0.203	  0.207	  0.216	 -0.898	 -10.302	 -0.871	 -0.316	  0.750	 29.600	 99.505	 -0.833
28363	  0.034	 -0.229	  0.193	 -0.368	 -0.994	 -11.022	 -0.617	 -0.916	  1.233	 29.500	 99.488	  0.732
28413	  0.014	 -0.257	  0.177	 -1.107	 -1.272	 -10.553	 -0.434	 -0.691	  1.231	 29.600	 99.493	  0.272
28463	 -0.006	 -0.266	  0.163	 -0.952	 -0.973	 -10.188	  0.042	 -0.325	  1.030	 29.600	 99.488	  0.732
28513	 -0.035	 -0.273	  0.168	 -0.795	 -0.821	 -9.857	  0.037	  0.184	  1.190	 29.600	 99.481	  1.375
28563	 -0.070	 -0.273	  0.186	  0.180	 -0.748	 -9.155	 -0.045	  0.390	  0.820	 29.600	 99.488	  0.732
28613	 -0.095	 -0.267	  0.199	 -0.274	 -0.297	 -9.474	 -0.091	  0.157	  1.228	 29.600	 99.493	  0.272
28663	 -0.128	 -0.277	  0.206	  0.535	 -0.069	 -8.780	 -0.250	  0.144	  0.959	 29.600	 99.493	  0.272
28713	 -0.146	 -0.285	  0.212	 -0.069	  0.284	 -8.158	 -0.223	  0.076	  1.067	 29.600	 99.493	  0.272
28763	 -0.174	 -0.296	  0.217	  0.065	  0.043	 -9.145	  0.138	  0.093	  1.168	 29.600	 99.505	 -0.833
28813	 -0.196	 -0.299	  0.231	  1.271	  0.328	 -8.624	 -0.022	 -0.058	  1.661	 29.500	 99.476	  1.836
28863	 -0.221	 -0.299	  0.235	  0.610	 -0.259	 -9.073	  0.235	 -0.192	  1.378	 29.600	 99.493	  0.272
28913	 -0.234	 -0.289	  0.237	  0.214	  1.068	 -8.384	  0.228	 -0.170	  1.488	 29.600	 99.488	  0.732
28963	 -0.256	 -0.282	  0.255	  1.155	  0.638	 -8.609	  0.330	 -0.217	  1.505	 29.600	 99.481	  1.375
29013	 -0.269	 -0.271	  0.261	  0.167	  1.190	 -9.138	  0.505	 -0.232	  1.724	 29.600	 99.488	  0.732
29063	 -0.287	 -0.253	  0.280	  1.198	  0.382	 -8.990	  0.556	 -0.198	  1.658	 29.600	 99.476	  1.836
29113	 -0.302	 -0.235	  0.287	  0.748	  0.319	 -9.385	  0.457	 -0.137	  1.592	 29.600	 99.481	  1.375
29163	 -0.315	 -0.229	  0.292	  1.438	  0.229	 -8.988	  0.305	 -0.065	  1.568	 29.500	 99.488	  0.732
29213	 -0.334	 -0.209	  0.299	  0.893	  0.309	 -8.599	  0.138	  0.037	  1.388	 29.500	 99.476	  1.836
29262	 -0.350	 -0.206	  0.297	  0.380	  0.683	 -8.664	  0.245	  0.177	  1.413	 29.500	 99.488	  0.732
29312	 -0.369	 -0.194	  0.302	  0.569	 -0.096	 -8.899	  0.264	  0.266	  1.544	 29.500	 99.488	  0.732
29362	 -0.383	 -0.180	  0.312	  0.348	 -0.147	 -9.016	  0.318	  0.101	  1.594	 29.500	 99.488	  0.732
29412	 -0.397	 -0.164	  0.309	  0.253	 -0.402	 -9.532	  0.133	  0.241	  1.489	 29.600	 99.493	  0.272
29462	 -0.413	 -0.148	  0.305	  0.488	  0.042	 -9.375	 -0.184	  0.330	  1.032	 29.600	 99.493	  0.272
29512	 -0.430	 -0.154	  0.307	  0.417	  0.449	 -8.757	 -0.135	  0.192	  0.941	 29.600	 99.488	  0.732
29562	 -0.433	 -0.148	  0.300	  0.396	  0.469	 -8.682	 -0.086	 -0.151	  0.710	 29.500	 99.488	  0.732
29612	 -0.435	 -0.147	  0.305	 -0.464	  0.848	 -9.387	 -0.140	 -0.216	  0.600	 29.600	 99.493	  0.272
29662	 -0.432	 -0.139	  0.302	 -0.466	  0.437	 -9.455	 -0.214	 -0.273	  0.692	 29.600	 99.493	  0.272
29712	 -0.427	 -0.145	  0.294	 -1.082	  0.320	 -10.188	 -0.259	 -0.146	  0.711	 29.600	 99.488	  0.732
29763	 -0.435	 -0.143	  0.292	 -0.232	 -0.062	 -10.481	 -0.356	  0.098	  0.572	 29.500	 99.488	  0.732
29813	 -0.441	 -0.143	  0.286	 -0.503	 -0.483	 -11.409	 -0.456	  0.295	  0.392	 29.500	 99.488	  0.732
29862	 -0.451	 -0.148	  0.269	  1.443	 -0.772	 -9.436	 -0.452	  0.004	  0.248	 29.500	 99.464	  2.941
29912	 -0.449	 -0.153	  0.268	 -0.234	  0.694	 -9.218	 -0.090	 -0.165	  0.191	 29.500	 99.476	  1.836
29963	 -0.453	 -0.142	  0.268	 -0.551	  0.150	 -9.787	  0.344	  0.132	  0.413	 29.600	 99.476	  1.836
30012	 -0.456	 -0.121	  0.271	 -0.329	 -0.650	 -9.890	  0.320	  0.399	  0.342	 29.600	 99.493	  0.272
30062	 -0.465	 -0.111	  0.266	  0.451	 -0.392	 -9.161	  0.060	  0.162	  0.377	 29.600	 99.488	  0.732
30112	 -0.467	 -0.106	  0.260	  0.467	 -0.430	 -8.529	 -0.101	 -0.220	  0.338	 29.500	 99.488	  0.732
30162	 -0.458	 -0.104	  0.263	  0.131	 -0.065	 -8.296	 -0.324	 -0.440	  0.137	 29.600	 99.493	  0.272
30213	 -0.446	 -0.109	  0.257	 -0.415	  0.441	 -8.313	 -0.297	 -0.427	 -0.112	 29.600	 99.493	  0.272
30262	 -0.440	 -0.115	  0.253	 -0.316	  1.281	 -8.669	 -0.143	 -0.082	 -0.339	 29.500	 99.476	  1.836
30312	 -0.441	 -0.111	  0.246	  0.279	  1.366	 -8.854	  0.117	  0.010	 -0.489	 29.600	 99.488	  0.732
30362	 -0.433	 -0.108	  0.252	  0.538	  1.222	 -9.630	  0.223	 -0.128	 -0.613	 29.600	 99.501	 -0.465
30412	 -0.423	 -0.106	  0.243	  0.743	  0.608	 -11.072	  0.028	 -0.236	 -0.683	 29.500	 99.488	  0.732
30462	 -0.416	 -0.110	  0.239	  1.791	  0.554	 -10.193	 -0.274	 -0.476	 -1.059	 29.600	 99.501	 -0.465
30512	 -0.398	 -0.114	  0.240	  0.254	  1.284	 -10.640	 -0.158	 -0.508	 -0.637	 29.600	 99.481	  1.375
30562	 -0.388	 -0.117	  0.240	  0.859	  0.798	 -10.095	  0.159	 -0.072	 -0.642	 29.600	 99.493	  0.272
30612	 -0.388	 -0.116	  0.236	  0.731	  0.744	 -9.554	  0.401	  0.289	 -0.879	 29.600	 99.493	  0.272
30662	 -0.388	 -0.102	  0.236	  0.510	  0.335	 -8.589	  0.415	  0.404	 -0.871	 29.600	 99.493	  0.272
30712	 -0.397	 -0.095	  0.222	  0.175	  0.256	 -8.048	  0.098	  0.411	 -0.933	 29.600	 99.493	  0.272
30762	 -0.400	 -0.081	  0.226	 -0.018	  0.612	 -8.158	 -0.033	  0.178	 -0.592	 29.600	 99.493	  0.272
30812	 -0.399	 -0.106	  0.214	  0.538	  0.464	 -8.763	 -0.114	  0.011	 -0.470	 29.500	 99.488	  0.732
30863	 -0.394	 -0.096	  0.205	  0.507	  0.564	 -8.930	 -0.171	 -0.213	 -0.571	 29.600	 99.493	  0.272
30913	 -0.387	 -0.113	  0.203	 -0.220	  0.779	 -9.123	  0.002	 -0.218	 -0.537	 29.500	 99.488	  0.732
30964	 -0.379	 -0.114	  0.195	 -0.302	  0.380	 -9.300	  0.170	 -0.167	 -0.323	 29.500	 99.476	  1.836
31013	 -0.378	 -0.116	  0.191	  0.173	 -0.354	 -10.662	 -0.134	 -0.017	 -0.651	 29.500	 99.476	  1.836
31062	 -0.382	 -0.123	  0.179	 -0.346	  0.446	 -10.760	 -0.114	  0.135	 -0.820	 29.600	 99.476	  1.836
31112	 -0.383	 -0.133	  0.165	  0.496	 -0.047	 -11.060	  0.118	  0.035	 -0.638	 29.600	 99.488	  0.732
31162	 -0.388	 -0.132	  0.150	  1.235	 -0.456	 -11.383	  0.049	  0.150	 -0.394	 29.600	 99.505	 -0.833
31213	 -0.394	 -0.136	  0.149	  1.046	 -0.499	 -10.621	  0.001	 -0.055	 -0.235	 29.600	 99.493	  0.272
31264	 -0.406	 -0.134	  0.136	  1.258	 -0.264	 -8.935	  0.134	 -0.070	 -0.395	 29.600	 99.493	  0.272
31314	 -0.416	 -0.137	  0.121	  0.897	 -0.371	 -8.686	  0.063	 -0.108	 -0.811	 29.600	 99.493	  0.272
31364	 -0.423	 -0.151	  0.117	  0.844	 -0.162	 -7.511	 -0.163	 -0.242	 -0.986	 29.600	 99.488	  0.732
31414	 -0.425	 -0.171	  0.097	 -0.080	  0.065	 -7.742	 -0.368	 -0.317	 -1.135	 29.600	 99.493	  0.272
31464	 -0.431	 -0.189	  0.106	 -0.780	  0.751	 -8.601	 -0.299	 -0.076	 -1.037	 29.500	 99.488	  0.732
31514	 -0.435	 -0.206	  0.095	 -0.907	  1.024	 -9.265	 -0.076	  0.298	 -0.943	 29.500	 99.488	  0.732
31564	 -0.444	 -0.220	  0.088	 -0.878	  0.974	 -10.105	  0.303	  0.503	 -0.876	 29.500	 99.488	  0.732
31614	 -0.453	 -0.235	  0.080	 -0.143	 -0.023	 -10.976	  0.290	  0.322	 -0.648	 29.600	 99.493	  0.272
31664	 -0.441	 -0.250	  0.096	  1.903	 -0.421	 -10.776	 -0.220	 -0.380	 -0.605	 29.600	 99.488	  0.732
31713	 -0.416	 -0.276	  0.093	 -0.361	  0.498	 -10.236	 -0.433	 -0.995	 -0.551	 29.500	 99.501	 -0.465
31764	 -0.386	 -0.299	  0.094	 -0.971	  1.495	 -10.697	 -0.254	 -0.454	 -0.573	 29.600	 99.488	  0.732
31813	 -0.350	 -0.317	  0.105	  0.581	  1.446	 -10.245	  0.249	  0.015	 -1.219	 29.600	 99.481	  1.375
31863	 -0.313	 -0.326	  0.110	  0.941	  0.428	 -9.814	  0.247	  0.069	 -0.956	 29.600	 99.493	  0.272
31913	 -0.276	 -0.321	  0.129	  0.570	  0.217	 -8.188	  0.170	  0.051	 -0.457	 29.500	 99.488	  0.732
31963	 -0.247	 -0.316	  0.142	  0.088	 -0.316	 -8.385	 -0.127	  0.200	 -0.751	 29.600	 99.481	  1.375
32013	 -0.224	 -0.323	  0.150	 -0.800	  0.695	 -8.084	 -0.364	  0.592	 -0.706	 29.600	 99.493	  0.272
32063	 -0.215	 -0.313	  0.164	 -0.513	  0.565	 -8.643	 -0.243	  0.789	 -0.582	 29.500	 99.488	  0.732
32113	 -0.212	 -0.308	  0.175	  0.251	  0.562	 -9.246	 -0.068	  0.556	 -0.471	 29.500	 99.488	  0.732
32163	 -0.202	 -0.280	  0.191	  0.528	  0.210	 -10.181	  0.064	  0.169	 -0.321	 29.500	 99.488	  0.732
32213	 -0.197	 -0.275	  0.201	  0.674	 -0.338	 -10.417	  0.048	 -0.245	 -0.243	 29.500	 99.476	  1.836
32263	 -0.183	 -0.251	  0.207	  0.256	 -0.283	 -10.384	 -0.085	 -0.446	 -0.435	 29.500	 99.488	  0.732
32313	 -0.166	 -0.250	  0.221	 -0.252	  0.128	 -10.585	  0.093	 -0.511	 -0.264	 29.600	 99.493	  0.272
32363	 -0.159	 -0.238	  0.217	 -0.719	 -0.352	 -10.181	  0.139	 -0.489	  0.195	 29.600	 99.488	  0.732
32413	 -0.159	 -0.229	  0.221	 -0.553	 -1.129	 -9.695	  0.014	 -0.091	  0.552	 29.600	 99.481	  1.375
32463	 -0.166	 -0.232	  0.236	  0.218	 -1.231	 -8.732	 -0.131	  0.273	  0.396	 29.600	 99.488	  0.732
32514	 -0.181	 -0.229	  0.242	  0.224	 -0.419	 -7.650	 -0.002	  0.540	  0.208	 29.500	 99.488	  0.732
32563	 -0.194	 -0.219	  0.253	  0.305	  0.128	 -7.076	  0.614	  0.490	  0.125	 29.600	 99.505	 -0.833
32613	 -0.208	 -0.194	  0.270	  0.608	 -0.329	 -7.366	  0.888	  0.521	 -0.011	 29.500	 99.476	  1.836
32663	 -0.219	 -0.171	  0.277	  0.482	 -0.676	 -8.221	  0.883	  0.305	 -0.179	 29.600	 99.488	  0.732
32713	 -0.226	 -0.143	  0.282	  0.569	 -0.655	 -8.784	  0.546	  0.184	 -0.212	 29.500	 99.488	  0.732
32763	 -0.226	 -0.129	  0.295	  0.704	 -0.580	 -10.030	  0.255	 -0.021	 -0.293	 29.600	 99.493	  0.272
32813	 -0.223	 -0.117	  0.295	  0.133	 -0.482	 -10.685	  0.113	 -0.098	 -0.158	 29.600	 99.493	  0.272
32863	 -0.223	 -0.114	  0.299	  1.696	 -1.101	 -11.495	  0.088	 -0.276	 -0.181	 29.600	 99.488	  0.732
32913	 -0.213	 -0.109	  0.298	  1.612	 -1.282	 -11.538	 -0.044	 -0.319	 -0.356	 29.600	 99.493	  0.272
32963	 -0.204	 -0.104	  0.307	  1.926	 -1.543	 -11.356	  0.197	 -0.156	 -0.174	 29.600	 99.493	  0.272
33013	 -0.201	 -0.105	  0.303	  3.373	 -2.138	 -9.991	  0.208	  0.002	 -0.637	 29.500	 99.488	  0.732
33063	 -0.199	 -0.100	  0.306	  1.953	 -1.534	 -8.155	  0.287	  0.177	 -0.919	 29.600	 99.493	  0.272
33113	 -0.200	 -0.082	  0.316	  0.422	 -0.663	 -6.583	  0.705	  0.313	 -0.597	 29.600	 99.493	  0.272
33163	 -0.212	 -0.063	  0.324	  0.828	 -0.398	 -6.138	  0.865	  0.513	  0.040	 29.600	 99.493	  0.272
33213	 -0.217	 -0.036	  0.331	  1.331	 -2.155	 -7.911	  0.891	  0.011	  0.083	 29.500	 99.488	  0.732
33263	 -0.212	 -0.023	  0.332	  1.402	 -2.719	 -9.725	  0.330	 -0.255	  0.081	 29.600	 99.493	  0.272
33313	 -0.204	 -0.030	  0.327	  1.487	 -2.870	 -9.782	 -0.217	 -0.288	 -0.230	 29.500	 99.488	  0.732
33363	 -0.200	 -0.039	  0.323	  1.280	 -2.734	 -10.101	 -0.473	 -0.158	 -0.290	 29.600	 99.488	  0.732
33413	 -0.196	 -0.044	  0.321	  1.552	 -2.422	 -10.254	 -0.558	 -0.194	 -0.276	 29.500	 99.488	  0.732
33463	 -0.195	 -0.072	  0.313	  0.649	 -2.161	 -10.974	 -0.486	 -0.078	 -0.177	 29.600	 99.488	  0.732
33513	 -0.197	 -0.084	  0.307	  2.899	 -3.754	 -10.658	 -0.323	 -0.321	 -0.101	 29.500	 99.488	  0.732
33563	 -0.188	 -0.090	  0.294	  1.622	 -3.162	 -10.872	 -0.303	 -0.615	 -0.245	 29.600	 99.488	  0.732
33613	 -0.182	 -0.097	  0.288	  1.535	 -2.809	 -10.345	 -0.146	 -0.294	 -0.326	 29.600	 99.493	  0.272
33663	 -0.180	 -0.093	  0.281	  2.060	 -2.729	 -9.110	  0.004	 -0.089	 -0.508	 29.500	 99.488	  0.732
33713	 -0.184	 -0.085	  0.278	  1.460	 -1.853	 -7.927	  0.045	  0.186	 -0.940	 29.500	 99.488	  0.732
33763	 -0.192	 -0.080	  0.271	  0.928	 -0.994	 -7.253	  0.252	  0.204	 -0.841	 29.600	 99.488	  0.732
33813	 -0.201	 -0.061	  0.277	  0.755	 -0.977	 -7.670	  0.180	  0.147	 -0.833	 29.600	 99.488	  0.732
33863	 -0.204	 -0.037	  0.275	  1.307	 -1.579	 -8.263	 -0.100	 -0.111	 -1.012	 29.500	 99.476	  1.836
33913	 -0.204	 -0.048	  0.271	  1.234	 -1.295	 -8.960	 -0.425	 -0.469	 -1.090	 29.500	 99.488	  0.732
33963	 -0.187	 -0.034	  0.265	  1.150	 -0.882	 -9.038	 -0.459	 -0.761	 -1.033	 29.600	 99.493	  0.272
34013	 -0.177	 -0.046	  0.252	  0.745	 -0.971	 -9.704	 -0.326	 -0.645	 -1.007	 29.500	 99.488	  0.732
34063	 -0.169	 -0.032	  0.254	  0.956	 -1.095	 -10.795	 -0.205	 -0.299	 -0.991	 29.500	 99.501	 -0.465
34113	 -0.171	 -0.031	  0.253	  1.431	 -1.180	 -10.963	 -0.290	  0.071	 -1.162	 29.500	 99.501	 -0.465
34163	 -0.172	 -0.012	  0.257	  1.627	 -0.491	 -10.218	 -0.177	 -0.105	 -0.989	 29.500	 99.488	  0.732
34213	 -0.175	 -0.010	  0.254	  2.598	 -0.650	 -9.602	  0.101	 -0.173	 -1.266	 29.500	 99.476	  1.836
34263	 -0.169	 -0.000	  0.259	  1.904	 -0.689	 -9.408	  0.165	 -0.263	 -1.442	 29.500	 99.488	  0.732
34313	 -0.172	  0.036	  0.257	  0.934	 -0.448	 -8.405	  0.192	 -0.059	 -1.406	 29.500	 99.501	 -0.465
34363	 -0.174	  0.034	  0.260	  0.506	 -0.412	 -8.008	  0.106	  0.012	 -1.088	 29.500	 99.476	  1.836
34413	 -0.179	  0.048	  0.259	  0.175	 -0.366	 -7.966	 -0.061	 -0.031	 -0.837	 29.500	 99.488	  0.732
34463	 -0.184	  0.069	  0.265	  0.341	 -0.219	 -8.324	 -0.106	 -0.132	 -0.629	 29.500	 99.488	  0.732
34513	 -0.185	  0.070	  0.266	  0.487	 -0.191	 -9.149	 -0.122	 -0.205	 -0.608	 29.500	 99.488	  0.732
34563	 -0.185	  0.077	  0.272	  0.407	  0.117	 -9.665	 -0.031	 -0.175	 -0.493	 29.500	 99.476	  1.836
34613	 -0.182	  0.073	  0.264	  0.235	 -0.218	 -10.235	  0.022	 -0.134	 -0.249	 29.500	 99.488	  0.732
34663	 -0.183	  0.075	  0.268	 -0.360	 -0.532	 -10.716	 -0.159	 -0.072	  0.059	 29.500	 99.488	  0.732
34713	 -0.186	  0.077	  0.278	 -0.102	 -0.668	 -10.849	 -0.084	  0.122	  0.179	 29.500	 99.488	  0.732
34763	 -0.190	  0.077	  0.270	  0.999	 -1.547	 -10.949	 -0.082	 -0.026	  0.173	 29.500	 99.488	  0.732
34813	 -0.189	  0.086	  0.281	  0.848	 -1.225	 -10.553	 -0.136	  0.063	  0.024	 29.500	 99.476	  1.836
34863	 -0.189	  0.084	  0.271	  1.064	 -1.526	 -9.912	 -0.237	  0.061	  0.204	 29.500	 99.501	 -0.465
34913	 -0.188	  0.076	  0.281	  0.897	 -1.123	 -8.601	 -0.211	 -0.003	  0.008	 29.600	 99.493	  0.272
34963	 -0.186	  0.078	  0.277	  0.455	 -0.330	 -7.833	 -0.049	 -0.012	 -0.102	 29.600	 99.501	 -0.465
35013	 -0.190	  0.082	  0.286	  0.023	 -0.200	 -8.027	  0.038	  0.154	 -0.133	 29.500	 99.488	  0.732
35063	 -0.195	  0.091	  0.287	  0.302	 -0.403	 -8.337	 -0.067	  0.061	 -0.304	 29.500	 99.488	  0.732
35113	 -0.187	  0.097	  0.285	  0.125	 -0.051	 -8.689	 -0.141	 -0.215	 -0.320	 29.500	 99.501	 -0.465
35163	 -0.177	  0.102	  0.289	  0.120	 -0.160	 -9.785	 -0.260	 -0.342	 -0.302	 29.600	 99.488	  0.732
35213	 -0.172	  0.097	  0.299	  0.623	 -0.326	 -9.950	 -0.336	 -0.420	 -0.326	 29.500	 99.476	  1.836
35263	 -0.157	  0.100	  0.292	 -0.277	 -0.060	 -10.486	 -0.232	 -0.560	 -0.301	 29.600	 99.493	  0.272
35313	 -0.142	  0.102	  0.293	 -0.152	  0.284	 -10.548	 -0.227	 -0.325	 -0.115	 29.600	 99.505	 -0.833
35363	 -0.132	  0.101	  0.300	 -0.586	  0.141	 -10.014	  0.013	 -0.140	 -0.247	 29.600	 99.476	  1.836
35413	 -0.129	  0.104	  0.300	  0.239	 -0.462	 -9.906	 -0.158	  0.048	 -0.289	 29.500	 99.488	  0.732
35463	 -0.128	  0.099	  0.308	  0.311	 -0.082	 -8.118	 -0.002	  0.107	 -0.428	 29.600	 99.501	 -0.465
35513	 -0.131	  0.118	  0.308	 -0.888	  0.411	 -8.209	  0.333	  0.407	 -0.522	 29.500	 99.488	  0.732
35563	 -0.144	  0.124	  0.314	 -1.015	 -0.092	 -7.849	  0.536	  0.825	 -0.141	 29.500	 99.488	  0.732
35613	 -0.170	  0.150	  0.319	 -0.822	 -0.696	 -8.212	  0.249	  1.260	 -0.193	 29.500	 99.488	  0.732
35663	 -0.196	  0.133	  0.327	  0.282	 -0.081	 -8.790	  0.032	  1.072	 -0.039	 29.500	 99.488	  0.732
35713	 -0.214	  0.135	  0.330	  1.257	 -0.245	 -9.120	 -0.085	  0.396	  0.156	 29.500	 99.488	  0.732
35763	 -0.211	  0.134	  0.341	  1.322	 -0.011	 -9.794	 -0.313	 -0.009	  0.270	 29.500	 99.488	  0.732
35813	 -0.202	  0.126	  0.337	  0.863	  0.463	 -10.644	 -0.106	 -0.197	  0.504	 29.500	 99.488	  0.732
35863	 -0.197	  0.107	  0.335	  1.356	 -1.366	 -11.329	 -0.281	  0.035	  0.709	 29.500	 99.488	  0.732
35913	 -0.195	  0.086	  0.333	  2.269	 -1.732	 -12.252	 -0.638	  0.156	  0.575	 29.500	 99.501	 -0.465
35963	 -0.198	  0.061	  0.328	  1.687	 -0.415	 -10.908	 -0.754	  0.297	  0.540	 29.500	 99.501	 -0.465
36013	 -0.210	  0.038	  0.338	  1.433	 -0.682	 -10.816	 -0.396	  0.456	  1.070	 29.500	 99.488	  0.732
36064	 -0.221	  0.026	  0.332	  1.784	 -0.875	 -9.954	 -0.120	  0.353	  1.140	 29.500	 99.488	  0.732
36113	 -0.228	  0.020	  0.332	  1.451	 -0.503	 -8.780	 -0.024	  0.138	  0.685	 29.500	 99.501	 -0.465
36163	 -0.226	  0.024	  0.328	  1.061	 -0.478	 -7.769	 -0.154	 -0.163	  0.643	 29.600	 99.488	  0.732
36213	 -0.221	  0.005	  0.323	  0.622	  0.061	 -7.919	 -0.324	 -0.512	  0.721	 29.500	 99.488	  0.732
36263	 -0.204	 -0.003	  0.321	  0.565	  1.215	 -8.044	 -0.228	 -0.747	  0.501	 29.500	 99.488	  0.732
36313	 -0.187	 -0.014	  0.322	  0.086	  0.580	 -9.225	 -0.172	 -0.754	  0.534	 29.500	 99.488	  0.732
36363	 -0.169	 -0.025	  0.309	 -0.207	  0.972	 -9.570	 -0.357	 -0.688	  0.510	 29.500	 99.488	  0.732
36413	 -0.158	 -0.037	  0.310	 -0.160	  1.224	 -9.762	 -0.230	 -0.488	  0.414	 29.600	 99.488	  0.732
36462	 -0.147	 -0.039	  0.298	 -0.243	  1.009	 -10.436	 -0.111	 -0.470	  0.404	 29.500	 99.488	  0.732
36512	 -0.136	 -0.043	  0.303	  0.095	  0.751	 -11.340	 -0.139	 -0.455	  0.127	 29.500	 99.488	  0.732
36562	 -0.131	 -0.042	  0.296	  0.057	  1.570	 -11.285	 -0.096	 -0.431	 -0.543	 29.600	 99.488	  0.732
36612	 -0.117	 -0.037	  0.295	  0.090	  1.094	 -10.926	 -0.025	 -0.742	 -0.492	 29.500	 99.476	  1.836
36662	 -0.098	 -0.034	  0.295	 -0.128	  0.802	 -10.490	 -0.192	 -0.723	 -0.414	 29.500	 99.488	  0.732
36713	 -0.079	 -0.054	  0.284	  0.126	  0.840	 -9.298	 -0.706	 -0.944	 -0.106	 29.500	 99.488	  0.732
36762	 -0.056	 -0.059	  0.277	 -1.230	  2.488	 -8.009	 -0.519	 -1.017	 -0.439	 29.500	 99.488	  0.732
36813	 -0.035	 -0.067	  0.265	 -1.988	  1.963	 -7.689	 -0.105	 -0.796	 -0.438	 29.500	 99.488	  0.732
36862	 -0.024	 -0.064	  0.270	 -2.508	  1.994	 -7.612	  0.180	 -0.225	 -0.256	 29.500	 99.476	  1.836
36912	 -0.024	 -0.055	  0.278	 -2.300	  2.093	 -7.886	  0.488	  0.255	 -0.057	 29.600	 99.476	  1.836
36963	 -0.033	 -0.051	  0.308	 -1.935	  1.485	 -8.306	  0.685	  0.307	 -0.016	 29.500	 99.488	  0.732
37012	 -0.038	 -0.032	  0.333	 -1.909	  1.327	 -8.605	  0.531	  0.143	 -0.235	 29.500	 99.476	  1.836
37063	 -0.037	 -0.030	  0.352	 -1.878	  0.670	 -9.063	  0.094	 -0.121	 -0.198	 29.500	 99.488	  0.732
37113	 -0.024	 -0.050	  0.357	 -2.080	  0.886	 -8.997	 -0.304	 -0.359	  0.072	 29.500	 99.488	  0.732
37163	 -0.015	 -0.075	  0.382	 -2.013	  0.492	 -8.957	 -0.374	 -0.200	  0.227	 29.500	 99.488	  0.732
37213	 -0.014	 -0.125	  0.396	 -1.759	  1.255	 -9.483	 -0.181	  0.252	  0.207	 29.500	 99.488	  0.732
37263	 -0.026	 -0.159	  0.425	 -0.799	 -0.201	 -9.627	  0.164	  0.650	  0.187	 29.500	 99.488	  0.732
37313	 -0.047	 -0.193	  0.464	 -0.062	  0.069	 -8.941	  0.289	  1.032	  0.228	 29.500	 99.501	 -0.465
37363	 -0.090	 -0.230	  0.507	  1.410	 -1.299	 -8.823	  0.511	  1.446	  0.164	 29.500	 99.488	  0.732
37413	 -0.141	 -0.263	  0.560	  0.832	 -0.159	 -8.639	  0.751	  1.656	  0.085	 29.500	 99.476	  1.836
37463	 -0.205	 -0.267	  0.616	  2.624	 -1.565	 -8.141	  0.860	  1.351	 -0.175	 29.500	 99.501	 -0.465
37513	 -0.245	 -0.268	  0.669	  0.860	 -0.606	 -8.437	  1.012	  0.739	 -0.192	 29.500	 99.484	  1.100
37563	 -0.277	 -0.234	  0.727	  0.646	 -0.597	 -9.109	  1.209	  0.309	 -0.248	 29.500	 99.488	  0.732
37613	 -0.284	 -0.168	  0.777	  1.515	 -2.828	 -9.034	  1.775	 -0.644	  0.125	 29.500	 99.501	 -0.465
37663	 -0.260	 -0.119	  0.813	  2.079	 -4.503	 -12.073	  0.265	 -0.916	 -0.492	 29.500	 99.488	  0.732
37713	 -0.217	 -0.134	  0.821	  1.178	 -2.145	 -9.043	 -0.632	 -1.134	 -0.733	 29.500	 99.501	 -0.465
37763	 -0.159	 -0.173	  0.810	  0.113	 -1.748	 -8.936	 -0.441	 -1.223	 -0.559	 29.500	 99.488	  0.732
37813	 -0.116	 -0.173	  0.816	 -0.891	 -0.873	 -8.409	  0.342	 -0.578	 -0.352	 29.500	 99.488	  0.732
37863	 -0.111	 -0.129	  0.816	  0.792	 -2.018	 -8.510	  0.897	  0.249	 -0.362	 29.500	 99.501	 -0.465
37913	 -0.125	 -0.062	  0.821	  0.486	 -2.693	 -8.712	  0.761	  0.470	 -0.649	 29.500	 99.488	  0.732
37963	 -0.130	 -0.038	  0.819	  1.547	 -3.300	 -9.129	  0.338	  0.121	 -0.722	 29.500	 99.488	  0.732
38013	 -0.113	 -0.014	  0.809	  0.574	 -3.015	 -9.611	 -0.239	 -0.380	 -0.499	 29.500	 99.488	  0.732
38063	 -0.084	 -0.033	  0.794	  0.548	 -2.942	 -9.824	 -0.546	 -0.276	 -0.340	 29.500	 99.488	  0.732
38113	 -0.068	 -0.049	  0.781	 -0.120	 -2.994	 -9.602	 -0.566	  0.072	 -0.354	 29.500	 99.488	  0.732
38163	 -0.072	 -0.062	  0.795	 -0.182	 -2.402	 -9.056	 -0.203	  0.640	 -0.671	 29.500	 99.488	  0.732
38213	 -0.098	 -0.049	  0.798	 -0.095	 -2.109	 -9.413	  0.361	  1.064	 -0.583	 29.500	 99.488	  0.732
38263	 -0.141	 -0.019	  0.804	  1.190	 -1.919	 -8.524	  0.912	  0.980	 -0.372	 29.500	 99.488	  0.732
38313	 -0.167	  0.047	  0.817	  2.600	 -4.632	 -10.269	  1.003	  0.438	 -0.062	 29.500	 99.488	  0.732
38363	 -0.175	  0.087	  0.822	  1.404	 -3.697	 -8.865	  0.584	  0.214	 -0.145	 29.500	 99.476	  1.836
38413	 -0.176	  0.110	  0.813	  1.233	 -3.500	 -9.362	  0.387	  0.057	  0.097	 29.500	 99.488	  0.732
38463	 -0.155	  0.117	  0.815	  2.185	 -3.418	 -8.094	 -0.040	 -0.720	 -0.013	 29.500	 99.488	  0.732
38513	 -0.109	  0.108	  0.797	  1.003	 -3.255	 -8.495	 -0.118	 -0.798	  0.075	 29.500	 99.488	  0.732
38563	 -0.079	  0.092	  0.788	  0.086	 -3.860	 -10.362	 -0.324	 -0.126	 -0.089	 29.500	 99.488	  0.732
38613	 -0.082	  0.077	  0.784	  0.933	 -3.002	 -9.206	 -0.231	  0.350	 -0.020	 29.500	 99.488	  0.732
38663	 -0.090	  0.061	  0.789	  2.150	 -2.722	 -8.838	 -0.368	  0.000	 -0.251	 29.500	 99.501	 -0.465
38713	 -0.081	  0.049	  0.791	  0.488	 -3.530	 -9.901	 -0.561	 -0.233	 -0.539	 29.500	 99.501	 -0.465
38763	 -0.073	  0.009	  0.785	  1.248	 -1.801	 -8.952	 -0.873	 -0.103	 -0.032	 29.500	 99.484	  1.100
38813	 -0.068	 -0.007	  0.787	  0.852	 -2.187	 -9.396	 -0.008	 -0.028	 -0.095	 29.500	 99.488	  0.732
38863	 -0.064	  0.004	  0.779	  0.975	 -2.600	 -8.618	  0.278	 -0.123	  0.146	 29.500	 99.501	 -0.465
38913	 -0.053	  0.007	  0.775	  0.174	 -3.189	 -9.223	  0.193	 -0.320	  0.311	 29.500	 99.501	 -0.465
38963	 -0.044	  0.010	  0.776	  0.879	 -2.211	 -9.052	  0.020	 -0.125	  0.282	 29.500	 99.501	 -0.465
39013	 -0.040	  0.007	  0.772	  0.370	 -2.513	 -9.553	 -0.206	  0.068	  0.043	 29.500	 99.488	  0.732
39063	 -0.051	 -0.016	  0.776	  0.476	 -2.191	 -8.834	 -0.470	  0.272	 -0.059	 29.500	 99.488	  0.732
39113	 -0.060	 -0.019	  0.785	  1.648	 -1.639	 -9.000	 -0.378	  0.153	 -0.175	 29.500	 99.488	  0.732
39163	 -0.073	 -0.048	  0.776	  0.682	 -1.572	 -9.534	  0.019	  0.351	  0.064	 29.500	 99.484	  1.100
39213	 -0.087	 -0.044	  0.768	  1.203	 -2.539	 -8.851	  0.299	  0.237	  0.189	 29.500	 99.488	  0.732
39263	 -0.089	 -0.021	  0.777	  1.320	 -2.425	 -9.412	  0.116	  0.074	  0.117	 29.500	 99.501	 -0.465
39313	 -0.078	 -0.056	  0.758	 -2.051	  7.099	 -5.188	  0.640	 -0.100	 -0.857	 29.500	 99.476	  1.836
39363	 -0.051	 -0.037	  0.752	  0.207	 -2.577	 -10.420	  0.004	 -0.601	 -0.156	 29.500	 99.488	  0.732
39413	 -0.036	 -0.052	  0.748	  0.938	 -2.199	 -9.357	 -0.530	 -0.143	  0.013	 29.500	 99.488	  0.732
39463	 -0.025	 -0.066	  0.743	  0.826	 -1.504	 -8.983	 -0.591	 -0.396	 -0.265	 29.500	 99.488	  0.732
39513	  0.006	 -0.096	  0.719	  0.625	 -2.134	 -9.030	 -0.736	 -0.815	 -0.413	 29.500	 99.501	 -0.465
39563	  0.056	 -0.135	  0.704	  1.348	 -0.859	 -8.090	 -0.800	 -1.424	 -0.767	 29.500	 99.484	  1.100
39613	  0.122	 -0.141	  0.679	 -2.845	  0.179	 -9.391	 -0.386	 -0.910	 -0.062	 29.500	 99.488	  0.732
39663	  0.145	 -0.164	  0.657	 -0.869	 -1.559	 -10.935	 -0.270	 -0.215	  0.352	 29.500	 99.488	  0.732
39713	  0.143	 -0.189	  0.651	 -1.560	 -0.392	 -8.909	 -0.360	  0.272	  0.041	 29.500	 99.488	  0.732
39763	  0.138	 -0.193	  0.660	 -0.379	 -0.765	 -8.121	  0.218	  0.186	 -0.081	 29.500	 99.488	  0.732
39813	  0.139	 -0.169	  0.657	  0.204	 -1.207	 -8.408	  0.454	  0.007	 -0.313	 29.500	 99.476	  1.836
39863	  0.157	 -0.145	  0.660	 -1.391	 -1.021	 -9.426	  0.625	 -0.011	 -0.403	 29.500	 99.488	  0.732
39913	  0.157	 -0.112	  0.677	 -1.540	 -0.177	 -10.050	  0.782	  0.784	 -0.185	 29.500	 99.501	 -0.465
39963	  0.125	 -0.072	  0.692	  0.151	 -1.945	 -9.919	  0.482	  1.229	 -0.400	 29.500	 99.488	  0.732
40013	  0.087	 -0.073	  0.715	  0.786	 -1.693	 -9.293	 -0.170	  0.818	 -0.287	 29.500	 99.501	 -0.465
40063	  0.079	 -0.075	  0.728	  0.587	 -1.270	 -9.058	  0.249	  0.214	 -0.041	 29.500	 99.501	 -0.465
40113	  0.070	 -0.067	  0.737	  1.079	 -2.421	 -10.248	 -0.125	  0.338	 -0.323	 29.500	 99.501	 -0.465
40163	  0.073	 -0.077	  0.732	  0.106	 -1.427	 -9.743	 -0.316	  0.160	 -0.234	 29.500	 99.496	 -0.005
40213	  0.063	 -0.099	  0.733	  0.743	 -0.567	 -9.030	 -0.458	  0.323	  0.188	 29.500	 99.496	 -0.005
40263	  0.062	 -0.134	  0.717	  2.066	 -1.706	 -9.530	 -0.746	 -0.273	  0.421	 29.500	 99.484	  1.100
40313	  0.071	 -0.178	  0.715	  0.832	 -1.072	 -9.117	 -0.731	 -0.204	  0.217	 29.500	 99.501	 -0.465
40363	  0.076	 -0.207	  0.705	  0.188	  0.950	 -7.213	 -0.527	 -0.167	 -0.018	 29.500	 99.484	  1.100
40413	  0.093	 -0.233	  0.708	  0.996	 -0.596	 -9.330	 -0.175	 -0.340	 -0.453	 29.500	 99.501	 -0.465
40463	  0.119	 -0.223	  0.700	  0.382	  0.067	 -9.582	 -0.098	 -0.341	 -0.445	 29.500	 99.501	 -0.465
40513	  0.138	 -0.236	  0.693	  0.273	 -0.175	 -9.534	 -0.326	 -0.243	 -0.295	 29.500	 99.496	 -0.005
40563	  0.154	 -0.247	  0.699	  1.187	 -0.119	 -10.760	  0.065	 -0.339	 -0.524	 29.500	 99.484	  1.100
40613	  0.179	 -0.227	  0.693	 -0.259	  0.527	 -9.844	  0.067	 -0.231	 -0.556	 29.500	 99.488	  0.732
40663	  0.192	 -0.220	  0.691	  0.097	  0.264	 -9.463	  0.059	 -0.124	 -0.224	 29.500	 99.501	 -0.465
40713	  0.196	 -0.209	  0.695	 -0.304	  0.146	 -9.694	 -0.009	  0.024	 -0.137	 29.500	 99.488	  0.732
40763	  0.199	 -0.213	  0.698	  0.336	  0.300	 -9.322	  0.023	 -0.043	 -0.100	 29.500	 99.488	  0.732
40813	  0.208	 -0.210	  0.695	  1.437	  0.545	 -8.336	  0.195	 -0.392	 -0.057	 29.500	 99.484	  1.100
40863	  0.216	 -0.214	  0.689	 -0.713	 -0.057	 -9.476	 -0.006	  0.022	  0.015	 29.500	 99.496	 -0.005
40913	  0.214	 -0.205	  0.686	 -0.372	  0.059	 -9.500	  0.014	 -0.042	  0.022	 29.500	 99.484	  1.100
40963	  0.217	 -0.214	  0.690	 -0.286	 -0.032	 -9.448	 -0.017	  0.094	  0.010	 29.500	 99.496	 -0.005
41013	  0.213	 -0.213	  0.683	 -0.573	 -0.131	 -9.585	 -0.002	  0.030	  0.009	 29.500	 99.496	 -0.005
41063	  0.217	 -0.213	  0.692	  0.249	  0.149	 -9.434	  0.004	  0.030	  0.009	 29.500	 99.484	  1.100
41113	  0.213	 -0.206	  0.690	 -0.269	  0.038	 -9.459	 -0.002	 -0.002	  0.007	 29.600	 99.488	  0.732
41163	  0.214	 -0.209	  0.687	 -0.081	 -0.019	 -9.499	  0.001	 -0.005	  0.011	 29.500	 99.484	  1.100
41213	  0.214	 -0.196	  0.688	 -0.106	 -0.018	 -9.488	  0.002	 -0.002	  0.008	 29.500	 99.496	 -0.005
41263	  0.216	 -0.212	  0.685	 -0.091	 -0.018	 -9.514	  0.002	  0.000	  0.012	 29.500	 99.484	  1.100
41313	  0.214	 -0.209	  0.682	 -0.176	 -0.017	 -9.493	  0.002	  0.000	  0.009	 29.500	 99.501	 -0.465
41362	  0.216	 -0.212	  0.685	 -0.112	  0.003	 -9.501	  0.002	  0.000	  0.011	 29.500	 99.501	 -0.465
41413	  0.217	 -0.200	  0.683	 -0.158	  0.015	 -9.480	  0.002	  0.000	  0.013	 29.500	 99.488	  0.732
41463	  0.215	 -0.206	  0.679	 -0.165	 -0.056	 -9.538	  0.003	  0.001	  0.009	 29.500	 99.501	 -0.465
41513	  0.214	 -0.213	  0.683	 -0.112	  0.009	 -9.530	  0.003	 -0.001	  0.009	 29.500	 99.501	 -0.465
41563	  0.216	 -0.209	  0.685	 -0.159	  0.005	 -9.455	  0.003	 -0.001	  0.011	 29.500	 99.484	  1.100
41613	  0.214	 -0.213	  0.686	 -0.169	  0.020	 -9.533	  0.003	 -0.001	  0.012	 29.500	 99.496	 -0.005
41663	  0.214	 -0.203	  0.688	 -0.145	  0.017	 -9.447	  0.003	 -0.001	  0.010	 29.600	 99.501	 -0.465
41713	  0.213	 -0.200	  0.690	 -0.126	 -0.036	 -9.532	  0.002	 -0.000	  0.011	 29.500	 99.484	  1.100
41763	  0.216	 -0.212	  0.688	 -0.110	 -0.019	 -9.511	  0.002	  0.001	  0.011	 29.500	 99.496	 -0.005
41813	  0.213	 -0.208	  0.687	 -0.122	 -0.036	 -9.484	  0.002	 -0.000	  0.011	 29.500	 99.496	 -0.005
41863	  0.211	 -0.206	  0.686	 -0.167	  0.012	 -9.510	  0.003	 -0.003	  0.011	 29.500	 99.496	 -0.005
41914	  0.214	 -0.208	  0.689	 -0.110	 -0.018	 -9.494	  0.002	 -0.001	  0.011	 29.500	 99.484	  1.100
41963	  0.216	 -0.199	  0.690	 -0.187	  0.026	 -9.494	  0.001	 -0.001	  0.010	 29.500	 99.496	 -0.005
42013	  0.209	 -0.208	  0.686	 -0.070	 -0.034	 -9.504	  0.003	 -0.001	  0.011	 29.500	 99.484	  1.100
42063	  0.211	 -0.209	  0.691	 -0.188	  0.021	 -9.463	  0.002	 -0.002	  0.012	 29.500	 99.509	 -1.202
42113	  0.213	 -0.209	  0.682	 -0.150	  0.007	 -9.480	  0.003	 -0.002	  0.011	 29.500	 99.496	 -0.005
42163	  0.213	 -0.212	  0.687	 -0.211	  0.006	 -9.438	  0.003	 -0.001	  0.010	 29.500	 99.496	 -0.005
42213	  0.214	 -0.212	  0.686	 -0.129	 -0.034	 -9.518	  0.002	  0.000	  0.011	 29.500	 99.496	 -0.005
42263	  0.211	 -0.213	  0.685	 -0.188	  0.021	 -9.497	  0.003	 -0.000	  0.011	 29.500	 99.488	  0.732
42313	  0.210	 -0.212	  0.690	 -0.056	 -0.020	 -9.502	  0.002	 -0.001	  0.011	 29.500	 99.484	  1.100
42363	  0.214	 -0.210	  0.687	 -0.201	  0.006	 -9.507	  0.002	  0.001	  0.011	 29.500	 99.484	  1.100
42413	  0.210	 -0.208	  0.688	 -0.099	  0.013	 -9.461	  0.004	  0.002	  0.012	 29.500	 99.496	 -0.005
42463	  0.210	 -0.215	  0.685	 -0.200	  0.028	 -9.495	  0.002	 -0.001	  0.011	 29.500	 99.509	 -1.202
42513	  0.213	 -0.206	  0.689	 -0.093	 -0.024	 -9.473	  0.001	 -0.001	  0.010	 29.500	 99.496	 -0.005
42564	  0.215	 -0.209	  0.687	 -0.173	 -0.003	 -9.493	  0.003	 -0.001	  0.010	 29.500	 99.496	 -0.005
42613	  0.211	 -0.213	  0.687	 -0.128	 -0.001	 -9.494	  0.003	 -0.001	  0.011	 29.500	 99.501	 -0.465
42664	  0.213	 -0.208	  0.689	 -0.169	 -0.007	 -9.397	  0.001	  0.002	  0.011	 29.500	 99.484	  1.100
42714	  0.215	 -0.210	  0.687	 -0.067	  0.046	 -9.558	  0.003	  0.003	  0.010	 29.500	 99.484	  1.100
42764	  0.216	 -0.209	  0.687	 -0.043	  0.041	 -9.450	  0.004	  0.002	  0.010	 29.500	 99.484	  1.100
42814	  0.215	 -0.213	  0.686	 -0.175	 -0.013	 -9.498	  0.009	  0.012	  0.012	 29.500	 99.496	 -0.005
42863	  0.213	 -0.214	  0.685	 -0.237	 -0.057	 -9.495	  0.002	  0.003	  0.011	 29.500	 99.496	 -0.005
42913	  0.217	 -0.212	  0.679	  0.486	 -0.267	 -9.538	 -0.017	 -0.026	  0.010	 29.500	 99.496	 -0.005
42964	  0.216	 -0.214	  0.688	 -0.375	 -0.773	 -8.898	 -0.012	 -0.020	  0.014	 29.500	 99.488	  0.732
43014	  0.215	 -0.214	  0.682	  0.301	  0.027	 -9.258	 -0.001	 -0.029	  0.012	 29.500	 99.484	  1.100
43064	  0.213	 -0.210	  0.685	 -0.071	  0.077	 -9.421	  0.000	  0.000	  0.009	 29.500	 99.509	 -1.202
43114	  0.211	 -0.210	  0.683	 -0.241	  0.229	 -9.390	  0.006	 -0.003	  0.011	 29.500	 99.496	 -0.005
43164	  0.213	 -0.210	  0.691	 -0.241	  0.037	 -9.460	  0.005	  0.007	  0.009	 29.500	 99.496	 -0.005
43214	  0.211	 -0.205	  0.684	 -0.319	  0.067	 -9.554	  0.012	 -0.017	  0.016	 29.500	 99.496	 -0.005
43264	  0.216	 -0.213	  0.689	  0.395	  0.487	 -7.255	  0.007	  0.017	  0.010	 29.500	 99.509	 -1.202
43314	  0.216	 -0.201	  0.679	 -0.338	  0.011	 -9.269	 -0.001	 -0.027	  0.011	 29.500	 99.484	  1.100
43364	  0.213	 -0.213	  0.689	 -0.051	  0.046	 -9.581	  0.004	 -0.010	  0.013	 29.500	 99.496	 -0.005
43414	  0.211	 -0.196	  0.684	 -0.279	 -0.036	 -9.397	 -0.000	 -0.005	  0.012	 29.500	 99.484	  1.100
43464	  0.214	 -0.213	  0.689	 -0.227	 -0.006	 -9.543	  0.002	  0.003	  0.011	 29.500	 99.496	 -0.005
43514	  0.213	 -0.222	  0.688	 -0.141	 -0.019	 -9.510	  0.001	  0.005	  0.009	 29.500	 99.496	 -0.005
43564	  0.215	 -0.213	  0.687	  0.005	 -0.020	 -9.441	  0.003	 -0.002	  0.014	 29.500	 99.496	 -0.005
43614	  0.211	 -0.209	  0.683	  0.130	 -0.561	 -9.928	 -0.001	 -0.041	  0.009	 29.500	 99.496	 -0.005
43664	  0.213	 -0.214	  0.679	 -0.261	  0.940	 -9.092	  0.002	 -0.012	 -0.018	 29.500	 99.509	 -1.202
43714	  0.213	 -0.210	  0.682	 -0.944	  0.205	 -9.854	 -0.003	  0.000	  0.009	 29.500	 99.496	 -0.005
43764	  0.210	 -0.205	  0.684	 -0.844	  0.047	 -9.510	  0.012	 -0.018	  0.012	 29.500	 99.484	  1.100
43813	  0.215	 -0.213	  0.683	 -0.704	 -0.018	 -9.520	  0.002	  0.026	  0.007	 29.500	 99.492	  0.363
43864	  0.209	 -0.213	  0.683	 -0.137	 -0.001	 -9.490	  0.004	 -0.017	  0.011	 29.500	 99.496	 -0.005
43913	  0.211	 -0.210	  0.690	 -0.258	  0.042	 -9.474	  0.002	 -0.001	  0.013	 29.500	 99.496	 -0.005
43964	  0.211	 -0.204	  0.684	 -0.078	 -0.040	 -9.516	 -0.002	 -0.006	  0.012	 29.500	 99.496	 -0.005
44013	  0.213	 -0.196	  0.688	 -0.028	  0.008	 -9.479	  0.001	 -0.004	  0.014	 29.500	 99.496	 -0.005
44063	  0.211	 -0.195	  0.686	 -0.090	  0.025	 -9.457	  0.001	 -0.003	  0.010	 29.500	 99.496	 -0.005
44113	  0.213	 -0.217	  0.683	 -0.356	 -0.196	 -9.600	  0.012	  0.034	  0.012	 29.500	 99.496	 -0.005
44163	  0.210	 -0.205	  0.684	 -0.586	  0.046	 -9.612	  0.004	  0.011	  0.013	 29.500	 99.484	  1.100
44213	  0.215	 -0.215	  0.690	  0.054	 -0.663	 -10.460	  0.029	  0.006	 -0.056	 29.500	 99.509	 -1.202
44264	  0.210	 -0.203	  0.684	  0.433	  0.605	 -9.175	  0.027	 -0.045	  0.013	 29.500	 99.496	 -0.005
44313	  0.214	 -0.215	  0.686	 -1.854	  2.477	 -9.653	  0.036	  0.015	 -0.066	 29.500	 99.887	 -35.898
44363	  0.213	 -0.214	  0.675	 -0.896	  0.029	 -9.559	  0.018	 -0.032	  0.290	 29.500	 100.188	 -63.416
44413	  0.205	 -0.215	  0.688	 -0.508	 -0.028	 -9.818	  0.104	 -0.005	  0.162	 29.500	 100.474	 -89.469
44463	  0.205	 -0.206	  0.691	 -0.325	  0.237	 -9.562	  0.381	 -0.115	 -0.212	 29.500	 100.742	 -113.804
44513	  0.215	 -0.170	  0.681	 -0.931	 -0.455	 -10.011	  0.340	 -0.083	 -0.809	 29.500	 101.226	 -157.555
44563	  0.214	 -0.129	  0.683	  0.118	 -0.662	 -9.626	  0.276	  0.012	 -0.408	 29.500	 101.231	 -158.006
44613	  0.220	 -0.109	  0.677	  0.170	 -1.332	 -9.181	  0.014	 -0.052	 -0.250	 29.500	 101.194	 -154.671
44664	  0.224	 -0.112	  0.676	 -0.407	 -1.403	 -9.097	 -0.369	  0.128	 -0.052	 29.500	 101.157	 -151.334
44713	  0.219	 -0.145	  0.682	  0.117	 -0.837	 -9.367	 -0.770	  0.252	  0.063	 29.500	 101.121	 -148.086
44763	  0.230	 -0.171	  0.670	 -0.989	  2.255	 -8.738	  0.101	  0.191	 -0.417	 29.500	 101.080	 -144.384
44813	  0.227	 -0.161	  0.681	  0.298	 -0.367	 -9.461	  0.014	  0.018	 -0.021	 29.500	 101.031	 -139.959
44863	  0.230	 -0.160	  0.683	 -0.439	  0.091	 -9.570	 -0.001	 -0.006	  0.015	 29.500	 100.999	 -137.067
44913	  0.227	 -0.155	  0.680	 -0.244	  0.066	 -9.452	  0.000	  0.003	  0.011	 29.500	 100.950	 -132.637
44963	  0.234	 -0.165	  0.676	 -0.206	  0.041	 -9.521	  0.002	  0.005	  0.010	 29.500	 100.913	 -129.290
45013	  0.231	 -0.161	  0.674	  0.002	 -0.008	 -9.501	  0.002	  0.001	  0.012	 29.500	 100.864	 -124.856
45063	  0.225	 -0.160	  0.680	 -0.119	  0.044	 -9.450	  0.002	 -0.003	  0.012	 29.500	 100.815	 -120.420
45113	  0.229	 -0.161	  0.680	 -0.154	  0.007	 -9.496	  0.003	  0.003	  0.011	 29.500	 100.775	 -116.795
45163	  0.227	 -0.155	  0.676	 -0.199	 -0.018	 -9.505	  0.002	  0.004	  0.011	 29.500	 100.750	 -114.529
45213	  0.230	 -0.158	  0.683	  0.226	  0.098	 -9.392	  0.002	  0.022	  0.012	 29.500	 100.701	 -110.086
45264	  0.231	 -0.152	  0.677	 -0.220	 -0.100	 -9.611	 -0.002	  0.011	  0.006	 29.500	 100.677	 -107.910
45313	  0.228	 -0.158	  0.679	 -0.030	 -0.039	 -9.515	  0.003	  0.006	  0.011	 29.500	 100.645	 -105.005
45363	  0.228	 -0.158	  0.680	 -0.099	  0.027	 -9.462	  0.002	 -0.001	  0.012	 29.500	 100.604	 -101.284
45413	  0.229	 -0.162	  0.676	 -0.045	  0.008	 -9.487	  0.002	 -0.003	  0.011	 29.500	 100.583	 -99.376
45463	  0.222	 -0.150	  0.680	 -0.182	  0.020	 -9.474	  0.002	 -0.002	  0.011	 29.500	 100.547	 -96.106
45513	  0.227	 -0.156	  0.681	 -0.116	  0.001	 -9.516	  0.003	 -0.001	  0.012	 29.500	 100.522	 -93.835
45563	  0.227	 -0.161	  0.676	 -0.169	  0.026	 -9.475	  0.003	 -0.002	  0.012	 29.500	 100.498	 -91.652
