Time	 MagX	 MagY	 MagZ	 AccelX	 AccelY	 AccelZ	 Yaw	 Pitch	 Roll	 Temperature	 Pressure	 Altitude
3281	 -0.981	  0.763	  1.406	  0.108	 -0.025	 -9.807	 -0.005	  0.002	 -0.002	 33.000	 99.164	 -99999.000
3330	 -0.981	  0.757	  1.407	  0.030	 -0.026	 -9.820	 -0.004	  0.002	 -0.000	 33.000	 99.153	 -99999.000
3380	 -0.981	  0.755	  1.408	  0.085	 -0.014	 -9.846	 -0.004	  0.002	  0.001	 33.000	 99.164	 -99999.000
3430	 -0.983	  0.761	  1.409	  0.064	 -0.052	 -9.850	 -0.005	  0.002	  0.002	 33.000	 99.164	 -99999.000
3480	 -0.981	  0.763	  1.407	  0.093	 -0.039	 -9.880	 -0.003	  0.002	  0.003	 33.000	 99.164	 -99999.000
3530	 -0.980	  0.758	  1.407	  0.082	 -0.027	 -9.827	 -0.004	  0.002	  0.000	 33.000	 99.164	 -99999.000
3580	 -0.979	  0.758	  1.408	  0.084	 -0.039	 -9.789	 -0.004	  0.002	 -0.001	 33.000	 99.164	 -99999.000
3630	 -0.978	  0.761	  1.408	  0.069	 -0.056	 -9.841	 -0.004	  0.001	  0.002	 33.000	 99.153	 -99999.000
3680	 -0.982	  0.762	  1.410	  0.094	 -0.035	 -9.848	 -0.004	  0.003	  0.001	 33.000	 99.164	 -99999.000
3730	 -0.983	  0.761	  1.406	  0.048	 -0.038	 -9.838	 -0.005	  0.002	 -0.001	 33.000	 99.164	 -99999.000
3780	 -0.981	  0.757	  1.408	  0.070	 -0.026	 -9.822	 -0.004	  0.002	  0.000	 33.000	 99.153	 -99999.000
3830	 -0.982	  0.772	  1.399	  0.049	 -0.022	 -9.868	 -0.005	  0.000	  0.002	 33.000	 99.160	 -99999.000
3880	 -0.978	  0.760	  1.406	  0.087	 -0.056	 -9.848	 -0.004	  0.002	  0.002	 33.000	 99.164	 -99999.000
3930	 -0.980	  0.757	  1.404	  0.083	 -0.016	 -9.867	 -0.004	  0.001	  0.001	 33.000	 99.164	 -99999.000
3980	 -0.981	  0.757	  1.407	  0.093	 -0.019	 -9.825	 -0.004	  0.002	 -0.001	 33.000	 99.157	 -99999.000
4030	 -0.981	  0.765	  1.406	  0.085	 -0.042	 -9.832	 -0.004	  0.003	  0.003	 33.000	 99.149	 -99999.000
4080	 -0.981	  0.771	  1.397	  0.072	 -0.045	 -9.853	 -0.004	  0.003	  0.002	 33.000	 99.164	 -99999.000
4130	 -0.979	  0.757	  1.407	  0.087	 -0.020	 -9.837	 -0.003	  0.002	  0.001	 33.000	 99.169	 -99999.000
4180	 -0.981	  0.764	  1.409	  0.065	 -0.037	 -9.829	 -0.004	  0.002	  0.002	 33.000	 99.164	 -99999.000
4230	 -0.984	  0.770	  1.406	  0.074	 -0.027	 -9.849	 -0.004	  0.002	  0.002	 33.000	 99.164	 -99999.000
4280	 -0.979	  0.763	  1.407	  0.071	 -0.032	 -9.849	 -0.003	  0.002	  0.000	 33.000	 99.153	 -99999.000
4330	 -0.980	  0.764	  1.407	  0.095	 -0.024	 -9.825	 -0.003	  0.002	  0.003	 33.000	 99.153	 -99999.000
4380	 -0.980	  0.765	  1.407	  0.059	 -0.059	 -9.837	 -0.004	  0.002	 -0.000	 33.000	 99.164	 -99999.000
4430	 -0.982	  0.763	  1.407	  0.068	 -0.029	 -9.800	 -0.003	  0.003	 -0.001	 33.000	 99.164	 -99999.000
4480	 -0.979	  0.759	  1.407	  0.076	 -0.027	 -9.819	 -0.004	  0.002	 -0.001	 33.000	 99.153	 -99999.000
4530	 -0.980	  0.758	  1.409	  0.064	 -0.036	 -9.848	 -0.004	  0.002	  0.001	 33.000	 99.164	 -99999.000
4580	 -0.981	  0.762	  1.406	  0.060	 -0.012	 -9.842	 -0.004	  0.000	  0.001	 33.000	 99.153	 -99999.000
4630	 -0.984	  0.760	  1.408	  0.079	 -0.015	 -9.833	 -0.004	  0.001	  0.001	 33.000	 99.164	 -99999.000
4680	 -0.981	  0.760	  1.408	  0.061	 -0.043	 -9.862	 -0.003	  0.003	  0.003	 33.000	 99.153	 -99999.000
4730	 -0.978	  0.769	  1.408	  0.075	 -0.031	 -9.788	 -0.004	  0.002	 -0.000	 33.000	 99.172	 -99999.000
4780	 -0.980	  0.757	  1.406	  0.052	 -0.028	 -9.861	 -0.004	  0.003	  0.002	 33.000	 99.169	 -99999.000
4830	 -0.981	  0.767	  1.400	  0.075	 -0.030	 -9.817	 -0.004	  0.002	  0.002	 33.000	 99.153	 -99999.000
4880	 -0.981	  0.762	  1.403	  0.068	 -0.038	 -9.841	 -0.004	  0.002	  0.001	 33.000	 99.164	 -99999.000
4930	 -0.981	  0.761	  1.406	  0.084	 -0.037	 -9.848	 -0.003	  0.002	  0.001	 33.000	 99.164	 -99999.000
4980	 -0.981	  0.764	  1.410	  0.090	 -0.051	 -9.828	 -0.004	  0.002	  0.002	 33.000	 99.164	 -99999.000
5030	 -0.981	  0.761	  1.406	  0.057	 -0.049	 -9.842	 -0.003	  0.002	  0.002	 33.000	 99.153	 -99999.000
5080	 -0.979	  0.758	  1.406	  0.068	 -0.031	 -9.853	 -0.003	  0.001	 -0.001	 33.000	 99.164	 -99999.000
5130	 -0.982	  0.760	  1.402	  0.054	 -0.031	 -9.831	 -0.007	 -0.001	  0.001	 33.100	 99.157	 -99999.000
5180	 -0.981	  0.758	  1.405	  0.078	 -0.029	 -9.862	 -0.004	  0.003	  0.001	 33.000	 99.153	 -99999.000
5230	 -0.979	  0.759	  1.406	  0.106	 -0.031	 -9.837	 -0.005	  0.001	  0.001	 33.000	 99.164	 -99999.000
5280	 -0.979	  0.770	  1.408	  0.065	 -0.051	 -9.805	 -0.004	  0.001	  0.001	 33.000	 99.164	 -99999.000
5330	 -0.979	  0.762	  1.405	  0.083	 -0.032	 -9.842	 -0.003	  0.003	  0.002	 33.000	 99.153	 -99999.000
5380	 -0.981	  0.755	  1.407	  0.086	 -0.020	 -9.791	 -0.004	  0.002	  0.000	 33.000	 99.153	 -99999.000
5430	 -0.977	  0.766	  1.407	  0.094	 -0.024	 -9.856	 -0.004	  0.001	  0.001	 33.000	 99.153	 -99999.000
5480	 -0.980	  0.760	  1.409	  0.085	 -0.025	 -9.820	 -0.003	  0.001	  0.002	 33.000	 99.164	 -99999.000
5530	 -0.980	  0.761	  1.404	 -0.057	  0.073	 -9.904	  0.007	  0.010	  0.005	 33.000	 99.164	 -99999.000
5580	 -0.980	  0.762	  1.403	  0.071	 -0.046	 -9.818	 -0.006	 -0.002	 -0.001	 33.000	 99.164	 -99999.000
5630	 -0.979	  0.757	  1.411	  0.064	 -0.040	 -9.845	 -0.025	 -0.012	 -0.005	 33.000	 99.164	 -99999.000
5680	 -0.980	  0.762	  1.405	  0.059	 -0.005	 -9.844	  0.004	  0.011	  0.002	 33.000	 99.164	 -99999.000
5730	 -0.980	  0.760	  1.407	  0.062	 -0.042	 -9.859	 -0.002	  0.004	  0.001	 33.000	 99.164	 -99999.000
5780	 -0.981	  0.761	  1.408	  0.076	 -0.036	 -9.787	 -0.004	  0.002	  0.001	 33.000	 99.164	 -99999.000
5830	 -0.979	  0.758	  1.408	  0.045	 -0.021	 -9.836	 -0.003	  0.003	  0.001	 33.000	 99.153	 -99999.000
5880	 -0.979	  0.756	  1.406	  0.051	 -0.033	 -9.832	 -0.004	  0.001	  0.001	 33.000	 99.153	 -99999.000
5930	 -0.981	  0.760	  1.409	  0.070	 -0.030	 -9.864	 -0.003	  0.001	  0.001	 33.000	 99.153	 -99999.000
5980	 -0.979	  0.757	  1.406	  0.080	 -0.041	 -9.865	 -0.002	  0.002	  0.001	 33.000	 99.153	 -99999.000
6030	 -0.977	  0.761	  1.407	  0.098	 -0.023	 -9.845	 -0.004	  0.002	  0.001	 33.000	 99.164	 -99999.000
6080	 -0.979	  0.761	  1.407	  0.087	 -0.023	 -9.837	 -0.003	  0.002	  0.003	 33.000	 99.142	 -99999.000
6130	 -0.980	  0.758	  1.404	  0.054	 -0.061	 -9.853	 -0.004	  0.002	  0.002	 33.000	 99.164	 -99999.000
6180	 -0.980	  0.756	  1.408	  0.089	 -0.027	 -9.834	 -0.004	  0.003	  0.001	 33.000	 99.164	 -99999.000
6230	 -0.980	  0.760	  1.407	  0.071	 -0.015	 -9.845	 -0.005	  0.001	  0.002	 33.000	 99.164	 -99999.000
6281	 -0.979	  0.759	  1.408	  0.072	 -0.027	 -9.816	 -0.003	  0.001	  0.000	 33.000	 99.153	 -99999.000
6330	 -0.979	  0.755	  1.408	  0.054	 -0.018	 -9.859	 -0.004	  0.001	  0.001	 33.000	 99.164	 -99999.000
6380	 -0.981	  0.763	  1.406	  0.081	 -0.028	 -9.848	 -0.003	  0.002	  0.002	 33.000	 99.149	 -99999.000
6430	 -0.978	  0.760	  1.407	  0.087	 -0.040	 -9.824	 -0.003	  0.002	 -0.001	 33.000	 99.149	 -99999.000
6480	 -0.980	  0.758	  1.405	  0.069	 -0.013	 -9.836	 -0.003	  0.001	  0.003	 33.000	 99.153	 -99999.000
6530	 -0.979	  0.758	  1.405	  0.072	 -0.042	 -9.829	 -0.005	  0.002	  0.002	 33.000	 99.164	 -99999.000
6580	 -0.983	  0.762	  1.399	  0.087	 -0.028	 -9.822	 -0.004	  0.003	  0.000	 33.000	 99.164	 -99999.000
6630	 -0.982	  0.757	  1.408	  0.079	 -0.032	 -9.853	 -0.003	  0.002	  0.001	 33.100	 99.157	 -99999.000
6680	 -0.979	  0.757	  1.408	  0.069	 -0.034	 -9.851	 -0.004	  0.002	  0.000	 33.000	 99.153	 -99999.000
6730	 -0.982	  0.761	  1.405	  0.108	 -0.027	 -9.791	 -0.003	  0.001	  0.002	 33.000	 99.164	 -99999.000
6780	 -0.981	  0.760	  1.406	  0.042	  0.018	 -9.754	 -0.006	 -0.003	  0.001	 33.000	 99.153	 -99999.000
6830	 -0.982	  0.758	  1.407	 -0.087	  0.034	 -9.924	 -0.000	  0.012	  0.003	 33.000	 99.153	 -99999.000
6880	 -0.980	  0.756	  1.409	  0.104	 -0.034	 -9.861	 -0.004	  0.001	  0.000	 33.000	 99.153	 -99999.000
6930	 -0.982	  0.757	  1.407	  0.068	 -0.031	 -9.808	 -0.004	  0.001	  0.002	 33.000	 99.153	 -99999.000
6980	 -0.980	  0.758	  1.407	  0.085	 -0.014	 -9.837	 -0.004	  0.001	  0.001	 33.000	 99.164	 -99999.000
7030	 -0.982	  0.756	  1.407	  0.062	 -0.042	 -9.847	 -0.003	  0.002	  0.002	 33.000	 99.153	 -99999.000
7080	 -0.981	  0.758	  1.408	  0.100	 -0.030	 -9.823	 -0.003	  0.001	  0.002	 33.000	 99.153	 -99999.000
7130	 -0.981	  0.757	  1.409	  0.066	 -0.028	 -9.833	 -0.004	  0.002	 -0.000	 33.000	 99.169	 -99999.000
7180	 -0.981	  0.761	  1.404	  0.066	 -0.031	 -9.801	 -0.004	  0.003	  0.001	 33.000	 99.153	 -99999.000
7230	 -0.980	  0.760	  1.411	  0.095	 -0.046	 -9.831	 -0.005	  0.001	 -0.001	 33.000	 99.153	 -99999.000
7280	 -0.981	  0.761	  1.408	  0.069	 -0.011	 -9.851	 -0.003	  0.004	 -0.001	 33.100	 99.157	 -99999.000
7330	 -0.979	  0.763	  1.408	  0.044	 -0.041	 -9.836	 -0.004	  0.002	  0.002	 33.000	 99.164	 -99999.000
7380	 -0.981	  0.757	  1.408	  0.079	 -0.020	 -9.832	 -0.004	  0.002	  0.001	 33.000	 99.153	 -99999.000
7430	 -0.981	  0.760	  1.409	  0.080	 -0.026	 -9.858	 -0.006	  0.002	  0.002	 33.000	 99.164	 -99999.000
7480	 -0.981	  0.761	  1.404	  0.090	 -0.030	 -9.808	 -0.003	  0.002	  0.002	 33.000	 99.153	 -99999.000
7530	 -0.981	  0.763	  1.406	  0.066	 -0.036	 -9.816	 -0.004	  0.002	 -0.001	 33.000	 99.164	 -99999.000
7580	 -0.980	  0.764	  1.409	  0.066	 -0.044	 -9.796	 -0.004	  0.001	 -0.000	 33.000	 99.164	 -99999.000
7630	 -0.979	  0.761	  1.406	  0.056	 -0.025	 -9.872	 -0.004	  0.002	  0.002	 33.000	 99.153	 -99999.000
7680	 -0.980	  0.762	  1.407	  0.065	 -0.020	 -9.823	 -0.004	  0.002	  0.001	 33.000	 99.164	 -99999.000
7731	 -0.982	  0.763	  1.406	  0.088	 -0.018	 -9.863	 -0.003	  0.003	  0.001	 33.000	 99.164	 -99999.000
7780	 -0.984	  0.760	  1.411	  0.083	 -0.016	 -9.832	 -0.003	  0.001	  0.000	 33.000	 99.164	 -99999.000
7830	 -0.982	  0.764	  1.413	  0.073	 -0.056	 -9.857	 -0.004	  0.003	  0.002	 33.000	 99.153	 -99999.000
7880	 -0.980	  0.758	  1.406	  0.082	 -0.030	 -9.837	 -0.003	  0.002	 -0.000	 33.100	 99.146	 -99999.000
7930	 -0.981	  0.755	  1.406	  0.070	 -0.035	 -9.847	 -0.003	  0.002	  0.002	 33.000	 99.153	 -99999.000
7981	 -0.980	  0.762	  1.406	  0.066	 -0.055	 -9.814	 -0.004	  0.002	 -0.001	 33.000	 99.142	 -99999.000
8030	 -0.980	  0.758	  1.411	  0.069	 -0.012	 -9.835	 -0.004	  0.002	 -0.001	 33.000	 99.176	 -99999.000
8080	 -0.982	  0.757	  1.408	  0.076	 -0.091	 -9.869	 -0.001	  0.000	 -0.040	 33.100	 99.169	 -99999.000
8130	 -0.982	  0.752	  1.408	  0.071	  0.066	 -9.832	 -0.003	 -0.012	 -0.084	 33.000	 99.164	 -99999.000
8180	 -0.986	  0.758	  1.408	  0.102	  0.025	 -9.819	 -0.003	  0.027	 -0.022	 33.000	 99.157	 -99999.000
8230	 -0.985	  0.753	  1.407	  0.046	 -0.034	 -9.843	 -0.003	  0.001	  0.001	 33.000	 99.153	 -99999.000
8281	 -0.987	  0.764	  1.407	  0.081	 -0.027	 -9.867	 -0.004	  0.003	  0.001	 33.000	 99.153	 -99999.000
8331	 -0.984	  0.754	  1.408	  0.069	 -0.022	 -9.838	 -0.002	 -0.000	 -0.001	 33.000	 99.153	 -99999.000
8381	 -0.989	  0.755	  1.407	  0.020	 -0.114	 -9.845	 -0.005	  0.001	 -0.000	 33.000	 99.153	 -99999.000
8431	 -0.987	  0.757	  1.408	  0.049	 -0.036	 -9.862	 -0.003	  0.001	  0.000	 33.000	 99.153	 -99999.000
8481	 -0.987	  0.754	  1.410	  0.059	 -0.033	 -9.854	 -0.004	  0.001	  0.002	 33.000	 99.164	 -99999.000
8531	 -0.987	  0.754	  1.405	  0.093	 -0.021	 -9.831	 -0.004	  0.001	 -0.001	 33.000	 99.164	 -99999.000
8581	 -0.987	  0.754	  1.406	  0.051	 -0.035	 -9.823	 -0.003	  0.001	 -0.000	 33.000	 99.153	 -99999.000
8631	 -0.988	  0.763	  1.406	  0.085	 -0.043	 -9.834	 -0.002	  0.002	 -0.001	 33.000	 99.164	 -99999.000
8681	 -0.987	  0.756	  1.406	  0.049	 -0.039	 -9.870	 -0.001	  0.003	 -0.000	 33.000	 99.153	 -99999.000
8731	 -0.990	  0.759	  1.405	  0.072	 -0.022	 -9.827	 -0.003	  0.000	  0.004	 33.000	 99.164	 -99999.000
8781	 -0.985	  0.754	  1.406	  0.058	 -0.021	 -9.837	 -0.003	  0.002	  0.001	 33.000	 99.157	 -99999.000
8831	 -0.986	  0.756	  1.407	  0.065	 -0.031	 -9.875	  0.000	  0.002	  0.001	 33.000	 99.164	 -99999.000
8881	 -0.986	  0.756	  1.406	  0.066	 -0.019	 -9.850	 -0.002	  0.002	  0.001	 33.000	 99.164	 -99999.000
8931	 -0.984	  0.754	  1.406	  0.050	 -0.028	 -9.838	 -0.003	  0.002	  0.000	 33.100	 99.169	 -99999.000
8981	 -0.987	  0.761	  1.399	  0.057	 -0.052	 -9.842	 -0.005	  0.002	  0.001	 33.000	 99.153	 -99999.000
9031	 -0.984	  0.757	  1.408	  0.074	 -0.052	 -9.814	 -0.006	  0.002	 -0.000	 33.000	 99.164	 -99999.000
9081	 -0.986	  0.756	  1.405	  0.066	 -0.020	 -9.844	 -0.003	  0.001	  0.000	 33.000	 99.164	 -99999.000
9131	 -0.985	  0.753	  1.411	  0.079	 -0.041	 -9.806	 -0.003	  0.001	  0.001	 33.000	 99.164	 -99999.000
9181	 -0.988	  0.762	  1.402	  0.070	 -0.039	 -9.864	 -0.003	  0.002	 -0.000	 33.000	 99.157	 -99999.000
9231	 -0.984	  0.757	  1.407	  0.057	 -0.037	 -9.826	 -0.004	  0.001	  0.001	 33.000	 99.153	 -99999.000
12580	 -0.983	  0.757	  1.400	  0.102	 -0.042	 -9.797	 -0.003	  0.007	  0.001	 33.000	 99.157	  0.102
12630	 -0.980	  0.762	  1.406	  0.121	 -0.065	 -9.865	 -0.003	  0.002	  0.002	 33.000	 99.169	 -0.980
12680	 -0.981	  0.762	  1.403	  0.102	 -0.061	 -9.847	 -0.004	  0.001	 -0.000	 33.000	 99.153	  0.462
12730	 -0.981	  0.758	  1.408	  0.084	 -0.038	 -9.828	 -0.004	  0.002	 -0.000	 33.000	 99.157	  0.102
12780	 -0.981	  0.758	  1.411	  0.089	 -0.020	 -9.814	 -0.003	  0.002	  0.001	 33.000	 99.157	  0.102
12830	 -0.983	  0.761	  1.410	  0.086	 -0.036	 -9.829	 -0.004	  0.003	 -0.001	 33.100	 99.157	  0.102
12880	 -0.978	  0.761	  1.413	  0.061	 -0.040	 -9.877	 -0.005	  0.002	  0.001	 33.000	 99.153	  0.462
12930	 -0.980	  0.757	  1.405	  0.046	 -0.014	 -9.828	 -0.003	  0.002	  0.000	 33.000	 99.157	  0.102
12980	 -0.982	  0.767	  1.403	  0.068	 -0.009	 -9.830	 -0.004	  0.002	  0.000	 33.000	 99.157	  0.102
13030	 -0.980	  0.760	  1.406	  0.090	 -0.046	 -9.827	 -0.003	  0.003	  0.000	 33.000	 99.157	  0.102
13080	 -0.983	  0.757	  1.408	 -0.020	  0.045	 -9.882	 -0.003	  0.001	 -0.058	 33.000	 99.157	  0.102
13130	 -0.984	  0.758	  1.405	  0.084	 -0.074	 -9.867	 -0.004	  0.005	 -0.032	 33.000	 99.157	  0.102
13181	 -0.987	  0.766	  1.407	  0.043	  0.017	 -9.782	 -0.005	  0.001	 -0.004	 33.100	 99.169	 -0.980
13230	 -0.987	  0.756	  1.409	  0.069	 -0.021	 -9.834	 -0.003	  0.001	  0.001	 33.100	 99.157	  0.102
13280	 -0.987	  0.752	  1.408	  0.052	 -0.038	 -9.825	 -0.003	  0.002	  0.000	 33.100	 99.157	  0.102
13330	 -0.986	  0.752	  1.399	  0.054	 -0.042	 -9.859	 -0.003	  0.003	 -0.000	 33.000	 99.169	 -0.980
13380	 -0.986	  0.754	  1.408	  0.368	 -0.026	 -9.794	 -0.002	 -0.002	 -0.120	 33.000	 99.169	 -0.980
13430	 -0.992	  0.752	  1.406	  0.002	 -0.067	 -9.850	 -0.006	  0.002	  0.002	 33.000	 99.169	 -0.980
13480	 -0.992	  0.745	  1.404	  0.074	 -0.036	 -9.852	 -0.004	  0.006	  0.000	 33.000	 99.157	  0.102
13531	 -0.992	  0.748	  1.403	  0.099	 -0.022	 -9.820	 -0.005	  0.002	  0.002	 33.000	 99.169	 -0.980
13580	 -0.994	  0.760	  1.404	  0.050	 -0.055	 -9.793	 -0.005	  0.001	  0.001	 33.000	 99.157	  0.102
13630	 -0.992	  0.753	  1.401	  0.057	 -0.045	 -9.848	 -0.003	  0.003	  0.003	 33.000	 99.157	  0.102
13680	 -0.991	  0.748	  1.404	  0.079	 -0.011	 -9.816	 -0.004	  0.002	  0.002	 33.000	 99.153	  0.462
13730	 -0.990	  0.749	  1.403	  0.074	 -0.031	 -9.826	 -0.004	  0.002	  0.002	 33.100	 99.157	  0.102
13781	 -0.988	  0.757	  1.400	  0.063	 -0.022	 -9.845	 -0.003	  0.002	 -0.000	 33.000	 99.157	  0.102
13830	 -0.992	  0.748	  1.406	  0.060	 -0.041	 -9.869	 -0.003	  0.003	 -0.000	 33.000	 99.157	  0.102
13881	 -0.991	  0.748	  1.403	 -0.082	  0.130	 -9.866	 -0.007	  0.002	  0.024	 33.100	 99.169	 -0.980
13931	 -0.989	  0.752	  1.410	  0.097	 -0.001	 -9.837	 -0.002	  0.003	  0.009	 33.000	 99.169	 -0.980
13981	 -0.991	  0.752	  1.406	  0.155	 -0.155	 -9.835	  0.001	  0.002	 -0.180	 33.000	 99.157	  0.102
14031	 -0.992	  0.748	  1.406	  0.028	  0.002	 -9.848	 -0.002	  0.005	  0.002	 33.000	 99.169	 -0.980
14081	 -0.993	  0.750	  1.406	  0.092	 -0.143	 -9.808	 -0.004	 -0.001	  0.040	 33.000	 99.157	  0.102
14131	 -0.993	  0.751	  1.408	  0.070	 -0.055	 -9.786	 -0.002	  0.004	  0.001	 33.100	 99.157	  0.102
14181	 -0.993	  0.748	  1.407	  0.097	  0.006	 -9.818	 -0.004	  0.003	  0.001	 33.000	 99.157	  0.102
14231	 -0.991	  0.751	  1.407	  0.060	 -0.003	 -9.873	 -0.004	  0.003	  0.001	 33.000	 99.169	 -0.980
14281	 -0.993	  0.753	  1.406	  0.077	  0.005	 -9.836	 -0.003	  0.004	 -0.000	 33.000	 99.157	  0.102
14331	 -0.992	  0.752	  1.409	  0.067	 -0.026	 -9.825	 -0.003	  0.003	 -0.001	 33.000	 99.157	  0.102
14381	 -0.991	  0.753	  1.404	  0.051	 -0.041	 -9.813	 -0.005	  0.002	  0.002	 33.000	 99.157	  0.102
14431	 -0.988	  0.751	  1.406	  0.103	 -0.054	 -9.843	 -0.006	  0.005	  0.002	 33.000	 99.169	 -0.980
14481	 -0.993	  0.755	  1.405	 -0.467	  0.008	 -9.821	 -0.014	 -0.013	  0.028	 33.000	 99.153	  0.462
14531	 -0.977	  0.746	  1.421	 -0.032	 -0.052	 -9.927	 -0.097	 -0.044	  0.081	 33.000	 99.169	 -0.980
14581	 -0.953	  0.724	  1.440	  0.534	  0.013	 -9.897	 -0.323	 -0.262	 -0.029	 33.000	 99.169	 -0.980
14631	 -0.892	  0.665	  1.469	 -0.629	  0.415	 -10.152	 -0.557	 -0.547	  0.058	 33.000	 99.157	  0.102
14681	 -0.777	  0.570	  1.517	  0.855	  0.384	 -11.099	 -1.101	 -1.344	 -0.256	 33.000	 99.157	  0.102
14731	 -0.600	  0.409	  1.551	 -2.306	  2.087	 -12.044	 -1.279	 -1.942	 -0.166	 33.000	 99.169	 -0.980
14781	 -0.425	  0.234	  1.474	 -1.362	  1.604	 -16.517	  0.316	  1.318	 -0.098	 33.000	 99.153	  0.462
14831	 -0.524	  0.214	  1.241	 -1.196	  0.628	 -4.936	  2.860	  4.714	 -0.141	 33.000	 99.157	  0.102
14881	 -0.689	  0.272	  1.053	 -2.885	  0.770	  3.723	  0.143	  1.304	 -0.357	 33.000	 99.169	 -0.980
14931	 -0.718	  0.321	  1.147	 -0.562	  3.316	 -6.153	 -0.977	 -3.879	 -0.802	 33.000	 99.157	  0.102
14981	 -0.768	  0.396	  1.269	  1.518	 -0.645	 -21.274	  1.423	  2.585	 -1.173	 33.000	 99.169	 -0.980
15031	 -0.757	  0.300	  1.089	  0.305	  0.530	 -10.175	  0.607	  1.666	 -0.560	 33.000	 99.157	  0.102
15081	 -0.677	  0.225	  1.030	 -1.804	 -0.111	  1.457	 -0.022	 -0.264	  0.034	 33.000	 99.157	  0.102
15131	 -0.646	  0.241	  1.082	 -0.900	  0.987	 -5.867	 -0.426	 -1.431	 -0.486	 33.000	 99.157	  0.102
15181	 -0.626	  0.189	  1.167	  5.355	 -0.956	 -27.822	 -1.137	  0.131	 -0.334	 33.000	 99.157	  0.102
15231	 -0.554	  0.062	  1.050	 -0.630	  1.413	 -7.332	  0.356	  1.480	  0.064	 33.000	 99.146	  1.092
15281	 -0.532	  0.025	  0.983	 -2.224	 -0.492	  6.286	 -0.063	  0.692	 -0.045	 33.000	 99.164	 -0.529
15331	 -0.588	  0.050	  1.029	 -1.753	  1.158	  0.291	 -0.664	 -1.481	 -0.814	 33.000	 99.157	  0.102
15381	 -0.564	  0.073	  1.226	  7.982	  0.472	 -37.106	 -1.083	 -2.268	  0.423	 33.000	 99.157	  0.102
15431	 -0.508	  0.009	  1.147	 -2.354	  2.895	 -10.549	  0.932	  2.435	  0.249	 33.000	 99.169	 -0.980
15481	 -0.586	  0.045	  1.023	 -1.358	 -1.314	  6.350	  1.590	  2.530	  0.055	 33.000	 99.157	  0.102
15531	 -0.658	  0.068	  1.071	 -1.904	  0.646	 -0.383	 -2.074	 -2.912	 -1.277	 33.000	 99.157	  0.102
15581	 -0.488	 -0.066	  1.314	  6.308	  3.768	 -35.677	 -2.364	 -3.000	  0.047	 33.000	 99.169	 -0.980
15631	 -0.434	 -0.121	  1.208	 -2.461	  3.207	 -7.094	  2.062	  3.119	  0.516	 33.000	 99.157	  0.102
15680	 -0.565	  0.005	  1.087	  0.893	 -1.268	 -0.856	  2.003	  2.406	 -0.028	 33.100	 99.161	 -0.259
15730	 -0.570	 -0.035	  1.110	  2.397	  0.944	 -6.156	 -1.742	 -2.097	 -0.866	 33.000	 99.169	 -0.980
15780	 -0.475	 -0.067	  1.179	  0.424	  2.830	 -8.643	  0.514	 -2.493	 -0.938	 33.000	 99.157	  0.102
15830	 -0.481	  0.077	  1.220	 -3.295	  0.970	 -12.789	  2.314	 -0.387	 -1.315	 33.000	 99.157	  0.102
15880	 -0.559	  0.223	  1.214	 -1.161	 -1.722	 -11.365	  1.184	  0.622	  0.236	 33.000	 99.157	  0.102
15930	 -0.650	  0.279	  1.210	 -0.181	 -1.557	 -9.900	  0.131	  0.499	 -0.075	 33.000	 99.157	  0.102
15980	 -0.664	  0.314	  1.240	 -0.834	 -1.474	 -9.981	  0.448	 -0.705	  0.012	 33.000	 99.157	  0.102
16030	 -0.638	  0.294	  1.266	 -1.616	 -0.373	 -8.524	 -0.636	 -0.212	 -0.113	 33.000	 99.157	  0.102
16080	 -0.704	  0.320	  1.253	 -2.073	  0.300	 -7.550	  0.705	  1.285	  0.264	 33.000	 99.157	  0.102
16130	 -0.777	  0.407	  1.267	  3.366	 -2.726	 -11.277	  0.272	  0.635	  0.377	 33.000	 99.157	  0.102
16180	 -0.822	  0.389	  1.245	  0.199	 -0.771	 -10.507	 -0.908	  0.138	 -0.101	 33.000	 99.157	  0.102
16230	 -0.844	  0.345	  1.245	  0.527	  0.455	 -10.062	 -0.499	 -0.134	 -0.063	 33.000	 99.157	  0.102
16280	 -0.860	  0.309	  1.241	 -0.048	  0.237	 -9.628	 -0.435	  0.287	  0.665	 33.000	 99.157	  0.102
16330	 -0.904	  0.325	  1.224	  0.031	 -0.341	 -9.738	 -0.175	  0.155	 -0.028	 33.000	 99.157	  0.102
16380	 -0.937	  0.344	  1.220	 -0.170	 -1.121	 -11.781	  0.089	 -0.017	  0.311	 33.000	 99.157	  0.102
16430	 -0.926	  0.331	  1.207	  0.306	  0.260	 -9.852	  0.167	  0.424	  0.085	 33.000	 99.169	 -0.980
16480	 -0.913	  0.362	  1.193	  0.750	 -0.431	 -8.096	  0.621	 -0.562	 -0.134	 33.000	 99.169	 -0.980
16530	 -0.892	  0.386	  1.209	 -0.057	  0.021	 -9.783	  0.025	 -0.495	  0.270	 33.000	 99.169	 -0.980
16580	 -0.887	  0.424	  1.218	 -0.035	 -0.830	 -10.230	  0.083	 -0.188	  0.022	 33.100	 99.157	  0.102
16630	 -0.877	  0.433	  1.218	 -0.243	 -0.517	 -9.355	  0.305	 -0.225	 -0.153	 33.100	 99.173	 -1.339
16680	 -0.856	  0.433	  1.245	 -0.109	 -1.055	 -8.725	 -0.151	  0.079	  0.160	 33.000	 99.157	  0.102
16730	 -0.858	  0.467	  1.247	 -0.439	 -1.087	 -9.929	  0.445	 -0.185	 -0.172	 33.000	 99.169	 -0.980
16780	 -0.860	  0.466	  1.245	 -0.350	 -1.369	 -10.832	  0.282	  0.434	 -0.111	 33.100	 99.161	 -0.259
16830	 -0.893	  0.473	  1.198	  0.421	 -1.039	 -8.817	  0.280	  0.415	  0.142	 33.000	 99.153	  0.462
16880	 -0.904	  0.495	  1.166	 -0.766	 -1.658	 -10.870	  0.781	 -0.811	 -0.257	 33.100	 99.150	  0.732
16930	 -0.869	  0.523	  1.151	 -0.324	 -1.312	 -9.667	  0.147	  0.273	  0.179	 33.000	 99.157	  0.102
16980	 -0.875	  0.526	  1.131	 -0.540	 -2.102	 -9.171	  0.095	 -0.275	  0.065	 33.000	 99.157	  0.102
17030	 -0.885	  0.511	  1.131	  0.195	 -0.781	 -10.968	 -0.294	  0.423	 -0.163	 33.000	 99.169	 -0.980
17080	 -0.874	  0.588	  1.149	  4.573	  4.698	 -11.379	  1.236	 -1.210	  1.238	 33.000	 99.157	  0.102
17130	 -0.731	  0.707	  1.251	 -2.397	 -3.392	 -8.647	  0.393	 -0.406	  1.710	 33.000	 99.157	  0.102
17180	 -0.692	  0.771	  1.293	 -2.387	 -6.657	 -8.137	  0.315	  0.261	  0.319	 33.000	 99.169	 -0.980
17230	 -0.713	  0.761	  1.285	 -1.244	 -4.566	 -9.806	 -0.780	  0.718	 -0.008	 33.000	 99.157	  0.102
17280	 -0.756	  0.685	  1.271	 -0.315	  0.037	 -11.238	 -0.892	  0.439	 -0.100	 33.000	 99.157	  0.102
17330	 -0.800	  0.646	  1.242	  0.149	  0.614	 -9.700	 -0.183	  0.167	 -0.257	 33.000	 99.157	  0.102
17380	 -0.803	  0.639	  1.248	 -0.253	 -0.759	 -9.669	 -0.034	 -0.153	  0.023	 33.100	 99.157	  0.102
17430	 -0.785	  0.644	  1.265	 -0.399	 -1.605	 -9.727	  0.064	 -0.117	  0.053	 33.000	 99.157	  0.102
17480	 -0.789	  0.655	  1.264	 -0.288	 -1.409	 -9.691	 -0.129	  0.105	 -0.112	 33.000	 99.157	  0.102
17530	 -0.809	  0.624	  1.278	  0.141	 -0.859	 -9.394	 -0.241	  0.264	 -0.274	 33.000	 99.157	  0.102
17580	 -0.847	  0.620	  1.265	 -0.136	 -1.292	 -10.716	 -0.046	  0.148	 -0.047	 33.000	 99.153	  0.462
17630	 -0.845	  0.620	  1.274	  0.088	 -1.085	 -9.653	  0.118	 -0.048	  0.010	 33.000	 99.157	  0.102
17680	 -0.841	  0.623	  1.272	 -0.155	 -1.174	 -9.571	 -0.041	 -0.063	 -0.015	 33.000	 99.169	 -0.980
17730	 -0.859	  0.622	  1.260	  0.016	 -1.443	 -10.000	 -0.379	  0.532	 -0.093	 33.000	 99.157	  0.102
17780	 -0.875	  0.589	  1.248	  0.176	  0.086	 -6.782	  0.212	 -0.028	 -0.499	 33.000	 99.169	 -0.980
17830	 -0.878	  0.605	  1.237	 -0.518	 -1.303	 -9.869	  0.391	 -0.227	 -0.498	 33.100	 99.161	 -0.259
17880	 -0.886	  0.625	  1.249	  0.188	 -1.842	 -9.949	  0.398	  0.240	  0.009	 33.000	 99.157	  0.102
17930	 -0.925	  0.670	  1.237	  1.332	 -0.235	 -10.338	  0.476	  0.286	 -0.053	 33.000	 99.169	 -0.980
17980	 -0.966	  0.667	  1.228	  0.106	 -2.334	 -10.756	 -0.371	  0.178	 -0.022	 33.000	 99.157	  0.102
18030	 -0.976	  0.652	  1.233	 -0.513	 -1.381	 -9.602	  0.309	  0.032	 -0.416	 33.100	 99.161	 -0.259
18080	 -0.980	  0.655	  1.248	  0.994	 -1.357	 -10.278	 -0.050	  0.085	 -0.092	 33.100	 99.161	 -0.259
18130	 -0.996	  0.638	  1.262	  0.374	 -1.525	 -9.705	 -0.011	  0.230	 -0.239	 33.000	 99.157	  0.102
18180	 -1.008	  0.616	  1.275	  1.166	 -1.365	 -9.982	 -0.274	  0.168	 -0.022	 33.000	 99.169	 -0.980
18230	 -0.995	  0.627	  1.280	  4.186	  4.171	 -7.166	  0.150	 -1.422	  0.842	 33.000	 99.157	  0.102
18281	 -0.928	  0.721	  1.261	  0.136	 -1.938	 -11.481	  0.284	 -0.394	  1.456	 33.000	 99.157	  0.102
18331	 -0.835	  0.800	  1.234	 -4.478	 -5.256	 -9.629	  0.132	 -0.358	  0.409	 33.000	 99.157	  0.102
18380	 -0.845	  0.767	  1.236	 -0.162	 -0.897	 -9.008	 -0.297	  0.184	 -0.425	 33.000	 99.157	  0.102
18430	 -0.860	  0.736	  1.247	  0.783	 -1.502	 -10.070	 -0.507	  0.554	  0.059	 33.100	 99.161	 -0.259
18480	 -0.886	  0.710	  1.242	  0.280	 -1.133	 -9.633	 -0.110	  0.129	 -0.049	 33.000	 99.157	  0.102
18530	 -0.888	  0.700	  1.242	  0.104	 -0.496	 -9.649	  0.008	  0.041	  0.031	 33.000	 99.157	  0.102
18580	 -0.886	  0.706	  1.245	  0.306	 -1.197	 -9.834	  0.024	 -0.051	  0.089	 33.000	 99.157	  0.102
18630	 -0.883	  0.717	  1.249	  0.309	 -1.308	 -9.830	  0.046	 -0.013	 -0.013	 33.000	 99.157	  0.102
18680	 -0.880	  0.724	  1.255	  0.226	 -1.244	 -9.839	  0.031	  0.016	  0.035	 33.000	 99.146	  1.092
18731	 -0.882	  0.715	  1.252	  0.273	 -1.243	 -9.791	 -0.025	  0.056	  0.016	 33.100	 99.157	  0.102
18780	 -0.890	  0.707	  1.256	  0.259	 -1.219	 -9.680	 -0.138	  0.160	  0.003	 33.000	 99.169	 -0.980
18830	 -0.898	  0.697	  1.246	  0.309	 -1.152	 -9.831	 -0.101	  0.146	 -0.010	 33.000	 99.157	  0.102
18880	 -0.909	  0.691	  1.241	  0.408	 -0.859	 -9.642	 -0.161	  0.190	 -0.012	 33.100	 99.161	 -0.259
18930	 -0.915	  0.685	  1.235	  0.586	 -0.958	 -9.743	 -0.065	  0.080	  0.045	 33.000	 99.157	  0.102
18980	 -0.919	  0.680	  1.240	  0.369	 -1.025	 -9.708	 -0.023	  0.050	  0.073	 33.000	 99.157	  0.102
19030	 -0.931	  0.676	  1.235	  0.653	 -1.299	 -9.925	 -0.231	  0.240	 -0.001	 33.000	 99.169	 -0.980
19080	 -0.945	  0.669	  1.238	  0.023	 -0.731	 -9.720	 -0.066	 -0.055	  0.074	 33.100	 99.161	 -0.259
19130	 -0.948	  0.665	  1.240	  0.745	 -1.584	 -9.302	 -0.424	  0.340	  0.013	 33.000	 99.157	  0.102
19180	 -0.976	  0.654	  1.226	  0.897	 -1.385	 -9.833	 -0.103	  0.379	 -0.207	 33.000	 99.157	  0.102
19230	 -1.002	  0.638	  1.219	 -0.568	 -2.844	 -10.181	  0.107	  0.070	 -0.537	 33.000	 99.146	  1.092
19280	 -1.041	  0.631	  1.204	  2.051	 -0.495	 -11.002	  0.319	  0.286	 -0.416	 33.000	 99.157	  0.102
19330	 -1.054	  0.612	  1.199	  1.569	  0.175	 -8.425	  0.001	  0.162	 -0.269	 33.000	 99.157	  0.102
19380	 -1.070	  0.583	  1.204	  1.344	 -0.620	 -9.279	 -0.398	 -0.025	 -0.094	 33.100	 99.157	  0.102
19431	 -1.076	  0.598	  1.208	  4.773	  3.295	 -6.589	  0.366	 -0.521	  0.366	 33.100	 99.161	 -0.259
19480	 -1.005	  0.677	  1.242	  3.512	  0.460	 -18.515	  0.410	 -0.188	  2.183	 33.000	 99.142	  1.453
19531	 -0.922	  0.770	  1.206	 -1.049	 -7.727	 -14.663	 -0.697	 -0.547	  1.275	 33.000	 99.157	  0.102
19581	 -0.970	  0.702	  1.156	 -0.672	 -1.388	 -10.677	 -0.375	  0.936	 -0.877	 33.100	 99.161	 -0.259
19631	 -1.007	  0.636	  1.117	  1.723	  1.149	 -9.940	  0.242	 -0.161	 -0.717	 33.000	 99.157	  0.102
19681	 -0.978	  0.608	  1.132	  2.902	  0.294	 -11.030	 -0.076	 -0.177	 -0.543	 33.000	 99.157	  0.102
19731	 -0.902	  0.502	  1.161	  1.955	  0.187	 -11.484	 -0.224	 -0.821	 -0.399	 33.100	 99.150	  0.732
19781	 -0.717	  0.381	  1.205	 -0.225	 -0.722	 -11.690	  0.325	 -1.210	 -0.733	 33.100	 99.173	 -1.339
19831	 -0.600	  0.268	  1.197	 -0.503	  0.940	 -10.167	  0.317	  0.004	 -0.794	 33.100	 99.161	 -0.259
19881	 -0.473	  0.218	  1.176	  0.382	  0.725	 -9.651	  0.952	 -1.054	 -0.881	 33.100	 99.157	  0.102
19931	 -0.352	  0.156	  1.161	 -1.287	  0.675	 -10.264	  0.193	 -0.239	 -0.251	 33.100	 99.161	 -0.259
19981	 -0.296	  0.110	  1.132	 -0.903	 -0.146	 -9.133	 -0.297	  0.262	  0.514	 33.100	 99.161	 -0.259
20031	 -0.224	 -0.012	  1.109	 -1.845	  0.316	 -8.905	 -0.868	  0.546	  1.118	 33.100	 99.161	 -0.259
20081	 -0.185	 -0.124	  1.091	 -1.743	 -0.039	 -7.630	 -1.166	  0.203	  1.309	 33.000	 99.157	  0.102
20131	 -0.145	 -0.272	  1.076	 -1.470	 -0.201	 -6.941	 -1.414	  0.365	  1.204	 33.000	 99.157	  0.102
20181	 -0.103	 -0.412	  1.068	 -1.085	  0.395	 -7.346	 -1.125	  0.099	  0.625	 33.100	 99.157	  0.102
20231	 -0.064	 -0.528	  1.056	 -0.715	  1.921	 -7.886	 -0.361	  0.029	  1.121	 33.000	 99.146	  1.092
20281	  0.012	 -0.626	  1.047	 -0.757	  2.119	 -10.208	  0.109	 -0.595	  1.381	 33.100	 99.161	 -0.259
20331	  0.067	 -0.721	  0.975	 -0.341	  2.018	 -10.481	  0.448	 -0.406	  1.423	 33.000	 99.157	  0.102
20381	  0.072	 -0.777	  0.878	  0.165	  1.976	 -9.401	  0.466	  0.035	  1.501	 33.100	 99.157	  0.102
20431	  0.043	 -0.793	  0.752	  0.713	  2.117	 -9.843	  0.402	 -0.366	  1.496	 33.100	 99.161	 -0.259
20481	 -0.014	 -0.757	  0.632	  0.898	  1.908	 -9.457	  0.814	 -0.206	  1.716	 33.000	 99.146	  1.092
20531	 -0.074	 -0.697	  0.557	  0.745	  1.041	 -8.837	  0.613	 -0.122	  1.403	 33.000	 99.157	  0.102
20581	 -0.133	 -0.649	  0.465	  0.118	  1.040	 -8.585	 -0.066	  0.223	  1.299	 33.100	 99.161	 -0.259
20631	 -0.171	 -0.585	  0.415	  0.021	  0.387	 -10.692	  0.559	 -0.402	  1.095	 33.100	 99.161	 -0.259
20681	 -0.186	 -0.496	  0.369	 -0.317	 -0.194	 -13.653	  0.339	 -0.376	  1.402	 33.100	 99.161	 -0.259
20731	 -0.192	 -0.441	  0.359	 -0.908	 -1.124	 -14.370	  0.527	 -0.588	  1.522	 33.100	 99.161	 -0.259
20781	 -0.188	 -0.382	  0.352	 -2.303	 -0.614	 -13.463	  0.577	  0.642	  1.300	 33.100	 99.161	 -0.259
20831	 -0.197	 -0.329	  0.341	 -1.164	 -0.348	 -10.648	  0.978	  0.632	  1.216	 33.100	 99.161	 -0.259
20880	 -0.196	 -0.294	  0.344	 -0.931	 -0.234	 -10.289	  0.244	  0.535	  1.655	 33.000	 99.169	 -0.980
20930	 -0.199	 -0.264	  0.333	 -0.810	 -0.054	 -8.319	 -0.084	  0.444	  2.079	 33.100	 99.161	 -0.259
20980	 -0.203	 -0.259	  0.335	 -0.345	  0.232	 -6.382	 -0.508	  0.451	  1.985	 33.100	 99.161	 -0.259
21030	 -0.214	 -0.249	  0.329	 -0.025	  0.034	 -5.291	  0.358	  0.635	  1.933	 33.100	 99.150	  0.732
21080	 -0.223	 -0.222	  0.329	  0.562	 -0.064	 -7.227	  0.433	  0.255	  2.219	 33.000	 99.157	  0.102
21130	 -0.229	 -0.217	  0.321	 -0.564	 -0.503	 -8.523	 -0.696	  0.397	  2.617	 33.000	 99.157	  0.102
21180	 -0.247	 -0.218	  0.312	 -1.193	 -0.964	 -10.043	 -1.207	  0.779	  2.038	 33.100	 99.150	  0.732
21230	 -0.247	 -0.215	  0.305	 -1.887	 -0.923	 -12.117	 -0.593	 -0.691	  0.520	 33.000	 99.157	  0.102
21280	 -0.242	 -0.232	  0.313	 -1.592	 -0.303	 -12.723	 -0.645	  0.215	  0.199	 33.100	 99.161	 -0.259
21330	 -0.244	 -0.250	  0.303	 -1.439	  0.415	 -11.511	 -1.146	  0.203	 -0.154	 33.000	 99.157	  0.102
21380	 -0.241	 -0.264	  0.302	 -1.596	 -0.568	 -11.443	 -0.773	 -0.795	  0.717	 33.000	 99.157	  0.102
21430	 -0.234	 -0.262	  0.307	 -2.068	  0.826	 -11.570	 -0.101	 -0.100	  1.153	 33.100	 99.161	 -0.259
21480	 -0.238	 -0.246	  0.310	 -1.949	 -0.019	 -10.363	  0.113	 -0.421	  2.316	 33.100	 99.157	  0.102
21530	 -0.241	 -0.228	  0.315	 -1.041	 -0.519	 -7.805	  0.358	 -0.678	  2.204	 33.100	 99.173	 -1.339
21580	 -0.236	 -0.203	  0.321	  0.536	 -1.266	 -6.323	  0.864	 -0.493	  1.425	 33.100	 99.161	 -0.259
21630	 -0.221	 -0.175	  0.323	  1.583	 -1.838	 -6.132	  0.716	 -0.719	  0.599	 33.000	 99.146	  1.092
21680	 -0.212	 -0.166	  0.327	  1.441	 -1.788	 -8.017	 -0.026	  0.047	  0.504	 33.100	 99.150	  0.732
21730	 -0.218	 -0.161	  0.320	  0.757	 -1.795	 -9.387	  0.265	  0.148	  0.192	 33.000	 99.157	  0.102
21780	 -0.211	 -0.155	  0.324	 -0.136	 -2.401	 -9.299	  1.225	 -0.655	 -0.713	 33.000	 99.157	  0.102
21830	 -0.198	 -0.135	  0.321	 -1.734	 -2.004	 -12.833	  0.410	 -0.006	 -0.377	 33.100	 99.161	 -0.259
21880	 -0.201	 -0.135	  0.316	 -1.818	 -0.798	 -11.270	  0.126	  0.633	 -0.449	 33.100	 99.157	  0.102
21930	 -0.193	 -0.142	  0.314	 -1.833	 -1.674	 -13.950	 -0.105	  0.132	 -0.629	 33.000	 99.146	  1.092
21980	 -0.194	 -0.141	  0.314	 -1.881	 -0.456	 -12.407	  0.353	  0.237	 -1.060	 33.100	 99.161	 -0.259
22030	 -0.184	 -0.141	  0.318	 -2.147	 -0.384	 -11.560	 -0.010	  0.212	  0.122	 33.100	 99.150	  0.732
22080	 -0.184	 -0.139	  0.318	 -0.887	 -0.469	 -9.196	 -0.357	  0.260	  0.237	 33.100	 99.161	 -0.259
22130	 -0.184	 -0.146	  0.319	 -0.792	 -0.993	 -7.969	 -0.449	  0.492	  0.487	 33.000	 99.157	  0.102
22180	 -0.182	 -0.147	  0.325	 -0.143	 -0.921	 -6.708	  0.449	 -0.193	  0.399	 33.000	 99.157	  0.102
22230	 -0.178	 -0.140	  0.326	  0.017	 -0.568	 -8.047	  0.122	 -0.005	 -0.019	 33.000	 99.157	  0.102
22280	 -0.178	 -0.142	  0.332	 -0.125	 -0.668	 -7.990	  0.129	  0.496	  0.289	 33.100	 99.161	 -0.259
22330	 -0.182	 -0.145	  0.338	  0.329	 -0.978	 -11.256	 -0.724	  0.153	  0.311	 33.000	 99.157	  0.102
22380	 -0.177	 -0.162	  0.343	 -0.448	 -0.372	 -10.571	 -0.260	 -0.262	 -0.319	 33.000	 99.157	  0.102
22430	 -0.177	 -0.172	  0.351	 -0.172	 -0.310	 -11.706	 -0.146	  0.038	 -0.158	 33.100	 99.161	 -0.259
22480	 -0.181	 -0.174	  0.352	 -0.784	  0.018	 -12.446	 -0.534	  0.162	  0.173	 33.100	 99.161	 -0.259
22530	 -0.174	 -0.195	  0.351	 -1.258	 -0.102	 -10.955	 -1.410	 -0.856	  0.581	 33.000	 99.169	 -0.980
22580	 -0.167	 -0.213	  0.353	 -0.765	  1.361	 -9.288	 -0.073	  0.180	 -0.053	 33.100	 99.157	  0.102
22630	 -0.174	 -0.211	  0.343	 -1.573	  1.257	 -10.225	 -0.769	 -0.025	  0.523	 33.000	 99.157	  0.102
22680	 -0.167	 -0.229	  0.348	  0.136	  0.336	 -8.160	 -0.151	 -1.005	  0.421	 33.100	 99.139	  1.723
22730	 -0.157	 -0.223	  0.359	 -0.287	 -0.177	 -8.189	  0.867	  0.088	 -0.446	 33.100	 99.150	  0.732
22780	 -0.162	 -0.217	  0.356	  0.299	 -0.105	 -7.729	  0.289	  0.123	 -0.511	 33.100	 99.161	 -0.259
22830	 -0.160	 -0.216	  0.362	 -0.076	 -0.476	 -9.248	  0.265	 -0.360	 -0.321	 33.000	 99.146	  1.092
22880	 -0.159	 -0.219	  0.360	 -0.248	 -0.223	 -9.407	 -0.093	  0.572	 -0.291	 33.100	 99.146	  1.092
22930	 -0.171	 -0.213	  0.361	 -0.631	 -0.559	 -10.635	 -0.146	  0.503	 -0.536	 33.100	 99.161	 -0.259
22980	 -0.182	 -0.231	  0.356	 -0.877	  0.508	 -10.886	  0.175	  0.492	 -0.153	 33.100	 99.161	 -0.259
23030	 -0.193	 -0.221	  0.356	 -1.576	 -0.353	 -12.149	  0.844	  0.105	 -0.560	 33.100	 99.157	  0.102
23080	 -0.189	 -0.219	  0.358	 -0.908	 -0.589	 -11.746	  0.420	  0.159	 -0.895	 33.100	 99.161	 -0.259
23130	 -0.199	 -0.220	  0.355	 -2.482	  0.902	 -13.229	 -0.237	  0.220	 -0.450	 33.100	 99.150	  0.732
23180	 -0.201	 -0.231	  0.351	 -1.465	  1.204	 -9.234	 -0.357	 -0.151	  0.636	 33.100	 99.146	  1.092
23230	 -0.197	 -0.221	  0.356	 -0.540	  0.886	 -7.699	  0.381	 -0.885	 -0.018	 33.000	 99.157	  0.102
23280	 -0.180	 -0.227	  0.357	 -0.024	  0.227	 -8.424	 -0.394	 -0.555	  0.300	 33.000	 99.157	  0.102
23330	 -0.183	 -0.234	  0.357	  0.299	  0.299	 -6.918	 -0.100	  0.191	  0.525	 33.000	 99.146	  1.092
23380	 -0.189	 -0.236	  0.352	 -0.213	 -0.053	 -8.267	 -0.431	  0.263	  0.727	 33.100	 99.157	  0.102
23430	 -0.198	 -0.232	  0.348	 -0.753	  0.042	 -9.152	  0.355	  0.443	  0.323	 33.100	 99.161	 -0.259
23480	 -0.200	 -0.223	  0.348	 -1.465	  0.653	 -10.407	  0.311	  0.193	  0.408	 33.100	 99.161	 -0.259
23530	 -0.205	 -0.211	  0.351	 -1.717	  0.547	 -11.521	  0.186	  0.148	  0.547	 33.000	 99.146	  1.092
23580	 -0.210	 -0.203	  0.347	 -1.334	  0.673	 -11.022	  0.259	  0.264	  0.923	 33.100	 99.161	 -0.259
23630	 -0.206	 -0.196	  0.349	 -0.852	  0.344	 -11.925	 -0.224	 -0.597	  0.809	 33.000	 99.146	  1.092
23680	 -0.205	 -0.190	  0.347	 -1.610	  1.492	 -10.217	  0.028	  0.337	  0.665	 33.000	 99.146	  1.092
23730	 -0.201	 -0.195	  0.349	 -1.336	  0.982	 -9.745	 -0.488	 -0.515	  0.961	 33.100	 99.161	 -0.259
23780	 -0.190	 -0.180	  0.347	 -0.268	  0.253	 -8.289	 -0.296	 -0.664	  0.608	 33.100	 99.139	  1.723
23830	 -0.178	 -0.193	  0.352	  0.074	 -0.514	 -8.304	 -0.269	 -0.309	  0.305	 33.000	 99.169	 -0.980
23880	 -0.180	 -0.198	  0.354	  0.585	 -0.587	 -7.686	  0.115	  0.351	 -0.013	 33.000	 99.157	  0.102
23930	 -0.181	 -0.176	  0.343	  0.482	 -0.896	 -8.041	  0.466	 -0.053	 -0.260	 33.000	 99.146	  1.092
23980	 -0.172	 -0.181	  0.353	 -0.162	 -0.441	 -9.107	  0.649	 -0.105	 -0.649	 33.100	 99.161	 -0.259
24030	 -0.168	 -0.174	  0.357	 -0.720	 -1.093	 -10.109	  0.463	  0.292	 -0.647	 33.100	 99.161	 -0.259
24080	 -0.172	 -0.170	  0.351	 -1.066	 -0.725	 -10.906	 -0.145	  0.364	 -0.829	 33.100	 99.146	  1.092
24130	 -0.175	 -0.181	  0.352	 -1.983	 -0.432	 -12.053	 -0.230	  0.061	 -0.538	 33.000	 99.157	  0.102
24180	 -0.175	 -0.188	  0.352	 -1.989	 -0.632	 -11.450	  0.173	  0.556	 -1.033	 33.100	 99.161	 -0.259
24230	 -0.175	 -0.178	  0.346	 -3.063	  0.653	 -13.331	  0.036	 -0.049	 -1.335	 33.100	 99.157	  0.102
24281	 -0.174	 -0.199	  0.348	 -2.986	  1.018	 -11.403	 -0.504	  0.182	  0.189	 33.000	 99.157	  0.102
24330	 -0.173	 -0.207	  0.356	 -1.607	  0.752	 -9.557	 -0.119	 -0.038	  0.075	 33.100	 99.173	 -1.339
24380	 -0.172	 -0.209	  0.357	 -0.645	  0.377	 -8.466	  0.022	  0.102	  0.176	 33.000	 99.146	  1.092
24430	 -0.176	 -0.207	  0.361	 -0.244	  0.210	 -7.334	  0.523	  0.243	  0.021	 33.000	 99.157	  0.102
24480	 -0.183	 -0.201	  0.357	 -0.330	  0.183	 -8.326	  0.241	  0.345	  0.202	 33.000	 99.157	  0.102
24531	 -0.190	 -0.202	  0.358	 -0.779	  0.060	 -9.582	 -0.582	  0.418	  0.761	 33.100	 99.169	 -0.980
24580	 -0.200	 -0.220	  0.359	 -1.342	  0.415	 -10.824	 -1.129	  0.162	  1.281	 33.100	 99.157	  0.102
24630	 -0.208	 -0.233	  0.346	 -0.535	  0.733	 -9.703	 -0.702	 -0.078	  1.197	 33.100	 99.161	 -0.259
24680	 -0.209	 -0.245	  0.353	 -0.810	  0.793	 -11.214	 -0.713	 -0.330	  1.151	 33.000	 99.157	  0.102
24730	 -0.209	 -0.263	  0.350	  0.542	  0.382	 -10.562	 -0.711	  0.059	  1.035	 33.000	 99.157	  0.102
24780	 -0.217	 -0.261	  0.354	  0.979	  1.092	 -8.442	  0.760	  0.110	 -0.273	 33.100	 99.150	  0.732
24830	 -0.211	 -0.258	  0.356	  0.202	  0.460	 -10.517	 -0.045	 -0.510	  0.516	 33.100	 99.161	 -0.259
24881	 -0.204	 -0.263	  0.362	  0.097	 -0.396	 -10.059	 -0.241	 -0.639	  0.234	 33.100	 99.161	 -0.259
24930	 -0.195	 -0.269	  0.368	  0.264	 -0.539	 -8.876	  0.463	 -0.034	 -0.727	 33.100	 99.161	 -0.259
24981	 -0.190	 -0.266	  0.374	  0.619	 -0.611	 -8.186	  0.843	 -0.205	 -1.311	 33.100	 99.150	  0.732
25030	 -0.178	 -0.267	  0.381	  0.023	 -1.116	 -9.932	  0.192	 -0.401	 -1.311	 33.100	 99.161	 -0.259
25081	 -0.167	 -0.276	  0.380	 -0.470	 -1.018	 -10.264	  0.169	 -0.001	 -1.620	 33.100	 99.157	  0.102
25130	 -0.157	 -0.293	  0.396	 -1.576	 -1.397	 -11.765	 -0.116	  0.029	 -1.784	 33.100	 99.173	 -1.339
25181	 -0.140	 -0.311	  0.402	 -2.535	 -2.280	 -12.805	  0.000	 -0.052	 -2.040	 33.100	 99.146	  1.092
25231	 -0.134	 -0.310	  0.423	 -2.223	 -3.177	 -11.139	  0.955	  0.755	 -2.815	 33.000	 99.146	  1.092
25281	 -0.124	 -0.284	  0.442	 -1.936	 -4.333	 -11.345	  0.802	  0.012	 -2.957	 33.100	 99.157	  0.102
25331	 -0.120	 -0.272	  0.450	 -2.858	 -4.367	 -11.786	 -0.297	  0.893	 -3.171	 33.000	 99.146	  1.092
25381	 -0.140	 -0.273	  0.444	 -3.082	 -3.659	 -11.703	 -0.709	  1.521	 -2.804	 33.100	 99.161	 -0.259
25431	 -0.179	 -0.266	  0.437	 -1.919	 -3.068	 -7.924	  0.737	  1.772	 -2.728	 33.100	 99.161	 -0.259
25481	 -0.198	 -0.233	  0.448	 -0.573	 -2.093	 -6.700	  1.101	 -0.320	 -2.584	 33.000	 99.157	  0.102
25531	 -0.180	 -0.205	  0.472	 -1.456	 -1.750	 -7.244	  0.335	 -1.458	 -2.165	 33.100	 99.161	 -0.259
25581	 -0.171	 -0.197	  0.514	 -0.711	  0.771	 -6.488	 -0.400	 -0.356	 -1.536	 33.100	 99.146	  1.092
25631	 -0.174	 -0.219	  0.550	 -1.589	  1.644	 -8.607	 -2.084	 -0.750	 -0.644	 33.000	 99.157	  0.102
25681	 -0.185	 -0.264	  0.581	 -0.297	  3.453	 -7.705	 -1.312	  0.007	 -0.198	 33.100	 99.157	  0.102
25731	 -0.212	 -0.266	  0.599	  1.224	  4.268	 -9.521	 -0.339	 -0.004	 -0.285	 33.000	 99.157	  0.102
25781	 -0.248	 -0.290	  0.596	 -1.742	  5.793	 -8.078	 -1.240	  0.163	  0.733	 33.100	 99.161	 -0.259
25831	 -0.299	 -0.319	  0.593	  1.688	  3.331	 -8.117	 -0.983	  0.343	  0.455	 33.000	 99.146	  1.092
25881	 -0.325	 -0.348	  0.574	  0.550	  2.968	 -8.462	 -0.593	 -0.508	  0.017	 33.100	 99.157	  0.102
25931	 -0.369	 -0.392	  0.559	  1.336	  2.827	 -7.931	 -0.384	  0.204	 -0.574	 33.000	 99.146	  1.092
25981	 -0.422	 -0.455	  0.556	  2.517	  3.100	 -7.394	  0.356	 -0.461	 -1.736	 33.100	 99.161	 -0.259
26031	 -0.488	 -0.560	  0.527	  1.462	  3.515	 -10.859	 -1.110	 -0.525	 -0.496	 33.000	 99.157	  0.102
26081	 -0.557	 -0.642	  0.500	  0.400	  5.315	 -11.334	 -0.888	 -0.907	 -0.095	 33.100	 99.157	  0.102
26131	 -0.631	 -0.711	  0.447	 -2.072	  4.458	 -10.460	 -0.747	  0.220	  0.289	 33.000	 99.157	  0.102
26181	 -0.688	 -0.746	  0.449	 -1.296	  5.854	 -8.353	  1.051	 -0.506	 -0.571	 33.100	 99.161	 -0.259
26231	 -0.727	 -0.780	  0.488	 -1.192	  3.254	 -9.210	  0.124	 -0.464	 -0.094	 33.100	 99.150	  0.732
26281	 -0.785	 -0.824	  0.519	 -0.068	  4.006	 -9.392	 -0.075	  0.056	 -0.118	 33.000	 99.157	  0.102
26331	 -0.856	 -0.877	  0.544	 -0.330	  2.740	 -8.664	 -0.030	 -0.183	  0.198	 33.000	 99.146	  1.092
26381	 -0.942	 -0.885	  0.626	 -0.398	  3.874	 -11.146	  0.382	 -0.440	  0.273	 33.100	 99.161	 -0.259
26431	 -0.995	 -0.922	  0.689	 -0.077	  4.747	 -9.244	  0.182	  0.214	 -0.201	 33.000	 99.157	  0.102
26481	 -1.041	 -0.907	  0.722	  0.040	  5.639	 -11.115	  0.387	 -0.082	  0.323	 33.100	 99.150	  0.732
26531	 -1.086	 -0.882	  0.707	 -0.473	  4.139	 -8.317	  0.354	  0.851	  0.433	 33.100	 99.150	  0.732
26581	 -1.120	 -0.874	  0.699	  1.308	  2.543	 -9.618	  0.327	 -0.339	 -0.182	 33.100	 99.150	  0.732
26631	 -1.127	 -0.877	  0.693	 -0.579	  2.395	 -9.038	  0.350	 -0.146	 -0.216	 33.000	 99.146	  1.092
26681	 -1.132	 -0.886	  0.698	  0.140	  2.353	 -9.869	  0.498	  0.171	 -0.324	 33.100	 99.150	  0.732
26731	 -1.146	 -0.877	  0.711	 -2.186	  3.253	 -8.141	  0.928	 -0.392	  0.165	 33.100	 99.161	 -0.259
26781	 -1.229	 -0.833	  0.770	  1.047	 -0.396	 -10.531	  1.517	  0.288	  0.369	 33.100	 99.173	 -1.339
26831	 -1.291	 -0.804	  0.808	  0.574	  0.942	 -9.178	  1.041	 -0.262	 -0.003	 33.000	 99.157	  0.102
26881	 -1.331	 -0.800	  0.833	  0.183	 -0.061	 -10.809	  1.167	  0.283	 -0.617	 33.100	 99.161	 -0.259
26931	 -1.340	 -0.804	  0.838	 -0.203	  1.027	 -10.076	 -0.072	 -0.147	 -0.053	 33.000	 99.146	  1.092
26981	 -1.341	 -0.802	  0.837	  0.018	  0.227	 -9.635	  0.042	  0.005	 -0.003	 33.100	 99.161	 -0.259
27031	 -1.347	 -0.799	  0.842	  0.097	 -0.443	 -10.383	 -0.022	 -0.006	  0.001	 33.100	 99.150	  0.732
27081	 -1.342	 -0.800	  0.836	 -0.132	  0.468	 -9.298	  0.119	  0.038	  0.001	 33.100	 99.161	 -0.259
27130	 -1.349	 -0.798	  0.844	 -0.009	  0.174	 -9.599	 -0.187	 -0.047	 -0.002	 33.000	 99.157	  0.102
27180	 -1.349	 -0.794	  0.841	  0.066	 -0.348	 -10.251	  0.026	  0.011	  0.001	 33.000	 99.157	  0.102
27230	 -1.351	 -0.800	  0.842	 -0.021	 -0.051	 -9.933	  0.024	  0.010	  0.001	 33.100	 99.161	 -0.259
27280	 -1.348	 -0.796	  0.842	 -0.030	 -0.045	 -9.940	  0.002	  0.004	  0.001	 33.100	 99.161	 -0.259
27330	 -1.348	 -0.795	  0.844	 -0.043	 -0.004	 -9.849	 -0.007	  0.000	  0.001	 33.100	 99.161	 -0.259
27380	 -1.347	 -0.798	  0.842	 -0.030	  0.016	 -9.837	 -0.006	  0.002	  0.002	 33.100	 99.161	 -0.259
27430	 -1.349	 -0.802	  0.846	 -0.056	  0.027	 -9.843	 -0.005	  0.002	 -0.000	 33.000	 99.157	  0.102
27480	 -1.348	 -0.797	  0.841	 -0.051	  0.032	 -9.839	 -0.004	  0.002	  0.001	 33.100	 99.157	  0.102
27530	 -1.345	 -0.796	  0.844	 -0.064	  0.014	 -9.851	 -0.002	  0.002	 -0.001	 33.000	 99.157	  0.102
27580	 -1.349	 -0.799	  0.844	 -0.029	 -0.005	 -9.829	 -0.005	  0.003	  0.001	 33.000	 99.169	 -0.980
27630	 -1.349	 -0.784	  0.832	 -0.021	  0.004	 -9.831	 -0.005	  0.002	  0.001	 33.100	 99.161	 -0.259
27680	 -1.347	 -0.785	  0.845	 -0.046	  0.027	 -9.842	 -0.005	  0.002	  0.001	 33.100	 99.161	 -0.259
27730	 -1.346	 -0.793	  0.840	 -0.042	  0.001	 -9.839	 -0.003	  0.002	  0.001	 33.100	 99.161	 -0.259
27780	 -1.349	 -0.800	  0.845	 -0.056	 -0.005	 -9.830	 -0.004	  0.002	  0.001	 33.100	 99.150	  0.732
27830	 -1.347	 -0.795	  0.836	 -0.067	  0.015	 -9.852	 -0.005	  0.003	  0.001	 33.100	 99.161	 -0.259
27880	 -1.346	 -0.796	  0.842	 -0.048	  0.002	 -9.846	 -0.004	  0.002	  0.001	 33.100	 99.161	 -0.259
27930	 -1.346	 -0.797	  0.844	 -0.034	  0.015	 -9.868	 -0.003	  0.002	  0.001	 33.100	 99.161	 -0.259
27980	 -1.345	 -0.801	  0.844	 -0.150	  0.150	 -9.800	  0.018	  0.006	 -0.002	 33.100	 99.146	  1.092
28030	 -1.347	 -0.796	  0.833	 -0.009	  0.043	 -9.670	  0.011	  0.003	  0.001	 33.000	 99.157	  0.102
28080	 -1.347	 -0.798	  0.841	  0.120	 -0.186	 -8.566	 -0.027	 -0.018	 -0.003	 33.000	 99.157	  0.102
28130	 -1.347	 -0.795	  0.844	  0.168	  0.144	 -9.768	 -0.009	 -0.012	  0.005	 33.100	 99.161	 -0.259
28180	 -1.347	 -0.796	  0.839	 -0.013	  0.055	 -9.743	  0.001	 -0.001	  0.001	 33.000	 99.169	 -0.980
28230	 -1.348	 -0.799	  0.844	 -0.023	 -0.026	 -9.788	 -0.005	  0.002	  0.003	 33.100	 99.150	  0.732
28280	 -1.346	 -0.797	  0.841	 -0.098	 -0.015	 -9.967	 -0.005	  0.003	 -0.000	 33.100	 99.161	 -0.259
28330	 -1.347	 -0.785	  0.837	 -0.046	  0.008	 -9.826	 -0.006	  0.002	  0.001	 33.100	 99.150	  0.732
28380	 -1.344	 -0.796	  0.841	  0.076	 -0.002	 -9.741	 -0.004	  0.002	  0.001	 33.100	 99.150	  0.732
28430	 -1.347	 -0.798	  0.845	 -0.002	  0.037	 -9.744	 -0.003	  0.003	  0.003	 33.100	 99.146	  1.092
28480	 -1.345	 -0.798	  0.841	 -0.131	 -0.051	 -10.002	  0.011	  0.006	 -0.001	 33.100	 99.157	  0.102
28530	 -1.345	 -0.801	  0.844	 -0.085	 -0.077	 -9.762	 -0.005	  0.001	  0.001	 33.100	 99.161	 -0.259
28580	 -1.349	 -0.797	  0.841	 -0.009	 -0.829	 -8.848	  0.098	  0.026	  0.080	 33.000	 99.157	  0.102
28630	 -1.348	 -0.789	  0.840	 -0.100	  0.184	 -9.630	  0.055	  0.016	  0.001	 33.100	 99.150	  0.732
28680	 -1.350	 -0.792	  0.840	 -0.053	  0.144	 -9.694	  0.028	  0.011	  0.002	 33.100	 99.150	  0.732
28730	 -1.350	 -0.794	  0.843	  0.100	  0.010	 -9.868	  0.015	  0.004	 -0.000	 33.000	 99.157	  0.102
28780	 -1.352	 -0.794	  0.842	 -0.029	 -0.242	 -9.916	  0.006	  0.006	 -0.033	 33.000	 99.157	  0.102
28830	 -1.333	 -0.818	  0.837	  0.013	  0.105	 -10.029	 -0.014	  0.007	 -0.661	 33.100	 99.161	 -0.259
28880	 -1.317	 -0.849	  0.828	 -0.442	 -0.431	 -10.086	  0.058	  0.020	 -0.198	 33.100	 99.146	  1.092
28930	 -1.314	 -0.844	  0.830	  0.199	 -0.233	 -10.242	  0.014	  0.008	 -0.003	 33.100	 99.146	  1.092
28980	 -1.317	 -0.850	  0.833	  0.020	  0.165	 -9.786	 -0.046	 -0.027	  0.000	 33.000	 99.157	  0.102
29030	 -1.317	 -0.845	  0.832	 -0.205	  0.316	 -9.533	 -0.075	 -0.026	 -0.001	 33.100	 99.161	 -0.259
29080	 -1.316	 -0.847	  0.829	 -0.093	  0.195	 -9.764	 -0.101	 -0.008	  0.000	 33.100	 99.161	 -0.259
29130	 -1.316	 -0.849	  0.836	  0.046	  0.119	 -9.862	 -0.005	 -0.014	 -0.001	 33.000	 99.157	  0.102
29180	 -1.316	 -0.848	  0.832	 -0.203	  0.049	 -9.700	  0.026	  0.011	 -0.002	 33.100	 99.157	  0.102
29231	 -1.316	 -0.851	  0.832	 -0.500	 -0.171	 -9.831	  0.014	  0.002	 -0.008	 33.100	 99.161	 -0.259
29280	 -1.316	 -0.847	  0.832	  0.274	  1.693	 -11.440	 -0.059	 -0.055	 -0.010	 33.100	 99.150	  0.732
29330	 -1.312	 -0.854	  0.822	 -1.357	  0.809	 -10.137	  0.098	  0.037	 -0.116	 33.000	 99.169	 -0.980
29380	 -1.308	 -0.862	  0.827	  0.414	  0.178	 -9.509	  0.059	  0.008	 -0.019	 33.100	 99.150	  0.732
29430	 -1.305	 -0.868	  0.829	 -0.413	 -0.268	 -9.823	  0.015	  0.021	 -0.419	 33.000	 99.146	  1.092
29480	 -1.291	 -0.894	  0.835	  0.641	  0.555	 -9.840	  0.002	 -0.002	 -0.321	 33.100	 99.161	 -0.259
29530	 -1.282	 -0.909	  0.846	 -0.459	 -0.275	 -9.736	  0.004	  0.006	 -0.465	 33.100	 99.161	 -0.259
29580	 -1.270	 -0.939	  0.862	  0.359	  0.363	 -9.935	  0.018	  0.009	 -0.521	 33.000	 99.169	 -0.980
29630	 -1.257	 -0.960	  0.871	  0.261	  0.380	 -9.821	 -0.017	  0.002	 -0.181	 33.000	 99.146	  1.092
29680	 -1.260	 -0.966	  0.877	  0.104	  1.346	 -9.299	 -0.216	 -0.045	  0.289	 33.000	 99.146	  1.092
29730	 -1.283	 -0.945	  0.876	  0.047	 -1.365	 -12.425	  0.117	  0.115	  0.441	 33.000	 99.157	  0.102
29780	 -1.293	 -0.941	  0.871	 -0.231	 -0.994	 -10.029	  0.074	  0.022	  0.026	 33.000	 99.146	  1.092
29830	 -1.294	 -0.939	  0.871	 -0.134	 -0.289	 -12.683	 -0.228	 -0.065	 -0.039	 33.000	 99.146	  1.092
29880	 -1.294	 -0.938	  0.872	 -0.622	  1.419	 -10.167	  0.036	  0.060	  0.196	 33.100	 99.161	 -0.259
29930	 -1.304	 -0.940	  0.873	  0.466	 -0.274	 -9.995	 -0.035	 -0.022	  0.136	 33.100	 99.161	 -0.259
29980	 -1.304	 -0.939	  0.870	 -0.244	 -0.567	 -9.781	  0.081	  0.006	 -0.181	 33.100	 99.161	 -0.259
30030	 -1.301	 -0.954	  0.884	  0.019	 -0.075	 -9.112	  0.054	  0.009	 -0.222	 33.000	 99.157	  0.102
30080	 -1.291	 -0.975	  0.885	  0.440	  0.825	 -9.681	 -0.366	 -0.049	 -0.247	 33.100	 99.139	  1.723
30130	 -1.291	 -0.985	  0.884	  0.401	 -0.330	 -9.112	 -0.034	 -0.016	  0.038	 33.100	 99.173	 -1.339
30180	 -1.293	 -0.978	  0.879	  0.075	  0.091	 -9.807	  0.023	  0.007	  0.010	 33.100	 99.161	 -0.259
30230	 -1.293	 -0.983	  0.882	  0.309	  0.007	 -10.049	 -0.002	 -0.012	  0.075	 33.000	 99.157	  0.102
30280	 -1.296	 -0.976	  0.875	  0.388	  0.271	 -8.439	 -0.084	 -0.008	  0.421	 33.100	 99.173	 -1.339
30330	 -1.317	 -0.958	  0.875	  0.162	 -0.561	 -10.422	 -0.256	 -0.063	  0.331	 33.100	 99.161	 -0.259
30380	 -1.324	 -0.949	  0.873	  0.722	 -0.925	 -9.624	 -0.156	 -0.041	  0.112	 33.000	 99.157	  0.102
30431	 -1.329	 -0.951	  0.870	 -0.380	  0.089	 -9.821	 -0.042	 -0.001	  0.000	 33.100	 99.161	 -0.259
30480	 -1.331	 -0.947	  0.872	  0.135	 -0.557	 -9.982	  0.051	  0.011	  0.142	 33.000	 99.157	  0.102
30531	 -1.334	 -0.938	  0.865	  0.021	 -0.088	 -10.009	 -0.013	 -0.002	  0.095	 33.100	 99.161	 -0.259
30580	 -1.341	 -0.932	  0.865	 -0.113	 -0.076	 -9.726	 -0.018	 -0.001	  0.159	 33.100	 99.161	 -0.259
30630	 -1.348	 -0.922	  0.862	 -0.151	  0.377	 -9.938	 -0.010	 -0.001	  0.208	 33.100	 99.161	 -0.259
30680	 -1.355	 -0.923	  0.867	  0.023	 -0.272	 -10.126	 -0.047	 -0.009	 -0.005	 33.000	 99.157	  0.102
30730	 -1.352	 -0.920	  0.864	 -0.059	  0.092	 -9.774	 -0.028	 -0.005	 -0.000	 33.000	 99.157	  0.102
30780	 -1.350	 -0.917	  0.867	 -0.031	  0.009	 -9.815	  0.006	  0.006	  0.000	 33.100	 99.157	  0.102
30830	 -1.352	 -0.918	  0.865	 -0.040	  0.037	 -9.795	 -0.008	  0.001	  0.002	 33.000	 99.157	  0.102
30881	 -1.355	 -0.920	  0.866	 -0.041	 -0.005	 -9.854	 -0.005	  0.001	  0.003	 33.100	 99.150	  0.732
30931	 -1.352	 -0.919	  0.864	 -0.050	  0.003	 -9.862	 -0.000	  0.003	  0.001	 33.100	 99.173	 -1.339
30981	 -1.349	 -0.919	  0.864	 -0.033	  0.019	 -9.808	 -0.003	  0.001	 -0.000	 33.000	 99.169	 -0.980
31031	 -1.352	 -0.924	  0.864	  0.130	 -0.279	 -9.860	  0.001	  0.001	 -0.031	 33.000	 99.157	  0.102
31081	 -1.344	 -0.933	  0.867	 -0.478	  0.110	 -9.764	  0.008	  0.004	 -0.235	 33.000	 99.157	  0.102
31131	 -1.340	 -0.935	  0.865	 -0.199	 -0.159	 -9.837	  0.025	  0.013	  0.003	 33.100	 99.150	  0.732
31181	 -1.336	 -0.942	  0.868	 -0.509	  0.012	 -9.667	  0.018	  0.006	 -0.185	 33.100	 99.150	  0.732
31231	 -1.333	 -0.939	  0.867	  0.002	 -0.074	 -9.861	  0.041	  0.032	  0.002	 33.100	 99.161	 -0.259
31281	 -1.334	 -0.947	  0.873	 -0.179	  0.055	 -9.885	 -0.051	  0.004	  0.007	 33.000	 99.157	  0.102
31331	 -1.333	 -0.942	  0.869	 -0.099	  0.231	 -9.780	  0.008	  0.008	  0.009	 33.000	 99.157	  0.102
31381	 -1.334	 -0.948	  0.872	 -0.056	  0.005	 -9.827	  0.006	  0.007	  0.000	 33.100	 99.150	  0.732
31431	 -1.334	 -0.940	  0.868	 -0.056	  0.353	 -9.896	  0.005	  0.007	  0.142	 33.100	 99.161	 -0.259
31481	 -1.338	 -0.936	  0.869	 -0.124	  0.161	 -9.679	 -0.017	  0.001	  0.001	 33.000	 99.157	  0.102
31531	 -1.337	 -0.943	  0.868	  1.253	  0.080	 -9.800	 -0.039	 -0.006	 -0.156	 33.000	 99.157	  0.102
31581	 -1.327	 -0.956	  0.853	  0.825	 -0.304	 -9.753	 -0.098	 -0.060	 -0.256	 33.100	 99.157	  0.102
31631	 -1.319	 -0.966	  0.859	 -0.132	 -0.025	 -10.037	  0.200	  0.061	  0.003	 33.000	 99.157	  0.102
31681	 -1.321	 -0.951	  0.863	 -0.044	  0.091	 -9.770	  0.116	  0.035	  0.010	 33.100	 99.157	  0.102
31731	 -1.320	 -0.967	  0.858	 -0.008	 -0.093	 -9.972	  0.053	  0.019	  0.002	 33.100	 99.150	  0.732
31781	 -1.320	 -0.959	  0.859	  0.020	 -0.178	 -9.979	 -0.003	  0.003	  0.010	 33.100	 99.157	  0.102
31831	 -1.321	 -0.959	  0.860	  0.061	  0.157	 -9.701	  0.009	  0.003	  0.090	 33.000	 99.157	  0.102
31881	 -1.320	 -0.948	  0.860	 -0.067	 -0.012	 -9.761	 -0.008	 -0.000	  0.049	 33.100	 99.146	  1.092
31931	 -1.328	 -0.953	  0.860	 -0.093	 -0.025	 -10.019	 -0.005	  0.001	  0.151	 33.100	 99.161	 -0.259
31981	 -1.330	 -0.944	  0.860	  0.054	 -0.224	 -9.859	  0.021	  0.008	  0.050	 33.100	 99.161	 -0.259
32031	 -1.332	 -0.947	  0.862	 -0.015	 -0.002	 -9.862	 -0.016	  0.000	  0.002	 33.100	 99.161	 -0.259
32081	 -1.337	 -0.935	  0.859	 -0.178	  0.116	 -9.647	  0.013	  0.004	  0.129	 33.100	 99.161	 -0.259
32131	 -1.336	 -0.928	  0.863	 -0.116	 -0.014	 -9.940	  0.002	  0.004	  0.020	 33.100	 99.161	 -0.259
32181	 -1.340	 -0.937	  0.868	 -0.629	  0.146	 -9.636	  0.019	  0.006	  0.253	 33.000	 99.169	 -0.980
32231	 -1.357	 -0.901	  0.866	 -0.034	 -0.018	 -9.803	 -0.014	  0.000	  0.285	 33.000	 99.157	  0.102
32281	 -1.370	 -0.901	  0.885	 -1.528	  0.138	 -9.575	  0.029	  0.004	  0.169	 33.000	 99.157	  0.102
32331	 -1.380	 -0.881	  0.888	  0.109	 -0.018	 -10.054	  0.166	  0.036	  0.811	 33.100	 99.161	 -0.259
32381	 -1.405	 -0.836	  0.903	  1.200	 -0.411	 -9.836	 -0.004	 -0.009	  0.468	 33.000	 99.157	  0.102
32431	 -1.414	 -0.794	  0.899	 -0.230	  1.573	 -10.189	 -0.191	 -0.048	  0.651	 33.000	 99.157	  0.102
32481	 -1.433	 -0.752	  0.889	 -0.000	 -0.996	 -9.943	  0.363	  0.097	  0.411	 33.100	 99.161	 -0.259
32531	 -1.431	 -0.742	  0.881	 -0.456	  0.382	 -9.242	  0.071	  0.049	 -0.083	 33.000	 99.146	  1.092
32581	 -1.426	 -0.754	  0.877	 -0.015	 -0.019	 -9.545	 -0.070	 -0.023	 -0.238	 33.100	 99.161	 -0.259
32631	 -1.422	 -0.766	  0.885	 -0.236	  0.147	 -9.727	 -0.032	 -0.006	 -0.297	 33.000	 99.157	  0.102
32681	 -1.413	 -0.786	  0.886	 -0.282	  0.383	 -9.699	 -0.017	 -0.003	 -0.263	 33.100	 99.161	 -0.259
32731	 -1.405	 -0.802	  0.893	  0.271	 -0.208	 -9.954	  0.020	  0.047	 -0.233	 33.000	 99.157	  0.102
32781	 -1.401	 -0.811	  0.891	  0.074	  0.020	 -9.672	 -0.005	 -0.034	 -0.057	 33.000	 99.157	  0.102
32831	 -1.399	 -0.808	  0.890	  0.378	 -0.274	 -9.771	 -0.014	  0.001	 -0.010	 33.000	 99.157	  0.102
32881	 -1.396	 -0.809	  0.887	  0.408	 -0.050	 -10.208	 -0.009	 -0.004	  0.040	 33.000	 99.169	 -0.980
32931	 -1.393	 -0.802	  0.886	  0.196	 -0.477	 -9.253	  0.163	  0.015	 -0.098	 33.000	 99.157	  0.102
32981	 -1.385	 -0.811	  0.890	 -0.572	  0.759	 -9.910	 -0.058	 -0.017	 -0.257	 33.100	 99.146	  1.092
33031	 -1.372	 -0.833	  0.894	 -0.234	 -0.557	 -10.420	  0.108	  0.040	 -0.546	 33.100	 99.161	 -0.259
33081	 -1.362	 -0.841	  0.899	 -0.110	  0.926	 -9.677	 -0.189	 -0.054	 -0.118	 33.100	 99.161	 -0.259
33131	 -1.361	 -0.856	  0.903	  0.531	 -1.129	 -9.970	 -0.131	 -0.040	 -0.087	 33.000	 99.146	  1.092
33181	 -1.358	 -0.861	  0.902	 -0.100	  0.361	 -9.344	  0.208	  0.065	  0.003	 33.000	 99.146	  1.092
33231	 -1.363	 -0.851	  0.904	 -0.192	  0.383	 -9.706	  0.070	  0.016	  0.205	 33.000	 99.146	  1.092
33281	 -1.367	 -0.841	  0.907	  0.078	 -0.980	 -10.591	  0.078	  0.036	  0.016	 33.000	 99.157	  0.102
33331	 -1.367	 -0.846	  0.909	  0.058	 -0.102	 -9.993	  0.113	  0.037	  0.005	 33.000	 99.157	  0.102
33381	 -1.368	 -0.843	  0.908	 -0.247	  0.144	 -9.945	  0.053	 -0.002	  0.012	 33.100	 99.173	 -1.339
33431	 -1.370	 -0.832	  0.911	 -0.201	  0.320	 -10.079	  0.000	  0.005	  0.296	 33.000	 99.157	  0.102
33481	 -1.387	 -0.821	  0.901	  0.035	 -0.730	 -9.825	  0.031	  0.022	  0.114	 33.100	 99.161	 -0.259
33531	 -1.384	 -0.826	  0.908	 -0.164	  0.148	 -9.678	 -0.009	  0.001	 -0.000	 33.100	 99.161	 -0.259
33581	 -1.386	 -0.821	  0.902	 -0.010	 -0.064	 -9.848	  0.013	  0.006	 -0.011	 33.100	 99.157	  0.102
33631	 -1.381	 -0.821	  0.902	 -0.191	 -0.225	 -10.041	 -0.106	 -0.021	 -0.080	 33.000	 99.157	  0.102
33681	 -1.381	 -0.831	  0.898	 -0.290	  0.654	 -11.123	  0.102	  0.023	  0.117	 33.100	 99.139	  1.723
33731	 -1.394	 -0.824	  0.903	  0.496	 -1.968	 -6.154	 -0.179	 -0.159	 -0.016	 33.000	 99.146	  1.092
33781	 -1.391	 -0.831	  0.905	  0.951	 -1.162	 -9.854	 -0.303	 -0.229	 -0.058	 33.100	 99.161	 -0.259
33831	 -1.378	 -0.833	  0.898	 -0.625	  0.113	 -10.605	 -0.022	  0.002	 -0.183	 33.100	 99.161	 -0.259
33881	 -1.366	 -0.843	  0.894	 -0.408	  0.475	 -9.403	  0.074	  0.033	 -0.115	 33.100	 99.180	 -1.970
33931	 -1.369	 -0.848	  0.891	  0.298	 -0.515	 -8.901	 -0.186	 -0.018	 -0.294	 33.000	 99.259	 -9.081
33981	 -1.362	 -0.854	  0.896	  0.236	  0.009	 -9.762	 -0.140	 -0.055	 -0.139	 33.100	 99.218	 -5.391
34031	 -1.356	 -0.857	  0.876	 -0.880	 -0.149	 -10.539	  0.178	  0.061	  0.094	 33.000	 99.656	 -44.713
34081	 -1.361	 -0.845	  0.889	 -0.339	  0.491	 -9.970	  0.101	  0.038	  0.317	 33.000	 99.645	 -43.727
34131	 -1.375	 -0.827	  0.885	  0.488	 -0.112	 -9.782	  0.051	  0.018	  0.371	 33.000	 99.633	 -42.654
34181	 -1.381	 -0.818	  0.880	 -0.145	 -0.021	 -9.751	  0.023	  0.020	 -0.003	 33.100	 99.656	 -44.713
34231	 -1.383	 -0.817	  0.877	  0.046	 -0.127	 -9.775	  0.002	  0.005	 -0.002	 33.100	 99.694	 -48.115
34281	 -1.379	 -0.817	  0.877	 -0.096	  0.013	 -9.984	  0.008	  0.009	  0.006	 33.100	 99.679	 -46.772
34331	 -1.381	 -0.813	  0.878	 -0.020	  0.272	 -10.078	 -0.092	  0.007	 -0.035	 33.000	 99.849	 -61.975
34381	 -1.380	 -0.820	  0.873	 -0.158	  0.485	 -9.806	  0.077	 -0.008	  0.014	 33.000	 100.098	 -84.187
34431	 -1.380	 -0.817	  0.875	  0.053	  0.907	 -9.047	 -0.018	 -0.027	  0.152	 33.000	 100.121	 -86.235
34481	 -1.388	 -0.805	  0.868	 -0.194	 -0.432	 -9.633	  0.044	  0.027	  0.164	 33.100	 100.109	 -85.166
34531	 -1.389	 -0.793	  0.868	 -0.091	  0.046	 -9.804	  0.002	  0.006	  0.001	 33.000	 100.109	 -85.166
34581	 -1.389	 -0.806	  0.860	  0.040	  0.142	 -9.647	 -0.010	 -0.014	  0.044	 33.000	 100.109	 -85.166
34631	 -1.388	 -0.806	  0.863	 -0.372	  0.137	 -9.904	 -0.015	 -0.001	 -0.013	 33.000	 100.087	 -83.206
34680	 -1.390	 -0.808	  0.864	  0.051	  0.013	 -9.704	 -0.018	 -0.002	 -0.005	 33.000	 100.053	 -80.177
34731	 -1.385	 -0.803	  0.859	  0.092	 -0.301	 -9.978	  0.012	  0.013	 -0.043	 33.000	 100.030	 -78.127
34781	 -1.387	 -0.815	  0.868	 -0.268	  0.173	 -9.535	 -0.004	 -0.001	 -0.121	 33.000	 100.007	 -76.077
34830	 -1.382	 -0.819	  0.854	  0.252	 -0.197	 -9.625	  0.014	  0.005	 -0.160	 33.000	 99.962	 -72.063
34880	 -1.369	 -0.827	  0.858	  0.498	 -0.390	 -10.021	 -0.036	  0.001	 -0.396	 33.000	 99.951	 -71.081
34930	 -1.359	 -0.834	  0.848	 -0.855	  0.093	 -10.142	 -0.192	 -0.054	 -0.013	 33.000	 99.917	 -68.047
34980	 -1.349	 -0.839	  0.845	  0.047	  0.474	 -9.059	  0.257	  0.079	 -0.088	 33.000	 99.883	 -65.012
35030	 -1.343	 -0.834	  0.837	 -0.243	 -0.076	 -8.916	 -0.205	 -0.062	 -0.196	 33.100	 99.853	 -62.332
35080	 -1.340	 -0.856	  0.833	  0.540	 -1.347	 -10.618	 -0.127	 -0.045	 -0.181	 33.100	 99.815	 -58.937
35130	 -1.329	 -0.867	  0.829	  0.073	 -0.483	 -9.769	 -0.091	 -0.022	 -0.281	 33.100	 99.796	 -57.238
35180	 -1.315	 -0.884	  0.831	 -0.140	  0.180	 -9.859	 -0.023	  0.002	 -0.379	 33.000	 99.769	 -54.825
35230	 -1.292	 -0.900	  0.830	  0.161	 -0.550	 -9.699	  0.008	  0.006	 -0.517	 33.100	 99.751	 -53.215
35280	 -1.259	 -0.916	  0.831	 -0.074	 -0.119	 -9.805	  0.017	 -0.002	 -0.662	 33.000	 99.701	 -48.741
35330	 -1.231	 -0.947	  0.824	 -0.176	  0.069	 -9.568	  0.074	  0.031	 -0.780	 33.100	 99.683	 -47.130
35380	 -1.194	 -0.968	  0.833	  0.399	  0.029	 -10.085	  0.013	  0.011	 -0.789	 33.000	 99.656	 -44.713
35430	 -1.153	 -1.006	  0.831	 -0.218	  1.203	 -10.001	 -0.085	 -0.014	 -0.759	 33.000	 99.633	 -42.654
35480	 -1.112	 -1.041	  0.810	  0.077	  0.693	 -9.538	  0.112	  0.040	 -0.672	 33.100	 99.603	 -39.965
35530	 -1.067	 -1.087	  0.783	  0.055	  0.333	 -9.627	 -0.060	 -0.006	 -0.850	 33.000	 99.588	 -38.621
35580	 -1.019	 -1.133	  0.751	 -0.519	 -3.448	 -8.739	 -0.080	 -0.025	 -0.955	 33.100	 99.577	 -37.636
35630	 -0.971	 -1.176	  0.753	  0.076	  0.155	 -10.085	  0.020	  0.004	 -0.776	 33.000	 99.543	 -34.589
