Time	 MagX	 MagY	 MagZ	 AccelX	 AccelY	 AccelZ	 Yaw	 Pitch	 Roll	 Temperature	 Pressure	 Altitude
2209	  0.177	  0.026	  0.218	 -0.005	  0.209	 -9.548	  0.003	 -0.002	  0.011	 30.100	 99.502	 -99999.000
2259	  0.177	  0.026	  0.219	  0.090	  0.136	 -9.485	  0.003	 -0.002	  0.012	 30.100	 99.502	 -99999.000
2309	  0.176	  0.017	  0.222	  0.036	  0.201	 -9.478	  0.003	 -0.002	  0.011	 30.100	 99.502	 -99999.000
2359	  0.177	  0.027	  0.220	  0.115	  0.173	 -9.460	  0.003	 -0.002	  0.010	 30.100	 99.514	 -99999.000
2408	  0.177	  0.015	  0.226	  0.011	  0.210	 -9.497	  0.003	 -0.002	  0.011	 30.100	 99.502	 -99999.000
2459	  0.174	  0.021	  0.220	  0.047	  0.206	 -9.450	  0.003	 -0.001	  0.011	 30.100	 99.506	 -99999.000
2509	  0.175	  0.027	  0.219	  0.022	  0.155	 -9.504	  0.002	 -0.000	  0.011	 30.100	 99.506	 -99999.000
2559	  0.176	  0.014	  0.222	  0.040	  0.173	 -9.512	  0.003	  0.001	  0.011	 30.100	 99.506	 -99999.000
2609	  0.176	  0.012	  0.219	  0.021	  0.213	 -9.437	  0.003	 -0.002	  0.010	 30.100	 99.502	 -99999.000
2659	  0.177	  0.013	  0.212	  0.069	  0.187	 -9.512	  0.003	 -0.001	  0.011	 30.100	 99.502	 -99999.000
2709	  0.177	  0.022	  0.219	  0.018	  0.217	 -9.469	  0.003	 -0.002	  0.010	 30.100	 99.514	 -99999.000
2759	  0.174	  0.013	  0.219	  0.074	  0.170	 -9.464	  0.002	 -0.001	  0.011	 30.100	 99.514	 -99999.000
2809	  0.178	  0.016	  0.220	 -0.018	  0.191	 -9.488	  0.002	 -0.001	  0.011	 30.100	 99.502	 -99999.000
2859	  0.178	  0.017	  0.211	  0.096	  0.185	 -9.507	  0.003	 -0.000	  0.009	 30.100	 99.502	 -99999.000
2909	  0.177	  0.013	  0.212	  0.007	  0.216	 -9.489	  0.003	 -0.000	  0.011	 30.100	 99.514	 -99999.000
2959	  0.174	  0.017	  0.226	  0.085	  0.151	 -9.517	  0.002	 -0.003	  0.012	 30.100	 99.502	 -99999.000
3009	  0.176	  0.017	  0.218	  0.013	  0.203	 -9.483	  0.003	  0.000	  0.012	 30.100	 99.489	 -99999.000
3059	  0.175	  0.011	  0.225	  0.067	  0.168	 -9.478	  0.003	 -0.001	  0.011	 30.100	 99.489	 -99999.000
3109	  0.176	  0.013	  0.215	  0.008	  0.212	 -9.517	  0.003	 -0.001	  0.012	 30.100	 99.514	 -99999.000
3159	  0.178	  0.017	  0.216	  0.093	  0.199	 -9.474	  0.004	 -0.001	  0.011	 30.100	 99.502	 -99999.000
3209	  0.176	  0.019	  0.215	  0.020	  0.213	 -9.467	  0.002	 -0.002	  0.011	 30.100	 99.506	 -99999.000
3259	  0.175	  0.016	  0.220	  0.097	  0.173	 -9.493	  0.003	 -0.001	  0.011	 30.100	 99.514	 -99999.000
3309	  0.177	  0.010	  0.213	 -0.004	  0.188	 -9.481	  0.002	 -0.001	  0.011	 30.100	 99.502	 -99999.000
3359	  0.174	  0.020	  0.221	  0.073	  0.178	 -9.469	  0.003	  0.001	  0.011	 30.100	 99.502	 -99999.000
3409	  0.176	  0.029	  0.219	  0.023	  0.198	 -9.499	  0.002	 -0.002	  0.010	 30.100	 99.502	 -99999.000
5609	  0.177	  0.016	  0.216	  0.031	  0.200	 -9.583	  0.001	 -0.003	  0.011	 30.100	 99.502	  0.228
5659	  0.177	  0.014	  0.221	  0.007	  0.106	 -9.499	  0.002	 -0.001	  0.010	 30.100	 99.506	 -0.141
5709	  0.177	  0.030	  0.219	  0.038	  0.227	 -9.481	  0.002	 -0.002	  0.012	 30.100	 99.506	 -0.141
5759	  0.174	  0.017	  0.218	  0.073	  0.164	 -9.515	  0.003	 -0.000	  0.010	 30.100	 99.514	 -0.878
5809	  0.175	  0.012	  0.219	  0.024	  0.220	 -9.438	  0.003	 -0.000	  0.010	 30.100	 99.502	  0.228
5859	  0.175	  0.012	  0.207	  0.099	  0.156	 -9.468	  0.003	 -0.001	  0.010	 30.100	 99.489	  1.426
5909	  0.177	  0.015	  0.219	  0.030	  0.227	 -9.359	  0.002	  0.001	  0.011	 30.100	 99.489	  1.426
5958	  0.176	  0.011	  0.222	  0.094	  0.185	 -9.500	  0.004	 -0.002	  0.011	 30.100	 99.502	  0.228
6009	  0.176	  0.012	  0.216	  0.008	  0.194	 -9.480	  0.001	  0.001	  0.012	 30.100	 99.502	  0.228
6059	  0.177	  0.011	  0.218	  0.092	  0.166	 -9.443	  0.002	  0.000	  0.011	 30.100	 99.502	  0.228
6109	  0.179	  0.026	  0.216	  0.007	  0.190	 -9.511	  0.003	 -0.002	  0.010	 30.100	 99.502	  0.228
6159	  0.176	  0.019	  0.220	  0.042	  0.190	 -9.567	  0.004	 -0.003	  0.010	 30.100	 99.489	  1.426
6209	  0.176	  0.013	  0.220	 -0.027	  0.177	 -9.518	  0.003	 -0.002	  0.011	 30.100	 99.502	  0.228
6259	  0.177	  0.014	  0.222	  0.113	  0.150	 -9.461	  0.002	 -0.002	  0.010	 30.100	 99.502	  0.228
6309	  0.176	  0.012	  0.218	  0.026	  0.194	 -9.527	  0.004	 -0.001	  0.011	 30.100	 99.502	  0.228
6358	  0.175	  0.017	  0.212	  0.105	  0.185	 -9.493	  0.004	 -0.000	  0.010	 30.100	 99.489	  1.426
6408	  0.175	  0.020	  0.219	  0.031	  0.205	 -9.487	  0.003	 -0.002	  0.010	 30.100	 99.502	  0.228
6458	  0.176	  0.012	  0.218	  0.079	  0.174	 -9.518	  0.003	  0.000	  0.011	 30.100	 99.502	  0.228
6509	  0.177	  0.015	  0.216	  0.025	  0.217	 -9.472	  0.001	  0.000	  0.010	 30.100	 99.502	  0.228
6558	  0.175	  0.020	  0.213	  0.101	  0.167	 -9.504	  0.003	 -0.001	  0.011	 30.100	 99.502	  0.228
6608	  0.177	  0.015	  0.216	  0.018	  0.205	 -9.457	  0.001	 -0.002	  0.011	 30.100	 99.506	 -0.141
6658	  0.175	  0.016	  0.218	  0.093	  0.179	 -9.470	  0.003	 -0.002	  0.010	 30.100	 99.502	  0.228
6708	  0.178	  0.022	  0.224	  0.005	  0.195	 -9.515	  0.003	 -0.000	  0.011	 30.100	 99.506	 -0.141
6758	  0.180	  0.024	  0.220	 -0.601	  0.595	 -9.454	  0.003	 -0.004	  0.049	 30.100	 99.489	  1.426
6808	  0.180	  0.015	  0.218	  0.190	 -0.180	 -9.621	  0.000	  0.006	 -0.197	 30.100	 99.502	  0.228
6858	  0.181	  0.024	  0.216	  0.777	 -0.002	 -9.471	 -0.001	  0.001	 -0.354	 30.100	 99.502	  0.228
6908	  0.179	  0.030	  0.218	  0.152	  0.202	 -9.462	  0.001	  0.005	  0.011	 30.100	 99.502	  0.228
6958	  0.181	  0.025	  0.214	  0.016	  0.175	 -9.507	  0.001	 -0.000	  0.010	 30.100	 99.518	 -1.246
7008	  0.177	  0.029	  0.212	  0.056	  0.201	 -9.469	  0.002	 -0.003	  0.012	 30.100	 99.502	  0.228
7058	  0.177	  0.031	  0.209	  0.065	  0.161	 -9.490	  0.003	  0.001	  0.011	 30.100	 99.489	  1.426
7108	  0.181	  0.027	  0.216	 -0.019	  0.210	 -9.471	  0.003	 -0.001	  0.012	 30.100	 99.502	  0.228
7158	  0.177	  0.031	  0.217	  0.088	  0.178	 -9.510	  0.003	  0.000	  0.010	 30.100	 99.494	  0.965
7208	  0.179	  0.039	  0.217	 -0.012	  0.217	 -9.508	  0.004	 -0.000	  0.010	 30.100	 99.506	 -0.141
7258	  0.182	  0.039	  0.216	  0.092	  0.158	 -9.463	  0.004	 -0.002	  0.011	 30.100	 99.502	  0.228
7308	  0.179	  0.036	  0.216	  0.005	  0.203	 -9.481	  0.003	 -0.001	  0.011	 30.100	 99.489	  1.426
7358	  0.181	  0.027	  0.215	  0.084	  0.171	 -9.525	  0.004	 -0.001	  0.011	 30.100	 99.502	  0.228
7408	  0.179	  0.027	  0.208	 -0.018	  0.192	 -9.488	  0.004	  0.000	  0.010	 30.100	 99.506	 -0.141
7458	  0.179	  0.026	  0.208	  0.102	  0.178	 -9.488	  0.002	 -0.002	  0.010	 30.100	 99.514	 -0.878
7508	  0.175	  0.040	  0.217	 -0.098	  0.278	 -9.531	  0.005	  0.004	  0.009	 30.100	 99.502	  0.228
7559	  0.178	  0.029	  0.218	  0.063	  0.164	 -9.519	  0.001	 -0.003	  0.010	 30.100	 99.502	  0.228
7608	  0.181	  0.029	  0.219	  0.027	  0.248	 -9.510	  0.002	 -0.002	  0.011	 30.100	 99.502	  0.228
7659	  0.182	  0.030	  0.211	  0.136	  0.170	 -9.456	  0.001	  0.001	  0.009	 30.100	 99.502	  0.228
7708	  0.178	  0.043	  0.213	 -0.023	  0.221	 -9.529	  0.004	  0.004	  0.010	 30.100	 99.506	 -0.141
7759	  0.181	  0.031	  0.218	  0.153	  0.139	 -9.484	  0.002	 -0.010	  0.010	 30.100	 99.514	 -0.878
7809	  0.177	  0.029	  0.215	 -0.853	  0.295	 -9.542	  0.008	 -0.027	  0.011	 30.100	 99.502	  0.228
7859	  0.179	  0.029	  0.213	  0.080	  0.211	 -9.498	  0.004	 -0.016	  0.012	 30.100	 99.502	  0.228
7909	  0.183	  0.039	  0.217	  0.106	  0.224	 -9.508	  0.002	 -0.004	  0.013	 30.100	 99.502	  0.228
7959	  0.182	  0.034	  0.218	  0.100	  0.177	 -9.460	  0.004	 -0.000	  0.010	 30.100	 99.502	  0.228
8009	  0.178	  0.026	  0.215	  0.014	  0.213	 -9.519	  0.003	 -0.000	  0.011	 30.100	 99.489	  1.426
8059	  0.183	  0.032	  0.215	  0.049	  0.176	 -9.476	  0.003	 -0.002	  0.010	 30.100	 99.494	  0.965
8109	  0.182	  0.026	  0.214	  0.013	  0.203	 -9.495	  0.003	 -0.002	  0.011	 30.100	 99.502	  0.228
8159	  0.178	  0.026	  0.215	  0.084	  0.161	 -9.490	  0.004	 -0.003	  0.010	 30.100	 99.502	  0.228
8209	  0.178	  0.032	  0.212	  0.043	  0.205	 -9.461	  0.005	 -0.014	  0.008	 30.100	 99.502	  0.228
8259	  0.178	  0.025	  0.216	 -0.263	  0.021	 -9.508	  0.009	 -0.019	  0.011	 30.100	 99.489	  1.426
8309	  0.179	  0.025	  0.207	  0.103	  0.258	 -9.436	 -0.001	  0.016	  0.012	 30.100	 99.502	  0.228
8359	  0.178	  0.020	  0.215	  0.074	  0.159	 -9.488	  0.004	 -0.006	  0.009	 30.100	 99.502	  0.228
8411	  0.179	  0.036	  0.216	 -0.036	  0.226	 -9.513	  0.002	  0.003	  0.010	 30.100	 99.506	 -0.141
8460	  0.182	  0.031	  0.215	  0.063	  0.023	 -9.585	  0.008	 -0.005	  0.009	 30.100	 99.502	  0.228
8510	  0.178	  0.030	  0.209	 -0.024	  0.217	 -9.471	  0.006	 -0.013	  0.011	 30.100	 99.518	 -1.246
8559	  0.178	  0.034	  0.213	  0.107	  0.176	 -9.473	  0.016	 -0.036	  0.011	 30.100	 99.502	  0.228
8609	  0.179	  0.030	  0.216	 -0.046	  0.202	 -9.481	  0.033	 -0.076	  0.010	 30.100	 99.502	  0.228
8659	  0.183	  0.045	  0.212	 -0.123	  0.132	 -9.517	  0.026	 -0.062	  0.010	 30.100	 99.502	  0.228
8709	  0.184	  0.045	  0.213	 -0.237	  0.120	 -9.538	  0.002	 -0.001	  0.011	 30.100	 99.489	  1.426
8759	  0.183	  0.030	  0.206	 -0.086	  0.166	 -9.513	 -0.005	  0.020	  0.009	 30.100	 99.502	  0.228
8809	  0.182	  0.029	  0.212	 -0.054	  0.193	 -9.521	 -0.003	  0.014	 -0.037	 30.100	 99.502	  0.228
8859	  0.182	  0.027	  0.208	  0.165	  0.222	 -9.497	  0.021	 -0.053	 -0.082	 30.100	 99.502	  0.228
8909	  0.184	  0.044	  0.211	 -0.234	  0.072	 -9.496	  0.020	 -0.049	 -0.012	 30.100	 99.506	 -0.141
8959	  0.187	  0.034	  0.206	 -0.363	  0.046	 -9.481	 -0.010	  0.029	  0.047	 30.100	 99.502	  0.228
9009	  0.181	  0.038	  0.213	 -0.098	  0.133	 -9.472	 -0.059	  0.163	  0.067	 30.100	 99.514	 -0.878
9059	  0.181	  0.038	  0.213	  0.194	  0.244	 -9.473	 -0.036	  0.100	  0.010	 30.100	 99.502	  0.228
9109	  0.178	  0.027	  0.212	  0.133	  0.351	 -9.450	  0.010	 -0.016	  0.011	 30.100	 99.502	  0.228
9159	  0.181	  0.030	  0.220	 -0.014	  0.176	 -9.429	  0.002	  0.006	  0.011	 30.100	 99.502	  0.228
9209	  0.183	  0.029	  0.215	 -0.031	  0.187	 -9.517	  0.002	  0.004	  0.011	 30.100	 99.502	  0.228
9259	  0.183	  0.030	  0.206	 -0.083	  0.176	 -9.445	 -0.004	  0.032	  0.011	 30.100	 99.518	 -1.246
9309	  0.181	  0.022	  0.214	  0.294	  0.254	 -9.383	  0.003	  0.002	  0.010	 30.100	 99.502	  0.228
9359	  0.183	  0.022	  0.218	  0.121	  0.174	 -9.509	  0.001	 -0.004	  0.010	 30.100	 99.502	  0.228
9409	  0.184	  0.020	  0.214	 -0.030	  0.270	 -9.430	  0.010	 -0.038	  0.011	 30.100	 99.506	 -0.141
9459	  0.182	  0.021	  0.216	  0.024	  0.174	 -9.537	  0.006	 -0.010	  0.083	 30.100	 99.514	 -0.878
9509	  0.182	  0.016	  0.214	 -0.246	  0.155	 -9.557	  0.003	 -0.000	  0.090	 30.100	 99.506	 -0.141
9559	  0.181	  0.017	  0.215	 -0.038	  0.057	 -9.526	  0.001	  0.014	  0.016	 30.100	 99.502	  0.228
9609	  0.182	  0.022	  0.210	  0.108	  0.233	 -9.504	 -0.006	  0.056	  0.020	 30.100	 99.506	 -0.141
9659	  0.182	  0.017	  0.211	  0.051	  0.302	 -9.508	  0.004	  0.012	  0.037	 30.100	 99.506	 -0.141
9709	  0.182	  0.025	  0.214	 -0.007	  0.078	 -9.499	  0.004	  0.034	  0.131	 30.100	 99.518	 -1.246
9759	  0.176	  0.017	  0.212	  0.105	  0.197	 -9.466	  0.002	  0.001	  0.074	 30.100	 99.489	  1.426
9809	  0.177	  0.016	  0.214	  0.042	  0.205	 -9.496	  0.001	 -0.002	  0.011	 30.100	 99.502	  0.228
9859	  0.177	  0.021	  0.215	  0.166	  0.199	 -9.479	  0.003	 -0.014	  0.012	 30.100	 99.502	  0.228
9909	  0.180	  0.017	  0.215	  0.130	  0.163	 -9.467	  0.003	 -0.009	  0.020	 30.100	 99.502	  0.228
9959	  0.181	  0.021	  0.218	 -0.025	  0.216	 -9.500	  0.001	 -0.052	  0.010	 30.100	 99.514	 -0.878
10009	  0.182	  0.019	  0.215	 -0.237	  0.201	 -9.495	  0.011	 -0.028	  0.024	 30.100	 99.502	  0.228
10059	  0.187	  0.021	  0.221	  1.358	  0.109	 -9.382	  0.013	 -0.017	  0.075	 30.100	 99.506	 -0.141
10109	  0.204	 -0.033	  0.225	 -0.049	  0.401	 -9.454	  0.002	  0.013	  0.130	 30.100	 99.502	  0.228
10159	  0.185	 -0.035	  0.183	 -0.013	  0.138	 -9.479	  0.006	 -0.004	  0.055	 30.100	 99.506	 -0.141
10209	  0.176	 -0.021	  0.191	  0.031	  0.234	 -9.459	  0.002	  0.006	  0.010	 30.100	 99.494	  0.965
10259	  0.175	 -0.018	  0.183	  0.158	  0.185	 -9.422	  0.004	 -0.001	  0.012	 30.100	 99.502	  0.228
10309	  0.176	 -0.012	  0.185	 -0.047	  0.230	 -9.485	  0.001	 -0.003	  0.042	 30.100	 99.502	  0.228
10359	  0.175	 -0.010	  0.178	  0.093	  0.178	 -9.475	  0.005	 -0.016	  0.051	 30.100	 99.502	  0.228
10409	  0.176	 -0.013	  0.186	 -0.076	  0.205	 -9.500	  0.009	 -0.025	  0.073	 30.100	 99.502	  0.228
10459	  0.173	 -0.016	  0.178	  0.118	  0.161	 -9.461	  0.004	 -0.000	  0.065	 30.100	 99.494	  0.965
10509	  0.173	 -0.013	  0.186	 -0.014	  0.190	 -9.490	  0.002	  0.003	  0.017	 30.100	 99.489	  1.426
10559	  0.172	 -0.001	  0.182	 -0.081	  0.159	 -9.476	 -0.001	  0.024	  0.016	 30.100	 99.506	 -0.141
10609	  0.170	 -0.013	  0.187	 -0.274	  0.176	 -9.529	  0.003	  0.003	  0.011	 30.100	 99.506	 -0.141
10658	  0.170	 -0.012	  0.187	  0.064	  0.199	 -9.485	  0.002	 -0.005	  0.011	 30.100	 99.502	  0.228
10708	  0.171	 -0.016	  0.189	  0.116	 -0.085	 -9.589	 -0.008	 -0.003	  0.014	 30.100	 99.506	 -0.141
10758	  0.172	 -0.003	  0.188	  0.200	  0.215	 -9.457	  0.004	 -0.016	  0.012	 30.100	 99.518	 -1.246
10808	  0.173	 -0.015	  0.179	 -0.204	  0.274	 -9.460	  0.006	  0.024	  0.011	 30.100	 99.506	 -0.141
10858	  0.171	 -0.007	  0.188	 -0.155	 -0.194	 -9.662	 -0.001	  0.040	  0.007	 30.100	 99.489	  1.426
10908	  0.173	 -0.017	  0.185	 -0.161	  0.232	 -9.502	  0.002	 -0.006	  0.013	 30.100	 99.502	  0.228
10958	  0.170	 -0.012	  0.188	  0.005	  0.181	 -9.502	  0.003	 -0.001	  0.010	 30.100	 99.502	  0.228
11008	  0.170	 -0.013	  0.186	  0.025	  0.192	 -9.503	  0.004	  0.002	  0.010	 30.100	 99.506	 -0.141
11058	  0.171	 -0.017	  0.183	  0.071	  0.139	 -9.511	  0.001	 -0.002	 -0.010	 30.100	 99.502	  0.228
11108	  0.173	 -0.016	  0.189	 -0.009	  0.202	 -9.458	 -0.002	 -0.003	 -0.126	 30.100	 99.489	  1.426
11158	  0.170	 -0.006	  0.187	 -0.214	  0.203	 -9.469	 -0.007	 -0.010	 -0.157	 30.100	 99.514	 -0.878
11208	  0.174	 -0.002	  0.182	 -0.925	  0.363	 -11.164	 -0.112	 -0.255	 -0.105	 30.100	 99.502	  0.228
11258	  0.180	 -0.007	  0.168	 -0.768	  0.321	 -14.539	 -0.661	 -0.603	  0.053	 30.100	 99.502	  0.228
11308	  0.179	 -0.020	  0.136	  0.568	  1.325	 -14.145	 -0.664	 -1.104	 -0.214	 30.100	 99.502	  0.228
11358	  0.175	 -0.005	  0.100	 -0.394	  1.554	 -10.068	  0.377	 -1.220	 -0.172	 30.100	 99.502	  0.228
11408	  0.168	  0.008	  0.078	 -0.537	  0.408	 -7.778	  1.423	 -0.949	 -0.493	 30.100	 99.514	 -0.878
11458	  0.156	  0.039	  0.062	 -0.893	 -0.132	 -6.498	  1.414	 -0.068	 -0.635	 30.100	 99.506	 -0.141
11508	  0.138	  0.073	  0.074	 -1.576	 -0.507	 -4.423	  0.884	  0.648	 -0.531	 30.100	 99.506	 -0.141
11558	  0.122	  0.102	  0.091	 -1.073	 -0.811	 -3.729	  0.410	  0.814	 -0.351	 30.100	 99.494	  0.965
11608	  0.116	  0.122	  0.107	 -1.435	 -0.565	 -5.699	 -0.166	  0.532	 -0.251	 30.100	 99.502	  0.228
11658	  0.119	  0.105	  0.118	 -1.314	 -1.280	 -8.458	 -0.775	  0.351	 -0.025	 30.100	 99.506	 -0.141
11708	  0.126	  0.089	  0.131	 -0.649	 -0.721	 -9.043	 -1.105	  0.212	 -0.007	 30.100	 99.506	 -0.141
11758	  0.140	  0.089	  0.144	 -0.197	 -0.144	 -10.151	 -0.643	  0.183	 -0.041	 30.100	 99.502	  0.228
11808	  0.145	  0.074	  0.152	 -0.154	 -0.376	 -11.225	 -0.190	  0.434	 -0.001	 30.100	 99.502	  0.228
11858	  0.149	  0.075	  0.164	 -0.261	 -0.469	 -11.804	 -0.212	  0.332	  0.012	 30.100	 99.506	 -0.141
11908	  0.152	  0.075	  0.187	 -0.467	 -0.346	 -11.150	 -0.424	  0.105	 -0.006	 30.100	 99.506	 -0.141
11958	  0.152	  0.061	  0.190	 -0.497	  0.056	 -10.439	 -0.351	  0.008	  0.058	 30.100	 99.489	  1.426
12008	  0.154	  0.054	  0.182	 -0.145	  0.352	 -9.665	 -0.025	 -0.020	  0.056	 30.100	 99.506	 -0.141
12058	  0.155	  0.055	  0.182	  0.036	  0.385	 -9.149	  0.359	 -0.063	 -0.002	 30.100	 99.489	  1.426
12108	  0.160	  0.076	  0.184	 -0.451	  0.102	 -9.492	  0.338	 -0.023	  0.007	 30.100	 99.518	 -1.246
12158	  0.162	  0.069	  0.192	 -0.337	  0.064	 -10.075	 -0.068	  0.114	  0.042	 30.100	 99.506	 -0.141
12208	  0.154	  0.064	  0.194	  0.889	  1.432	 -9.037	 -0.161	  0.533	  0.156	 30.100	 99.502	  0.228
12258	  0.153	  0.059	  0.203	  0.109	 -0.015	 -8.770	  0.017	  0.043	  0.084	 30.100	 99.502	  0.228
12308	  0.160	  0.069	  0.199	 -0.177	  0.415	 -8.743	  0.037	 -0.146	  0.117	 30.100	 99.502	  0.228
12358	  0.156	  0.051	  0.192	  0.040	  0.500	 -9.506	 -0.006	  0.055	 -0.050	 30.100	 99.506	 -0.141
12408	  0.159	  0.061	  0.200	 -0.263	  0.380	 -9.523	  0.008	  0.062	 -0.026	 30.100	 99.506	 -0.141
12458	  0.156	  0.065	  0.205	  0.035	  0.093	 -9.543	  0.007	  0.001	  0.012	 30.100	 99.489	  1.426
12508	  0.158	  0.060	  0.204	  0.033	  0.179	 -9.511	  0.003	 -0.002	  0.011	 30.100	 99.506	 -0.141
12558	  0.155	  0.059	  0.205	  0.062	  0.184	 -9.453	  0.003	 -0.002	  0.010	 30.100	 99.518	 -1.246
12608	  0.158	  0.060	  0.203	  0.076	  0.225	 -9.491	  0.002	 -0.034	  0.009	 30.100	 99.506	 -0.141
12658	  0.154	  0.059	  0.197	  0.337	  0.234	 -9.455	  0.004	 -0.013	  0.012	 30.100	 99.502	  0.228
12708	  0.156	  0.056	  0.196	  0.018	  0.188	 -9.491	  0.003	  0.004	  0.011	 30.100	 99.502	  0.228
12758	  0.156	  0.059	  0.199	  0.016	  0.196	 -9.478	  0.002	 -0.003	  0.011	 30.100	 99.506	 -0.141
12808	  0.155	  0.054	  0.204	  0.030	  0.232	 -9.480	  0.002	 -0.006	  0.022	 30.100	 99.514	 -0.878
12858	  0.156	  0.051	  0.204	  0.037	  0.195	 -9.511	  0.002	  0.002	  0.049	 30.100	 99.494	  0.965
12908	  0.154	  0.061	  0.203	  0.001	  0.196	 -9.483	  0.003	 -0.004	  0.042	 30.100	 99.494	  0.965
12958	  0.158	  0.054	  0.201	  0.026	  0.176	 -9.482	  0.001	  0.006	  0.023	 30.100	 99.506	 -0.141
13008	  0.155	  0.058	  0.197	 -0.061	  0.209	 -9.515	  0.003	  0.006	  0.010	 30.100	 99.502	  0.228
13058	  0.156	  0.069	  0.200	  0.035	  0.208	 -9.470	  0.003	  0.001	  0.010	 30.100	 99.506	 -0.141
13108	  0.154	  0.059	  0.204	 -0.039	  0.195	 -9.492	  0.003	  0.015	  0.011	 30.100	 99.502	  0.228
13158	  0.154	  0.056	  0.201	 -0.020	  0.186	 -9.500	  0.004	  0.008	  0.011	 30.100	 99.506	 -0.141
13208	  0.155	  0.067	  0.208	  0.173	  0.190	 -9.445	  0.001	 -0.065	  0.011	 30.100	 99.506	 -0.141
13258	  0.158	  0.051	  0.193	 -0.176	  0.149	 -9.528	  0.005	 -0.012	  0.012	 30.100	 99.502	  0.228
13309	  0.155	  0.059	  0.199	  0.104	  0.198	 -9.473	  0.002	  0.008	  0.011	 30.100	 99.518	 -1.246
13358	  0.156	  0.064	  0.206	  0.020	  0.193	 -9.472	  0.002	  0.004	  0.010	 30.100	 99.506	 -0.141
13409	  0.155	  0.056	  0.199	 -0.015	  0.187	 -9.520	  0.001	 -0.004	  0.010	 30.100	 99.502	  0.228
13459	  0.159	  0.055	  0.203	  0.073	  0.164	 -9.461	  0.002	 -0.002	  0.012	 30.100	 99.506	 -0.141
13509	  0.159	  0.070	  0.200	  0.058	  0.218	 -9.479	  0.003	 -0.000	  0.012	 30.100	 99.506	 -0.141
13559	  0.155	  0.068	  0.202	  0.059	  0.213	 -9.477	  0.003	  0.001	  0.010	 30.100	 99.506	 -0.141
13609	  0.153	  0.051	  0.207	 -0.065	  0.231	 -9.478	  0.003	  0.007	  0.012	 30.100	 99.502	  0.228
13659	  0.156	  0.056	  0.196	 -0.120	  0.191	 -9.521	  0.004	 -0.006	  0.011	 30.100	 99.489	  1.426
13709	  0.158	  0.065	  0.201	  0.078	  0.314	 -9.446	  0.025	 -0.087	  0.006	 30.100	 99.494	  0.965
13759	  0.154	  0.059	  0.203	  0.127	  0.358	 -9.545	  0.006	 -0.011	 -0.003	 30.100	 99.506	 -0.141
13809	  0.155	  0.055	  0.197	 -0.219	  0.164	 -9.540	 -0.004	  0.032	  0.059	 30.100	 99.502	  0.228
13858	  0.155	  0.056	  0.199	 -0.036	  0.158	 -9.519	 -0.001	  0.010	  0.014	 30.100	 99.514	 -0.878
13909	  0.155	  0.055	  0.195	  0.195	  0.217	 -9.490	  0.001	  0.011	  0.013	 30.100	 99.489	  1.426
13959	  0.159	  0.054	  0.204	  0.047	  0.174	 -9.505	  0.003	  0.001	  0.013	 30.100	 99.494	  0.965
14009	  0.158	  0.052	  0.200	 -0.048	  0.251	 -9.502	  0.003	 -0.001	  0.023	 30.100	 99.502	  0.228
14059	  0.156	  0.051	  0.200	  0.065	  0.161	 -9.483	  0.002	  0.003	  0.012	 30.100	 99.502	  0.228
14109	  0.154	  0.046	  0.204	 -0.021	  0.235	 -9.499	  0.002	 -0.000	  0.011	 30.100	 99.514	 -0.878
14159	  0.156	  0.055	  0.196	  0.057	  0.194	 -9.511	  0.004	  0.003	  0.011	 30.100	 99.502	  0.228
14209	  0.156	  0.059	  0.205	 -0.131	  0.219	 -9.494	  0.002	 -0.006	  0.010	 30.100	 99.506	 -0.141
14259	  0.155	  0.054	  0.200	 -0.018	  0.185	 -9.506	  0.002	  0.032	  0.011	 30.100	 99.502	  0.228
14309	  0.153	  0.052	  0.199	 -0.093	  0.222	 -9.506	  0.003	 -0.007	  0.012	 30.100	 99.502	  0.228
14359	  0.155	  0.055	  0.200	  0.081	  0.163	 -9.462	  0.002	 -0.002	  0.011	 30.100	 99.506	 -0.141
14409	  0.155	  0.067	  0.204	  0.111	  0.188	 -9.495	  0.001	 -0.045	  0.010	 30.100	 99.502	  0.228
14459	  0.155	  0.066	  0.201	 -0.099	  0.207	 -9.453	  0.002	  0.009	  0.010	 30.100	 99.518	 -1.246
14509	  0.155	  0.054	  0.205	  0.014	  0.197	 -9.489	  0.004	  0.000	  0.010	 30.100	 99.502	  0.228
14559	  0.156	  0.059	  0.203	  0.050	  0.184	 -9.469	  0.004	  0.019	  0.009	 30.100	 99.502	  0.228
14609	  0.156	  0.067	  0.204	  0.027	  0.237	 -9.457	  0.003	 -0.001	  0.011	 30.100	 99.502	  0.228
14659	  0.155	  0.054	  0.204	 -0.007	  0.181	 -9.497	  0.002	  0.006	  0.010	 30.100	 99.506	 -0.141
14709	  0.154	  0.052	  0.197	 -0.073	  0.220	 -9.541	  0.002	 -0.003	  0.006	 30.100	 99.506	 -0.141
14759	  0.155	  0.046	  0.195	  0.092	  0.184	 -9.477	  0.002	 -0.000	 -0.008	 30.100	 99.506	 -0.141
14809	  0.156	  0.055	  0.199	 -0.041	  0.251	 -9.495	  0.003	 -0.019	 -0.031	 30.100	 99.506	 -0.141
14859	  0.155	  0.052	  0.204	 -0.022	  0.198	 -9.502	  0.001	  0.029	  0.011	 30.100	 99.518	 -1.246
14909	  0.156	  0.056	  0.203	  0.039	  0.170	 -9.509	  0.002	 -0.001	 -0.002	 30.100	 99.502	  0.228
14959	  0.153	  0.052	  0.199	  0.077	  0.219	 -9.484	  0.002	  0.001	 -0.007	 30.100	 99.506	 -0.141
15009	  0.156	  0.051	  0.195	  0.029	  0.238	 -9.517	  0.004	  0.000	 -0.015	 30.100	 99.506	 -0.141
15059	  0.154	  0.058	  0.208	  0.052	  0.168	 -9.450	  0.002	  0.001	  0.000	 30.100	 99.502	  0.228
15109	  0.155	  0.065	  0.204	 -0.023	  0.222	 -9.472	  0.002	 -0.001	 -0.003	 30.100	 99.506	 -0.141
15159	  0.158	  0.060	  0.204	  0.105	  0.213	 -9.469	  0.003	 -0.003	  0.018	 30.100	 99.502	  0.228
15209	  0.155	  0.059	  0.199	  0.040	  0.219	 -9.482	  0.003	  0.006	  0.017	 30.100	 99.502	  0.228
15259	  0.154	  0.058	  0.196	  0.075	  0.183	 -9.496	  0.003	 -0.000	  0.013	 30.100	 99.489	  1.426
15309	  0.155	  0.059	  0.201	 -0.005	  0.159	 -9.490	  0.002	  0.001	 -0.016	 30.100	 99.494	  0.965
15359	  0.153	  0.058	  0.196	  0.058	  0.175	 -9.479	  0.001	 -0.001	 -0.022	 30.100	 99.506	 -0.141
15409	  0.153	  0.056	  0.205	  0.010	  0.212	 -9.453	  0.002	  0.001	 -0.042	 30.100	 99.494	  0.965
15459	  0.156	  0.065	  0.198	  0.138	  0.221	 -9.471	  0.001	 -0.001	  0.003	 30.100	 99.502	  0.228
15509	  0.154	  0.060	  0.200	  0.015	  0.205	 -9.449	  0.004	 -0.001	  0.010	 30.100	 99.494	  0.965
15559	  0.155	  0.058	  0.203	 -0.018	  0.062	 -9.481	  0.002	  0.003	 -0.027	 30.100	 99.502	  0.228
15609	  0.154	  0.064	  0.200	  0.068	  0.199	 -9.468	  0.003	  0.001	 -0.103	 30.100	 99.506	 -0.141
15659	  0.156	  0.061	  0.199	  7.761	  4.411	 -8.457	  0.095	 -0.757	  0.392	 30.100	 99.506	 -0.141
15709	  0.164	  0.065	  0.193	 -0.604	 -0.014	 -9.552	  0.286	 -0.352	  0.861	 30.100	 99.506	 -0.141
15759	  0.169	  0.039	  0.189	 -0.391	 -0.255	 -9.298	 -0.181	  0.226	  0.529	 30.100	 99.502	  0.228
15809	  0.163	  0.027	  0.194	 -1.154	 -0.353	 -9.630	 -0.187	  0.262	 -0.025	 30.100	 99.502	  0.228
15859	  0.159	  0.031	  0.197	  0.442	  0.372	 -9.268	 -0.075	  0.205	  0.007	 30.100	 99.506	 -0.141
15909	  0.160	  0.029	  0.202	  0.378	  0.339	 -9.389	  0.044	 -0.108	  0.008	 30.100	 99.489	  1.426
15959	  0.159	  0.026	  0.190	 -0.420	  0.018	 -9.534	  0.050	 -0.127	  0.006	 30.100	 99.506	 -0.141
16009	  0.162	  0.027	  0.193	 -0.552	  0.024	 -9.503	 -0.038	  0.109	  0.010	 30.100	 99.494	  0.965
16059	  0.158	  0.023	  0.195	  0.368	  0.488	 -9.480	 -0.083	  0.246	 -0.006	 30.100	 99.502	  0.228
16109	  0.157	  0.027	  0.199	  0.190	  0.236	 -9.480	  0.001	  0.010	  0.011	 30.100	 99.518	 -1.246
16159	  0.159	  0.030	  0.198	 -0.233	  0.163	 -9.595	  0.023	 -0.070	  0.005	 30.100	 99.494	  0.965
16209	  0.159	  0.030	  0.198	 -0.496	  0.167	 -9.513	 -0.006	  0.034	 -0.001	 30.100	 99.506	 -0.141
16259	  0.154	  0.027	  0.202	 -0.092	  0.107	 -9.542	  0.005	  0.007	  0.009	 30.100	 99.506	 -0.141
16309	  0.154	  0.044	  0.201	 -0.289	  0.201	 -9.545	  0.003	  0.002	  0.007	 30.100	 99.502	  0.228
16359	  0.159	  0.029	  0.202	  0.059	  0.212	 -9.455	  0.003	 -0.002	  0.012	 30.100	 99.494	  0.965
16409	  0.157	  0.030	  0.199	  0.064	  0.170	 -9.479	  0.003	 -0.002	  0.010	 30.100	 99.494	  0.965
16459	  0.159	  0.032	  0.197	 -0.125	  0.233	 -9.475	  0.000	 -0.057	  0.011	 30.100	 99.494	  0.965
16509	  0.159	  0.031	  0.201	 -0.052	  0.218	 -9.483	  0.002	  0.010	  0.012	 30.100	 99.489	  1.426
16559	  0.159	  0.027	  0.199	  0.130	  0.184	 -9.450	  0.003	 -0.005	  0.012	 30.100	 99.494	  0.965
16609	  0.157	  0.029	  0.201	  0.348	  0.239	 -9.448	  0.006	  0.008	  0.010	 30.100	 99.494	  0.965
16659	  0.160	  0.029	  0.198	 -0.119	  0.182	 -9.480	  0.002	  0.014	  0.013	 30.100	 99.502	  0.228
16709	  0.155	  0.026	  0.195	 -0.367	  0.138	 -9.553	  0.002	  0.022	  0.010	 30.100	 99.506	 -0.141
16759	  0.158	  0.027	  0.195	  0.017	  0.154	 -9.499	  0.002	 -0.005	  0.011	 30.100	 99.489	  1.426
16809	  0.155	  0.027	  0.198	  0.042	  0.207	 -9.520	  0.002	 -0.003	  0.011	 30.100	 99.502	  0.228
16859	  0.151	  0.025	  0.188	  0.092	  0.199	 -9.450	  0.002	 -0.002	  0.012	 30.100	 99.494	  0.965
16909	  0.157	  0.026	  0.194	 -0.052	  0.190	 -9.473	  0.003	  0.004	  0.011	 30.100	 99.506	 -0.141
16959	  0.155	  0.027	  0.197	  0.090	  0.196	 -9.472	  0.003	 -0.004	  0.011	 30.100	 99.506	 -0.141
17009	  0.154	  0.026	  0.198	  0.184	  0.164	 -9.447	  0.003	 -0.015	  0.011	 30.100	 99.494	  0.965
17059	  0.154	  0.038	  0.191	  0.811	  0.082	 -9.408	  0.003	 -0.016	  0.010	 30.100	 99.506	 -0.141
17109	  0.154	  0.028	  0.186	  0.125	  0.235	 -9.454	  0.002	  0.004	  0.011	 30.100	 99.514	 -0.878
17159	  0.157	  0.037	  0.192	  0.029	  0.193	 -9.451	  0.003	  0.001	  0.010	 30.100	 99.502	  0.228
17209	  0.158	  0.039	  0.194	  0.009	  0.211	 -9.480	  0.003	  0.001	  0.012	 30.100	 99.494	  0.965
17259	  0.157	  0.022	  0.195	 -0.014	  0.161	 -9.516	  0.002	 -0.002	  0.032	 30.100	 99.506	 -0.141
17309	  0.155	  0.025	  0.191	 -0.055	  0.217	 -9.513	  0.005	  0.004	  0.126	 30.100	 99.494	  0.965
17359	  0.158	  0.020	  0.197	 -0.897	  0.167	 -9.514	  0.008	  0.019	  0.098	 30.100	 99.502	  0.228
17409	  0.154	  0.022	  0.192	 -0.726	  0.038	 -9.781	 -0.010	  0.056	  0.106	 30.100	 99.506	 -0.141
17459	  0.152	  0.030	  0.196	  1.963	 -0.269	 -10.266	  0.067	  0.142	  0.190	 30.100	 99.502	  0.228
17509	  0.146	  0.014	  0.200	  1.894	 -1.099	 -11.835	  0.065	  0.092	  0.006	 30.100	 99.494	  0.965
17559	  0.134	  0.012	  0.207	  2.047	 -1.198	 -12.306	 -0.377	  0.291	 -0.245	 30.100	 99.506	 -0.141
17609	  0.110	  0.007	  0.215	  2.649	 -0.163	 -10.585	 -0.559	  0.057	 -0.300	 30.100	 99.506	 -0.141
17659	  0.094	  0.000	  0.218	  1.956	 -0.568	 -9.926	 -0.586	 -0.441	 -0.304	 30.100	 99.502	  0.228
17709	  0.087	 -0.014	  0.204	  2.646	 -0.129	 -9.608	 -0.243	 -0.714	 -0.425	 30.100	 99.506	 -0.141
17759	  0.074	 -0.001	  0.201	  0.001	  0.699	 -9.368	  0.430	 -0.640	 -0.388	 30.100	 99.489	  1.426
17809	  0.070	  0.026	  0.206	  0.545	 -0.044	 -9.580	  1.141	 -0.189	  0.023	 30.100	 99.494	  0.965
17859	  0.052	  0.043	  0.211	  0.608	 -1.814	 -10.886	  0.946	  0.005	  0.153	 30.100	 99.518	 -1.246
17909	  0.037	  0.041	  0.220	  1.142	 -2.342	 -10.684	  0.221	 -0.125	  0.153	 30.100	 99.494	  0.965
17959	  0.024	  0.042	  0.229	 -0.116	 -1.471	 -10.166	 -0.220	 -0.202	  0.120	 30.100	 99.506	 -0.141
18009	  0.015	  0.022	  0.229	 -0.737	 -1.424	 -9.005	 -0.375	 -0.165	  0.956	 30.100	 99.494	  0.965
18059	  0.005	  0.005	  0.237	 -0.958	 -0.680	 -8.397	 -0.070	 -0.071	  1.049	 30.100	 99.506	 -0.141
18109	 -0.005	 -0.012	  0.254	 -1.169	 -0.953	 -8.033	  0.382	 -0.017	  1.313	 30.100	 99.494	  0.965
18159	 -0.015	 -0.006	  0.264	 -0.732	 -0.355	 -8.161	  0.598	  0.295	  0.906	 30.100	 99.506	 -0.141
18209	 -0.037	 -0.019	  0.274	 -2.130	 -0.409	 -9.145	  0.425	  0.564	  1.131	 30.100	 99.506	 -0.141
18259	 -0.062	 -0.032	  0.289	 -1.733	 -0.006	 -8.547	  0.248	  0.796	  1.175	 30.100	 99.506	 -0.141
18309	 -0.085	 -0.034	  0.305	 -1.680	 -0.478	 -8.666	 -0.014	  0.808	  1.173	 30.100	 99.506	 -0.141
18358	 -0.117	 -0.051	  0.310	 -0.407	  0.219	 -8.431	  0.044	  0.765	  1.110	 30.100	 99.489	  1.426
18409	 -0.140	 -0.057	  0.330	 -1.031	 -0.058	 -8.295	  0.350	  0.789	  1.247	 30.100	 99.494	  0.965
18458	 -0.168	 -0.049	  0.337	  0.026	 -0.711	 -8.377	  0.665	  0.754	  1.259	 30.100	 99.489	  1.426
18509	 -0.191	 -0.037	  0.344	  0.425	 -1.505	 -8.931	  0.676	  0.554	  0.883	 30.100	 99.506	 -0.141
18558	 -0.205	 -0.024	  0.342	  0.320	 -1.389	 -9.360	  0.386	  0.266	  0.574	 30.100	 99.494	  0.965
18609	 -0.213	 -0.015	  0.340	 -0.035	 -1.433	 -9.419	  0.159	  0.185	  0.427	 30.100	 99.518	 -1.246
18658	 -0.222	 -0.022	  0.351	 -0.048	 -2.038	 -9.355	  0.014	  0.253	  0.525	 30.100	 99.502	  0.228
18708	 -0.232	 -0.026	  0.337	  0.276	 -2.339	 -8.972	 -0.062	  0.262	  0.605	 30.100	 99.494	  0.965
18758	 -0.234	 -0.025	  0.348	  0.479	 -3.032	 -9.253	 -0.183	 -0.183	  0.542	 30.100	 99.506	 -0.141
18808	 -0.224	 -0.033	  0.342	  0.740	 -2.155	 -9.963	 -0.068	 -0.484	  0.338	 30.100	 99.506	 -0.141
18858	 -0.216	 -0.036	  0.333	  0.424	 -2.186	 -10.460	 -0.142	 -0.657	  0.382	 30.100	 99.506	 -0.141
18908	 -0.206	 -0.042	  0.321	  0.453	 -1.805	 -10.343	 -0.238	 -0.447	  0.551	 30.100	 99.502	  0.228
18958	 -0.201	 -0.052	  0.320	  0.232	 -1.771	 -9.632	 -0.374	 -0.002	  0.527	 30.100	 99.518	 -1.246
19008	 -0.211	 -0.070	  0.315	  1.135	 -1.547	 -9.016	 -0.490	  0.140	  0.498	 30.100	 99.489	  1.426
19059	 -0.218	 -0.071	  0.312	  0.728	 -1.344	 -8.769	 -0.486	 -0.154	  0.164	 30.100	 99.506	 -0.141
19108	 -0.211	 -0.093	  0.300	  0.330	 -0.733	 -8.437	 -0.314	 -0.477	  0.273	 30.100	 99.502	  0.228
19159	 -0.206	 -0.098	  0.296	  0.375	 -0.994	 -7.824	 -0.071	 -0.445	  0.201	 30.100	 99.489	  1.426
19209	 -0.202	 -0.091	  0.290	 -0.429	 -1.305	 -7.817	 -0.099	 -0.484	  0.034	 30.100	 99.494	  0.965
19259	 -0.195	 -0.107	  0.278	 -0.904	 -1.495	 -7.966	 -0.284	 -0.465	 -0.133	 30.100	 99.506	 -0.141
19308	 -0.188	 -0.093	  0.273	 -1.280	 -1.024	 -8.712	 -0.255	 -0.186	 -0.129	 30.100	 99.494	  0.965
19359	 -0.188	 -0.107	  0.256	 -1.004	 -0.835	 -9.475	 -0.092	 -0.062	 -0.263	 30.100	 99.494	  0.965
19408	 -0.190	 -0.098	  0.259	 -0.931	 -0.847	 -10.250	  0.086	  0.010	 -0.445	 30.100	 99.489	  1.426
19459	 -0.191	 -0.098	  0.252	 -1.189	 -0.413	 -11.390	  0.204	  0.072	 -0.541	 30.100	 99.506	 -0.141
19509	 -0.198	 -0.088	  0.248	 -0.599	  0.586	 -11.972	  0.288	 -0.082	 -0.558	 30.100	 99.494	  0.965
19559	 -0.194	 -0.079	  0.247	 -0.255	 -0.004	 -12.083	  0.373	  0.043	 -0.382	 30.100	 99.494	  0.965
19609	 -0.201	 -0.069	  0.237	 -0.574	 -0.284	 -11.066	  0.039	  0.013	 -0.596	 30.100	 99.494	  0.965
19659	 -0.199	 -0.070	  0.237	 -0.973	 -0.069	 -9.701	 -0.286	 -0.047	 -0.912	 30.100	 99.494	  0.965
19709	 -0.197	 -0.068	  0.233	 -1.780	  0.635	 -8.502	 -0.173	  0.224	 -0.938	 30.100	 99.489	  1.426
19759	 -0.207	 -0.064	  0.238	 -1.214	 -0.402	 -7.203	 -0.097	  0.405	 -0.471	 30.100	 99.494	  0.965
19809	 -0.213	 -0.072	  0.235	 -1.178	 -0.587	 -6.698	 -0.089	  0.283	 -0.367	 30.100	 99.506	 -0.141
19859	 -0.218	 -0.074	  0.231	 -0.908	 -0.848	 -7.987	 -0.005	 -0.089	 -0.303	 30.100	 99.494	  0.965
19909	 -0.211	 -0.068	  0.219	 -1.266	 -0.529	 -9.814	  0.067	 -0.026	 -0.314	 30.100	 99.506	 -0.141
19959	 -0.217	 -0.067	  0.227	 -0.540	 -0.236	 -10.297	  0.218	  0.334	 -0.072	 30.100	 99.506	 -0.141
20009	 -0.227	 -0.074	  0.216	  0.647	 -0.487	 -10.218	  0.307	  0.432	 -0.364	 30.100	 99.494	  0.965
20059	 -0.224	 -0.055	  0.220	 -0.518	 -0.573	 -10.871	  0.048	 -0.066	 -0.703	 30.100	 99.494	  0.965
20109	 -0.216	 -0.059	  0.211	 -0.714	  0.121	 -10.647	  0.017	 -0.166	 -0.383	 30.100	 99.506	 -0.141
20159	 -0.217	 -0.063	  0.201	  0.559	  0.236	 -10.026	  0.060	  0.227	 -0.151	 30.100	 99.489	  1.426
20209	 -0.220	 -0.058	  0.208	  1.556	 -0.257	 -10.263	  0.166	 -0.161	 -0.546	 30.100	 99.502	  0.228
20259	 -0.212	 -0.049	  0.201	  0.429	 -0.131	 -8.953	  0.055	 -0.524	 -0.579	 30.100	 99.506	 -0.141
20309	 -0.198	 -0.041	  0.189	  0.331	 -0.199	 -7.830	  0.164	 -0.607	 -0.732	 30.100	 99.502	  0.228
20359	 -0.187	 -0.059	  0.171	 -0.612	 -1.011	 -7.899	  0.082	 -0.555	 -0.929	 30.100	 99.494	  0.965
20409	 -0.171	 -0.053	  0.176	 -0.860	 -0.943	 -7.989	 -0.190	 -0.420	 -1.016	 30.100	 99.502	  0.228
20459	 -0.163	 -0.063	  0.164	 -1.292	 -0.785	 -8.153	 -0.105	 -0.045	 -0.962	 30.100	 99.494	  0.965
20509	 -0.164	 -0.065	  0.164	 -0.811	 -0.878	 -8.535	  0.022	  0.168	 -1.015	 30.100	 99.494	  0.965
20559	 -0.164	 -0.074	  0.162	 -0.618	 -1.190	 -9.046	  0.052	 -0.086	 -1.269	 30.100	 99.489	  1.426
20609	 -0.157	 -0.064	  0.157	 -0.588	 -0.288	 -9.663	  0.062	 -0.196	 -1.273	 30.100	 99.494	  0.965
20659	 -0.148	 -0.074	  0.147	 -0.414	 -0.325	 -11.141	  0.441	 -0.223	 -1.129	 30.100	 99.489	  1.426
20709	 -0.139	 -0.077	  0.146	 -1.088	 -1.376	 -12.127	  0.178	 -0.191	 -1.185	 30.100	 99.494	  0.965
20759	 -0.125	 -0.082	  0.146	 -0.704	 -0.833	 -11.659	 -0.286	 -0.268	 -1.262	 30.100	 99.506	 -0.141
20809	 -0.102	 -0.087	  0.134	 -1.497	  0.148	 -10.395	 -0.512	 -0.313	 -1.259	 30.100	 99.494	  0.965
20859	 -0.087	 -0.082	  0.125	 -0.542	 -0.054	 -8.328	 -0.391	 -0.067	 -1.454	 30.100	 99.494	  0.965
20909	 -0.070	 -0.060	  0.127	 -0.622	  1.160	 -8.863	  0.225	  0.267	 -1.738	 30.100	 99.494	  0.965
20959	 -0.061	 -0.016	  0.124	 -0.792	 -0.679	 -8.904	  0.609	  0.507	 -1.198	 30.100	 99.494	  0.965
21009	 -0.056	  0.021	  0.140	 -0.989	 -1.892	 -8.551	  0.053	  0.655	 -1.095	 30.100	 99.494	  0.965
21059	 -0.058	  0.041	  0.147	 -0.708	 -1.845	 -8.587	 -0.714	  0.365	 -0.722	 30.100	 99.502	  0.228
21109	 -0.063	  0.059	  0.157	 -0.067	 -0.921	 -8.523	 -0.763	  0.075	 -0.631	 30.100	 99.494	  0.965
21159	 -0.066	  0.069	  0.159	  0.509	 -0.568	 -9.005	 -0.187	 -0.149	 -0.646	 30.100	 99.506	 -0.141
21209	 -0.075	  0.108	  0.160	  0.631	  0.253	 -9.881	  0.631	 -0.294	 -0.599	 30.100	 99.506	 -0.141
21259	 -0.074	  0.150	  0.156	  0.541	 -0.795	 -10.931	  1.092	 -0.366	 -0.133	 30.100	 99.506	 -0.141
21309	 -0.083	  0.182	  0.142	  0.563	 -1.800	 -11.843	  0.874	 -0.277	  0.287	 30.100	 99.494	  0.965
21359	 -0.090	  0.193	  0.152	  1.769	 -2.496	 -11.703	  0.285	 -0.060	  0.714	 30.100	 99.494	  0.965
21409	 -0.093	  0.193	  0.150	  1.930	 -2.272	 -10.611	 -0.309	  0.049	  0.345	 30.100	 99.506	 -0.141
21459	 -0.095	  0.194	  0.172	  1.079	 -1.677	 -8.510	 -0.866	 -0.089	  0.158	 30.100	 99.494	  0.965
21509	 -0.100	  0.192	  0.184	  0.532	 -0.952	 -6.869	 -0.809	 -0.191	  0.053	 30.100	 99.506	 -0.141
21559	 -0.106	  0.168	  0.198	 -0.091	 -0.955	 -6.948	 -0.508	 -0.326	 -0.216	 30.100	 99.494	  0.965
21609	 -0.108	  0.168	  0.199	 -0.918	 -0.822	 -7.695	 -0.126	 -0.426	 -0.127	 30.100	 99.494	  0.965
21659	 -0.109	  0.168	  0.199	 -0.926	 -0.964	 -8.414	  0.355	 -0.203	 -0.129	 30.100	 99.502	  0.228
21709	 -0.114	  0.188	  0.193	 -0.516	 -1.311	 -9.633	  0.559	 -0.167	 -0.261	 30.100	 99.514	 -0.878
21759	 -0.124	  0.197	  0.191	 -0.521	 -1.565	 -10.576	  0.364	 -0.189	 -0.426	 30.100	 99.506	 -0.141
21809	 -0.130	  0.212	  0.203	 -0.245	 -1.141	 -11.123	  0.159	 -0.188	 -0.599	 30.100	 99.494	  0.965
21859	 -0.137	  0.210	  0.206	 -1.100	 -1.286	 -11.492	 -0.024	 -0.133	 -0.612	 30.100	 99.494	  0.965
21909	 -0.136	  0.217	  0.205	 -0.573	 -0.178	 -10.602	  0.010	 -0.234	 -0.508	 30.100	 99.494	  0.965
21959	 -0.141	  0.226	  0.202	 -0.690	 -0.477	 -9.979	  0.253	 -0.284	 -0.515	 30.100	 99.506	 -0.141
22009	 -0.144	  0.241	  0.212	 -0.899	 -0.208	 -10.103	  0.245	  0.024	 -0.911	 30.100	 99.506	 -0.141
22059	 -0.159	  0.254	  0.209	 -0.894	 -0.250	 -9.402	  0.083	  0.227	 -0.873	 30.100	 99.506	 -0.141
22109	 -0.165	  0.264	  0.220	 -1.151	 -0.027	 -7.615	 -0.130	  0.114	 -0.800	 30.100	 99.494	  0.965
22159	 -0.175	  0.267	  0.224	 -1.402	 -0.652	 -6.735	 -0.055	  0.172	 -0.596	 30.100	 99.494	  0.965
22209	 -0.188	  0.273	  0.234	 -1.759	 -1.259	 -7.405	  0.055	  0.226	 -0.371	 30.100	 99.494	  0.965
22259	 -0.191	  0.279	  0.229	 -1.158	 -1.620	 -8.482	  0.183	  0.068	 -0.172	 30.100	 99.506	 -0.141
22309	 -0.192	  0.287	  0.233	 -0.933	 -1.626	 -9.441	  0.343	 -0.118	 -0.111	 30.100	 99.481	  2.164
22359	 -0.181	  0.305	  0.223	 -0.793	 -1.686	 -10.231	  0.490	 -0.121	 -0.119	 30.100	 99.494	  0.965
22409	 -0.179	  0.320	  0.215	 -0.889	 -1.764	 -10.917	  0.305	  0.007	  0.110	 30.100	 99.494	  0.965
22459	 -0.174	  0.325	  0.226	  0.046	 -2.274	 -11.414	 -0.096	  0.252	  0.282	 30.100	 99.506	 -0.141
22509	 -0.172	  0.320	  0.222	  0.594	 -1.803	 -11.770	 -0.302	  0.243	  0.268	 30.100	 99.506	 -0.141
22559	 -0.168	  0.306	  0.229	  0.946	 -1.879	 -10.763	 -0.496	  0.012	  0.248	 30.100	 99.506	 -0.141
22609	 -0.156	  0.298	  0.229	  0.918	 -0.946	 -9.442	 -0.214	 -0.051	  0.147	 30.100	 99.494	  0.965
22659	 -0.145	  0.297	  0.233	  0.590	 -0.883	 -8.577	  0.026	 -0.288	 -0.171	 30.100	 99.502	  0.228
22709	 -0.140	  0.292	  0.213	 -0.009	 -1.159	 -7.511	  0.061	 -0.406	 -0.373	 30.100	 99.494	  0.965
22759	 -0.133	  0.283	  0.217	 -0.725	 -1.308	 -7.077	 -0.070	 -0.488	 -0.561	 30.100	 99.494	  0.965
22809	 -0.128	  0.279	  0.208	 -1.191	 -1.488	 -7.616	 -0.095	 -0.285	 -0.669	 30.100	 99.506	 -0.141
22859	 -0.133	  0.288	  0.197	 -1.487	 -1.205	 -8.303	 -0.009	 -0.076	 -0.756	 30.100	 99.506	 -0.141
22909	 -0.140	  0.277	  0.189	 -0.951	 -1.564	 -8.862	 -0.052	 -0.153	 -0.933	 30.100	 99.494	  0.965
22958	 -0.146	  0.277	  0.186	 -1.176	 -1.430	 -9.138	 -0.123	 -0.378	 -1.259	 30.100	 99.494	  0.965
23008	 -0.155	  0.283	  0.176	 -1.129	 -1.245	 -9.570	 -0.119	 -0.428	 -1.244	 30.100	 99.506	 -0.141
23058	 -0.168	  0.266	  0.164	 -1.283	 -0.393	 -11.376	  0.277	 -0.327	 -1.302	 30.100	 99.494	  0.965
23108	 -0.179	  0.265	  0.162	 -1.008	 -0.583	 -12.266	  0.484	 -0.282	 -1.053	 30.100	 99.494	  0.965
23158	 -0.193	  0.269	  0.145	 -0.874	 -1.548	 -11.573	  0.174	 -0.620	 -1.095	 30.100	 99.494	  0.965
23209	 -0.205	  0.261	  0.153	 -1.187	 -0.659	 -10.855	 -0.358	 -0.781	 -1.712	 30.100	 99.494	  0.965
23259	 -0.220	  0.257	  0.167	 -2.038	 -0.450	 -9.394	 -0.478	 -0.157	 -1.481	 30.100	 99.494	  0.965
23308	 -0.239	  0.248	  0.186	 -1.184	 -0.462	 -8.056	 -0.500	  0.189	 -1.137	 30.100	 99.510	 -0.509
23358	 -0.260	  0.236	  0.197	 -1.056	 -1.410	 -7.320	 -0.585	  0.183	 -0.806	 30.100	 99.494	  0.965
23408	 -0.272	  0.219	  0.209	 -0.899	 -1.550	 -7.111	 -0.527	  0.177	 -0.729	 30.100	 99.494	  0.965
23458	 -0.291	  0.210	  0.221	 -0.535	 -1.236	 -7.943	 -0.136	  0.128	 -0.829	 30.100	 99.494	  0.965
23508	 -0.301	  0.207	  0.233	 -0.826	 -1.487	 -8.981	  0.309	  0.079	 -0.839	 30.100	 99.506	 -0.141
23558	 -0.318	  0.205	  0.223	 -1.006	 -1.143	 -9.944	  0.543	  0.182	 -0.567	 30.100	 99.506	 -0.141
23608	 -0.324	  0.233	  0.240	 -0.852	 -1.942	 -11.078	  0.482	  0.299	 -0.374	 30.100	 99.506	 -0.141
23658	 -0.345	  0.238	  0.239	  0.253	 -1.511	 -11.672	  0.344	  0.699	  0.117	 30.100	 99.518	 -1.246
23708	 -0.361	  0.239	  0.235	  1.801	 -2.450	 -11.676	  0.250	  0.671	  0.225	 30.100	 99.506	 -0.141
23758	 -0.372	  0.233	  0.239	  1.354	 -2.634	 -10.061	 -0.079	  0.112	  0.149	 30.100	 99.506	 -0.141
23808	 -0.372	  0.243	  0.240	  1.288	 -1.590	 -8.404	 -0.207	 -0.357	 -0.246	 30.100	 99.494	  0.965
23858	 -0.371	  0.228	  0.249	  0.039	 -1.401	 -7.966	 -0.113	 -0.657	 -0.345	 30.100	 99.494	  0.965
23908	 -0.361	  0.229	  0.244	 -0.251	 -1.469	 -7.159	 -0.178	 -0.809	 -0.438	 30.100	 99.494	  0.965
23958	 -0.353	  0.228	  0.255	 -1.293	 -0.986	 -7.280	  0.049	 -0.521	 -0.332	 30.100	 99.506	 -0.141
24008	 -0.354	  0.236	  0.253	 -1.457	 -1.598	 -7.796	  0.425	 -0.045	  0.241	 30.100	 99.506	 -0.141
24058	 -0.355	  0.246	  0.245	 -0.475	 -2.391	 -8.449	  0.721	  0.123	  0.355	 30.100	 99.494	  0.965
24108	 -0.363	  0.265	  0.235	  0.024	 -2.423	 -9.561	  0.932	  0.257	  0.018	 30.100	 99.506	 -0.141
24158	 -0.379	  0.291	  0.219	  0.610	 -2.368	 -10.217	  1.227	  0.555	 -0.291	 30.100	 99.498	  0.596
24208	 -0.413	  0.322	  0.197	  0.345	 -3.429	 -10.952	  1.056	  0.956	 -0.849	 30.100	 99.494	  0.965
24258	 -0.445	  0.339	  0.183	  0.790	 -3.406	 -11.635	  0.326	  0.762	 -0.836	 30.100	 99.506	 -0.141
24308	 -0.474	  0.317	  0.184	  1.123	 -3.496	 -10.898	 -0.631	  0.184	 -0.575	 30.100	 99.494	  0.965
24358	 -0.479	  0.297	  0.191	  1.519	 -2.253	 -9.641	 -0.893	 -0.464	 -0.646	 30.100	 99.506	 -0.141
24408	 -0.481	  0.272	  0.210	  0.841	 -1.247	 -8.175	 -0.422	 -0.639	 -0.392	 30.100	 99.506	 -0.141
24459	 -0.475	  0.277	  0.222	  0.202	 -2.036	 -7.501	 -0.081	 -0.811	 -0.101	 30.100	 99.494	  0.965
24508	 -0.463	  0.272	  0.235	 -0.052	 -2.720	 -7.264	 -0.117	 -0.761	 -0.003	 30.100	 99.494	  0.965
24558	 -0.452	  0.278	  0.235	 -0.520	 -2.904	 -7.942	 -0.343	 -0.632	 -0.115	 30.100	 99.506	 -0.141
24608	 -0.441	  0.280	  0.260	 -0.806	 -3.180	 -8.839	 -0.536	 -0.365	 -0.007	 30.100	 99.502	  0.228
24658	 -0.445	  0.278	  0.269	 -1.476	 -2.413	 -8.629	 -0.323	  0.174	  0.207	 30.100	 99.498	  0.596
24708	 -0.453	  0.278	  0.262	 -0.864	 -2.038	 -8.448	  0.427	  1.043	  0.388	 30.100	 99.494	  0.965
24759	 -0.474	  0.312	  0.242	  1.293	 -2.804	 -8.642	  1.079	  1.050	  0.317	 30.100	 99.506	 -0.141
24808	 -0.482	  0.341	  0.222	  1.820	 -4.516	 -9.445	  0.726	  0.172	 -0.030	 30.100	 99.489	  1.426
24858	 -0.474	  0.354	  0.207	  2.393	 -3.562	 -11.058	  0.220	 -0.482	  0.015	 30.100	 99.506	 -0.141
24909	 -0.458	  0.368	  0.210	  2.308	 -3.130	 -11.912	  0.090	 -0.356	  0.417	 30.100	 99.498	  0.596
24959	 -0.440	  0.382	  0.211	  1.863	 -4.390	 -10.935	 -0.081	  0.160	  1.057	 30.100	 99.506	 -0.141
25009	 -0.420	  0.368	  0.219	  2.471	 -4.734	 -9.045	 -0.858	 -0.066	  0.938	 30.100	 99.494	  0.965
25058	 -0.398	  0.353	  0.238	  1.614	 -3.580	 -7.452	 -1.515	 -0.504	  0.682	 30.100	 99.494	  0.965
25109	 -0.375	  0.309	  0.260	  0.747	 -1.968	 -6.590	 -1.484	 -0.622	  0.502	 30.100	 99.506	 -0.141
25159	 -0.351	  0.284	  0.281	 -0.115	 -1.321	 -7.208	 -1.048	 -0.813	  0.757	 30.100	 99.506	 -0.141
25209	 -0.319	  0.256	  0.281	 -0.240	 -2.249	 -8.228	 -0.499	 -0.817	  0.846	 30.100	 99.506	 -0.141
25259	 -0.294	  0.245	  0.285	 -0.997	 -2.081	 -8.984	 -0.103	 -0.722	  0.456	 30.100	 99.494	  0.965
25309	 -0.277	  0.253	  0.285	 -1.815	 -2.555	 -9.894	  0.008	 -0.322	  0.259	 30.100	 99.502	  0.228
25359	 -0.273	  0.239	  0.274	 -1.352	 -2.114	 -9.891	  0.053	 -0.133	 -0.161	 30.100	 99.506	 -0.141
25409	 -0.278	  0.242	  0.272	 -1.726	 -1.826	 -10.888	  0.232	  0.118	 -0.115	 30.100	 99.506	 -0.141
25459	 -0.282	  0.239	  0.273	 -1.196	 -1.530	 -10.316	  0.058	  0.154	 -0.097	 30.100	 99.494	  0.965
25509	 -0.289	  0.242	  0.265	 -1.418	 -1.148	 -10.040	 -0.024	 -0.161	 -0.246	 30.100	 99.506	 -0.141
25559	 -0.280	  0.249	  0.273	 -2.162	 -0.667	 -10.218	 -0.026	 -0.314	  0.197	 30.100	 99.502	  0.228
25609	 -0.271	  0.235	  0.267	 -1.755	 -0.126	 -9.812	  0.056	 -0.256	  0.492	 30.100	 99.494	  0.965
25659	 -0.265	  0.230	  0.273	 -1.961	 -0.713	 -9.272	  0.003	 -0.102	  0.243	 30.100	 99.506	 -0.141
25709	 -0.264	  0.227	  0.277	 -1.883	 -0.646	 -9.085	 -0.206	  0.050	 -0.003	 30.100	 99.494	  0.965
25759	 -0.269	  0.221	  0.284	 -2.336	 -0.434	 -8.584	 -0.296	  0.137	 -0.098	 30.100	 99.494	  0.965
25809	 -0.272	  0.213	  0.294	 -2.693	 -0.809	 -8.387	 -0.240	  0.368	 -0.035	 30.100	 99.506	 -0.141
25859	 -0.283	  0.201	  0.294	 -2.268	 -0.785	 -8.647	 -0.091	  0.427	  0.075	 30.100	 99.506	 -0.141
25909	 -0.289	  0.210	  0.307	 -1.845	 -0.725	 -9.044	  0.134	  0.206	  0.003	 30.100	 99.506	 -0.141
25959	 -0.291	  0.210	  0.307	 -2.225	 -0.735	 -9.584	  0.259	  0.049	 -0.022	 30.100	 99.506	 -0.141
26009	 -0.284	  0.212	  0.315	 -2.118	 -0.693	 -9.759	  0.389	  0.122	  0.137	 30.100	 99.494	  0.965
26059	 -0.285	  0.224	  0.322	 -1.506	 -1.015	 -9.735	  0.533	  0.139	  0.020	 30.100	 99.494	  0.965
26109	 -0.281	  0.235	  0.330	 -1.908	 -1.450	 -9.980	  0.541	  0.182	 -0.087	 30.100	 99.506	 -0.141
26159	 -0.282	  0.252	  0.338	 -1.439	 -1.146	 -9.695	  0.550	  0.434	 -0.093	 30.100	 99.494	  0.965
26209	 -0.278	  0.267	  0.350	 -0.341	 -1.128	 -9.833	  0.577	  0.314	 -0.188	 30.100	 99.494	  0.965
26259	 -0.269	  0.281	  0.364	 -0.731	 -1.770	 -9.011	  0.181	  0.080	 -0.178	 30.100	 99.498	  0.596
26309	 -0.257	  0.291	  0.375	  0.442	 -0.951	 -8.121	 -0.152	 -0.014	 -0.703	 30.100	 99.510	 -0.509
26359	 -0.241	  0.289	  0.408	 -0.950	 -0.403	 -7.081	 -0.107	 -0.089	 -0.537	 30.100	 99.494	  0.965
26409	 -0.226	  0.304	  0.433	  0.445	 -0.329	 -7.153	  0.212	  0.086	 -0.814	 30.100	 99.494	  0.965
26459	 -0.207	  0.332	  0.452	 -0.072	 -0.276	 -8.044	  0.374	 -0.196	 -0.801	 30.100	 99.506	 -0.141
26509	 -0.185	  0.356	  0.470	  0.175	 -0.666	 -9.040	  0.472	 -0.152	 -1.122	 30.100	 99.506	 -0.141
26559	 -0.175	  0.393	  0.492	 -0.426	 -0.860	 -10.193	  0.147	 -0.223	 -1.056	 30.100	 99.494	  0.965
26609	 -0.157	  0.416	  0.523	 -0.136	 -0.559	 -10.272	 -0.161	 -0.197	 -0.900	 30.100	 99.481	  2.164
26659	 -0.142	  0.424	  0.553	 -0.015	 -1.244	 -10.178	 -0.466	 -0.185	 -0.716	 30.100	 99.506	 -0.141
26709	 -0.128	  0.417	  0.593	 -0.447	 -0.460	 -9.622	 -0.639	 -0.041	 -0.637	 30.100	 99.494	  0.965
26759	 -0.129	  0.408	  0.626	 -0.502	 -0.262	 -9.357	 -0.659	  0.163	 -0.485	 30.100	 99.506	 -0.141
26809	 -0.130	  0.403	  0.652	  0.124	 -0.400	 -9.245	 -0.562	  0.137	 -0.372	 30.100	 99.494	  0.965
26859	 -0.132	  0.389	  0.673	  0.472	 -0.335	 -8.681	 -0.423	  0.026	 -0.483	 30.100	 99.506	 -0.141
26909	 -0.132	  0.388	  0.691	 -0.166	  0.383	 -8.989	 -0.175	 -0.285	 -0.234	 30.100	 99.502	  0.228
26959	 -0.117	  0.387	  0.699	 -0.171	 -0.423	 -9.724	 -0.076	 -0.240	  0.046	 30.100	 99.477	  2.533
27009	 -0.106	  0.392	  0.718	  0.750	 -0.629	 -10.169	 -0.112	 -0.162	 -0.053	 30.100	 99.506	 -0.141
27059	 -0.105	  0.388	  0.726	 -0.639	 -0.945	 -10.630	 -0.254	  0.097	 -0.207	 30.100	 99.506	 -0.141
27109	 -0.109	  0.377	  0.747	 -0.612	 -1.064	 -10.301	 -0.571	  0.152	  0.197	 30.100	 99.506	 -0.141
27159	 -0.113	  0.349	  0.762	 -0.204	 -0.626	 -9.567	 -0.654	  0.288	  0.321	 30.100	 99.506	 -0.141
27209	 -0.123	  0.328	  0.784	  0.319	 -0.149	 -8.953	 -0.405	  0.324	  0.289	 30.100	 99.506	 -0.141
27259	 -0.123	  0.319	  0.796	 -0.400	 -0.162	 -9.984	  0.020	  0.179	  0.005	 30.100	 99.506	 -0.141
27309	 -0.140	  0.348	  0.811	 -0.599	 -0.385	 -9.674	  0.346	  0.742	  0.067	 30.100	 99.489	  1.426
27359	 -0.168	  0.371	  0.817	  0.215	  4.345	 -8.758	  0.545	  0.446	  0.086	 30.100	 99.489	  1.426
27409	 -0.158	  0.409	  0.825	  0.199	 -1.174	 -8.997	  0.452	 -0.306	  0.251	 30.100	 99.494	  0.965
27459	 -0.120	  0.437	  0.821	  0.564	 -0.984	 -9.393	  0.435	 -0.652	  0.276	 30.100	 99.502	  0.228
27509	 -0.065	  0.456	  0.814	 -0.003	 -0.866	 -9.722	  0.231	 -1.005	  0.378	 30.100	 99.494	  0.965
27559	 -0.003	  0.470	  0.808	 -0.836	 -1.577	 -10.617	  0.133	 -0.437	  0.123	 30.100	 99.506	 -0.141
27609	  0.002	  0.478	  0.819	 -0.578	 -2.158	 -10.270	 -0.115	  0.321	 -0.228	 30.100	 99.506	 -0.141
27659	 -0.024	  0.472	  0.840	 -0.107	 -1.689	 -9.533	 -0.538	  0.600	 -0.363	 30.100	 99.506	 -0.141
27709	 -0.064	  0.450	  0.857	  0.112	 -0.793	 -9.361	 -0.763	  0.548	 -0.401	 30.100	 99.494	  0.965
27759	 -0.083	  0.418	  0.883	  0.126	  0.160	 -9.704	 -0.705	  0.444	 -0.105	 30.100	 99.506	 -0.141
27809	 -0.107	  0.384	  0.891	  0.283	  0.279	 -9.601	 -0.334	  0.485	  0.200	 30.100	 99.506	 -0.141
27859	 -0.113	  0.391	  0.905	  0.891	 -0.075	 -8.843	 -0.273	 -0.158	 -0.013	 30.100	 99.494	  0.965
27909	 -0.086	  0.375	  0.907	  0.142	  0.476	 -9.007	  0.037	 -0.518	 -0.113	 30.100	 99.506	 -0.141
27959	 -0.065	  0.393	  0.903	 -0.534	  0.185	 -9.038	  0.464	 -0.131	  0.106	 30.100	 99.506	 -0.141
28009	 -0.042	  0.424	  0.905	  0.491	 -0.629	 -10.054	  0.494	 -0.205	  0.296	 30.100	 99.506	 -0.141
28059	 -0.011	  0.462	  0.898	  0.007	 -0.848	 -9.741	  0.341	 -0.262	  0.233	 30.100	 99.494	  0.965
28109	  0.008	  0.469	  0.889	 -1.300	 -0.776	 -9.866	  0.220	  0.044	  0.130	 30.100	 99.494	  0.965
28159	  0.009	  0.483	  0.893	 -1.327	 -0.804	 -9.237	  0.139	  0.096	  0.022	 30.100	 99.506	 -0.141
28209	  0.004	  0.485	  0.896	  0.289	 -1.363	 -9.886	 -0.017	  0.211	 -0.016	 30.100	 99.494	  0.965
28259	  0.001	  0.486	  0.901	  0.002	 -0.624	 -9.115	 -0.281	 -0.073	 -0.042	 30.100	 99.494	  0.965
28309	  0.015	  0.462	  0.906	 -0.317	  0.055	 -9.066	 -0.287	 -0.363	  0.204	 30.100	 99.506	 -0.141
28359	  0.047	  0.448	  0.909	 -0.617	 -0.408	 -9.969	 -0.179	 -0.198	  0.450	 30.100	 99.506	 -0.141
28409	  0.049	  0.427	  0.916	 -0.368	 -1.005	 -10.957	 -0.369	  0.393	  0.238	 30.100	 99.494	  0.965
28459	  0.017	  0.389	  0.922	  1.249	 -0.898	 -9.318	 -0.607	  0.414	 -0.079	 30.100	 99.502	  0.228
28509	 -0.001	  0.359	  0.936	  0.498	  0.686	 -8.271	 -0.499	  0.088	 -0.223	 30.100	 99.506	 -0.141
28559	 -0.001	  0.353	  0.937	  0.421	  0.962	 -8.953	  0.197	 -0.135	  0.009	 30.100	 99.506	 -0.141
28609	  0.020	  0.391	  0.938	  0.147	 -0.094	 -9.154	  0.584	 -0.265	 -0.187	 30.100	 99.502	  0.228
28659	  0.037	  0.437	  0.931	  0.180	 -0.623	 -9.658	  0.638	 -0.160	 -0.381	 30.100	 99.494	  0.965
28709	  0.050	  0.484	  0.933	  0.075	 -0.721	 -9.712	  0.568	 -0.129	 -0.260	 30.100	 99.494	  0.965
28759	  0.063	  0.522	  0.926	 -0.393	 -0.680	 -9.361	  0.475	 -0.014	 -0.026	 30.100	 99.506	 -0.141
28809	  0.074	  0.570	  0.926	 -0.308	 -0.437	 -8.693	  0.417	  0.239	 -0.046	 30.100	 99.494	  0.965
28859	  0.066	  0.596	  0.941	  0.797	 -0.666	 -8.536	  0.314	  0.543	 -0.578	 30.100	 99.506	 -0.141
28909	  0.042	  0.605	  0.950	  2.934	 -2.953	 -8.743	 -0.213	 -0.074	  0.028	 30.100	 99.506	 -0.141
28959	  0.047	  0.596	  0.959	 -0.341	  0.343	 -9.746	 -0.099	 -0.010	  0.017	 30.100	 99.494	  0.965
29009	  0.048	  0.593	  0.962	  0.418	 -1.222	 -9.463	 -0.015	 -0.003	  0.009	 30.100	 99.494	  0.965
29059	  0.047	  0.595	  0.966	  0.303	 -1.182	 -9.462	 -0.009	 -0.001	  0.010	 30.100	 99.489	  1.426
29109	  0.049	  0.595	  0.957	  0.349	 -0.986	 -9.370	  0.002	 -0.001	  0.011	 30.100	 99.506	 -0.141
29159	  0.048	  0.600	  0.962	  0.245	 -1.049	 -9.440	  0.003	 -0.001	  0.012	 30.100	 99.494	  0.965
29209	  0.046	  0.595	  0.961	  0.301	 -1.063	 -9.459	  0.002	 -0.002	  0.011	 30.100	 99.506	 -0.141
29259	  0.051	  0.594	  0.960	  0.237	 -0.877	 -9.452	  0.003	 -0.004	  0.011	 30.100	 99.494	  0.965
29309	  0.048	  0.599	  0.954	  0.325	 -0.976	 -9.452	  0.003	 -0.001	  0.010	 30.100	 99.494	  0.965
29359	  0.049	  0.602	  0.962	  0.304	 -0.994	 -9.415	  0.002	 -0.001	  0.011	 30.100	 99.518	 -1.246
29409	  0.052	  0.600	  0.961	  0.352	 -0.935	 -9.428	  0.003	 -0.002	  0.011	 30.100	 99.506	 -0.141
29459	  0.050	  0.618	  0.962	  0.298	 -0.973	 -9.405	  0.004	 -0.001	  0.012	 30.100	 99.506	 -0.141
29509	  0.050	  0.607	  0.959	  0.311	 -0.902	 -9.219	  0.006	  0.001	  0.012	 30.100	 99.502	  0.228
29559	  0.052	  0.600	  0.959	  0.291	 -1.235	 -9.475	  0.007	 -0.003	  0.013	 30.100	 99.494	  0.965
29609	  0.051	  0.595	  0.961	  0.235	 -0.964	 -9.133	  0.010	  0.002	  0.013	 30.100	 99.502	  0.228
29659	  0.047	  0.598	  0.959	  0.062	 -0.954	 -9.317	  0.011	  0.005	  0.011	 30.100	 99.494	  0.965
29709	  0.045	  0.596	  0.957	  0.224	 -0.905	 -9.460	  0.006	  0.001	  0.012	 30.100	 99.489	  1.426
29759	  0.046	  0.599	  0.954	  0.202	 -0.966	 -9.537	  0.003	 -0.003	  0.012	 30.100	 99.489	  1.426
29809	  0.049	  0.602	  0.962	  0.263	 -0.942	 -9.493	  0.003	 -0.006	  0.011	 30.100	 99.489	  1.426
29859	  0.049	  0.598	  0.962	  0.226	 -0.836	 -9.429	  0.002	 -0.002	  0.012	 30.100	 99.494	  0.965
29909	  0.051	  0.593	  0.947	  0.335	 -0.924	 -9.416	  0.005	 -0.001	  0.012	 30.100	 99.494	  0.965
29959	  0.047	  0.599	  0.959	  0.306	 -0.983	 -9.401	  0.003	  0.001	  0.008	 30.100	 99.502	  0.228
30009	  0.053	  0.597	  0.961	  0.293	 -0.997	 -9.460	  0.003	  0.001	  0.011	 30.100	 99.494	  0.965
30059	  0.048	  0.599	  0.959	  0.246	 -1.021	 -9.478	  0.003	 -0.000	  0.011	 30.100	 99.506	 -0.141
30109	  0.051	  0.598	  0.959	  0.310	 -0.956	 -9.453	  0.001	  0.001	  0.011	 30.100	 99.502	  0.228
30159	  0.051	  0.599	  0.959	  0.249	 -0.981	 -9.475	  0.001	 -0.000	  0.011	 30.100	 99.506	 -0.141
30209	  0.053	  0.596	  0.957	  0.314	 -0.974	 -9.415	  0.001	 -0.001	  0.012	 30.100	 99.506	 -0.141
30259	  0.051	  0.594	  0.961	  0.292	 -0.967	 -9.417	  0.004	 -0.002	  0.011	 30.100	 99.506	 -0.141
30310	  0.051	  0.598	  0.957	  0.329	 -0.967	 -9.454	  0.002	 -0.000	  0.010	 30.100	 99.494	  0.965
30360	  0.052	  0.605	  0.965	  0.273	 -0.963	 -9.414	  0.001	  0.001	  0.010	 30.100	 99.506	 -0.141
30410	  0.048	  0.607	  0.955	  0.321	 -0.980	 -9.436	  0.002	  0.001	  0.011	 30.100	 99.489	  1.426
30459	  0.049	  0.602	  0.959	  0.258	 -0.969	 -9.433	  0.002	 -0.001	  0.012	 30.100	 99.506	 -0.141
30509	  0.052	  0.599	  0.962	  0.356	 -0.985	 -9.437	  0.002	 -0.003	  0.010	 30.100	 99.489	  1.426
30559	  0.046	  0.598	  0.955	  0.280	 -0.975	 -9.430	  0.002	 -0.000	  0.011	 30.100	 99.502	  0.228
30610	  0.052	  0.597	  0.960	  0.331	 -0.940	 -9.439	  0.002	 -0.001	  0.012	 30.100	 99.506	 -0.141
30660	  0.049	  0.596	  0.958	  0.275	 -0.988	 -9.467	  0.002	 -0.001	  0.011	 30.100	 99.506	 -0.141
30709	  0.049	  0.594	  0.951	  0.390	 -0.920	 -9.394	  0.002	 -0.001	  0.012	 30.100	 99.506	 -0.141
30760	  0.050	  0.608	  0.962	  0.353	 -0.904	 -9.406	  0.003	 -0.002	  0.010	 30.100	 99.494	  0.965
30809	  0.051	  0.600	  0.962	  0.385	 -0.961	 -9.391	  0.002	 -0.001	  0.011	 30.100	 99.502	  0.228
30860	  0.050	  0.608	  0.958	  0.299	 -0.962	 -9.421	  0.003	 -0.001	  0.010	 30.100	 99.494	  0.965
30910	  0.051	  0.596	  0.961	  0.339	 -0.989	 -9.428	  0.000	  0.000	  0.011	 30.100	 99.506	 -0.141
30960	  0.048	  0.591	  0.961	  0.291	 -1.010	 -9.437	  0.001	  0.001	  0.010	 30.100	 99.506	 -0.141
31010	  0.049	  0.609	  0.961	  0.358	 -1.022	 -9.417	 -0.000	 -0.001	  0.009	 30.100	 99.494	  0.965
31060	  0.052	  0.596	  0.958	  0.243	 -0.978	 -9.432	  0.000	 -0.002	  0.011	 30.100	 99.506	 -0.141
31110	  0.048	  0.598	  0.958	  0.334	 -1.018	 -9.435	  0.002	 -0.001	  0.010	 30.100	 99.502	  0.228
31160	  0.051	  0.595	  0.962	  0.257	 -0.963	 -9.415	  0.001	 -0.001	  0.011	 30.100	 99.518	 -1.246
31210	  0.052	  0.608	  0.962	  0.320	 -0.968	 -9.460	  0.002	 -0.001	  0.010	 30.100	 99.514	 -0.878
31260	  0.051	  0.591	  0.954	  0.190	 -0.901	 -9.442	  0.001	  0.001	  0.008	 30.100	 99.506	 -0.141
31310	  0.052	  0.595	  0.962	  0.310	 -0.976	 -9.435	  0.001	 -0.001	  0.011	 30.100	 99.502	  0.228
31360	  0.050	  0.609	  0.958	  0.250	 -0.918	 -9.451	  0.000	 -0.003	  0.011	 30.100	 99.502	  0.228
31410	  0.052	  0.598	  0.960	  0.357	 -0.942	 -9.434	  0.002	 -0.001	  0.011	 30.100	 99.494	  0.965
31460	  0.054	  0.600	  0.960	  0.291	 -0.957	 -9.405	  0.001	 -0.002	  0.009	 30.100	 99.489	  1.426
31510	  0.052	  0.607	  0.959	  0.358	 -0.963	 -9.410	  0.003	 -0.000	  0.010	 30.100	 99.494	  0.965
31560	  0.051	  0.594	  0.950	  0.236	 -0.970	 -9.383	  0.002	 -0.001	  0.011	 30.100	 99.506	 -0.141
31610	  0.051	  0.595	  0.957	  0.320	 -0.967	 -9.437	  0.003	 -0.002	  0.012	 30.100	 99.494	  0.965
31660	  0.051	  0.595	  0.962	  0.113	 -1.675	 -9.577	  0.012	  0.007	  0.017	 30.100	 99.506	 -0.141
31710	  0.051	  0.603	  0.955	  0.068	 -1.892	 -9.740	 -0.081	  0.062	  0.000	 30.100	 99.494	  0.965
31760	  0.054	  0.598	  0.960	  0.238	 -0.749	 -9.432	  0.014	 -0.002	  0.013	 30.100	 99.506	 -0.141
31810	  0.053	  0.596	  0.957	  0.397	 -0.879	 -9.425	 -0.001	 -0.002	  0.012	 30.100	 99.506	 -0.141
31860	  0.053	  0.608	  0.957	  0.317	 -0.843	 -9.389	 -0.011	 -0.009	  0.014	 30.100	 99.477	  2.533
31910	  0.052	  0.600	  0.958	  0.457	 -1.039	 -9.427	 -0.007	 -0.004	  0.011	 30.100	 99.506	 -0.141
31960	  0.052	  0.596	  0.950	  0.812	 -1.688	 -9.608	  0.020	  0.002	  0.003	 30.100	 99.514	 -0.878
32010	  0.053	  0.594	  0.957	  0.312	 -1.114	 -9.554	  0.012	  0.000	  0.013	 30.100	 99.494	  0.965
32060	  0.049	  0.593	  0.957	  0.325	 -0.849	 -9.344	  0.013	  0.002	  0.009	 30.100	 99.494	  0.965
32110	  0.054	  0.600	  0.958	  0.246	 -0.978	 -9.453	  0.008	 -0.003	  0.016	 30.100	 99.489	  1.426
32160	  0.053	  0.596	  0.956	  0.220	 -0.808	 -9.270	  0.003	 -0.009	  0.013	 30.100	 99.502	  0.228
32210	  0.054	  0.593	  0.958	  0.683	 -1.364	 -9.335	  0.029	  0.005	  0.005	 30.100	 99.506	 -0.141
32260	  0.052	  0.597	  0.961	  0.651	 -0.974	 -9.321	  0.001	 -0.003	  0.008	 30.100	 99.502	  0.228
32309	  0.054	  0.590	  0.960	  0.261	 -0.960	 -9.399	  0.008	  0.003	  0.014	 30.100	 99.494	  0.965
32359	  0.051	  0.594	  0.951	  1.152	 -0.290	 -9.368	 -0.006	 -0.040	  0.007	 30.100	 99.494	  0.965
32409	  0.051	  0.593	  0.958	 -0.065	 -1.210	 -9.739	 -0.008	 -0.011	  0.015	 30.100	 99.502	  0.228
32459	  0.051	  0.593	  0.947	  0.396	 -1.105	 -9.525	 -0.002	 -0.005	  0.008	 30.100	 99.489	  1.426
32509	  0.051	  0.594	  0.958	  0.424	 -0.942	 -9.460	  0.016	  0.006	  0.014	 30.100	 99.506	 -0.141
32559	  0.055	  0.595	  0.952	  0.178	 -0.740	 -9.442	  0.012	  0.001	  0.010	 30.100	 99.489	  1.426
32609	  0.054	  0.593	  0.956	  0.447	 -1.016	 -9.406	  0.005	  0.006	  0.010	 30.100	 99.506	 -0.141
32659	  0.054	  0.599	  0.957	  0.226	 -0.886	 -9.439	  0.001	  0.003	  0.009	 30.100	 99.494	  0.965
32709	  0.053	  0.596	  0.956	  0.524	 -0.916	 -9.386	  0.026	 -0.001	  0.010	 30.100	 99.494	  0.965
32759	  0.052	  0.595	  0.957	  0.256	 -0.593	 -9.602	  0.021	 -0.015	 -0.034	 30.100	 99.494	  0.965
32809	  0.051	  0.595	  0.951	  0.546	 -1.122	 -9.420	  0.004	  0.004	  0.011	 30.100	 99.506	 -0.141
32859	  0.052	  0.596	  0.956	  0.746	 -0.879	 -9.278	 -0.013	 -0.016	  0.012	 30.100	 99.506	 -0.141
32909	  0.051	  0.593	  0.958	  0.301	 -1.167	 -9.449	  0.001	  0.000	  0.005	 30.100	 99.502	  0.228
32959	  0.051	  0.604	  0.958	  0.256	 -1.118	 -9.473	 -0.004	 -0.008	 -0.037	 30.100	 99.506	 -0.141
33009	  0.050	  0.607	  0.955	  0.350	 -0.959	 -9.456	 -0.002	 -0.002	 -0.000	 30.100	 99.502	  0.228
33059	  0.051	  0.603	  0.962	  0.351	 -0.933	 -9.444	  0.003	 -0.009	 -0.076	 30.100	 99.506	 -0.141
33109	  0.048	  0.598	  0.966	  0.285	 -0.983	 -9.435	  0.007	 -0.011	 -0.092	 30.100	 99.502	  0.228
33159	  0.047	  0.594	  0.959	  0.295	 -1.108	 -9.484	 -0.002	 -0.004	  0.009	 30.100	 99.506	 -0.141
33209	  0.046	  0.597	  0.966	  0.204	 -1.008	 -9.414	  0.006	  0.003	  0.012	 30.100	 99.489	  1.426
33259	  0.049	  0.598	  0.969	  0.343	 -0.670	 -9.352	 -0.006	 -0.001	  0.010	 30.100	 99.502	  0.228
33309	  0.047	  0.598	  0.962	  0.627	 -0.491	 -9.356	 -0.002	 -0.010	  0.010	 30.100	 99.506	 -0.141
33359	  0.047	  0.598	  0.958	  0.128	 -0.858	 -9.417	 -0.007	 -0.008	  0.015	 30.100	 99.502	  0.228
33409	  0.048	  0.598	  0.963	  0.304	 -0.999	 -9.484	 -0.004	  0.001	  0.010	 30.100	 99.494	  0.965
33459	  0.048	  0.600	  0.963	  0.351	 -1.054	 -9.380	  0.002	 -0.004	  0.013	 30.100	 99.502	  0.228
33509	  0.047	  0.613	  0.971	  0.623	 -0.831	 -9.207	 -0.016	 -0.002	  0.003	 30.100	 99.510	 -0.509
33559	  0.047	  0.602	  0.963	  0.093	 -0.777	 -9.493	 -0.012	 -0.006	  0.015	 30.100	 99.502	  0.228
33609	  0.048	  0.600	  0.967	  0.237	 -3.129	 -10.017	  0.003	  0.055	 -0.014	 30.100	 99.481	  2.164
