Time	 MagX	 MagY	 MagZ	 AccelX	 AccelY	 AccelZ	 Yaw	 Pitch	 Roll	 Temperature	 Pressure	 Altitude
1257	  0.231	  0.614	  0.616	 -0.315	 -0.109	 -9.444	  0.003	 -0.001	  0.020	 26.400	 99.514	 -99999.000
1304	  0.228	  0.619	  0.617	 -0.425	 -0.083	 -9.442	  0.004	  0.000	  0.020	 26.400	 99.510	 -99999.000
1354	  0.230	  0.621	  0.613	 -0.419	 -0.068	 -9.476	  0.002	 -0.001	  0.019	 26.400	 99.498	 -99999.000
1404	  0.232	  0.619	  0.612	 -0.315	 -0.113	 -9.476	  0.003	 -0.000	  0.022	 26.400	 99.502	 -99999.000
1454	  0.231	  0.615	  0.613	 -0.393	 -0.057	 -9.444	  0.004	 -0.000	  0.020	 26.400	 99.498	 -99999.000
1504	  0.227	  0.611	  0.607	 -0.298	 -0.120	 -9.453	  0.002	  0.000	  0.021	 26.400	 99.498	 -99999.000
1554	  0.229	  0.615	  0.612	 -0.402	 -0.075	 -9.477	  0.003	 -0.001	  0.019	 26.400	 99.502	 -99999.000
1604	  0.228	  0.620	  0.613	 -0.360	 -0.118	 -9.494	  0.003	 -0.001	  0.020	 26.400	 99.498	 -99999.000
1654	  0.229	  0.615	  0.613	 -0.312	 -0.091	 -9.459	  0.003	  0.000	  0.020	 26.400	 99.502	 -99999.000
1704	  0.226	  0.612	  0.608	 -0.404	 -0.067	 -9.471	  0.002	 -0.001	  0.020	 26.400	 99.486	 -99999.000
1754	  0.228	  0.620	  0.613	 -0.296	 -0.125	 -9.504	  0.002	 -0.001	  0.020	 26.400	 99.498	 -99999.000
1804	  0.225	  0.612	  0.611	 -0.408	 -0.070	 -9.436	  0.003	 -0.001	  0.020	 26.400	 99.486	 -99999.000
1854	  0.226	  0.617	  0.613	 -0.305	 -0.102	 -9.438	  0.003	  0.000	  0.020	 26.400	 99.514	 -99999.000
1904	  0.225	  0.620	  0.617	 -0.385	 -0.069	 -9.484	  0.003	 -0.000	  0.019	 26.400	 99.502	 -99999.000
1954	  0.226	  0.611	  0.615	 -0.318	 -0.129	 -9.433	  0.002	  0.000	  0.020	 26.400	 99.502	 -99999.000
2004	  0.225	  0.615	  0.613	 -0.359	 -0.069	 -9.489	  0.002	  0.000	  0.020	 26.400	 99.502	 -99999.000
2054	  0.224	  0.615	  0.609	 -0.364	 -0.120	 -9.472	  0.002	 -0.001	  0.018	 26.400	 99.514	 -99999.000
2104	  0.229	  0.615	  0.605	 -0.317	 -0.099	 -9.457	  0.004	 -0.002	  0.020	 26.400	 99.498	 -99999.000
2154	  0.224	  0.609	  0.605	 -0.389	 -0.098	 -9.448	  0.002	  0.001	  0.020	 26.400	 99.514	 -99999.000
2204	  0.227	  0.611	  0.608	 -0.317	 -0.096	 -9.476	  0.004	 -0.000	  0.019	 26.400	 99.502	 -99999.000
2254	  0.226	  0.604	  0.613	 -0.382	 -0.107	 -9.479	  0.003	  0.000	  0.020	 26.400	 99.502	 -99999.000
2304	  0.226	  0.615	  0.611	 -0.314	 -0.083	 -9.488	  0.002	 -0.001	  0.020	 26.400	 99.502	 -99999.000
2354	  0.227	  0.622	  0.613	 -0.374	 -0.070	 -9.482	  0.003	  0.000	  0.020	 26.400	 99.514	 -99999.000
2404	  0.227	  0.618	  0.614	 -0.321	 -0.088	 -9.453	  0.002	 -0.000	  0.020	 26.400	 99.502	 -99999.000
2454	  0.227	  0.612	  0.609	 -0.354	 -0.071	 -9.485	  0.003	 -0.000	  0.019	 26.400	 99.514	 -99999.000
2504	  0.227	  0.617	  0.614	 -0.356	 -0.069	 -9.458	  0.002	  0.001	  0.019	 26.400	 99.498	 -99999.000
2554	  0.229	  0.614	  0.619	 -0.337	 -0.093	 -9.462	  0.003	 -0.000	  0.020	 26.400	 99.502	 -99999.000
2604	  0.226	  0.610	  0.613	 -0.408	 -0.087	 -9.464	  0.003	 -0.002	  0.020	 26.400	 99.490	 -99999.000
2654	  0.227	  0.607	  0.601	 -0.298	 -0.097	 -9.479	  0.003	 -0.000	  0.021	 26.400	 99.502	 -99999.000
2704	  0.227	  0.623	  0.608	 -0.390	 -0.079	 -9.468	  0.002	  0.000	  0.020	 26.400	 99.514	 -99999.000
2754	  0.227	  0.613	  0.609	 -0.325	 -0.113	 -9.503	  0.003	  0.001	  0.019	 26.400	 99.514	 -99999.000
2804	  0.226	  0.611	  0.604	 -0.374	 -0.057	 -9.488	  0.003	 -0.001	  0.020	 26.400	 99.514	 -99999.000
2854	  0.227	  0.610	  0.607	 -0.359	 -0.111	 -9.492	  0.002	 -0.000	  0.019	 26.400	 99.502	 -99999.000
2904	  0.228	  0.625	  0.613	 -0.346	 -0.097	 -9.469	  0.002	 -0.001	  0.020	 26.400	 99.502	 -99999.000
2954	  0.227	  0.613	  0.613	 -0.402	 -0.131	 -9.487	  0.003	 -0.001	  0.020	 26.400	 99.490	 -99999.000
3004	  0.225	  0.613	  0.611	 -0.297	 -0.096	 -9.506	  0.003	 -0.001	  0.019	 26.400	 99.502	 -99999.000
3054	  0.228	  0.625	  0.610	 -0.411	 -0.093	 -9.489	  0.003	  0.001	  0.020	 26.400	 99.498	 -99999.000
3104	  0.227	  0.623	  0.608	 -0.317	 -0.097	 -9.483	  0.003	  0.001	  0.020	 26.400	 99.502	 -99999.000
3153	  0.226	  0.616	  0.605	 -0.411	 -0.064	 -9.451	  0.003	 -0.000	  0.019	 26.400	 99.514	 -99999.000
3203	  0.227	  0.625	  0.608	 -0.327	 -0.116	 -9.476	  0.003	 -0.001	  0.021	 26.400	 99.502	 -99999.000
3253	  0.229	  0.609	  0.612	 -0.371	 -0.091	 -9.463	  0.003	 -0.002	  0.018	 26.400	 99.514	 -99999.000
3303	  0.226	  0.615	  0.609	 -0.338	 -0.076	 -9.460	  0.003	  0.001	  0.020	 26.400	 99.514	 -99999.000
3353	  0.229	  0.613	  0.611	 -0.348	 -0.084	 -9.457	  0.003	 -0.000	  0.020	 26.400	 99.502	 -99999.000
3403	  0.227	  0.616	  0.603	 -0.395	 -0.097	 -9.441	  0.003	  0.001	  0.021	 26.400	 99.502	 -99999.000
3454	  0.227	  0.627	  0.608	 -0.294	 -0.103	 -9.501	  0.003	 -0.001	  0.020	 26.400	 99.514	 -99999.000
3503	  0.226	  0.616	  0.610	 -0.423	 -0.082	 -9.457	  0.004	 -0.002	  0.020	 26.400	 99.502	 -99999.000
3553	  0.225	  0.620	  0.612	 -0.309	 -0.095	 -9.445	  0.001	 -0.001	  0.020	 26.400	 99.502	 -99999.000
3603	  0.227	  0.621	  0.610	 -0.402	 -0.051	 -9.465	  0.003	 -0.001	  0.020	 26.400	 99.502	 -99999.000
3653	  0.227	  0.616	  0.611	 -0.310	 -0.084	 -9.494	  0.003	 -0.001	  0.020	 26.400	 99.502	 -99999.000
3703	  0.230	  0.614	  0.611	 -0.364	 -0.058	 -9.510	  0.002	  0.000	  0.020	 26.400	 99.502	 -99999.000
3753	  0.224	  0.613	  0.610	 -0.378	 -0.095	 -9.449	  0.002	 -0.000	  0.019	 26.400	 99.502	 -99999.000
3803	  0.224	  0.609	  0.609	 -0.301	 -0.074	 -9.456	  0.004	  0.000	  0.021	 26.400	 99.502	 -99999.000
3853	  0.226	  0.612	  0.607	 -0.401	 -0.077	 -9.483	  0.002	 -0.001	  0.020	 26.400	 99.502	 -99999.000
3903	  0.228	  0.620	  0.607	 -0.307	 -0.089	 -9.471	  0.004	 -0.000	  0.020	 26.400	 99.502	 -99999.000
3953	  0.229	  0.616	  0.608	 -0.392	 -0.075	 -9.444	  0.003	 -0.000	  0.019	 26.400	 99.514	 -99999.000
4003	  0.227	  0.615	  0.603	 -0.315	 -0.114	 -9.469	  0.003	 -0.000	  0.020	 26.400	 99.502	 -99999.000
4053	  0.230	  0.617	  0.600	 -0.371	 -0.052	 -9.480	  0.003	 -0.001	  0.019	 26.400	 99.498	 -99999.000
4103	  0.229	  0.611	  0.601	 -0.343	 -0.096	 -9.475	  0.003	  0.000	  0.020	 26.400	 99.490	 -99999.000
4153	  0.226	  0.613	  0.607	 -0.355	 -0.088	 -9.455	  0.003	 -0.001	  0.019	 26.400	 99.502	 -99999.000
4203	  0.229	  0.611	  0.605	 -0.420	 -0.086	 -9.442	  0.004	 -0.001	  0.020	 26.400	 99.514	 -99999.000
5253	  0.226	  0.623	  0.609	 -0.316	 -0.105	 -9.469	  0.002	 -0.001	  0.019	 26.500	 99.506	 -99999.000
5304	  0.225	  0.615	  0.608	 -0.388	 -0.068	 -9.463	  0.003	  0.001	  0.019	 26.400	 99.490	 -99999.000
5353	  0.227	  0.615	  0.609	 -0.359	 -0.117	 -9.473	  0.003	 -0.000	  0.020	 26.500	 99.519	 -99999.000
5403	  0.227	  0.615	  0.608	 -0.376	 -0.068	 -9.448	  0.003	 -0.000	  0.021	 26.500	 99.506	 -99999.000
5453	  0.225	  0.622	  0.606	 -0.368	 -0.079	 -9.465	  0.003	 -0.001	  0.020	 26.500	 99.506	 -99999.000
5503	  0.226	  0.627	  0.610	 -0.340	 -0.093	 -9.438	  0.003	  0.001	  0.019	 26.400	 99.502	 -99999.000
5554	  0.228	  0.621	  0.612	 -0.402	 -0.087	 -9.482	  0.003	 -0.001	  0.020	 26.500	 99.506	 -99999.000
5603	  0.227	  0.617	  0.600	 -0.281	 -0.092	 -9.468	  0.002	 -0.001	  0.020	 26.500	 99.506	 -99999.000
5654	  0.226	  0.616	  0.612	 -0.402	 -0.053	 -9.441	  0.004	 -0.000	  0.019	 26.500	 99.502	 -99999.000
5703	  0.225	  0.615	  0.609	 -0.318	 -0.128	 -9.459	  0.003	 -0.000	  0.021	 26.500	 99.506	 -99999.000
5753	  0.226	  0.627	  0.614	 -0.377	 -0.069	 -9.484	  0.003	 -0.001	  0.020	 26.500	 99.494	 -99999.000
5803	  0.226	  0.612	  0.603	 -0.355	 -0.103	 -9.486	  0.002	 -0.000	  0.019	 26.500	 99.506	 -99999.000
5855	  0.225	  0.610	  0.607	 -0.346	 -0.063	 -9.513	  0.003	 -0.000	  0.019	 26.500	 99.514	 -99999.000
5903	  0.227	  0.619	  0.614	 -0.371	 -0.092	 -9.460	  0.003	 -0.001	  0.020	 26.500	 99.506	 -99999.000
5953	  0.227	  0.609	  0.609	 -0.311	 -0.076	 -9.453	  0.004	 -0.001	  0.020	 26.500	 99.506	 -99999.000
6003	  0.227	  0.617	  0.604	 -0.424	 -0.063	 -9.495	  0.003	 -0.000	  0.021	 26.400	 99.502	 -99999.000
6053	  0.225	  0.627	  0.616	 -0.311	 -0.097	 -9.467	  0.002	 -0.001	  0.020	 26.500	 99.519	 -99999.000
6103	  0.227	  0.614	  0.609	 -0.389	 -0.098	 -9.436	  0.003	 -0.001	  0.019	 26.500	 99.506	 -99999.000
6153	  0.227	  0.616	  0.617	 -0.321	 -0.124	 -9.468	  0.004	 -0.000	  0.021	 26.500	 99.506	 -99999.000
6203	  0.227	  0.616	  0.613	 -0.352	 -0.071	 -9.465	  0.003	  0.000	  0.020	 26.500	 99.506	 -99999.000
6254	  0.226	  0.629	  0.613	 -0.361	 -0.074	 -9.479	  0.003	 -0.001	  0.019	 26.400	 99.502	 -99999.000
6303	  0.227	  0.619	  0.615	 -0.349	 -0.093	 -9.471	  0.002	  0.000	  0.020	 26.500	 99.494	 -99999.000
6353	  0.229	  0.614	  0.616	 -0.394	 -0.081	 -9.480	  0.003	 -0.001	  0.020	 26.500	 99.506	 -99999.000
6404	  0.229	  0.607	  0.616	 -0.325	 -0.083	 -9.483	  0.003	 -0.001	  0.020	 26.500	 99.506	 -99999.000
6453	  0.227	  0.621	  0.612	 -0.395	 -0.077	 -9.472	  0.002	 -0.001	  0.020	 26.500	 99.494	 -99999.000
6504	  0.229	  0.617	  0.617	 -0.288	 -0.107	 -9.484	  0.003	  0.002	  0.021	 26.400	 99.502	 -99999.000
6553	  0.226	  0.615	  0.615	 -0.374	 -0.062	 -9.448	  0.003	  0.001	  0.020	 26.500	 99.506	 -99999.000
6604	  0.227	  0.616	  0.612	 -0.337	 -0.106	 -9.468	  0.002	 -0.000	  0.019	 26.500	 99.494	 -99999.000
6653	  0.221	  0.618	  0.602	 -0.330	 -0.073	 -9.461	  0.003	 -0.000	  0.020	 26.500	 99.519	 -99999.000
6704	  0.228	  0.620	  0.611	 -0.358	 -0.076	 -9.475	  0.003	  0.001	  0.019	 26.500	 99.494	 -99999.000
6754	  0.226	  0.607	  0.609	 -0.318	 -0.119	 -9.462	  0.003	 -0.001	  0.020	 26.500	 99.506	 -99999.000
6804	  0.227	  0.622	  0.614	 -0.416	 -0.089	 -9.455	  0.003	 -0.002	  0.020	 26.500	 99.506	 -99999.000
6854	  0.227	  0.615	  0.613	 -0.304	 -0.127	 -9.413	  0.003	 -0.001	  0.020	 26.500	 99.506	 -99999.000
6904	  0.226	  0.626	  0.613	 -0.418	 -0.087	 -9.473	  0.002	  0.002	  0.020	 26.500	 99.494	 -99999.000
6954	  0.226	  0.614	  0.613	 -0.295	 -0.128	 -9.516	  0.002	 -0.001	  0.019	 26.500	 99.506	 -99999.000
7004	  0.226	  0.616	  0.612	 -0.372	 -0.086	 -9.461	  0.003	  0.002	  0.021	 26.500	 99.506	 -99999.000
7054	  0.227	  0.611	  0.613	 -0.370	 -0.092	 -9.412	  0.002	 -0.002	  0.019	 26.500	 99.519	 -99999.000
7104	  0.227	  0.612	  0.612	 -0.362	 -0.085	 -9.482	  0.002	  0.001	  0.019	 26.500	 99.519	 -99999.000
7154	  0.225	  0.612	  0.605	 -0.383	 -0.103	 -9.453	  0.002	 -0.004	  0.020	 26.500	 99.506	 -99999.000
7204	  0.226	  0.620	  0.608	 -0.274	 -0.088	 -9.461	  0.002	  0.001	  0.020	 26.500	 99.506	 -99999.000
7254	  0.226	  0.614	  0.611	 -0.393	 -0.070	 -9.443	  0.003	 -0.002	  0.020	 26.500	 99.506	 -99999.000
7304	  0.228	  0.621	  0.612	 -0.301	 -0.101	 -9.487	  0.002	  0.001	  0.019	 26.500	 99.506	 -99999.000
7354	  0.229	  0.610	  0.613	 -0.372	 -0.068	 -9.470	  0.003	 -0.002	  0.020	 26.500	 99.506	 -99999.000
7404	  0.229	  0.614	  0.605	 -0.320	 -0.118	 -9.483	  0.003	 -0.002	  0.020	 26.500	 99.519	 -99999.000
7454	  0.227	  0.619	  0.618	 -0.373	 -0.058	 -9.479	  0.002	 -0.002	  0.020	 26.500	 99.519	 -99999.000
7504	  0.228	  0.620	  0.615	 -0.340	 -0.117	 -9.420	  0.002	  0.002	  0.020	 26.500	 99.506	 -99999.000
7554	  0.225	  0.617	  0.612	 -0.324	 -0.079	 -9.486	  0.002	 -0.002	  0.020	 26.500	 99.506	 -99999.000
7604	  0.229	  0.614	  0.613	 -0.382	 -0.079	 -9.435	  0.003	  0.002	  0.020	 26.500	 99.494	 -99999.000
7654	  0.227	  0.611	  0.612	 -0.318	 -0.112	 -9.466	  0.002	 -0.001	  0.020	 26.500	 99.519	 -99999.000
7704	  0.227	  0.611	  0.613	 -0.426	 -0.070	 -9.467	  0.002	 -0.000	  0.019	 26.500	 99.506	 -99999.000
7754	  0.227	  0.616	  0.607	 -0.311	 -0.111	 -9.459	  0.004	  0.001	  0.020	 26.500	 99.494	 -99999.000
7804	  0.226	  0.610	  0.615	 -0.388	 -0.094	 -9.485	  0.003	 -0.000	  0.019	 26.500	 99.506	 -99999.000
7854	  0.225	  0.620	  0.612	 -0.311	 -0.122	 -9.447	  0.003	 -0.001	  0.020	 26.500	 99.506	 -99999.000
7904	  0.227	  0.615	  0.611	 -0.346	 -0.072	 -9.465	  0.002	  0.002	  0.020	 26.500	 99.519	 -99999.000
7954	  0.230	  0.614	  0.613	 -0.368	 -0.101	 -9.462	  0.003	 -0.001	  0.019	 26.500	 99.506	 -99999.000
8004	  0.226	  0.625	  0.612	 -0.300	 -0.088	 -9.470	  0.003	 -0.001	  0.019	 26.500	 99.506	 -99999.000
8054	  0.226	  0.616	  0.609	 -0.397	 -0.098	 -9.478	  0.004	  0.002	  0.019	 26.500	 99.511	 -99999.000
8104	  0.226	  0.621	  0.616	 -0.301	 -0.098	 -9.446	  0.003	 -0.003	  0.021	 26.500	 99.531	 -99999.000
8154	  0.225	  0.625	  0.610	 -0.397	 -0.082	 -9.496	  0.003	 -0.000	  0.020	 26.500	 99.519	 -99999.000
8204	  0.225	  0.634	  0.613	 -0.308	 -0.102	 -9.438	  0.003	 -0.001	  0.020	 26.500	 99.499	 -99999.000
12679	  0.224	  0.610	  0.615	 -0.332	 -0.099	 -9.453	  0.003	 -0.002	  0.020	 26.500	 99.503	  0.318
12729	  0.225	  0.622	  0.616	 -0.333	 -0.086	 -9.448	  0.004	 -0.000	  0.020	 26.500	 99.515	 -0.777
12779	  0.227	  0.612	  0.609	 -0.322	 -0.084	 -9.454	  0.002	 -0.001	  0.020	 26.500	 99.491	  1.413
12829	  0.227	  0.612	  0.612	 -0.407	 -0.085	 -9.470	  0.003	 -0.000	  0.019	 26.500	 99.503	  0.318
12879	  0.227	  0.612	  0.615	 -0.323	 -0.089	 -9.456	  0.003	  0.001	  0.020	 26.500	 99.503	  0.318
12929	  0.229	  0.611	  0.612	 -0.415	 -0.062	 -9.481	  0.003	  0.001	  0.020	 26.500	 99.499	  0.683
12979	  0.227	  0.614	  0.616	 -0.314	 -0.100	 -9.444	  0.003	 -0.000	  0.020	 26.500	 99.519	 -1.142
13029	  0.227	  0.619	  0.615	 -0.380	 -0.066	 -9.464	  0.002	 -0.000	  0.020	 26.500	 99.515	 -0.777
13079	  0.227	  0.625	  0.614	 -0.334	 -0.117	 -9.434	  0.003	  0.001	  0.020	 26.500	 99.511	 -0.412
13129	  0.229	  0.612	  0.611	 -0.364	 -0.086	 -9.476	  0.004	  0.000	  0.020	 26.500	 99.503	  0.318
13179	  0.227	  0.615	  0.611	 -0.359	 -0.081	 -9.429	  0.003	 -0.001	  0.020	 26.500	 99.503	  0.318
13229	  0.230	  0.621	  0.616	 -0.326	 -0.109	 -9.445	  0.003	 -0.000	  0.021	 26.500	 99.503	  0.318
13279	  0.224	  0.614	  0.612	 -0.383	 -0.097	 -9.462	  0.003	 -0.001	  0.020	 26.500	 99.503	  0.318
13329	  0.225	  0.615	  0.611	 -0.318	 -0.096	 -9.454	  0.002	 -0.001	  0.020	 26.500	 99.527	 -1.871
13379	  0.229	  0.615	  0.616	 -0.384	 -0.066	 -9.426	  0.002	 -0.001	  0.019	 26.500	 99.503	  0.318
13429	  0.229	  0.614	  0.608	 -0.316	 -0.086	 -9.474	  0.003	  0.000	  0.020	 26.500	 99.503	  0.318
13479	  0.225	  0.617	  0.613	 -0.391	 -0.088	 -9.488	  0.003	 -0.000	  0.020	 26.500	 99.503	  0.318
13529	  0.229	  0.609	  0.615	 -0.345	 -0.092	 -9.449	  0.003	 -0.001	  0.020	 26.500	 99.503	  0.318
13579	  0.229	  0.609	  0.613	 -0.354	 -0.079	 -9.471	  0.003	 -0.000	  0.020	 26.500	 99.515	 -0.777
13629	  0.231	  0.614	  0.613	 -0.356	 -0.109	 -9.441	  0.003	  0.001	  0.020	 26.500	 99.503	  0.318
13679	  0.225	  0.625	  0.614	 -0.331	 -0.064	 -9.445	  0.002	 -0.001	  0.019	 26.500	 99.511	 -0.412
13729	  0.227	  0.620	  0.605	 -0.407	 -0.079	 -9.461	  0.002	 -0.001	  0.020	 26.500	 99.515	 -0.777
13779	  0.226	  0.611	  0.616	 -0.285	 -0.110	 -9.477	  0.002	 -0.001	  0.019	 26.500	 99.491	  1.413
13829	  0.225	  0.619	  0.613	 -0.412	 -0.054	 -9.475	  0.003	 -0.000	  0.020	 26.500	 99.503	  0.318
13879	  0.229	  0.616	  0.605	 -0.298	 -0.104	 -9.438	  0.003	 -0.000	  0.021	 26.500	 99.515	 -0.777
13929	  0.227	  0.615	  0.613	 -0.381	 -0.067	 -9.422	  0.002	  0.000	  0.020	 26.500	 99.507	 -0.048
13979	  0.230	  0.609	  0.615	 -0.345	 -0.111	 -9.505	  0.003	 -0.001	  0.020	 26.500	 99.515	 -0.777
14029	  0.227	  0.616	  0.617	 -0.333	 -0.086	 -9.495	  0.003	 -0.000	  0.020	 26.500	 99.503	  0.318
14079	  0.226	  0.625	  0.612	 -0.372	 -0.094	 -9.468	  0.002	  0.000	  0.020	 26.500	 99.515	 -0.777
14129	  0.227	  0.616	  0.612	 -0.302	 -0.101	 -9.468	  0.003	  0.001	  0.019	 26.500	 99.519	 -1.142
14179	  0.229	  0.615	  0.615	 -0.417	 -0.105	 -9.459	  0.004	 -0.002	  0.020	 26.500	 99.503	  0.318
14229	  0.225	  0.619	  0.609	 -0.319	 -0.095	 -9.396	  0.003	 -0.001	  0.021	 26.500	 99.503	  0.318
14279	  0.226	  0.614	  0.616	 -0.401	 -0.075	 -9.487	  0.004	 -0.000	  0.020	 26.500	 99.503	  0.318
14329	  0.224	  0.609	  0.612	 -0.346	 -0.066	 -9.448	  0.002	 -0.001	  0.021	 26.500	 99.503	  0.318
14379	  0.223	  0.626	  0.613	 -0.367	 -0.072	 -9.430	  0.002	 -0.001	  0.019	 26.500	 99.503	  0.318
14429	  0.224	  0.614	  0.615	 -0.333	 -0.062	 -9.437	  0.001	 -0.001	  0.020	 26.500	 99.503	  0.318
14479	  0.226	  0.614	  0.615	 -0.342	 -0.112	 -9.519	  0.002	  0.000	  0.020	 26.500	 99.515	 -0.777
14529	  0.247	  0.601	  0.616	 -2.381	  3.293	 -9.456	  0.060	  0.006	  1.703	 26.500	 99.491	  1.413
14579	  0.315	  0.551	  0.602	  6.693	 -5.239	 -10.732	  0.189	  0.052	  1.888	 26.500	 99.503	  0.318
14629	  0.292	  0.585	  0.631	  2.100	 -6.101	 -9.979	 -0.199	 -0.016	 -3.169	 26.500	 99.491	  1.413
14679	  0.182	  0.649	  0.644	 -4.015	  3.861	 -8.373	 -0.091	 -0.003	 -2.980	 26.500	 99.507	 -0.048
14729	  0.169	  0.665	  0.634	 -4.662	  3.368	 -10.852	 -0.148	  0.007	  1.486	 26.500	 99.503	  0.318
14779	  0.236	  0.614	  0.628	  3.102	 -1.517	 -9.397	  0.086	  0.007	  1.763	 26.500	 99.503	  0.318
14829	  0.252	  0.611	  0.629	  3.498	  0.701	 -10.437	 -0.358	  0.000	 -0.111	 26.500	 99.503	  0.318
14879	  0.214	  0.624	  0.625	 -0.696	 -0.533	 -10.964	  0.059	 -0.018	 -1.410	 26.500	 99.491	  1.413
14929	  0.206	  0.631	  0.628	 -4.376	  3.738	 -8.922	  0.038	  0.000	  0.980	 26.500	 99.503	  0.318
14979	  0.266	  0.595	  0.627	  3.616	 -2.371	 -9.070	  0.167	  0.007	  1.753	 26.500	 99.495	  1.048
15029	  0.270	  0.599	  0.627	  6.316	 -0.418	 -4.616	  0.037	 -0.022	 -0.846	 26.500	 99.491	  1.413
15079	  0.221	  0.632	  0.631	 -1.512	  1.939	 -10.594	  0.058	 -0.013	 -1.740	 26.500	 99.515	 -0.777
15129	  0.227	  0.619	  0.623	 -5.233	  4.845	 -9.566	  0.078	  0.009	  2.288	 26.500	 99.503	  0.318
15179	  0.310	  0.567	  0.617	  6.679	 -8.033	 -11.287	  0.239	  0.049	  1.219	 26.500	 99.503	  0.318
15228	  0.291	  0.579	  0.628	  0.572	 -5.080	 -10.137	 -0.182	 -0.019	 -1.534	 26.500	 99.503	  0.318
15278	  0.215	  0.631	  0.629	 -1.946	  0.253	 -12.251	 -0.036	 -0.007	 -2.209	 26.500	 99.491	  1.413
15328	  0.195	  0.639	  0.632	 -2.863	  3.440	 -8.884	  0.034	 -0.002	  0.557	 26.500	 99.507	 -0.048
15379	  0.257	  0.599	  0.625	  1.483	 -0.916	 -9.510	  0.092	  0.008	  2.351	 26.500	 99.503	  0.318
15428	  0.279	  0.591	  0.630	  0.503	  0.670	 -7.642	 -0.290	 -0.005	 -0.448	 26.500	 99.491	  1.413
15478	  0.228	  0.627	  0.633	  0.497	 -3.774	 -11.937	 -0.187	 -0.010	 -2.739	 26.500	 99.503	  0.318
15528	  0.162	  0.660	  0.627	 -6.591	  5.268	 -9.627	 -0.099	 -0.027	 -0.270	 26.500	 99.495	  1.048
15578	  0.206	  0.630	  0.626	 -3.980	  2.599	 -8.244	  0.098	  0.005	  2.643	 26.500	 99.507	 -0.048
15628	  0.278	  0.598	  0.619	  6.247	 -7.283	 -11.426	  0.296	  0.072	  0.750	 26.500	 99.507	 -0.048
15678	  0.254	  0.615	  0.626	  1.925	 -3.010	 -11.932	  0.187	  0.036	 -1.915	 26.500	 99.503	  0.318
15728	  0.184	  0.640	  0.626	 -4.424	  5.338	 -10.214	 -0.103	 -0.002	 -1.210	 26.500	 99.503	  0.318
15778	  0.205	  0.630	  0.619	 -3.924	  3.305	 -9.720	  0.012	  0.004	  1.961	 26.500	 99.495	  1.048
15828	  0.281	  0.580	  0.612	  2.928	 -3.287	 -8.832	  0.323	 -0.005	  1.759	 26.500	 99.515	 -0.777
15878	  0.275	  0.586	  0.620	 -1.460	 -3.181	 -9.822	  0.161	 -0.006	 -0.941	 26.500	 99.519	 -1.142
15928	  0.219	  0.621	  0.617	 -3.029	 -0.431	 -12.499	 -0.120	 -0.018	 -2.012	 26.500	 99.507	 -0.048
15978	  0.200	  0.632	  0.616	 -2.771	  2.960	 -10.167	 -0.003	  0.001	  0.679	 26.500	 99.507	 -0.048
16028	  0.247	  0.600	  0.622	  0.383	 -0.820	 -9.113	  0.112	  0.008	  2.076	 26.500	 99.507	 -0.048
16078	  0.274	  0.591	  0.618	  1.534	  1.225	 -11.026	 -0.368	 -0.020	 -0.003	 26.500	 99.503	  0.318
16128	  0.243	  0.613	  0.622	 -1.561	 -0.618	 -8.260	 -0.209	 -0.007	 -1.732	 26.500	 99.503	  0.318
16178	  0.200	  0.631	  0.617	 -5.646	  4.462	 -7.999	  0.025	  0.003	  0.213	 26.500	 99.519	 -1.142
16228	  0.243	  0.603	  0.618	 -1.106	  0.656	 -9.331	  0.096	  0.005	  2.174	 26.500	 99.507	 -0.048
16278	  0.275	  0.585	  0.621	 -0.503	 -1.523	 -9.619	 -0.341	  0.022	  0.025	 26.500	 99.495	  1.048
16328	  0.243	  0.614	  0.619	  1.875	 -1.897	 -10.455	 -0.275	  0.011	 -1.748	 26.500	 99.507	 -0.048
16378	  0.207	  0.624	  0.623	 -1.680	  2.958	 -6.369	  0.011	  0.014	  0.259	 26.500	 99.519	 -1.142
16428	  0.253	  0.596	  0.616	 -1.326	  0.849	 -9.549	  0.127	  0.013	  2.504	 26.500	 99.507	 -0.048
16478	  0.290	  0.569	  0.613	 -0.289	 -1.911	 -9.379	 -0.345	  0.018	 -0.414	 26.500	 99.495	  1.048
16528	  0.257	  0.605	  0.617	 -0.669	 -2.775	 -9.846	 -0.105	 -0.012	 -1.855	 26.500	 99.503	  0.318
16579	  0.211	  0.627	  0.623	 -6.733	  5.648	 -9.779	 -0.136	 -0.036	  0.008	 26.500	 99.507	 -0.048
16628	  0.243	  0.604	  0.618	 -2.805	  1.362	 -9.040	  0.024	  0.015	  2.109	 26.500	 99.507	 -0.048
16679	  0.299	  0.554	  0.597	  6.541	 -4.375	 -8.848	  0.264	  0.002	  0.900	 26.500	 99.503	  0.318
16729	  0.286	  0.571	  0.607	  0.991	 -4.814	 -11.043	  0.079	 -0.012	 -1.432	 26.500	 99.503	  0.318
16779	  0.236	  0.613	  0.612	 -2.958	  4.551	 -9.814	 -0.077	 -0.030	 -1.256	 26.500	 99.503	  0.318
16830	  0.256	  0.596	  0.600	 -5.914	  2.794	 -10.502	 -0.105	  0.008	  2.709	 26.500	 99.495	  1.048
16880	  0.342	  0.510	  0.596	  5.954	 -4.084	 -9.034	  0.167	  0.013	  2.244	 26.500	 99.491	  1.413
16929	  0.347	  0.513	  0.599	  0.134	 -4.144	 -9.633	  0.115	  0.002	 -1.114	 26.500	 99.503	  0.318
16979	  0.284	  0.580	  0.600	 -0.790	  0.530	 -7.839	 -0.122	 -0.013	 -3.046	 26.500	 99.507	 -0.048
17029	  0.248	  0.594	  0.600	 -1.865	  4.636	 -11.057	  0.378	  0.045	  0.876	 26.500	 99.519	 -1.142
17079	  0.312	  0.541	  0.590	  0.153	 -0.527	 -8.599	  0.126	  0.012	  2.959	 26.500	 99.503	  0.318
17129	  0.350	  0.507	  0.591	 -0.767	 -3.200	 -10.992	 -0.433	  0.009	 -0.439	 26.500	 99.507	 -0.048
17179	  0.315	  0.545	  0.591	  0.133	 -3.318	 -9.433	 -0.242	 -0.015	 -2.256	 26.500	 99.507	 -0.048
17229	  0.252	  0.602	  0.596	 -6.008	  6.080	 -9.719	 -0.042	 -0.013	 -0.748	 26.500	 99.503	  0.318
17279	  0.280	  0.567	  0.592	 -2.923	  2.348	 -9.430	  0.108	  0.017	  2.528	 26.500	 99.507	 -0.048
17329	  0.340	  0.525	  0.586	  5.426	 -7.878	 -10.278	  0.013	  0.003	  0.463	 26.500	 99.507	 -0.048
17379	  0.315	  0.548	  0.593	  2.805	 -1.829	 -10.877	  0.077	 -0.031	 -2.334	 26.500	 99.483	  2.143
17429	  0.235	  0.605	  0.603	 -3.125	  5.078	 -9.944	 -0.121	 -0.007	 -1.752	 26.500	 99.507	 -0.048
17479	  0.247	  0.600	  0.593	 -5.383	  4.494	 -8.595	  0.143	  0.013	  2.303	 26.500	 99.519	 -1.142
17529	  0.330	  0.523	  0.583	  2.467	 -2.632	 -8.706	  0.319	  0.004	  2.566	 26.500	 99.507	 -0.048
17579	  0.342	  0.518	  0.594	  2.454	 -3.982	 -8.958	 -0.088	 -0.004	 -1.087	 26.500	 99.507	 -0.048
17629	  0.279	  0.580	  0.599	  0.483	 -1.470	 -9.230	 -0.375	 -0.020	 -2.943	 26.500	 99.507	 -0.048
17679	  0.238	  0.605	  0.601	 -4.531	  4.592	 -9.651	  0.012	  0.002	  0.915	 26.500	 99.507	 -0.048
17729	  0.302	  0.555	  0.595	 -0.749	 -3.243	 -11.231	  0.247	  0.062	  2.540	 26.500	 99.495	  1.048
17779	  0.330	  0.529	  0.595	  1.315	 -2.679	 -9.107	 -0.221	  0.008	 -0.469	 26.500	 99.507	 -0.048
17829	  0.273	  0.584	  0.596	  0.380	 -2.733	 -9.470	 -0.109	 -0.019	 -3.015	 26.500	 99.507	 -0.048
17879	  0.219	  0.615	  0.604	 -7.539	  6.208	 -7.686	  0.042	 -0.001	  0.415	 26.500	 99.507	 -0.048
17929	  0.275	  0.575	  0.588	 -0.242	  0.461	 -9.515	  0.109	  0.014	  3.144	 26.500	 99.507	 -0.048
17979	  0.326	  0.533	  0.591	 -0.022	 -2.456	 -9.018	  0.049	  0.001	 -0.460	 26.500	 99.511	 -0.412
18029	  0.291	  0.574	  0.595	 -1.973	 -4.570	 -10.514	 -0.219	 -0.046	 -2.103	 26.500	 99.495	  1.048
18079	  0.230	  0.611	  0.600	 -4.003	  5.530	 -9.241	 -0.015	 -0.013	 -0.919	 26.500	 99.495	  1.048
18129	  0.279	  0.571	  0.592	 -3.842	  3.755	 -9.269	  0.160	  0.017	  3.858	 26.500	 99.495	  1.048
18179	  0.364	  0.490	  0.597	  6.026	 -6.862	 -9.334	 -0.097	 -0.009	  0.799	 26.500	 99.507	 -0.048
18229	  0.346	  0.523	  0.605	  1.069	 -6.154	 -10.050	 -0.141	 -0.028	 -2.235	 26.500	 99.507	 -0.048
18279	  0.263	  0.586	  0.609	 -2.486	  0.810	 -10.161	 -0.050	 -0.023	 -2.458	 26.500	 99.511	 -0.412
18329	  0.250	  0.598	  0.607	 -4.403	  5.420	 -7.989	  0.144	  0.008	  1.512	 26.500	 99.519	 -1.142
18379	  0.327	  0.534	  0.596	  0.930	 -1.790	 -9.067	  0.132	  0.014	  2.762	 26.500	 99.507	 -0.048
18429	  0.351	  0.507	  0.603	  3.923	 -1.120	 -6.361	 -0.129	 -0.018	 -0.592	 26.500	 99.519	 -1.142
18479	  0.290	  0.569	  0.602	 -0.731	 -3.452	 -11.043	 -0.394	 -0.013	 -3.484	 26.500	 99.507	 -0.048
18529	  0.228	  0.610	  0.613	 -4.853	  6.016	 -8.787	 -0.228	 -0.066	  0.319	 26.500	 99.507	 -0.048
18579	  0.281	  0.576	  0.605	 -3.416	 -0.171	 -11.722	  0.033	  0.018	  2.689	 26.500	 99.495	  1.048
18629	  0.338	  0.530	  0.596	  3.266	 -6.904	 -10.093	 -0.059	 -0.004	  0.445	 26.500	 99.495	  1.048
18679	  0.311	  0.554	  0.603	  0.017	 -5.584	 -10.316	 -0.177	 -0.033	 -2.222	 26.500	 99.499	  0.683
18729	  0.235	  0.604	  0.603	 -1.185	  2.332	 -9.978	 -0.085	 -0.008	 -2.014	 26.500	 99.507	 -0.048
18779	  0.229	  0.609	  0.588	 -2.270	  3.163	 -13.216	 -0.090	  0.013	  1.658	 26.500	 99.507	 -0.048
18829	  0.303	  0.551	  0.592	 -0.707	 -0.057	 -9.292	  0.103	  0.013	  2.628	 26.500	 99.507	 -0.048
18879	  0.341	  0.523	  0.593	  1.545	 -6.446	 -10.249	 -0.085	 -0.014	 -0.060	 26.500	 99.507	 -0.048
18929	  0.312	  0.551	  0.591	 -0.643	 -4.368	 -9.492	 -0.148	 -0.019	 -2.087	 26.500	 99.495	  1.048
18979	  0.257	  0.585	  0.590	 -0.781	  4.943	 -10.097	 -0.075	 -0.007	 -1.179	 26.500	 99.507	 -0.048
19029	  0.269	  0.584	  0.592	 -2.288	  4.425	 -9.232	  0.103	  0.022	  2.083	 26.500	 99.507	 -0.048
19079	  0.343	  0.518	  0.592	 -1.338	 -2.330	 -9.039	  0.119	  0.016	  2.531	 26.500	 99.511	 -0.412
19129	  0.366	  0.485	  0.586	 -1.542	 -4.752	 -9.675	 -0.247	  0.007	 -0.570	 26.500	 99.507	 -0.048
19179	  0.306	  0.544	  0.586	  1.934	 -3.487	 -9.820	 -0.284	 -0.012	 -3.277	 26.500	 99.511	 -0.412
19229	  0.235	  0.596	  0.578	 -3.073	  6.564	 -10.972	 -0.259	 -0.068	 -1.095	 26.500	 99.511	 -0.412
19279	  0.261	  0.580	  0.578	 -2.848	  3.925	 -8.493	  0.366	  0.068	  2.206	 26.500	 99.511	 -0.412
19329	  0.322	  0.529	  0.579	 -1.270	 -2.022	 -9.575	  0.254	  0.008	  2.339	 26.500	 99.507	 -0.048
19379	  0.354	  0.499	  0.576	 -1.806	 -1.787	 -10.776	 -0.044	  0.032	 -0.045	 26.500	 99.507	 -0.048
19429	  0.340	  0.518	  0.569	 -0.039	 -1.519	 -8.925	 -0.031	 -0.007	 -1.033	 26.500	 99.507	 -0.048
19479	  0.297	  0.539	  0.568	  1.592	  1.109	 -9.740	 -0.059	 -0.009	 -1.379	 26.500	 99.507	 -0.048
19529	  0.283	  0.556	  0.563	 -1.543	  1.215	 -9.020	  0.012	  0.000	  0.035	 26.500	 99.499	  0.683
19579	  0.286	  0.567	  0.566	 -0.301	 -0.167	 -9.506	 -0.001	 -0.001	  0.020	 26.500	 99.507	 -0.048
19629	  0.281	  0.557	  0.569	 -0.379	 -0.086	 -9.435	  0.003	 -0.001	  0.019	 26.500	 99.511	 -0.412
19679	  0.286	  0.557	  0.567	 -0.321	 -0.104	 -9.486	  0.003	  0.000	  0.019	 26.500	 99.511	 -0.412
19729	  0.281	  0.561	  0.565	 -0.386	 -0.093	 -9.458	  0.002	 -0.002	  0.019	 26.500	 99.511	 -0.412
19779	  0.283	  0.557	  0.563	 -0.334	 -0.111	 -9.452	  0.003	 -0.001	  0.019	 26.500	 99.524	 -1.598
19829	  0.283	  0.551	  0.569	 -0.395	 -0.085	 -9.479	  0.003	 -0.002	  0.020	 26.500	 99.499	  0.683
19879	  0.278	  0.575	  0.567	 -0.320	 -0.115	 -9.459	  0.003	 -0.001	  0.020	 26.500	 99.511	 -0.412
19929	  0.284	  0.556	  0.565	 -0.327	 -0.094	 -9.481	  0.003	 -0.000	  0.020	 26.500	 99.511	 -0.412
19979	  0.285	  0.559	  0.563	 -0.379	 -0.115	 -9.465	  0.002	 -0.001	  0.021	 26.500	 99.511	 -0.412
20029	  0.292	  0.560	  0.570	 -0.303	 -0.143	 -9.461	  0.004	 -0.000	  0.021	 26.500	 99.495	  1.048
20079	  0.292	  0.572	  0.569	 -0.404	 -0.080	 -9.468	  0.003	 -0.000	  0.019	 26.500	 99.499	  0.683
20129	  0.294	  0.566	  0.574	 -0.280	 -0.123	 -9.481	  0.002	  0.000	  0.021	 26.500	 99.511	 -0.412
20179	  0.290	  0.571	  0.578	 -0.392	 -0.057	 -9.441	  0.004	 -0.001	  0.021	 26.500	 99.511	 -0.412
20229	  0.288	  0.576	  0.571	 -0.295	 -0.138	 -9.439	  0.002	 -0.000	  0.020	 26.500	 99.499	  0.683
20279	  0.290	  0.565	  0.576	 -0.351	 -0.077	 -9.447	  0.003	  0.001	  0.020	 26.500	 99.499	  0.683
20329	  0.291	  0.571	  0.574	 -0.331	 -0.116	 -9.441	  0.003	 -0.001	  0.019	 26.500	 99.507	 -0.048
20379	  0.290	  0.575	  0.574	 -0.312	 -0.120	 -9.469	  0.002	 -0.001	  0.020	 26.500	 99.511	 -0.412
20429	  0.291	  0.570	  0.577	 -0.386	 -0.115	 -9.444	  0.003	 -0.001	  0.019	 26.500	 99.524	 -1.598
20479	  0.290	  0.566	  0.570	 -0.298	 -0.113	 -9.449	  0.003	 -0.001	  0.020	 26.500	 99.511	 -0.412
20529	  0.285	  0.566	  0.574	 -0.435	 -0.104	 -9.442	  0.002	 -0.001	  0.020	 26.500	 99.511	 -0.412
20579	  0.287	  0.569	  0.569	 -0.308	 -0.133	 -9.465	  0.003	  0.000	  0.020	 26.500	 99.511	 -0.412
20629	  0.287	  0.566	  0.575	 -0.386	 -0.071	 -9.453	  0.004	 -0.002	  0.021	 26.500	 99.511	 -0.412
20679	  0.289	  0.565	  0.575	 -0.307	 -0.117	 -9.435	  0.004	 -0.001	  0.019	 26.500	 99.511	 -0.412
20729	  0.289	  0.579	  0.570	 -0.330	 -0.093	 -9.490	  0.003	 -0.001	  0.020	 26.500	 99.507	 -0.048
20779	  0.287	  0.565	  0.575	 -0.372	 -0.111	 -9.476	  0.003	 -0.001	  0.019	 26.500	 99.499	  0.683
20829	  0.291	  0.575	  0.574	 -0.302	 -0.095	 -9.432	  0.002	 -0.000	  0.020	 26.500	 99.499	  0.683
20879	  0.289	  0.581	  0.571	 -0.403	 -0.091	 -9.452	  0.003	 -0.000	  0.021	 26.500	 99.511	 -0.412
20929	  0.293	  0.575	  0.574	 -0.293	 -0.137	 -9.457	  0.002	 -0.001	  0.020	 26.500	 99.499	  0.683
20979	  0.290	  0.570	  0.573	 -0.394	 -0.156	 -9.487	  0.001	 -0.001	  0.021	 26.500	 99.507	 -0.048
21029	  0.292	  0.576	  0.570	 -0.295	 -0.020	 -9.343	  0.003	 -0.000	  0.019	 26.500	 99.511	 -0.412
21079	  0.290	  0.565	  0.574	 -0.371	 -0.044	 -9.407	  0.003	 -0.001	  0.020	 26.500	 99.499	  0.683
21129	  0.292	  0.570	  0.573	 -0.518	 -0.369	 -9.504	  0.123	  0.000	  0.016	 26.500	 99.499	  0.683
21179	  0.290	  0.572	  0.575	  0.716	  0.410	 -9.214	 -0.012	 -0.000	  0.019	 26.500	 99.499	  0.683
21229	  0.293	  0.574	  0.575	  2.273	  0.469	 -9.363	 -0.078	  0.003	  0.441	 26.500	 99.519	 -1.142
21279	  0.309	  0.569	  0.595	  0.297	 -0.323	 -9.759	 -0.028	  0.003	  0.895	 26.500	 99.499	  0.683
21329	  0.322	  0.562	  0.621	 -0.258	 -0.528	 -9.175	  0.021	  0.002	  0.686	 26.500	 99.511	 -0.412
21379	  0.317	  0.560	  0.635	 -0.036	 -0.545	 -9.623	 -0.002	  0.000	  0.095	 26.500	 99.499	  0.683
21429	  0.299	  0.574	  0.650	 -0.726	  0.311	 -9.510	 -0.012	 -0.001	 -0.212	 26.500	 99.499	  0.683
21479	  0.275	  0.590	  0.669	 -0.662	  0.282	 -9.699	 -0.005	  0.000	 -0.266	 26.500	 99.499	  0.683
21529	  0.247	  0.619	  0.695	 -1.027	  0.408	 -9.620	 -0.005	 -0.000	 -0.187	 26.500	 99.499	  0.683
21579	  0.225	  0.613	  0.708	 -0.714	  0.244	 -9.937	 -0.011	  0.002	 -0.082	 26.500	 99.499	  0.683
21629	  0.201	  0.623	  0.729	 -0.727	  0.308	 -9.731	 -0.011	 -0.001	 -0.025	 26.500	 99.499	  0.683
21679	  0.182	  0.623	  0.753	 -0.855	 -0.161	 -9.742	  0.012	 -0.017	  0.068	 26.500	 99.511	 -0.412
21729	  0.167	  0.643	  0.760	 -0.506	  0.174	 -9.253	  0.011	 -0.024	  0.063	 26.500	 99.511	 -0.412
21779	  0.152	  0.647	  0.784	 -0.677	 -0.795	 -9.653	  0.003	 -0.013	 -0.071	 26.600	 99.504	  0.227
21829	  0.131	  0.633	  0.794	 -2.532	 -1.668	 -9.364	 -0.149	 -0.128	 -0.084	 26.500	 99.499	  0.683
21879	  0.134	  0.629	  0.793	  0.090	 -0.214	 -9.072	  0.024	  0.006	  0.024	 26.500	 99.499	  0.683
21929	  0.130	  0.629	  0.792	 -0.180	 -0.158	 -9.424	  0.010	 -0.000	  0.019	 26.500	 99.499	  0.683
21979	  0.130	  0.629	  0.799	 -0.301	 -0.074	 -9.463	  0.001	 -0.006	  0.020	 26.500	 99.499	  0.683
22029	  0.130	  0.629	  0.796	 -0.376	 -0.095	 -9.510	 -0.003	 -0.006	  0.020	 26.600	 99.499	  0.683
22080	  0.132	  0.632	  0.796	 -0.254	 -0.188	 -9.600	 -0.009	 -0.010	  0.020	 26.500	 99.511	 -0.412
22129	  0.132	  0.633	  0.795	 -0.640	  0.481	 -9.242	  0.022	  0.009	  0.020	 26.500	 99.504	  0.227
22179	  0.130	  0.634	  0.797	 -0.360	 -0.058	 -9.584	 -0.011	 -0.009	  0.021	 26.500	 99.499	  0.683
22230	  0.131	  0.626	  0.795	 -0.448	 -0.047	 -9.498	  0.002	 -0.002	  0.019	 26.500	 99.511	 -0.412
22280	  0.132	  0.629	  0.799	 -0.380	 -0.081	 -9.459	 -0.001	 -0.001	  0.019	 26.500	 99.499	  0.683
22330	  0.132	  0.638	  0.800	 -0.474	  0.001	 -9.459	  0.004	 -0.001	  0.020	 26.500	 99.516	 -0.868
22380	  0.132	  0.628	  0.797	 -0.455	 -0.046	 -9.466	  0.003	  0.001	  0.021	 26.500	 99.511	 -0.412
22430	  0.130	  0.628	  0.799	 -0.436	 -0.017	 -9.440	  0.003	 -0.000	  0.021	 26.500	 99.491	  1.413
22480	  0.131	  0.631	  0.800	 -0.493	 -0.013	 -9.458	  0.003	 -0.001	  0.020	 26.500	 99.499	  0.683
22530	  0.130	  0.632	  0.794	 -0.456	  0.058	 -9.407	  0.086	  0.066	  0.018	 26.500	 99.516	 -0.868
22579	  0.131	  0.639	  0.797	 -0.564	 -0.042	 -9.525	  0.089	  0.073	  0.016	 26.500	 99.511	 -0.412
22629	  0.132	  0.639	  0.804	 -0.408	  0.065	 -9.122	  0.007	  0.004	  0.045	 26.500	 99.504	  0.227
22679	  0.140	  0.628	  0.799	 -1.053	  0.580	 -9.620	  0.020	  0.008	  0.645	 26.600	 99.504	  0.227
22729	  0.170	  0.623	  0.807	 -0.274	 -0.210	 -9.377	  0.034	  0.007	  0.930	 26.500	 99.499	  0.683
22779	  0.206	  0.615	  0.812	 -0.598	 -0.009	 -9.476	  0.032	  0.008	  0.923	 26.500	 99.511	 -0.412
22829	  0.235	  0.611	  0.807	  0.853	 -0.534	 -9.575	  0.021	  0.004	  0.567	 26.500	 99.487	  1.778
22880	  0.244	  0.597	  0.823	  0.451	 -0.183	 -9.356	  0.015	 -0.004	  0.363	 26.500	 99.511	 -0.412
22929	  0.247	  0.600	  0.822	 -0.528	 -0.051	 -9.583	  0.018	  0.005	  0.364	 26.600	 99.516	 -0.868
22979	  0.247	  0.603	  0.841	  0.076	 -0.547	 -9.234	  0.003	  0.000	 -0.094	 26.500	 99.511	 -0.412
23029	  0.230	  0.596	  0.845	 -0.637	 -0.418	 -9.404	 -0.010	 -0.011	 -0.274	 26.500	 99.511	 -0.412
23079	  0.213	  0.606	  0.847	 -1.420	 -0.306	 -9.331	 -0.009	 -0.011	 -0.136	 26.600	 99.516	 -0.868
23129	  0.215	  0.607	  0.843	 -0.746	  0.167	 -9.475	 -0.038	 -0.036	  0.016	 26.600	 99.524	 -1.598
23179	  0.212	  0.604	  0.847	 -0.818	  0.096	 -9.485	  0.066	  0.065	  0.015	 26.600	 99.504	  0.227
23229	  0.211	  0.615	  0.844	 -0.227	 -0.240	 -9.403	  0.013	  0.001	  0.021	 26.600	 99.504	  0.227
23279	  0.213	  0.602	  0.847	 -0.466	 -0.044	 -9.426	 -0.065	 -0.059	  0.023	 26.600	 99.516	 -0.868
23329	  0.211	  0.606	  0.839	 -0.423	 -0.022	 -9.449	 -0.014	 -0.014	  0.020	 26.600	 99.499	  0.683
23379	  0.213	  0.601	  0.849	 -0.354	 -0.203	 -9.532	 -0.014	 -0.016	  0.021	 26.600	 99.504	  0.227
23429	  0.215	  0.594	  0.845	 -0.131	 -0.366	 -9.579	 -0.156	 -0.138	  0.027	 26.600	 99.504	  0.227
23480	  0.218	  0.590	  0.844	 -0.550	  0.522	 -9.175	  0.025	 -0.002	  0.017	 26.600	 99.504	  0.227
23529	  0.220	  0.586	  0.845	 -0.429	 -0.151	 -9.725	  0.003	  0.001	  0.021	 26.600	 99.499	  0.683
23579	  0.216	  0.590	  0.842	 -0.499	  0.042	 -9.527	 -0.001	  0.001	  0.018	 26.600	 99.504	  0.227
23629	  0.215	  0.592	  0.842	 -0.618	  0.071	 -9.485	  0.007	 -0.001	  0.021	 26.600	 99.504	  0.227
23679	  0.214	  0.591	  0.840	 -0.498	  0.017	 -9.488	  0.005	  0.000	  0.020	 26.600	 99.504	  0.227
23729	  0.216	  0.584	  0.845	 -0.511	 -0.008	 -9.497	  0.001	 -0.001	  0.019	 26.600	 99.499	  0.683
23779	  0.214	  0.587	  0.844	 -0.484	  0.068	 -9.376	  0.002	 -0.000	  0.021	 26.600	 99.504	  0.227
23829	  0.216	  0.586	  0.837	 -0.405	 -0.016	 -9.467	 -0.001	 -0.002	  0.017	 26.600	 99.504	  0.227
23879	  0.215	  0.589	  0.835	 -0.562	  0.036	 -9.461	  0.006	  0.001	  0.018	 26.600	 99.516	 -0.868
23929	  0.215	  0.584	  0.836	 -0.619	  0.148	 -9.384	  0.002	 -0.001	  0.020	 26.500	 99.499	  0.683
23979	  0.216	  0.599	  0.832	 -0.503	  0.018	 -9.499	 -0.000	 -0.001	  0.019	 26.600	 99.516	 -0.868
24029	  0.210	  0.585	  0.842	 -0.133	 -0.209	 -9.438	 -0.010	 -0.005	 -0.146	 26.600	 99.504	  0.227
24079	  0.209	  0.591	  0.830	 -1.097	  0.579	 -9.394	 -0.003	 -0.003	  0.020	 26.600	 99.504	  0.227
24129	  0.209	  0.591	  0.834	 -0.440	  0.014	 -9.452	 -0.002	 -0.003	  0.022	 26.600	 99.504	  0.227
24179	  0.211	  0.589	  0.840	  1.094	  0.259	 -9.503	 -0.005	 -0.019	  0.082	 26.600	 99.504	  0.227
24229	  0.194	  0.600	  0.841	  0.561	  0.211	 -10.082	 -0.007	 -0.085	 -0.109	 26.600	 99.516	 -0.868
24279	  0.176	  0.592	  0.853	 -0.857	  0.611	 -9.703	  0.000	 -0.042	  0.301	 26.600	 99.491	  1.413
24329	  0.167	  0.576	  0.852	 -0.972	 -0.179	 -9.490	 -0.229	 -0.065	  0.255	 26.600	 99.504	  0.227
24379	  0.156	  0.553	  0.860	 -0.804	  0.302	 -9.955	 -0.175	 -0.341	  0.146	 26.600	 99.504	  0.227
24429	  0.153	  0.550	  0.849	 -0.721	 -0.697	 -10.531	  0.035	 -0.147	  0.200	 26.600	 99.516	 -0.868
24479	  0.168	  0.505	  0.828	 -0.699	  0.887	 -8.844	 -0.198	 -0.559	  0.476	 26.600	 99.504	  0.227
24529	  0.194	  0.502	  0.804	 -2.251	  0.034	 -8.008	  0.410	 -0.475	  0.496	 26.600	 99.499	  0.683
24579	  0.200	  0.514	  0.777	 -0.290	 -0.027	 -9.320	  0.453	 -0.076	  0.091	 26.600	 99.504	  0.227
24629	  0.193	  0.523	  0.750	 -2.540	  0.355	 -9.303	  0.434	 -0.234	 -0.368	 26.500	 99.491	  1.413
24679	  0.196	  0.538	  0.735	 -2.406	  0.729	 -8.663	  0.472	 -0.481	 -0.244	 26.500	 99.511	 -0.412
24729	  0.200	  0.573	  0.716	 -2.115	  0.014	 -8.309	  0.464	 -0.340	 -0.203	 26.600	 99.504	  0.227
24779	  0.212	  0.582	  0.707	 -3.038	 -0.210	 -8.603	  0.382	 -0.290	 -0.102	 26.600	 99.516	 -0.868
24829	  0.228	  0.588	  0.712	 -1.137	 -0.682	 -8.803	 -0.159	  0.158	  0.205	 26.600	 99.508	 -0.139
24879	  0.226	  0.584	  0.747	 -1.644	 -0.843	 -9.125	 -0.224	  0.613	  0.209	 26.600	 99.516	 -0.868
24929	  0.217	  0.575	  0.772	 -1.851	 -1.152	 -11.171	  0.010	  0.303	  0.082	 26.600	 99.504	  0.227
24979	  0.210	  0.570	  0.772	 -0.019	 -0.803	 -14.800	  0.142	  0.472	  0.180	 26.600	 99.504	  0.227
25029	  0.195	  0.512	  0.733	  2.668	 -1.047	 -14.604	 -0.016	 -0.058	  0.409	 26.600	 99.504	  0.227
25079	  0.210	  0.466	  0.646	 -0.471	 -1.385	 -5.114	  0.009	 -2.301	 -0.295	 26.600	 99.491	  1.413
25129	  0.250	  0.454	  0.588	 -6.094	 -0.819	  2.641	 -0.451	 -1.116	 -0.635	 26.600	 99.504	  0.227
25179	  0.242	  0.455	  0.625	 -4.614	 -0.006	  0.766	 -0.573	  1.398	  0.032	 26.600	 99.491	  1.413
25229	  0.167	  0.479	  0.747	 -1.999	  0.985	 -14.282	 -0.248	  3.085	  0.208	 26.600	 99.516	 -0.868
25279	  0.114	  0.512	  0.831	  2.673	 -1.763	 -25.240	 -0.191	  0.458	  0.315	 26.600	 99.504	  0.227
25329	  0.176	  0.432	  0.760	  2.492	 -0.176	 -20.823	 -0.234	 -2.492	  0.294	 26.600	 99.508	 -0.139
25379	  0.265	  0.392	  0.595	 -0.952	  0.912	 -5.077	  0.918	 -3.026	  0.354	 26.600	 99.516	 -0.868
25429	  0.317	  0.362	  0.485	 -2.157	  1.285	  5.592	  0.202	 -1.373	  0.278	 26.600	 99.491	  1.413
25479	  0.322	  0.358	  0.485	 -3.290	  0.245	  5.432	 -0.349	  0.982	  0.073	 26.600	 99.504	  0.227
25529	  0.276	  0.381	  0.596	 -3.247	 -0.635	 -6.259	 -0.895	  3.226	 -0.408	 26.600	 99.516	 -0.868
25579	  0.176	  0.423	  0.758	 -0.200	  1.319	 -22.287	 -0.206	  2.562	 -0.037	 26.600	 99.491	  1.413
25629	  0.172	  0.432	  0.786	  2.366	  0.348	 -22.895	 -0.092	 -0.719	  0.301	 26.600	 99.504	  0.227
25679	  0.216	  0.410	  0.704	 -0.629	  1.172	 -13.836	  0.820	 -1.996	 -0.048	 26.600	 99.504	  0.227
25729	  0.262	  0.404	  0.586	 -2.623	 -0.654	 -4.235	  1.197	 -1.750	  0.003	 26.600	 99.504	  0.227
25779	  0.286	  0.400	  0.510	 -2.760	  0.052	  0.581	  0.390	 -0.516	  0.014	 26.600	 99.504	  0.227
25829	  0.287	  0.407	  0.512	 -2.286	 -0.972	 -2.077	 -0.149	  0.646	  0.001	 26.600	 99.504	  0.227
25879	  0.269	  0.410	  0.573	 -1.612	  0.265	 -9.442	 -0.856	  1.188	 -0.210	 26.600	 99.508	 -0.139
25929	  0.247	  0.414	  0.616	 -1.840	  0.323	 -12.225	 -0.460	  0.455	 -0.227	 26.600	 99.504	  0.227
25979	  0.238	  0.426	  0.662	 -2.672	 -0.461	 -11.689	  0.056	  0.361	 -0.112	 26.600	 99.504	  0.227
26029	  0.236	  0.450	  0.676	 -1.717	 -0.625	 -10.492	  0.111	  0.231	 -0.135	 26.600	 99.491	  1.413
26079	  0.228	  0.448	  0.681	 -1.183	 -0.199	 -9.861	 -0.059	  0.188	 -0.008	 26.600	 99.504	  0.227
26129	  0.230	  0.460	  0.685	 -1.110	 -0.125	 -9.202	 -0.141	  0.111	  0.051	 26.600	 99.504	  0.227
26179	  0.222	  0.447	  0.693	 -1.177	 -0.083	 -9.285	 -0.079	  0.159	  0.018	 26.600	 99.516	 -0.868
26229	  0.216	  0.460	  0.700	 -1.541	 -0.053	 -9.149	 -0.017	  0.125	  0.004	 26.600	 99.508	 -0.139
26279	  0.207	  0.470	  0.705	 -1.564	 -0.166	 -9.093	 -0.019	  0.274	 -0.011	 26.600	 99.504	  0.227
26329	  0.191	  0.463	  0.718	 -1.541	 -0.141	 -9.114	 -0.066	  0.446	 -0.043	 26.600	 99.504	  0.227
26378	  0.176	  0.474	  0.730	 -0.800	 -0.122	 -9.256	 -0.169	  0.511	 -0.058	 26.600	 99.520	 -1.233
26428	  0.167	  0.470	  0.741	 -0.181	 -0.023	 -9.579	 -0.291	  0.294	 -0.096	 26.600	 99.504	  0.227
26478	  0.153	  0.473	  0.763	 -0.038	  0.410	 -9.624	 -0.201	  0.256	 -0.055	 26.600	 99.504	  0.227
26528	  0.132	  0.479	  0.776	 -0.307	  0.635	 -9.639	 -0.027	  0.339	 -0.094	 26.600	 99.508	 -0.139
26578	  0.119	  0.489	  0.781	 -0.181	  0.677	 -9.603	  0.121	  0.213	  0.017	 26.600	 99.508	 -0.139
26628	  0.113	  0.504	  0.791	 -0.382	  0.342	 -9.729	  0.169	  0.118	  0.113	 26.600	 99.520	 -1.233
26678	  0.108	  0.530	  0.796	 -0.135	  0.183	 -9.650	  0.111	  0.221	  0.069	 26.600	 99.508	 -0.139
26728	  0.099	  0.530	  0.799	  0.178	  0.116	 -9.835	  0.076	  0.111	  0.026	 26.600	 99.504	  0.227
26778	  0.100	  0.540	  0.802	 -0.164	  0.357	 -10.096	 -0.023	 -0.049	 -0.137	 26.600	 99.508	 -0.139
26828	  0.090	  0.530	  0.803	 -0.328	  0.400	 -9.432	 -0.206	  0.109	 -0.132	 26.600	 99.496	  0.956
26878	  0.087	  0.524	  0.803	 -0.509	  0.556	 -8.883	  0.052	  0.090	  0.105	 26.600	 99.504	  0.227
26928	  0.089	  0.544	  0.807	 -0.613	  0.189	 -9.702	  0.144	 -0.019	  0.253	 26.600	 99.496	  0.956
26978	  0.112	  0.546	  0.817	  0.421	 -0.005	 -9.495	  0.012	  0.134	  0.257	 26.600	 99.508	 -0.139
27028	  0.103	  0.537	  0.826	  0.867	  0.649	 -9.319	  0.203	  0.456	  0.138	 26.600	 99.508	 -0.139
27078	  0.097	  0.559	  0.827	  0.286	 -0.062	 -9.513	  0.521	  0.212	  0.279	 26.600	 99.491	  1.413
27128	  0.114	  0.578	  0.819	  0.812	 -0.338	 -9.063	  0.247	 -0.379	  0.492	 26.600	 99.496	  0.956
27178	  0.138	  0.586	  0.832	  0.094	 -1.316	 -9.944	  0.014	  0.108	  0.226	 26.600	 99.508	 -0.139
27228	  0.129	  0.582	  0.831	  0.541	 -0.872	 -9.045	 -0.143	  0.228	  0.219	 26.600	 99.496	  0.956
27278	  0.115	  0.561	  0.853	  0.712	 -1.071	 -9.718	 -0.519	  0.430	 -0.375	 26.600	 99.508	 -0.139
27328	  0.088	  0.554	  0.855	  2.363	  0.970	 -8.827	 -0.397	 -0.008	 -0.366	 26.600	 99.508	 -0.139
27378	  0.084	  0.531	  0.852	  0.402	  0.628	 -9.439	 -0.193	 -0.153	 -0.252	 26.600	 99.520	 -1.233
27428	  0.096	  0.538	  0.849	 -0.489	  0.263	 -9.128	  0.173	 -0.355	 -0.218	 26.600	 99.496	  0.956
27478	  0.121	  0.544	  0.839	  0.537	  0.369	 -10.509	  0.038	 -0.291	 -0.177	 26.600	 99.496	  0.956
27529	  0.118	  0.554	  0.837	  0.471	  0.050	 -9.887	 -0.022	  0.603	 -0.142	 26.600	 99.508	 -0.139
27578	  0.091	  0.544	  0.830	  1.284	 -0.138	 -8.859	  0.006	  0.281	 -0.468	 26.600	 99.508	 -0.139
27629	  0.076	  0.544	  0.824	  2.001	  0.463	 -9.293	 -0.086	  0.105	 -0.580	 26.600	 99.491	  1.413
27678	  0.059	  0.547	  0.818	  0.447	  1.259	 -9.385	 -0.028	  0.018	  0.054	 26.600	 99.504	  0.227
27729	  0.070	  0.553	  0.827	  1.460	  0.367	 -8.988	 -0.017	 -0.189	  0.415	 26.600	 99.508	 -0.139
27778	  0.106	  0.544	  0.816	  0.754	  1.385	 -8.523	  0.193	 -1.309	  0.365	 26.600	 99.508	 -0.139
27829	  0.165	  0.575	  0.822	  0.048	  0.226	 -9.336	  0.487	 -1.406	  0.193	 26.600	 99.520	 -1.233
27879	  0.177	  0.583	  0.817	 -0.824	  0.376	 -8.907	 -0.236	 -0.247	 -0.020	 26.600	 99.508	 -0.139
27929	  0.179	  0.571	  0.822	 -0.545	  0.103	 -9.400	  0.007	 -0.001	  0.022	 26.600	 99.491	  1.413
27979	  0.176	  0.580	  0.816	 -0.797	  0.218	 -9.402	  0.006	  0.006	  0.010	 26.600	 99.508	 -0.139
28029	  0.176	  0.587	  0.818	 -0.761	  0.230	 -9.453	  0.111	  0.135	 -0.088	 26.600	 99.508	 -0.139
28079	  0.171	  0.602	  0.819	 -0.236	  0.047	 -9.480	  0.035	  0.056	 -0.071	 26.600	 99.520	 -1.233
28129	  0.172	  0.588	  0.818	  0.236	 -0.582	 -9.606	 -0.161	 -0.194	  0.026	 26.600	 99.491	  1.413
28179	  0.173	  0.577	  0.819	 -0.342	 -1.009	 -10.276	  0.012	  0.024	  0.018	 26.600	 99.496	  0.956
28229	  0.171	  0.581	  0.814	 -0.951	  0.319	 -9.433	 -0.008	 -0.001	  0.020	 26.600	 99.520	 -1.233
28279	  0.174	  0.577	  0.820	 -1.200	  0.214	 -9.404	  0.006	  0.004	  0.058	 26.600	 99.508	 -0.139
28329	  0.179	  0.591	  0.818	 -1.523	  0.227	 -9.157	  0.019	  0.013	  0.209	 26.600	 99.508	 -0.139
28379	  0.192	  0.572	  0.809	 -1.658	 -0.025	 -9.289	  0.016	  0.028	  0.188	 26.600	 99.496	  0.956
28429	  0.211	  0.573	  0.807	 -1.356	 -0.003	 -9.152	  0.044	  0.064	  0.141	 26.600	 99.508	 -0.139
28479	  0.227	  0.556	  0.798	 -1.385	  1.069	 -7.960	  0.118	  0.133	 -0.015	 26.600	 99.504	  0.227
28529	  0.240	  0.566	  0.783	 -0.558	 -0.430	 -10.316	  0.196	  0.241	 -0.079	 26.600	 99.496	  0.956
28580	  0.251	  0.567	  0.771	 -0.337	  0.784	 -9.152	  0.309	  0.227	 -0.162	 26.600	 99.500	  0.591
28630	  0.262	  0.573	  0.753	 -1.528	  1.491	 -6.738	  0.065	  0.012	 -0.182	 26.600	 99.508	 -0.139
28680	  0.278	  0.568	  0.747	  0.239	  0.044	 -9.568	 -0.010	  0.003	 -0.078	 26.600	 99.508	 -0.139
28730	  0.287	  0.562	  0.730	  0.434	 -0.236	 -10.044	 -0.023	  0.012	 -0.147	 26.600	 99.508	 -0.139
28780	  0.289	  0.563	  0.722	  0.450	 -0.343	 -9.446	 -0.009	 -0.000	 -0.258	 26.600	 99.508	 -0.139
28829	  0.283	  0.580	  0.723	 -0.953	  0.204	 -9.423	 -0.003	  0.001	 -0.173	 26.600	 99.508	 -0.139
28879	  0.285	  0.566	  0.718	 -0.584	  0.285	 -9.416	 -0.003	  0.002	 -0.033	 26.600	 99.496	  0.956
28929	  0.289	  0.564	  0.710	  0.738	  0.256	 -9.513	 -0.000	  0.002	  0.048	 26.600	 99.508	 -0.139
28979	  0.294	  0.572	  0.707	 -0.317	 -0.125	 -9.561	  0.006	  0.000	  0.020	 26.600	 99.496	  0.956
29029	  0.296	  0.556	  0.705	 -0.432	  0.025	 -9.413	  0.004	 -0.002	  0.021	 26.600	 99.496	  0.956
29079	  0.295	  0.558	  0.708	 -0.416	  0.002	 -9.463	  0.004	  0.001	  0.020	 26.600	 99.496	  0.956
29129	  0.295	  0.554	  0.713	 -0.316	  0.020	 -9.469	  0.002	 -0.001	  0.021	 26.600	 99.496	  0.956
29179	  0.297	  0.558	  0.705	 -0.443	  0.007	 -9.486	  0.003	 -0.001	  0.020	 26.600	 99.496	  0.956
29229	  0.295	  0.557	  0.714	 -0.358	 -0.004	 -9.454	  0.003	 -0.001	  0.019	 26.600	 99.508	 -0.139
29279	  0.295	  0.558	  0.709	 -0.419	  0.027	 -9.457	  0.002	 -0.000	  0.019	 26.600	 99.508	 -0.139
29329	  0.293	  0.559	  0.705	 -0.359	 -0.010	 -9.434	  0.002	 -0.001	  0.020	 26.600	 99.508	 -0.139
29379	  0.296	  0.562	  0.712	 -0.345	  0.004	 -9.589	 -0.005	 -0.000	  0.020	 26.600	 99.508	 -0.139
29429	  0.295	  0.556	  0.710	 -0.380	 -0.001	 -9.521	  0.003	 -0.001	  0.020	 26.600	 99.512	 -0.503
29479	  0.291	  0.556	  0.706	 -0.335	  0.063	 -9.485	  0.004	 -0.001	  0.021	 26.600	 99.512	 -0.503
29529	  0.296	  0.556	  0.710	 -0.440	 -0.001	 -9.506	  0.002	 -0.001	  0.020	 26.600	 99.496	  0.956
29579	  0.294	  0.556	  0.704	 -0.306	 -0.003	 -9.457	  0.003	 -0.001	  0.021	 26.600	 99.508	 -0.139
29629	  0.292	  0.557	  0.710	 -0.431	  0.040	 -9.477	  0.003	 -0.002	  0.019	 26.600	 99.496	  0.956
29679	  0.295	  0.558	  0.709	 -0.349	 -0.012	 -9.485	  0.002	 -0.001	  0.020	 26.600	 99.508	 -0.139
29729	  0.295	  0.554	  0.710	 -0.405	  0.045	 -9.460	  0.003	 -0.001	  0.020	 26.600	 99.500	  0.591
29779	  0.294	  0.553	  0.713	 -0.408	 -0.028	 -9.472	  0.003	 -0.000	  0.020	 26.600	 99.512	 -0.503
29830	  0.297	  0.553	  0.709	 -0.387	  0.025	 -9.489	  0.002	 -0.000	  0.020	 26.600	 99.508	 -0.139
29880	  0.296	  0.561	  0.712	 -0.336	  0.001	 -9.430	  0.003	 -0.001	  0.019	 26.600	 99.496	  0.956
29929	  0.296	  0.558	  0.716	 -0.335	 -0.005	 -9.475	  0.002	 -0.001	  0.020	 26.600	 99.508	 -0.139
29979	  0.296	  0.557	  0.714	 -0.422	  0.038	 -9.478	  0.002	 -0.002	  0.020	 26.600	 99.508	 -0.139
30029	  0.295	  0.562	  0.718	 -0.324	  0.013	 -9.453	  0.002	 -0.000	  0.019	 26.600	 99.500	  0.591
30079	  0.293	  0.558	  0.712	 -0.415	 -0.015	 -9.456	  0.002	 -0.001	  0.020	 26.600	 99.496	  0.956
30129	  0.296	  0.561	  0.717	 -0.349	  0.018	 -9.447	  0.003	 -0.001	  0.021	 26.600	 99.508	 -0.139
30179	  0.297	  0.558	  0.712	 -0.402	  0.022	 -9.486	  0.003	 -0.000	  0.020	 26.600	 99.496	  0.956
30229	  0.292	  0.554	  0.716	 -0.393	  0.009	 -9.432	  0.003	 -0.001	  0.019	 26.600	 99.512	 -0.503
30279	  0.294	  0.551	  0.718	 -0.352	  0.015	 -9.442	  0.004	  0.001	  0.020	 26.600	 99.496	  0.956
30329	  0.293	  0.562	  0.718	 -0.401	  0.010	 -9.440	  0.003	  0.003	  0.020	 26.600	 99.500	  0.591
30379	  0.293	  0.561	  0.718	 -0.310	 -0.020	 -9.463	  0.002	 -0.000	  0.020	 26.600	 99.496	  0.956
30429	  0.290	  0.558	  0.717	 -0.415	  0.014	 -9.446	  0.003	 -0.001	  0.020	 26.600	 99.500	  0.591
30479	  0.298	  0.557	  0.714	 -0.296	 -0.034	 -9.437	  0.001	  0.000	  0.020	 26.600	 99.500	  0.591
30529	  0.298	  0.567	  0.716	 -0.431	  0.019	 -9.450	  0.003	 -0.000	  0.020	 26.600	 99.508	 -0.139
30579	  0.302	  0.567	  0.713	 -0.336	  0.001	 -9.451	  0.004	 -0.001	  0.020	 26.600	 99.500	  0.591
30629	  0.301	  0.562	  0.718	 -0.385	  0.010	 -9.496	  0.002	  0.001	  0.019	 26.600	 99.512	 -0.503
30679	  0.299	  0.562	  0.712	 -0.376	  0.001	 -9.444	  0.004	  0.000	  0.021	 26.600	 99.500	  0.591
30729	  0.296	  0.558	  0.714	 -0.370	  0.000	 -9.476	  0.002	  0.001	  0.020	 26.600	 99.500	  0.591
30779	  0.297	  0.563	  0.716	 -0.433	  0.019	 -9.442	  0.002	 -0.002	  0.021	 26.600	 99.512	 -0.503
30829	  0.299	  0.562	  0.713	 -0.332	  0.005	 -9.486	  0.003	 -0.000	  0.019	 26.600	 99.496	  0.956
30879	  0.294	  0.555	  0.716	 -0.425	  0.035	 -9.477	  0.003	 -0.001	  0.020	 26.600	 99.496	  0.956
30929	  0.299	  0.557	  0.712	 -0.324	  0.004	 -9.456	  0.004	 -0.001	  0.020	 26.600	 99.508	 -0.139
30979	  0.299	  0.553	  0.712	 -0.402	  0.025	 -9.478	  0.002	 -0.001	  0.020	 26.600	 99.508	 -0.139
31029	  0.301	  0.556	  0.709	 -0.378	  0.011	 -9.454	  0.003	 -0.001	  0.020	 26.600	 99.500	  0.591
31079	  0.299	  0.555	  0.717	 -0.374	 -0.007	 -9.439	  0.003	 -0.001	  0.020	 26.600	 99.524	 -1.598
31129	  0.296	  0.556	  0.710	 -0.426	  0.020	 -9.510	  0.003	 -0.001	  0.020	 26.600	 99.508	 -0.139
31179	  0.299	  0.552	  0.705	 -0.324	  0.010	 -9.466	  0.003	  0.000	  0.020	 26.600	 99.500	  0.591
31229	  0.299	  0.556	  0.716	 -0.426	  0.010	 -9.487	  0.002	 -0.000	  0.020	 26.600	 99.500	  0.591
31279	  0.297	  0.563	  0.713	 -0.340	  0.010	 -9.451	  0.003	 -0.002	  0.020	 26.600	 99.500	  0.591
31329	  0.296	  0.558	  0.712	 -0.428	  0.041	 -9.480	  0.003	 -0.000	  0.019	 26.600	 99.488	  1.687
31379	  0.296	  0.556	  0.713	 -0.350	  0.003	 -9.419	  0.003	 -0.000	  0.020	 26.600	 99.500	  0.591
31429	  0.295	  0.556	  0.718	 -0.386	  0.022	 -9.494	  0.002	 -0.000	  0.019	 26.600	 99.512	 -0.503
31479	  0.299	  0.557	  0.715	 -0.385	  0.019	 -9.438	  0.004	 -0.000	  0.019	 26.600	 99.512	 -0.503
31529	  0.295	  0.570	  0.715	 -0.360	  0.013	 -9.473	  0.002	  0.000	  0.019	 26.600	 99.508	 -0.139
31579	  0.297	  0.557	  0.708	 -0.411	  0.020	 -9.447	  0.003	 -0.001	  0.020	 26.600	 99.512	 -0.503
31629	  0.296	  0.556	  0.709	 -0.321	  0.000	 -9.491	  0.003	 -0.001	  0.020	 26.600	 99.500	  0.591
31679	  0.295	  0.557	  0.712	 -0.435	  0.038	 -9.507	  0.003	  0.000	  0.020	 26.600	 99.500	  0.591
31729	  0.296	  0.554	  0.708	 -0.319	 -0.018	 -9.473	  0.003	  0.001	  0.019	 26.600	 99.484	  2.052
31779	  0.297	  0.557	  0.712	 -0.427	  0.025	 -9.502	  0.002	 -0.000	  0.020	 26.600	 99.512	 -0.503
31829	  0.297	  0.551	  0.715	 -0.411	  0.023	 -9.466	  0.004	 -0.001	  0.020	 26.600	 99.500	  0.591
31879	  0.296	  0.567	  0.713	 -0.355	  0.020	 -9.470	  0.003	 -0.001	  0.020	 26.600	 99.500	  0.591
31929	  0.297	  0.557	  0.713	 -0.441	  0.024	 -9.493	  0.002	 -0.000	  0.019	 26.600	 99.500	  0.591
31979	  0.298	  0.553	  0.717	 -0.308	 -0.025	 -9.464	  0.002	 -0.001	  0.021	 26.600	 99.512	 -0.503
32029	  0.299	  0.561	  0.710	 -0.415	  0.055	 -9.438	  0.003	 -0.000	  0.020	 26.600	 99.516	 -0.868
32079	  0.299	  0.560	  0.713	 -0.340	 -0.015	 -9.494	  0.003	  0.000	  0.018	 26.600	 99.500	  0.591
32129	  0.298	  0.570	  0.711	 -0.386	  0.024	 -9.473	  0.004	 -0.000	  0.019	 26.600	 99.512	 -0.503
32179	  0.299	  0.553	  0.711	 -0.384	 -0.004	 -9.442	  0.003	 -0.000	  0.019	 26.600	 99.512	 -0.503
32229	  0.299	  0.556	  0.715	 -0.352	  0.017	 -9.481	  0.002	 -0.000	  0.020	 26.600	 99.500	  0.591
32279	  0.299	  0.568	  0.714	 -0.408	  0.032	 -9.496	  0.003	 -0.001	  0.019	 26.600	 99.500	  0.591
32329	  0.296	  0.560	  0.712	 -0.331	 -0.024	 -9.458	  0.002	 -0.001	  0.020	 26.600	 99.512	 -0.503
32379	  0.299	  0.555	  0.712	 -0.427	  0.029	 -9.479	  0.004	 -0.001	  0.020	 26.600	 99.500	  0.591
32429	  0.301	  0.573	  0.709	 -0.332	 -0.012	 -9.445	  0.003	 -0.001	  0.020	 26.600	 99.512	 -0.503
32479	  0.295	  0.556	  0.714	 -0.404	  0.042	 -9.491	  0.002	 -0.002	  0.020	 26.600	 99.512	 -0.503
32529	  0.299	  0.556	  0.711	 -0.371	  0.003	 -9.451	  0.003	 -0.000	  0.020	 26.600	 99.500	  0.591
32579	  0.296	  0.556	  0.702	 -0.382	  0.021	 -9.443	  0.003	 -0.000	  0.020	 26.600	 99.500	  0.591
32629	  0.298	  0.556	  0.715	 -0.401	  0.015	 -9.453	  0.003	  0.000	  0.019	 26.600	 99.500	  0.591
32679	  0.298	  0.561	  0.713	 -0.337	 -0.013	 -9.465	  0.003	 -0.002	  0.020	 26.600	 99.512	 -0.503
32729	  0.297	  0.561	  0.712	 -0.432	  0.023	 -9.451	  0.003	 -0.000	  0.021	 26.600	 99.500	  0.591
32779	  0.298	  0.555	  0.715	 -0.314	 -0.024	 -9.452	  0.004	  0.000	  0.020	 26.600	 99.500	  0.591
32830	  0.297	  0.555	  0.715	 -0.408	  0.028	 -9.434	  0.003	 -0.000	  0.021	 26.600	 99.500	  0.591
32879	  0.299	  0.567	  0.716	 -0.330	 -0.011	 -9.466	  0.004	  0.000	  0.020	 26.600	 99.500	  0.591
32929	  0.298	  0.568	  0.714	 -0.394	  0.037	 -9.484	  0.004	  0.000	  0.020	 26.600	 99.508	 -0.139
32979	  0.297	  0.556	  0.708	 -0.333	 -0.017	 -9.409	  0.003	 -0.001	  0.021	 26.600	 99.500	  0.591
33028	  0.303	  0.558	  0.716	 -0.369	  0.022	 -9.476	  0.002	 -0.002	  0.019	 26.600	 99.500	  0.591
33078	  0.297	  0.551	  0.709	 -0.409	  0.012	 -9.494	  0.002	  0.000	  0.020	 26.600	 99.512	 -0.503
33129	  0.299	  0.555	  0.715	 -0.329	  0.014	 -9.465	  0.003	  0.001	  0.020	 26.600	 99.516	 -0.868
33179	  0.298	  0.561	  0.713	 -0.420	  0.016	 -9.462	  0.003	 -0.000	  0.020	 26.600	 99.512	 -0.503
33229	  0.299	  0.558	  0.711	 -0.323	  0.012	 -9.468	  0.003	 -0.000	  0.019	 26.600	 99.492	  1.322
33279	  0.301	  0.555	  0.716	 -0.426	  0.020	 -9.459	  0.003	  0.000	  0.020	 26.600	 99.500	  0.591
33329	  0.298	  0.557	  0.711	 -0.308	 -0.001	 -9.456	  0.002	  0.000	  0.020	 26.600	 99.500	  0.591
33379	  0.298	  0.557	  0.719	 -0.425	  0.037	 -9.459	  0.003	 -0.000	  0.021	 26.600	 99.512	 -0.503
33429	  0.297	  0.560	  0.717	 -0.347	 -0.006	 -9.471	  0.003	  0.000	  0.020	 26.600	 99.512	 -0.503
33479	  0.299	  0.558	  0.715	 -0.399	  0.016	 -9.487	  0.004	 -0.001	  0.021	 26.600	 99.516	 -0.868
33529	  0.299	  0.563	  0.710	 -0.396	 -0.015	 -9.478	  0.002	 -0.000	  0.020	 26.600	 99.504	  0.227
33579	  0.296	  0.551	  0.713	 -0.345	  0.002	 -9.496	  0.003	 -0.000	  0.020	 26.600	 99.504	  0.227
33629	  0.298	  0.557	  0.712	 -0.409	  0.022	 -9.486	  0.002	  0.000	  0.020	 26.600	 99.500	  0.591
33679	  0.299	  0.552	  0.715	 -0.326	 -0.003	 -9.455	  0.003	  0.000	  0.020	 26.600	 99.500	  0.591
33729	  0.297	  0.554	  0.708	 -0.415	  0.022	 -9.446	  0.002	 -0.001	  0.020	 26.600	 99.512	 -0.503
33779	  0.297	  0.558	  0.714	 -0.329	  0.020	 -9.434	  0.003	  0.000	  0.020	 26.600	 99.504	  0.227
33829	  0.297	  0.557	  0.713	 -0.439	  0.028	 -9.459	  0.003	 -0.001	  0.020	 26.600	 99.516	 -0.868
33879	  0.298	  0.558	  0.712	 -0.352	 -0.015	 -9.444	  0.003	 -0.002	  0.020	 26.600	 99.504	  0.227
33929	  0.299	  0.567	  0.712	 -0.393	  0.034	 -9.451	  0.002	  0.001	  0.021	 26.600	 99.500	  0.591
33979	  0.301	  0.561	  0.709	 -0.404	  0.005	 -9.467	  0.003	 -0.000	  0.019	 26.600	 99.512	 -0.503
34029	  0.299	  0.558	  0.712	 -0.350	  0.015	 -9.448	  0.004	  0.000	  0.020	 26.600	 99.516	 -0.868
34079	  0.295	  0.554	  0.706	 -0.432	  0.043	 -9.476	  0.002	 -0.001	  0.020	 26.600	 99.512	 -0.503
34129	  0.296	  0.555	  0.720	 -0.345	 -0.017	 -9.453	  0.002	  0.000	  0.020	 26.600	 99.500	  0.591
34179	  0.297	  0.560	  0.713	 -0.432	  0.028	 -9.479	  0.002	 -0.002	  0.018	 26.600	 99.504	  0.227
34229	  0.297	  0.557	  0.712	 -0.338	 -0.010	 -9.451	  0.003	 -0.001	  0.020	 26.600	 99.512	 -0.503
34279	  0.299	  0.560	  0.713	 -0.399	  0.024	 -9.477	  0.003	 -0.001	  0.020	 26.600	 99.500	  0.591
34329	  0.297	  0.557	  0.708	 -0.360	  0.009	 -9.480	  0.002	  0.000	  0.020	 26.600	 99.504	  0.227
34379	  0.298	  0.557	  0.712	 -0.345	  0.024	 -9.493	  0.003	 -0.000	  0.019	 26.600	 99.504	  0.227
34429	  0.295	  0.553	  0.713	 -0.404	  0.028	 -9.437	  0.004	 -0.001	  0.020	 26.600	 99.512	 -0.503
34479	  0.296	  0.558	  0.713	 -0.340	  0.010	 -9.477	  0.003	 -0.000	  0.020	 26.600	 99.512	 -0.503
34529	  0.301	  0.565	  0.714	 -0.418	  0.005	 -9.470	  0.002	  0.000	  0.020	 26.600	 99.500	  0.591
34579	  0.298	  0.560	  0.712	 -0.303	 -0.015	 -9.438	  0.003	 -0.000	  0.019	 26.600	 99.504	  0.227
34629	  0.296	  0.558	  0.705	 -0.421	  0.044	 -9.439	  0.003	 -0.001	  0.021	 26.600	 99.512	 -0.503
34679	  0.297	  0.557	  0.714	 -0.327	 -0.007	 -9.442	  0.003	  0.000	  0.021	 26.600	 99.504	  0.227
34729	  0.298	  0.558	  0.714	 -0.404	 -0.000	 -9.469	  0.004	 -0.000	  0.021	 26.600	 99.516	 -0.868
34779	  0.299	  0.555	  0.715	 -0.391	 -0.002	 -9.470	  0.003	 -0.000	  0.020	 26.600	 99.500	  0.591
34829	  0.295	  0.556	  0.708	 -0.342	  0.021	 -9.463	  0.002	  0.001	  0.019	 26.600	 99.492	  1.322
34880	  0.298	  0.556	  0.713	 -0.430	  0.003	 -9.479	  0.003	 -0.001	  0.019	 26.600	 99.504	  0.227
34929	  0.298	  0.560	  0.713	 -0.349	  0.012	 -9.472	  0.003	 -0.001	  0.019	 26.600	 99.504	  0.227
34979	  0.299	  0.561	  0.716	 -0.432	  0.029	 -9.457	  0.003	 -0.001	  0.020	 26.600	 99.504	  0.227
35029	  0.297	  0.558	  0.709	 -0.330	  0.008	 -9.482	  0.002	 -0.001	  0.020	 26.600	 99.504	  0.227
35079	  0.298	  0.557	  0.715	 -0.406	  0.032	 -9.458	  0.003	 -0.000	  0.019	 26.600	 99.504	  0.227
35130	  0.294	  0.558	  0.705	 -0.355	  0.009	 -9.474	  0.003	 -0.000	  0.019	 26.600	 99.504	  0.227
35179	  0.295	  0.560	  0.716	 -0.359	  0.008	 -9.486	  0.003	  0.001	  0.020	 26.600	 99.504	  0.227
35229	  0.297	  0.568	  0.713	 -0.394	 -0.000	 -9.448	  0.003	 -0.002	  0.020	 26.600	 99.492	  1.322
35279	  0.296	  0.561	  0.712	 -0.353	  0.012	 -9.450	  0.002	 -0.000	  0.020	 26.600	 99.488	  1.687
35329	  0.296	  0.556	  0.713	 -0.406	  0.021	 -9.471	  0.003	  0.000	  0.020	 26.600	 99.504	  0.227
35379	  0.298	  0.557	  0.715	 -0.327	 -0.005	 -9.464	  0.003	  0.001	  0.020	 26.600	 99.500	  0.591
35429	  0.298	  0.565	  0.712	 -0.435	  0.020	 -9.449	  0.003	 -0.000	  0.019	 26.600	 99.504	  0.227
35479	  0.297	  0.554	  0.705	 -0.335	 -0.014	 -9.479	  0.003	 -0.001	  0.020	 26.600	 99.516	 -0.868
35529	  0.298	  0.555	  0.711	 -0.406	  0.015	 -9.488	  0.003	 -0.000	  0.019	 26.600	 99.516	 -0.868
35579	  0.297	  0.561	  0.705	 -0.363	 -0.001	 -9.442	  0.003	 -0.000	  0.021	 26.600	 99.500	  0.591
35629	  0.297	  0.556	  0.708	 -0.371	 -0.009	 -9.480	  0.004	 -0.001	  0.020	 26.600	 99.500	  0.591
35679	  0.301	  0.555	  0.709	 -0.402	  0.018	 -9.478	  0.002	 -0.001	  0.021	 26.600	 99.504	  0.227
35729	  0.295	  0.555	  0.717	 -0.339	  0.011	 -9.484	  0.002	 -0.001	  0.020	 26.600	 99.500	  0.591
35779	  0.302	  0.555	  0.708	 -0.419	  0.018	 -9.468	  0.003	 -0.001	  0.020	 26.600	 99.492	  1.322
