Time	 MagX	 MagY	 MagZ	 AccelX	 AccelY	 AccelZ	 Yaw	 Pitch	 Roll	 Temperature	 Pressure	 Altitude
15305	  0.733	  0.734	  1.018	  0.099	 -0.043	 -9.748	 -0.003	  0.001	 -0.000	 32.200	 99.092	 -99999.000
15352	  0.733	  0.737	  1.019	  0.102	 -0.046	 -9.786	 -0.004	  0.004	  0.001	 32.100	 99.100	 -99999.000
15401	  0.733	  0.735	  1.019	  0.116	 -0.055	 -9.768	 -0.003	  0.002	 -0.001	 32.200	 99.104	 -99999.000
15451	  0.735	  0.734	  1.016	  0.077	 -0.048	 -9.774	 -0.003	  0.002	  0.000	 32.200	 99.092	 -99999.000
15501	  0.734	  0.730	  1.015	  0.087	 -0.028	 -9.732	 -0.004	  0.003	  0.000	 32.200	 99.092	 -99999.000
15551	  0.733	  0.738	  1.019	  0.087	 -0.029	 -9.766	 -0.003	  0.003	  0.001	 32.100	 99.088	 -99999.000
15601	  0.733	  0.730	  1.016	  0.097	 -0.059	 -9.771	 -0.003	  0.002	  0.001	 32.200	 99.092	 -99999.000
15651	  0.733	  0.730	  1.017	  0.098	 -0.049	 -9.781	 -0.002	  0.003	 -0.000	 32.200	 99.092	 -99999.000
15701	  0.736	  0.736	  1.022	  0.083	 -0.041	 -9.783	 -0.004	  0.003	 -0.001	 32.200	 99.092	 -99999.000
15751	  0.733	  0.729	  1.019	  0.086	 -0.040	 -9.780	 -0.002	  0.002	  0.000	 32.200	 99.104	 -99999.000
15801	  0.732	  0.729	  1.019	  0.090	 -0.039	 -9.772	 -0.004	  0.002	 -0.001	 32.200	 99.092	 -99999.000
15851	  0.734	  0.734	  1.017	  0.102	 -0.041	 -9.761	 -0.004	  0.003	 -0.001	 32.200	 99.104	 -99999.000
15901	  0.735	  0.732	  1.019	  0.108	 -0.041	 -9.753	 -0.004	  0.003	  0.000	 32.200	 99.104	 -99999.000
15951	  0.731	  0.729	  1.018	  0.094	 -0.045	 -9.734	 -0.004	  0.002	  0.000	 32.200	 99.104	 -99999.000
16001	  0.734	  0.737	  1.017	  0.076	 -0.041	 -9.750	 -0.003	  0.002	  0.001	 32.200	 99.092	 -99999.000
16051	  0.735	  0.732	  1.016	  0.112	 -0.034	 -9.766	 -0.003	  0.003	 -0.000	 32.200	 99.104	 -99999.000
16101	  0.734	  0.733	  1.017	  0.096	 -0.034	 -9.765	 -0.004	  0.003	 -0.000	 32.200	 99.081	 -99999.000
16151	  0.733	  0.729	  1.016	  0.091	 -0.022	 -9.782	 -0.004	  0.002	  0.001	 32.200	 99.104	 -99999.000
16201	  0.732	  0.733	  1.018	  0.076	 -0.022	 -9.751	 -0.003	  0.003	  0.001	 32.200	 99.104	 -99999.000
16251	  0.732	  0.735	  1.016	  0.093	 -0.035	 -9.787	 -0.004	  0.003	  0.001	 32.200	 99.092	 -99999.000
16301	  0.732	  0.735	  1.018	  0.096	 -0.034	 -9.761	 -0.004	  0.003	  0.001	 32.200	 99.104	 -99999.000
16351	  0.732	  0.730	  1.014	  0.097	 -0.030	 -9.747	 -0.004	  0.002	  0.000	 32.200	 99.092	 -99999.000
16401	  0.732	  0.730	  1.017	  0.086	 -0.057	 -9.794	 -0.004	  0.001	 -0.001	 32.200	 99.104	 -99999.000
16451	  0.734	  0.733	  1.017	  0.079	 -0.032	 -9.759	 -0.003	  0.003	  0.001	 32.200	 99.104	 -99999.000
16501	  0.734	  0.732	  1.022	  0.100	 -0.025	 -9.717	 -0.003	  0.003	  0.001	 32.200	 99.092	 -99999.000
16550	  0.731	  0.729	  1.020	  0.088	 -0.043	 -9.750	 -0.003	  0.002	  0.001	 32.200	 99.104	 -99999.000
16600	  0.732	  0.734	  1.018	  0.081	 -0.018	 -9.765	 -0.002	  0.002	  0.001	 32.200	 99.104	 -99999.000
16650	  0.733	  0.735	  1.022	  0.101	 -0.035	 -9.772	 -0.004	  0.002	  0.000	 32.200	 99.104	 -99999.000
16700	  0.731	  0.732	  1.018	  0.081	 -0.047	 -9.818	 -0.004	  0.002	  0.000	 32.200	 99.092	 -99999.000
16750	  0.733	  0.729	  1.016	  0.099	 -0.036	 -9.767	 -0.003	  0.002	  0.000	 32.200	 99.092	 -99999.000
16800	  0.731	  0.732	  1.019	  0.090	 -0.026	 -9.749	 -0.003	  0.003	  0.001	 32.200	 99.092	 -99999.000
16850	  0.734	  0.732	  1.015	  0.087	 -0.028	 -9.786	 -0.003	  0.003	  0.000	 32.200	 99.104	 -99999.000
16901	  0.735	  0.733	  1.023	  0.091	 -0.040	 -9.773	 -0.004	  0.001	  0.001	 32.200	 99.104	 -99999.000
16951	  0.734	  0.736	  1.020	  0.090	 -0.045	 -9.742	 -0.004	  0.003	  0.000	 32.200	 99.092	 -99999.000
17000	  0.734	  0.733	  1.017	  0.116	 -0.019	 -9.803	 -0.002	  0.002	  0.001	 32.200	 99.092	 -99999.000
17051	  0.731	  0.729	  1.017	  0.079	 -0.035	 -9.778	 -0.004	  0.003	 -0.000	 32.200	 99.104	 -99999.000
17100	  0.733	  0.735	  1.019	  0.090	 -0.037	 -9.770	 -0.003	  0.003	  0.000	 32.200	 99.092	 -99999.000
17151	  0.732	  0.731	  1.018	  0.087	 -0.043	 -9.733	 -0.003	  0.003	 -0.000	 32.200	 99.092	 -99999.000
17200	  0.731	  0.732	  1.015	  0.084	 -0.024	 -9.789	 -0.003	  0.002	  0.000	 32.200	 99.092	 -99999.000
17250	  0.733	  0.729	  1.015	  0.070	 -0.042	 -9.767	 -0.003	  0.003	  0.001	 32.200	 99.092	 -99999.000
17300	  0.735	  0.727	  1.017	  0.090	 -0.012	 -9.753	 -0.003	  0.003	  0.000	 32.200	 99.104	 -99999.000
17350	  0.733	  0.734	  1.018	  0.076	 -0.031	 -9.757	 -0.003	  0.001	  0.000	 32.200	 99.104	 -99999.000
17401	  0.735	  0.728	  1.016	  0.082	 -0.024	 -9.740	 -0.004	  0.003	 -0.001	 32.200	 99.108	 -99999.000
17451	  0.733	  0.733	  1.017	  0.074	 -0.040	 -9.745	 -0.003	  0.002	  0.000	 32.200	 99.104	 -99999.000
17501	  0.735	  0.729	  1.021	  0.101	 -0.032	 -9.751	 -0.005	  0.003	  0.000	 32.200	 99.097	 -99999.000
17550	  0.732	  0.739	  1.018	  0.090	 -0.041	 -9.773	 -0.004	  0.002	 -0.001	 32.200	 99.092	 -99999.000
17601	  0.734	  0.729	  1.021	  0.087	 -0.028	 -9.777	 -0.003	  0.003	  0.000	 32.200	 99.092	 -99999.000
17651	  0.731	  0.728	  1.019	  0.091	 -0.028	 -9.790	 -0.003	  0.003	 -0.000	 32.200	 99.092	 -99999.000
17701	  0.732	  0.733	  1.014	  0.093	 -0.028	 -9.735	 -0.004	  0.003	 -0.001	 32.200	 99.104	 -99999.000
17751	  0.733	  0.732	  1.016	  0.061	 -0.050	 -9.755	 -0.004	  0.002	  0.000	 32.200	 99.104	 -99999.000
17801	  0.733	  0.731	  1.019	  0.096	 -0.019	 -9.750	 -0.004	  0.002	 -0.000	 32.200	 99.092	 -99999.000
17851	  0.732	  0.726	  1.022	  0.098	 -0.018	 -9.743	 -0.004	  0.002	  0.001	 32.200	 99.104	 -99999.000
17901	  0.731	  0.733	  1.014	  0.099	 -0.026	 -9.757	 -0.004	  0.001	  0.000	 32.200	 99.097	 -99999.000
17951	  0.733	  0.733	  1.015	  0.098	 -0.041	 -9.759	 -0.003	  0.003	  0.001	 32.200	 99.097	 -99999.000
18001	  0.735	  0.729	  1.016	  0.094	 -0.037	 -9.762	 -0.002	  0.003	  0.001	 32.200	 99.085	 -99999.000
18051	  0.731	  0.731	  1.020	  0.093	 -0.033	 -9.753	 -0.004	  0.004	  0.001	 32.200	 99.104	 -99999.000
18101	  0.731	  0.732	  1.018	  0.093	 -0.032	 -9.757	 -0.003	  0.003	  0.000	 32.200	 99.097	 -99999.000
18151	  0.735	  0.730	  1.016	  0.097	 -0.031	 -9.761	 -0.003	  0.002	  0.000	 32.200	 99.108	 -99999.000
18201	  0.732	  0.732	  1.018	  0.105	 -0.025	 -9.760	 -0.003	  0.003	  0.000	 32.200	 99.092	 -99999.000
18251	  0.734	  0.730	  1.019	  0.070	 -0.042	 -9.729	 -0.002	  0.004	  0.001	 32.200	 99.097	 -99999.000
18301	  0.730	  0.730	  1.017	  0.083	 -0.027	 -9.784	 -0.004	  0.002	 -0.000	 32.200	 99.085	 -99999.000
18351	  0.732	  0.735	  1.020	  0.097	 -0.028	 -9.804	 -0.004	  0.002	  0.001	 32.200	 99.092	 -99999.000
18401	  0.736	  0.734	  1.016	  0.094	 -0.018	 -9.780	 -0.005	  0.003	 -0.000	 32.200	 99.097	 -99999.000
18451	  0.733	  0.729	  1.017	  0.098	 -0.032	 -9.798	 -0.004	  0.003	  0.000	 32.200	 99.092	 -99999.000
18501	  0.733	  0.730	  1.017	  0.082	 -0.039	 -9.788	 -0.003	  0.002	 -0.001	 32.200	 99.097	 -99999.000
18551	  0.731	  0.731	  1.018	  0.077	 -0.041	 -9.779	 -0.003	  0.003	  0.000	 32.200	 99.092	 -99999.000
18601	  0.732	  0.732	  1.019	  0.090	 -0.024	 -9.748	 -0.004	  0.003	 -0.001	 32.200	 99.108	 -99999.000
18651	  0.735	  0.732	  1.016	  0.091	 -0.037	 -9.755	 -0.003	  0.003	 -0.001	 32.200	 99.097	 -99999.000
18701	  0.731	  0.733	  1.017	  0.059	 -0.037	 -9.805	 -0.003	  0.001	 -0.001	 32.200	 99.097	 -99999.000
18751	  0.733	  0.729	  1.017	  0.121	 -0.033	 -9.786	 -0.004	  0.003	  0.001	 32.200	 99.097	 -99999.000
18801	  0.734	  0.729	  1.018	  0.078	 -0.050	 -9.755	 -0.004	  0.003	  0.000	 32.200	 99.097	 -99999.000
18851	  0.734	  0.729	  1.018	  0.080	 -0.036	 -9.759	 -0.004	  0.002	  0.001	 32.200	 99.097	 -99999.000
18901	  0.731	  0.732	  1.019	  0.103	 -0.036	 -9.756	 -0.004	  0.002	  0.001	 32.200	 99.097	 -99999.000
18951	  0.734	  0.734	  1.019	  0.098	 -0.031	 -9.764	 -0.004	  0.003	  0.000	 32.200	 99.097	 -99999.000
19001	  0.734	  0.730	  1.014	  0.107	 -0.031	 -9.766	 -0.004	  0.003	  0.002	 32.200	 99.097	 -99999.000
19051	  0.734	  0.733	  1.016	  0.097	 -0.027	 -9.793	 -0.004	  0.004	  0.000	 32.200	 99.097	 -99999.000
19101	  0.735	  0.726	  1.020	  0.106	 -0.041	 -9.764	 -0.003	  0.001	 -0.001	 32.200	 99.097	 -99999.000
19151	  0.732	  0.733	  1.020	  0.096	 -0.046	 -9.765	 -0.004	  0.004	  0.001	 32.200	 99.085	 -99999.000
19201	  0.733	  0.729	  1.016	  0.102	 -0.021	 -9.748	 -0.003	  0.003	 -0.001	 32.200	 99.108	 -99999.000
19251	  0.734	  0.735	  1.018	  0.085	 -0.018	 -9.708	 -0.004	  0.003	 -0.001	 32.200	 99.092	 -99999.000
19301	  0.733	  0.731	  1.019	  0.081	 -0.054	 -9.762	 -0.003	  0.001	 -0.001	 32.200	 99.097	 -99999.000
19351	  0.732	  0.732	  1.020	  0.101	 -0.064	 -9.762	 -0.002	  0.002	 -0.000	 32.200	 99.097	 -99999.000
19401	  0.733	  0.731	  1.018	  0.072	 -0.031	 -9.738	 -0.004	  0.004	  0.001	 32.200	 99.097	 -99999.000
19451	  0.731	  0.730	  1.017	  0.121	 -0.029	 -9.765	 -0.003	  0.002	  0.000	 32.200	 99.097	 -99999.000
19501	  0.732	  0.729	  1.015	  0.080	 -0.029	 -9.764	 -0.003	  0.002	 -0.000	 32.200	 99.097	 -99999.000
19551	  0.733	  0.729	  1.022	  0.103	 -0.025	 -9.761	 -0.004	  0.002	  0.001	 32.200	 99.097	 -99999.000
19601	  0.734	  0.735	  1.017	  0.078	 -0.017	 -9.753	 -0.003	  0.004	  0.001	 32.200	 99.092	 -99999.000
19651	  0.732	  0.734	  1.018	  0.070	 -0.022	 -9.767	 -0.004	  0.002	  0.000	 32.200	 99.097	 -99999.000
19701	  0.731	  0.732	  1.018	  0.102	 -0.032	 -9.728	 -0.003	  0.002	  0.000	 32.200	 99.097	 -99999.000
19751	  0.733	  0.728	  1.016	  0.106	 -0.019	 -9.751	 -0.003	  0.003	  0.000	 32.200	 99.097	 -99999.000
19801	  0.729	  0.728	  1.020	  0.085	 -0.028	 -9.742	 -0.004	  0.003	  0.001	 32.200	 99.085	 -99999.000
19851	  0.733	  0.729	  1.018	  0.110	 -0.044	 -9.801	 -0.003	  0.003	  0.001	 32.200	 99.097	 -99999.000
19901	  0.732	  0.731	  1.016	  0.091	 -0.029	 -9.734	 -0.004	  0.003	 -0.000	 32.200	 99.108	 -99999.000
19951	  0.735	  0.730	  1.017	  0.092	 -0.026	 -9.767	 -0.004	  0.004	  0.001	 32.200	 99.097	 -99999.000
20001	  0.733	  0.734	  1.018	  0.088	 -0.025	 -9.781	 -0.003	  0.002	  0.000	 32.200	 99.097	 -99999.000
20051	  0.732	  0.734	  1.017	  0.088	 -0.042	 -9.750	 -0.004	  0.001	  0.002	 32.200	 99.108	 -99999.000
20101	  0.732	  0.731	  1.020	  0.077	 -0.050	 -9.760	 -0.003	  0.002	  0.001	 32.200	 99.108	 -99999.000
20151	  0.732	  0.728	  1.018	  0.117	 -0.045	 -9.745	 -0.003	  0.005	  0.001	 32.200	 99.097	 -99999.000
20201	  0.735	  0.729	  1.018	  0.102	 -0.015	 -9.741	 -0.003	  0.003	  0.000	 32.200	 99.097	 -99999.000
20251	  0.734	  0.729	  1.017	  0.109	 -0.033	 -9.748	 -0.004	  0.002	  0.001	 32.200	 99.108	 -99999.000
20301	  0.733	  0.733	  1.019	  0.097	 -0.034	 -9.717	 -0.003	  0.005	  0.001	 32.200	 99.101	 -99999.000
20351	  0.734	  0.728	  1.017	  0.064	 -0.046	 -9.725	 -0.003	  0.002	  0.000	 32.200	 99.085	 -99999.000
20401	  0.731	  0.731	  1.018	  0.092	 -0.059	 -9.777	 -0.003	  0.001	 -0.001	 32.200	 99.101	 -99999.000
20451	  0.730	  0.730	  1.016	  0.090	 -0.044	 -9.782	 -0.004	  0.004	  0.000	 32.200	 99.097	 -99999.000
20501	  0.732	  0.735	  1.016	  0.105	 -0.008	 -9.757	 -0.003	  0.002	  0.002	 32.200	 99.108	 -99999.000
20551	  0.733	  0.731	  1.019	  0.092	 -0.034	 -9.774	 -0.004	  0.003	  0.001	 32.200	 99.101	 -99999.000
20601	  0.733	  0.732	  1.022	  0.091	 -0.037	 -9.755	 -0.004	  0.003	 -0.000	 32.200	 99.108	 -99999.000
20651	  0.733	  0.731	  1.021	  0.097	 -0.026	 -9.739	 -0.002	  0.003	 -0.000	 32.200	 99.097	 -99999.000
20701	  0.734	  0.737	  1.018	  0.090	 -0.021	 -9.735	 -0.005	  0.002	  0.001	 32.200	 99.097	 -99999.000
20751	  0.733	  0.730	  1.017	  0.104	 -0.019	 -9.783	 -0.004	  0.002	  0.001	 32.200	 99.112	 -99999.000
20801	  0.733	  0.734	  1.016	  0.105	 -0.046	 -9.775	 -0.003	  0.002	  0.001	 32.200	 99.097	 -99999.000
20851	  0.731	  0.733	  1.019	  0.103	 -0.024	 -9.740	 -0.003	  0.002	  0.001	 32.200	 99.097	 -99999.000
20901	  0.733	  0.729	  1.014	  0.102	 -0.052	 -9.764	 -0.004	  0.002	  0.000	 32.200	 99.097	 -99999.000
20951	  0.734	  0.732	  1.016	  0.083	 -0.050	 -9.778	 -0.004	  0.002	  0.002	 32.200	 99.101	 -99999.000
21001	  0.734	  0.736	  1.017	  0.086	 -0.016	 -9.778	 -0.004	  0.002	 -0.001	 32.200	 99.097	 -99999.000
21051	  0.731	  0.732	  1.017	  0.079	 -0.023	 -9.755	 -0.003	  0.002	  0.000	 32.200	 99.085	 -99999.000
21101	  0.731	  0.725	  1.017	  0.096	 -0.039	 -9.765	 -0.003	  0.003	  0.001	 32.200	 99.097	 -99999.000
21151	  0.730	  0.730	  1.019	  0.103	 -0.024	 -9.724	 -0.004	  0.002	  0.001	 32.200	 99.108	 -99999.000
21201	  0.731	  0.733	  1.017	  0.100	 -0.042	 -9.753	 -0.003	  0.003	  0.001	 32.200	 99.097	 -99999.000
21251	  0.730	  0.733	  1.019	  0.074	 -0.000	 -9.754	 -0.005	  0.001	  0.000	 32.200	 99.097	 -99999.000
24102	  0.734	  0.731	  1.021	  0.092	 -0.029	 -9.768	 -0.004	  0.003	  0.001	 32.200	 99.089	  0.794
24152	  0.730	  0.733	  1.016	  0.086	 -0.028	 -9.758	 -0.004	  0.004	 -0.000	 32.200	 99.101	 -0.293
24202	  0.733	  0.731	  1.018	  0.075	 -0.032	 -9.797	 -0.002	  0.003	  0.001	 32.200	 99.097	  0.068
24252	  0.729	  0.730	  1.014	  0.094	 -0.035	 -9.752	 -0.003	  0.003	  0.001	 32.200	 99.101	 -0.293
24302	  0.733	  0.736	  1.017	  0.097	 -0.026	 -9.759	 -0.003	  0.002	 -0.001	 32.200	 99.089	  0.794
24352	  0.734	  0.733	  1.017	  0.084	 -0.045	 -9.773	 -0.003	  0.003	  0.000	 32.200	 99.101	 -0.293
24402	  0.733	  0.730	  1.018	  0.065	 -0.017	 -9.737	 -0.002	  0.004	  0.001	 32.200	 99.101	 -0.293
24452	  0.731	  0.732	  1.019	  0.094	 -0.026	 -9.783	 -0.004	  0.003	 -0.000	 32.200	 99.089	  0.794
24502	  0.732	  0.734	  1.019	  0.098	 -0.053	 -9.756	 -0.004	  0.002	 -0.001	 32.200	 99.101	 -0.293
24552	  0.733	  0.732	  1.021	  0.103	 -0.037	 -9.788	 -0.003	  0.002	 -0.000	 32.200	 99.089	  0.794
24602	  0.732	  0.730	  1.017	  0.069	 -0.014	 -9.747	 -0.004	  0.002	 -0.000	 32.200	 99.089	  0.794
24653	  0.734	  0.735	  1.021	  0.083	 -0.028	 -9.782	 -0.004	  0.004	 -0.001	 32.200	 99.101	 -0.293
24702	  0.731	  0.735	  1.018	  0.112	 -0.039	 -9.768	 -0.004	  0.003	  0.001	 32.200	 99.105	 -0.657
24752	  0.733	  0.731	  1.017	  0.092	  0.004	 -9.779	 -0.003	  0.002	 -0.001	 32.200	 99.078	  1.790
24802	  0.733	  0.732	  1.016	  0.098	 -0.031	 -9.779	 -0.004	  0.002	  0.000	 32.200	 99.105	 -0.657
24852	  0.732	  0.733	  1.020	  0.085	 -0.038	 -9.784	 -0.003	  0.003	  0.000	 32.200	 99.089	  0.794
24902	  0.732	  0.732	  1.017	  0.080	 -0.031	 -9.751	 -0.003	  0.002	 -0.000	 32.200	 99.089	  0.794
24952	  0.732	  0.731	  1.017	  0.073	 -0.046	 -9.759	 -0.003	  0.003	 -0.001	 32.200	 99.101	 -0.293
25002	  0.733	  0.732	  1.016	  0.089	 -0.038	 -9.793	 -0.004	  0.001	  0.001	 32.200	 99.089	  0.794
25051	  0.732	  0.731	  1.017	  0.098	 -0.036	 -9.788	 -0.003	  0.002	  0.000	 32.200	 99.089	  0.794
25101	  0.734	  0.733	  1.016	  0.099	 -0.031	 -9.793	 -0.004	  0.002	  0.001	 32.200	 99.089	  0.794
25151	  0.732	  0.730	  1.014	  0.086	 -0.035	 -9.766	 -0.003	  0.003	  0.000	 32.200	 99.089	  0.794
25201	  0.736	  0.729	  1.016	  0.093	 -0.020	 -9.776	 -0.003	  0.003	  0.001	 32.200	 99.094	  0.340
25251	  0.734	  0.732	  1.021	  0.097	 -0.019	 -9.794	 -0.003	  0.002	  0.000	 32.200	 99.101	 -0.293
25301	  0.732	  0.729	  1.017	  0.077	 -0.036	 -9.725	 -0.004	  0.004	 -0.000	 32.200	 99.094	  0.340
25351	  0.732	  0.729	  1.018	  0.083	 -0.031	 -9.768	 -0.003	  0.003	  0.001	 32.200	 99.105	 -0.657
25401	  0.732	  0.730	  1.015	  0.096	 -0.039	 -9.792	 -0.002	  0.003	  0.001	 32.200	 99.094	  0.340
25451	  0.732	  0.738	  1.018	  0.088	 -0.024	 -9.734	 -0.003	  0.002	  0.001	 32.200	 99.089	  0.794
25501	  0.732	  0.729	  1.015	  0.103	 -0.043	 -9.736	 -0.004	  0.003	  0.000	 32.200	 99.101	 -0.293
25551	  0.732	  0.730	  1.014	  0.096	 -0.044	 -9.789	 -0.003	  0.003	  0.001	 32.200	 99.101	 -0.293
25601	  0.731	  0.731	  1.018	  0.128	 -0.030	 -9.764	 -0.004	  0.003	  0.000	 32.200	 99.089	  0.794
25651	  0.733	  0.733	  1.023	  0.082	 -0.032	 -9.765	 -0.004	  0.003	  0.001	 32.200	 99.105	 -0.657
25701	  0.734	  0.733	  1.017	  0.099	 -0.065	 -9.793	 -0.004	  0.003	 -0.000	 32.200	 99.105	 -0.657
25751	  0.732	  0.731	  1.014	  0.079	 -0.024	 -9.747	 -0.003	  0.003	  0.001	 32.200	 99.101	 -0.293
25801	  0.732	  0.732	  1.017	  0.080	 -0.034	 -9.742	 -0.005	  0.002	  0.000	 32.200	 99.094	  0.340
25851	  0.734	  0.729	  1.021	  0.069	 -0.020	 -9.771	 -0.004	  0.002	 -0.000	 32.200	 99.094	  0.340
25901	  0.735	  0.734	  1.018	  0.105	 -0.035	 -9.791	 -0.003	  0.002	  0.001	 32.200	 99.101	 -0.293
25951	  0.734	  0.730	  1.020	  0.099	 -0.010	 -9.770	 -0.004	  0.002	  0.001	 32.200	 99.101	 -0.293
26001	  0.731	  0.733	  1.018	  0.089	 -0.048	 -9.761	 -0.003	  0.003	 -0.000	 32.200	 99.101	 -0.293
26051	  0.731	  0.731	  1.015	  0.090	 -0.024	 -9.756	 -0.003	  0.003	  0.000	 32.200	 99.105	 -0.657
26101	  0.733	  0.732	  1.020	  0.100	 -0.045	 -9.773	 -0.004	  0.002	 -0.000	 32.200	 99.094	  0.340
26151	  0.734	  0.731	  1.018	  0.094	 -0.012	 -9.806	 -0.003	  0.004	  0.001	 32.200	 99.094	  0.340
26201	  0.733	  0.730	  1.016	  0.068	 -0.038	 -9.725	 -0.002	  0.002	 -0.001	 32.200	 99.094	  0.340
26251	  0.733	  0.732	  1.017	  0.059	 -0.026	 -9.748	 -0.004	  0.002	  0.001	 32.200	 99.101	 -0.293
26301	  0.733	  0.729	  1.017	  0.088	 -0.018	 -9.755	 -0.003	  0.003	 -0.000	 32.200	 99.105	 -0.657
26351	  0.733	  0.731	  1.015	  0.117	 -0.048	 -9.777	 -0.003	  0.001	  0.001	 32.200	 99.089	  0.794
26401	  0.735	  0.732	  1.017	  0.095	 -0.035	 -9.760	 -0.002	  0.004	 -0.000	 32.200	 99.094	  0.340
26451	  0.735	  0.731	  1.017	  0.094	 -0.044	 -9.768	 -0.005	 -0.000	 -0.000	 32.200	 99.094	  0.340
26501	  0.736	  0.734	  1.022	  0.440	 -0.164	 -9.660	 -0.003	 -0.006	 -0.109	 32.200	 99.094	  0.340
26551	  0.731	  0.736	  1.018	  0.045	 -0.044	 -9.800	 -0.004	  0.022	 -0.118	 32.200	 99.105	 -0.657
26601	  0.726	  0.737	  1.020	  0.076	  0.016	 -9.753	 -0.003	 -0.011	 -0.004	 32.200	 99.105	 -0.657
26651	  0.728	  0.741	  1.018	  0.114	 -0.033	 -9.749	 -0.003	  0.000	 -0.024	 32.200	 99.094	  0.340
26701	  0.726	  0.741	  1.021	  0.268	 -0.051	 -9.657	 -0.006	 -0.012	  0.001	 32.200	 99.082	  1.427
26751	  0.726	  0.742	  1.018	  0.227	 -0.059	 -9.668	 -0.004	 -0.026	  0.001	 32.200	 99.089	  0.794
26801	  0.730	  0.738	  1.022	  0.053	 -0.003	 -9.754	 -0.004	  0.010	  0.032	 32.200	 99.101	 -0.293
26851	  0.729	  0.734	  1.018	  0.065	 -0.001	 -9.778	 -0.003	  0.003	  0.013	 32.200	 99.105	 -0.657
26901	  0.731	  0.736	  1.022	  0.014	 -0.028	 -9.801	 -0.004	  0.005	  0.028	 32.200	 99.105	 -0.657
26951	  0.736	  0.731	  1.019	  0.183	  0.013	 -9.686	  0.005	  0.067	  0.084	 32.200	 99.105	 -0.657
27001	  0.737	  0.732	  1.023	 -0.050	 -0.009	 -9.809	 -0.008	  0.021	  0.161	 32.200	 99.105	 -0.657
27051	  0.741	  0.725	  1.020	  0.029	  0.009	 -9.783	 -0.005	 -0.010	  0.118	 32.200	 99.105	 -0.657
27101	  0.744	  0.721	  1.019	  0.047	 -0.043	 -9.786	 -0.005	  0.004	  0.082	 32.200	 99.101	 -0.293
27151	  0.747	  0.717	  1.019	  0.111	 -0.045	 -9.760	  0.000	  0.015	 -0.002	 32.200	 99.094	  0.340
27201	  0.746	  0.721	  1.019	  0.074	 -0.046	 -9.784	 -0.004	  0.005	  0.000	 32.200	 99.101	 -0.293
27251	  0.742	  0.719	  1.015	  0.329	 -0.028	 -9.786	 -0.001	 -0.001	 -0.137	 32.200	 99.089	  0.794
27301	  0.738	  0.722	  1.018	  0.077	 -0.021	 -9.758	 -0.004	 -0.006	 -0.000	 32.200	 99.094	  0.340
27351	  0.739	  0.720	  1.018	  0.493	 -0.683	 -9.742	 -0.001	  0.005	 -0.176	 32.200	 99.105	 -0.657
27401	  0.733	  0.737	  1.018	 -0.101	  0.206	 -9.786	 -0.003	  0.006	 -0.046	 32.200	 99.094	  0.340
27451	  0.729	  0.735	  1.024	 -0.044	  0.107	 -9.762	 -0.002	 -0.006	 -0.001	 32.200	 99.094	  0.340
27501	  0.728	  0.735	  1.018	  0.134	 -0.015	 -9.729	 -0.003	 -0.014	 -0.000	 32.200	 99.094	  0.340
27551	  0.731	  0.735	  1.018	  0.094	 -0.016	 -9.754	  0.008	  0.012	  0.003	 32.200	 99.105	 -0.657
27601	  0.730	  0.732	  1.022	  0.082	 -0.036	 -9.763	 -0.001	  0.019	  0.000	 32.200	 99.094	  0.340
27651	  0.731	  0.732	  1.020	  0.099	 -0.070	 -9.766	 -0.001	  0.003	  0.001	 32.200	 99.094	  0.340
27701	  0.729	  0.743	  1.021	  0.124	  0.055	 -9.720	 -0.009	 -0.009	  0.003	 32.200	 99.105	 -0.657
27751	  0.732	  0.734	  1.024	  0.168	 -0.185	 -9.753	 -0.003	 -0.000	  0.037	 32.200	 99.094	  0.340
27801	  0.736	  0.731	  1.020	  0.040	  0.206	 -9.697	  0.087	  0.079	  0.002	 32.200	 99.094	  0.340
27851	  0.736	  0.730	  1.022	  0.330	 -0.069	 -9.733	  0.001	  0.001	 -0.031	 32.200	 99.094	  0.340
27901	  0.738	  0.726	  1.022	  0.062	 -0.007	 -9.718	 -0.006	  0.006	  0.270	 32.200	 99.094	  0.340
27951	  0.747	  0.724	  1.026	  0.099	  0.038	 -9.724	 -0.005	  0.000	  0.024	 32.200	 99.109	 -1.019
28001	  0.746	  0.721	  1.029	  0.039	 -0.087	 -9.772	 -0.003	  0.003	  0.003	 32.200	 99.105	 -0.657
28051	  0.746	  0.724	  1.026	  0.003	 -0.054	 -9.781	 -0.001	  0.011	 -0.003	 32.200	 99.094	  0.340
28101	  0.746	  0.719	  1.031	  0.057	 -0.003	 -9.741	 -0.003	  0.002	 -0.001	 32.200	 99.094	  0.340
28151	  0.747	  0.722	  1.027	  0.118	 -0.027	 -9.750	 -0.005	 -0.016	  0.000	 32.200	 99.082	  1.427
28201	  0.746	  0.720	  1.033	  0.448	  0.193	 -9.810	  0.001	  0.023	 -0.052	 32.200	 99.094	  0.340
28251	  0.745	  0.728	  1.044	  0.369	  0.332	 -9.785	 -0.000	  0.008	  0.058	 32.200	 99.094	  0.340
28301	  0.747	  0.736	  1.058	 -0.115	 -0.449	 -9.759	 -0.013	 -0.004	 -0.048	 32.200	 99.105	 -0.657
28351	  0.745	  0.733	  1.063	  2.911	  0.551	 -9.211	  0.055	 -0.452	  0.363	 32.200	 99.094	  0.340
28401	  0.776	  0.711	  1.122	 -3.879	 -1.733	 -5.720	 -0.451	 -0.476	 -0.627	 32.200	 99.098	 -0.022
28451	  0.767	  0.729	  1.158	 -0.881	 -0.602	 -9.103	 -0.010	 -0.041	 -0.568	 32.200	 99.094	  0.340
28501	  0.748	  0.755	  1.189	  0.127	 -0.072	 -9.650	  0.064	  0.091	 -0.170	 32.200	 99.094	  0.340
28552	  0.748	  0.749	  1.193	  0.146	 -0.067	 -9.748	 -0.006	 -0.002	  0.001	 32.200	 99.098	 -0.022
28601	  0.748	  0.750	  1.191	  0.084	 -0.052	 -9.809	 -0.000	  0.005	 -0.000	 32.200	 99.109	 -1.019
28652	  0.752	  0.752	  1.195	  0.108	 -0.036	 -9.794	 -0.003	  0.005	  0.001	 32.200	 99.094	  0.340
28701	  0.752	  0.763	  1.192	  0.108	 -0.053	 -9.749	 -0.003	  0.002	 -0.001	 32.200	 99.094	  0.340
28751	  0.748	  0.747	  1.189	  0.094	 -0.036	 -9.748	 -0.004	  0.003	 -0.000	 32.200	 99.098	 -0.022
28801	  0.748	  0.751	  1.187	  0.091	 -0.053	 -9.763	 -0.003	  0.002	 -0.000	 32.200	 99.094	  0.340
28851	  0.750	  0.751	  1.191	  0.096	 -0.029	 -9.769	 -0.004	  0.003	  0.001	 32.200	 99.094	  0.340
28901	  0.749	  0.748	  1.185	  0.088	 -0.048	 -9.750	 -0.004	  0.003	 -0.000	 32.200	 99.094	  0.340
28951	  0.749	  0.756	  1.188	  0.118	 -0.056	 -9.786	 -0.004	  0.003	  0.000	 32.200	 99.109	 -1.019
29002	  0.749	  0.749	  1.189	  0.096	 -0.057	 -9.751	 -0.004	  0.003	  0.000	 32.200	 99.094	  0.340
29052	  0.749	  0.750	  1.186	  0.104	 -0.043	 -9.748	 -0.004	  0.003	 -0.000	 32.200	 99.094	  0.340
29102	  0.748	  0.749	  1.188	  0.105	 -0.041	 -9.756	 -0.002	  0.002	  0.001	 32.200	 99.094	  0.340
29152	  0.750	  0.748	  1.186	  0.101	 -0.031	 -9.760	 -0.004	  0.002	  0.001	 32.200	 99.105	 -0.657
29202	  0.749	  0.747	  1.185	  0.082	 -0.057	 -9.786	 -0.003	  0.003	  0.000	 32.200	 99.109	 -1.019
29252	  0.750	  0.746	  1.187	  0.082	 -0.039	 -9.763	 -0.003	  0.003	  0.000	 32.200	 99.094	  0.340
29302	  0.752	  0.747	  1.188	  0.104	 -0.051	 -9.761	 -0.003	  0.002	 -0.000	 32.200	 99.094	  0.340
29352	  0.748	  0.746	  1.181	  0.091	 -0.030	 -9.764	 -0.003	  0.000	  0.001	 32.200	 99.094	  0.340
29402	  0.750	  0.748	  1.187	  0.093	 -0.034	 -9.782	 -0.004	  0.002	  0.000	 32.200	 99.094	  0.340
29452	  0.749	  0.748	  1.186	  0.127	 -0.040	 -9.781	 -0.004	  0.003	 -0.000	 32.200	 99.105	 -0.657
29502	  0.750	  0.751	  1.192	  0.085	 -0.041	 -9.808	 -0.003	  0.002	  0.000	 32.200	 99.109	 -1.019
29551	  0.749	  0.749	  1.185	  0.111	 -0.018	 -9.732	 -0.003	  0.003	  0.001	 32.200	 99.094	  0.340
29601	  0.749	  0.749	  1.186	  0.092	 -0.061	 -9.776	 -0.004	  0.002	  0.000	 32.200	 99.094	  0.340
29651	  0.748	  0.745	  1.186	  0.077	 -0.031	 -9.773	 -0.004	  0.002	  0.000	 32.200	 99.094	  0.340
29702	  0.750	  0.751	  1.187	  0.097	 -0.060	 -9.770	 -0.002	  0.003	  0.001	 32.200	 99.098	 -0.022
29752	  0.751	  0.748	  1.192	  0.095	 -0.057	 -9.791	 -0.004	  0.002	  0.001	 32.200	 99.098	 -0.022
29802	  0.751	  0.747	  1.185	  0.093	 -0.056	 -9.748	 -0.004	  0.003	  0.001	 32.200	 99.094	  0.340
29851	  0.749	  0.747	  1.188	  0.083	 -0.056	 -9.752	 -0.003	  0.003	 -0.000	 32.200	 99.098	 -0.022
29901	  0.748	  0.750	  1.186	  0.111	 -0.036	 -9.770	 -0.003	  0.003	  0.001	 32.200	 99.098	 -0.022
29952	  0.750	  0.751	  1.185	  0.104	 -0.055	 -9.754	 -0.003	  0.002	  0.000	 32.200	 99.094	  0.340
30001	  0.750	  0.751	  1.187	  0.081	 -0.034	 -9.744	  0.006	  0.010	 -0.042	 32.200	 99.105	 -0.657
30051	  0.753	  0.747	  1.185	 -0.273	  1.151	 -9.796	  0.014	  0.017	  0.311	 32.200	 99.082	  1.427
43926	  0.846	  0.523	  0.897	  0.079	 -0.046	 -9.750	 -0.003	  0.002	  0.001	 32.300	 99.095	  0.179
43976	  0.846	  0.522	  0.895	  0.092	 -0.035	 -9.735	 -0.003	  0.002	 -0.000	 32.300	 99.099	 -0.185
44026	  0.845	  0.521	  0.894	  0.102	 -0.062	 -9.760	 -0.004	  0.002	  0.001	 32.300	 99.110	 -1.188
44076	  0.843	  0.525	  0.893	  0.081	 -0.052	 -9.794	 -0.004	  0.003	  0.000	 32.300	 99.099	 -0.185
44126	  0.846	  0.522	  0.896	  0.076	 -0.028	 -9.737	 -0.003	  0.003	 -0.000	 32.300	 99.110	 -1.188
44176	  0.845	  0.525	  0.894	  0.090	 -0.042	 -9.756	 -0.004	  0.002	  0.001	 32.300	 99.099	 -0.185
44226	  0.845	  0.521	  0.892	  0.074	 -0.058	 -9.775	 -0.004	  0.002	 -0.001	 32.300	 99.095	  0.179
44276	  0.848	  0.524	  0.891	  0.096	 -0.035	 -9.770	 -0.002	  0.003	  0.001	 32.300	 99.095	  0.179
44326	  0.844	  0.526	  0.896	  0.096	 -0.049	 -9.737	 -0.004	  0.003	  0.000	 32.300	 99.095	  0.179
44376	  0.844	  0.525	  0.896	  0.096	 -0.042	 -9.786	 -0.004	  0.003	 -0.000	 32.300	 99.099	 -0.185
44426	  0.844	  0.524	  0.895	  0.095	 -0.050	 -9.736	 -0.004	  0.003	  0.000	 32.300	 99.106	 -0.823
44476	  0.846	  0.521	  0.894	  0.086	 -0.030	 -9.772	 -0.003	  0.001	 -0.001	 32.300	 99.088	  0.817
44526	  0.846	  0.530	  0.894	  0.096	 -0.018	 -9.765	 -0.005	  0.002	  0.001	 32.300	 99.099	 -0.185
44576	  0.845	  0.529	  0.894	  0.084	 -0.047	 -9.764	 -0.003	  0.002	  0.000	 32.300	 99.099	 -0.185
44626	  0.844	  0.522	  0.895	  0.098	 -0.037	 -9.804	 -0.002	  0.004	  0.001	 32.300	 99.110	 -1.188
44676	  0.844	  0.525	  0.895	  0.081	 -0.019	 -9.759	 -0.003	  0.002	  0.000	 32.300	 99.095	  0.179
44726	  0.843	  0.525	  0.895	  0.077	 -0.053	 -9.773	 -0.004	  0.000	  0.001	 32.300	 99.099	 -0.185
44776	  0.844	  0.524	  0.895	  0.092	 -0.048	 -9.790	 -0.003	  0.001	  0.001	 32.300	 99.095	  0.179
44826	  0.844	  0.523	  0.892	  0.059	 -0.061	 -9.760	 -0.004	  0.003	 -0.000	 32.300	 99.088	  0.817
44876	  0.845	  0.523	  0.892	  0.105	 -0.051	 -9.831	 -0.004	  0.004	  0.000	 32.300	 99.099	 -0.185
44926	  0.843	  0.523	  0.895	  0.142	 -0.076	 -9.759	  0.002	  0.006	 -0.004	 32.300	 99.099	 -0.185
44976	  0.846	  0.524	  0.896	  0.103	 -0.029	 -9.783	 -0.007	  0.002	  0.001	 32.300	 99.088	  0.817
45026	  0.847	  0.524	  0.896	  0.116	 -0.049	 -9.780	 -0.004	  0.002	 -0.000	 32.300	 99.099	 -0.185
45076	  0.844	  0.528	  0.896	  0.077	 -0.045	 -9.791	 -0.003	  0.003	  0.001	 32.300	 99.099	 -0.185
45126	  0.844	  0.522	  0.895	  0.074	 -0.039	 -9.791	  0.004	  0.014	 -0.001	 32.300	 99.099	 -0.185
45176	  0.843	  0.527	  0.896	  0.061	 -0.269	 -9.873	  0.016	  0.060	 -0.147	 32.300	 99.099	 -0.185
45227	  0.836	  0.536	  0.895	  0.067	  0.279	 -9.670	 -0.001	 -0.002	 -0.167	 32.300	 99.099	 -0.185
45276	  0.835	  0.542	  0.896	  0.116	 -0.085	 -10.051	 -0.074	 -0.136	  0.028	 32.300	 99.095	  0.179
45327	  0.835	  0.539	  0.897	  0.040	 -0.029	 -9.592	 -0.008	 -0.001	 -0.025	 32.300	 99.099	 -0.185
45376	  0.835	  0.543	  0.894	  0.086	  0.090	 -9.806	 -0.008	 -0.003	  0.000	 32.300	 99.095	  0.179
45426	  0.836	  0.539	  0.895	  0.054	 -0.007	 -9.811	 -0.021	 -0.003	  0.002	 32.300	 99.099	 -0.185
45477	  0.836	  0.538	  0.893	 -0.070	 -0.181	 -9.679	 -0.005	  0.017	  0.047	 32.300	 99.099	 -0.185
45526	  0.831	  0.540	  0.893	  0.150	  0.008	 -9.763	 -0.003	 -0.014	 -0.307	 32.300	 99.099	 -0.185
45576	  0.824	  0.553	  0.891	  0.086	 -0.114	 -9.759	  0.003	  0.005	 -0.294	 32.300	 99.088	  0.817
45627	  0.819	  0.566	  0.892	  0.065	  0.424	 -9.674	  0.000	 -0.007	 -0.077	 32.300	 99.110	 -1.188
45677	  0.818	  0.564	  0.891	  0.108	 -0.051	 -9.739	 -0.009	 -0.000	  0.002	 32.300	 99.099	 -0.185
45727	  0.819	  0.562	  0.888	  0.070	 -0.056	 -9.778	 -0.005	 -0.002	  0.057	 32.300	 99.099	 -0.185
45777	  0.817	  0.561	  0.892	  0.132	 -0.139	 -9.806	  0.004	  0.022	 -0.015	 32.300	 99.099	 -0.185
45827	  0.815	  0.570	  0.891	  0.099	 -0.018	 -9.752	 -0.005	  0.003	  0.004	 32.300	 99.099	 -0.185
45877	  0.812	  0.569	  0.894	  0.096	 -0.040	 -9.732	 -0.002	  0.014	 -0.003	 32.300	 99.099	 -0.185
45927	  0.815	  0.567	  0.894	  0.094	 -0.038	 -9.783	 -0.007	 -0.010	  0.003	 32.300	 99.099	 -0.185
45977	  0.815	  0.568	  0.891	 -0.549	  0.263	 -9.902	 -0.031	 -0.064	  0.118	 32.300	 99.099	 -0.185
46027	  0.817	  0.566	  0.890	  0.289	 -0.396	 -9.719	 -0.011	 -0.005	 -0.303	 32.300	 99.099	 -0.185
46077	  0.812	  0.569	  0.891	 -0.162	 -0.034	 -9.833	 -0.019	 -0.003	  0.028	 32.300	 99.083	  1.272
46127	  0.815	  0.567	  0.886	  0.370	 -0.134	 -9.746	 -0.002	 -0.008	  0.122	 32.300	 99.099	 -0.185
46177	  0.812	  0.564	  0.888	 -0.013	  0.234	 -9.756	 -0.003	  0.010	 -0.134	 32.300	 99.099	 -0.185
46227	  0.814	  0.564	  0.891	  0.121	 -0.098	 -9.804	  0.016	  0.061	 -0.011	 32.300	 99.099	 -0.185
46277	  0.815	  0.564	  0.888	 -0.239	 -0.031	 -10.427	 -0.039	 -0.043	  0.024	 32.300	 99.099	 -0.185
46327	  0.815	  0.568	  0.886	  0.007	 -0.156	 -9.748	 -0.009	  0.007	 -0.235	 32.300	 99.099	 -0.185
46377	  0.836	  0.533	  0.873	 -0.950	  0.199	 -9.512	  0.029	 -0.108	  3.249	 32.300	 99.088	  0.817
46427	  0.880	  0.425	  0.858	  1.497	 -1.334	 -9.588	 -0.001	  0.023	  0.471	 32.300	 99.099	 -0.185
46477	  0.881	  0.426	  0.861	  0.154	 -0.110	 -9.770	  0.005	 -0.003	 -0.072	 32.300	 99.110	 -1.188
46527	  0.878	  0.446	  0.868	  0.090	 -0.050	 -9.753	  0.002	  0.012	 -0.322	 32.300	 99.110	 -1.188
46577	  0.876	  0.448	  0.863	  0.140	  0.085	 -9.698	  0.023	  0.006	 -0.054	 32.300	 99.099	 -0.185
46627	  0.873	  0.449	  0.863	  0.084	 -0.092	 -9.807	 -0.002	  0.005	 -0.171	 32.300	 99.099	 -0.185
46677	  0.870	  0.455	  0.865	  0.026	  0.054	 -9.745	 -0.003	  0.004	 -0.036	 32.300	 99.103	 -0.550
46727	  0.870	  0.451	  0.866	  0.102	 -0.055	 -9.762	 -0.003	  0.003	 -0.001	 32.300	 99.099	 -0.185
46777	  0.869	  0.454	  0.863	  0.083	 -0.042	 -9.763	 -0.004	  0.003	 -0.002	 32.300	 99.088	  0.817
46827	  0.868	  0.464	  0.869	  0.558	 -0.902	 -9.491	  0.014	 -0.007	 -0.356	 32.300	 99.099	 -0.185
46877	  0.854	  0.488	  0.872	 -0.089	  0.078	 -9.624	 -0.015	  0.007	 -0.563	 32.300	 99.099	 -0.185
46927	  0.848	  0.502	  0.875	  0.132	  0.087	 -9.667	  0.003	 -0.010	  0.011	 32.300	 99.092	  0.452
46977	  0.849	  0.501	  0.875	  0.061	 -0.057	 -9.796	 -0.003	  0.003	 -0.000	 32.300	 99.095	  0.179
47027	  0.846	  0.501	  0.873	  0.083	 -0.023	 -9.765	 -0.003	  0.002	  0.001	 32.300	 99.110	 -1.188
47077	  0.847	  0.507	  0.876	  0.080	 -0.051	 -9.774	 -0.004	  0.002	  0.000	 32.300	 99.088	  0.817
47127	  0.847	  0.503	  0.870	  0.075	 -0.051	 -9.759	 -0.002	  0.003	 -0.000	 32.300	 99.099	 -0.185
47177	  0.846	  0.504	  0.876	  0.067	 -0.028	 -9.740	 -0.005	  0.002	  0.001	 32.300	 99.088	  0.817
47227	  0.845	  0.500	  0.872	  0.097	 -0.055	 -9.758	 -0.003	  0.002	 -0.000	 32.300	 99.088	  0.817
47277	  0.848	  0.499	  0.875	  0.090	 -0.029	 -9.765	  0.010	  0.013	 -0.015	 32.300	 99.099	 -0.185
47327	  0.841	  0.507	  0.874	 -0.532	  0.735	 -9.811	 -0.004	  0.000	 -0.360	 32.300	 99.103	 -0.550
47377	  0.840	  0.513	  0.872	 -0.459	  0.430	 -10.085	 -0.108	 -0.097	  0.021	 32.300	 99.114	 -1.552
47427	  0.840	  0.510	  0.865	 -0.773	 -0.240	 -9.757	 -0.009	  0.005	  0.336	 32.300	 99.088	  0.817
47477	  0.841	  0.486	  0.854	  0.677	  0.798	 -9.769	  0.174	  0.257	  0.361	 32.300	 99.099	 -0.185
47527	  0.835	  0.474	  0.852	  0.162	 -0.625	 -9.140	  0.591	  0.636	  0.590	 32.300	 99.103	 -0.550
47577	  0.833	  0.467	  0.837	 -0.163	 -0.894	 -8.906	 -0.084	 -0.454	 -0.382	 32.300	 99.099	 -0.185
47627	  0.860	  0.467	  0.800	 -2.274	 -1.210	 -10.079	 -0.125	  0.321	  0.105	 32.300	 99.088	  0.817
47677	  0.862	  0.445	  0.773	  0.185	 -0.521	 -9.770	  0.243	  0.016	  0.505	 32.300	 99.099	 -0.185
47727	  0.857	  0.444	  0.754	  1.463	  0.528	 -10.027	  0.246	  0.050	 -0.286	 32.300	 99.092	  0.452
47777	  0.759	  0.437	  0.821	  0.260	  2.400	 -14.226	 -0.324	  1.279	  1.454	 32.300	 99.099	 -0.185
47827	  0.738	  0.339	  0.809	 -4.200	 -0.732	  3.621	 -0.172	 -1.820	  1.316	 32.300	 99.110	 -1.188
47877	  0.886	  0.396	  0.746	 -4.740	 -2.960	 -18.718	  1.433	  0.753	 -0.521	 32.300	 99.095	  0.179
47927	  0.800	  0.449	  0.788	 -2.804	  3.523	 -14.154	 -0.864	  0.530	 -0.472	 32.300	 99.099	 -0.185
47977	  0.732	  0.461	  0.823	  0.027	 -2.343	 -3.097	  0.553	  0.384	  0.267	 32.300	 99.103	 -0.550
48027	  0.795	  0.411	  0.836	 -8.936	  2.077	 -10.313	 -1.071	 -0.230	  1.451	 32.300	 99.088	  0.817
