Time	 MagX	 MagY	 MagZ	 AccelX	 AccelY	 AccelZ	 Yaw	 Pitch	 Roll	 Temperature	 Pressure	 Altitude
15211	  0.191	 -0.089	  0.172	 -0.067	 -0.096	 -9.528	  0.002	 -0.002	  0.012	 29.900	 99.492	 -99999.000
15261	  0.195	 -0.088	  0.169	 -0.051	 -0.110	 -9.501	  0.002	  0.000	  0.010	 29.900	 99.492	 -99999.000
15311	  0.190	 -0.092	  0.169	 -0.039	 -0.094	 -9.502	  0.002	  0.000	  0.011	 29.900	 99.492	 -99999.000
15361	  0.192	 -0.093	  0.173	 -0.049	 -0.106	 -9.500	  0.002	 -0.001	  0.010	 29.900	 99.492	 -99999.000
15411	  0.193	 -0.090	  0.176	 -0.029	 -0.113	 -9.503	  0.002	 -0.002	  0.011	 29.900	 99.500	 -99999.000
15461	  0.195	 -0.090	  0.171	 -0.047	 -0.096	 -9.501	  0.003	 -0.001	  0.010	 29.900	 99.492	 -99999.000
15511	  0.192	 -0.092	  0.175	 -0.051	 -0.127	 -9.482	  0.002	  0.001	  0.011	 29.900	 99.488	 -99999.000
15561	  0.195	 -0.085	  0.173	 -0.071	 -0.092	 -9.492	  0.001	 -0.001	  0.011	 29.900	 99.488	 -99999.000
15611	  0.193	 -0.089	  0.172	 -0.033	 -0.128	 -9.492	  0.002	 -0.000	  0.010	 29.900	 99.492	 -99999.000
15661	  0.195	 -0.089	  0.175	 -0.096	 -0.081	 -9.504	  0.002	  0.000	  0.010	 29.900	 99.488	 -99999.000
15711	  0.195	 -0.082	  0.172	 -0.021	 -0.142	 -9.489	  0.002	 -0.001	  0.010	 29.900	 99.492	 -99999.000
15761	  0.190	 -0.097	  0.171	 -0.078	 -0.085	 -9.505	  0.002	 -0.001	  0.011	 29.900	 99.492	 -99999.000
15811	  0.192	 -0.093	  0.171	 -0.017	 -0.137	 -9.519	  0.001	 -0.000	  0.010	 29.900	 99.492	 -99999.000
15861	  0.195	 -0.090	  0.171	 -0.100	 -0.099	 -9.466	  0.002	 -0.001	  0.010	 29.900	 99.492	 -99999.000
15911	  0.190	 -0.093	  0.176	  0.005	 -0.124	 -9.486	  0.002	 -0.002	  0.011	 29.900	 99.504	 -99999.000
15961	  0.196	 -0.088	  0.175	 -0.123	 -0.100	 -9.495	  0.002	 -0.001	  0.010	 29.900	 99.488	 -99999.000
16011	  0.195	 -0.093	  0.175	  0.003	 -0.135	 -9.500	  0.003	 -0.001	  0.012	 29.900	 99.492	 -99999.000
16061	  0.197	 -0.088	  0.169	 -0.085	 -0.100	 -9.493	  0.003	 -0.000	  0.011	 29.900	 99.492	 -99999.000
16112	  0.196	 -0.096	  0.166	  0.011	 -0.127	 -9.524	  0.003	 -0.001	  0.011	 29.900	 99.488	 -99999.000
16161	  0.192	 -0.076	  0.177	 -0.111	 -0.110	 -9.500	  0.003	 -0.001	  0.010	 29.900	 99.488	 -99999.000
16211	  0.192	 -0.082	  0.176	 -0.011	 -0.109	 -9.482	  0.002	 -0.001	  0.011	 29.900	 99.504	 -99999.000
16261	  0.195	 -0.087	  0.175	 -0.086	 -0.109	 -9.487	  0.003	 -0.002	  0.010	 29.900	 99.492	 -99999.000
16310	  0.195	 -0.082	  0.170	  0.019	 -0.125	 -9.474	  0.003	 -0.001	  0.010	 29.900	 99.480	 -99999.000
16360	  0.191	 -0.097	  0.169	 -0.103	 -0.105	 -9.490	  0.002	 -0.000	  0.010	 29.900	 99.492	 -99999.000
16410	  0.192	 -0.090	  0.175	  0.006	 -0.118	 -9.463	  0.002	 -0.000	  0.009	 29.900	 99.492	 -99999.000
18238	  0.196	 -0.093	  0.171	 -0.026	 -0.138	 -9.451	  0.001	  0.001	  0.009	 29.900	 99.504	 -1.121
18286	  0.194	 -0.094	  0.172	 -0.088	 -0.102	 -9.467	  0.003	  0.002	  0.010	 29.900	 99.500	 -0.753
18336	  0.195	 -0.094	  0.176	 -0.037	 -0.130	 -9.497	  0.002	 -0.002	  0.010	 29.900	 99.504	 -1.121
18386	  0.195	 -0.094	  0.168	 -0.094	 -0.103	 -9.452	  0.002	 -0.001	  0.011	 29.900	 99.492	 -0.016
18436	  0.193	 -0.092	  0.173	 -0.014	 -0.115	 -9.465	  0.003	 -0.000	  0.010	 29.900	 99.476	  1.456
18486	  0.193	 -0.089	  0.173	 -0.112	 -0.114	 -9.504	  0.002	  0.000	  0.010	 29.900	 99.492	 -0.016
18536	  0.197	 -0.079	  0.176	  0.011	 -0.139	 -9.471	  0.002	 -0.001	  0.011	 29.900	 99.504	 -1.121
18586	  0.193	 -0.090	  0.173	 -0.112	 -0.099	 -9.502	  0.003	 -0.001	  0.011	 29.900	 99.500	 -0.753
18636	  0.193	 -0.089	  0.167	  0.016	 -0.123	 -9.463	  0.002	 -0.000	  0.011	 29.900	 99.504	 -1.121
18686	  0.194	 -0.094	  0.177	 -0.144	 -0.079	 -9.494	  0.003	 -0.001	  0.010	 29.900	 99.480	  1.088
18736	  0.195	 -0.095	  0.179	 -0.011	 -0.135	 -9.495	  0.002	 -0.002	  0.010	 29.900	 99.492	 -0.016
18786	  0.196	 -0.092	  0.176	 -0.069	 -0.091	 -9.524	  0.002	 -0.001	  0.011	 29.900	 99.492	 -0.016
18836	  0.197	 -0.089	  0.179	  0.004	 -0.139	 -9.514	  0.002	 -0.001	  0.012	 29.900	 99.500	 -0.753
18886	  0.193	 -0.089	  0.171	 -0.107	 -0.090	 -9.453	  0.002	 -0.003	  0.011	 29.900	 99.492	 -0.016
18936	  0.197	 -0.093	  0.176	 -0.003	 -0.121	 -9.504	  0.001	 -0.002	  0.009	 29.900	 99.492	 -0.016
18986	  0.194	 -0.098	  0.167	 -0.061	 -0.068	 -9.474	  0.003	 -0.000	  0.012	 29.900	 99.488	  0.351
19036	  0.193	 -0.088	  0.176	 -0.023	 -0.099	 -9.493	  0.003	 -0.001	  0.009	 29.900	 99.492	 -0.016
19086	  0.195	 -0.084	  0.176	 -0.069	 -0.089	 -9.513	  0.002	 -0.000	  0.010	 29.900	 99.480	  1.088
19136	  0.196	 -0.075	  0.172	 -0.014	 -0.104	 -9.507	  0.002	 -0.001	  0.011	 29.900	 99.504	 -1.121
19186	  0.193	 -0.087	  0.167	 -0.065	 -0.091	 -9.483	  0.002	 -0.002	  0.010	 29.900	 99.504	 -1.121
19236	  0.195	 -0.087	  0.176	 -0.020	 -0.100	 -9.489	  0.002	 -0.001	  0.011	 29.900	 99.504	 -1.121
19286	  0.196	 -0.083	  0.176	 -0.071	 -0.143	 -9.496	  0.003	 -0.001	  0.010	 29.900	 99.492	 -0.016
19336	  0.192	 -0.092	  0.175	 -0.020	 -0.133	 -9.463	  0.002	  0.000	  0.010	 29.900	 99.504	 -1.121
19386	  0.196	 -0.094	  0.176	 -0.072	 -0.129	 -9.500	  0.002	 -0.002	  0.010	 29.900	 99.488	  0.351
19436	  0.194	 -0.095	  0.176	 -0.028	 -0.093	 -9.483	  0.002	 -0.000	  0.009	 29.900	 99.492	 -0.016
19486	  0.192	 -0.094	  0.180	 -0.093	 -0.132	 -9.459	  0.003	 -0.001	  0.010	 29.900	 99.492	 -0.016
19536	  0.197	 -0.093	  0.169	 -0.049	 -0.131	 -9.506	  0.002	 -0.000	  0.010	 29.900	 99.492	 -0.016
19586	  0.196	 -0.093	  0.175	 -0.060	 -0.108	 -9.511	  0.003	 -0.002	  0.010	 29.900	 99.492	 -0.016
19636	  0.196	 -0.095	  0.175	 -0.081	 -0.103	 -9.500	  0.003	 -0.001	  0.010	 29.900	 99.492	 -0.016
19686	  0.197	 -0.090	  0.171	 -0.055	 -0.135	 -9.469	  0.002	 -0.001	  0.011	 29.900	 99.476	  1.456
19736	  0.195	 -0.093	  0.177	 -0.066	 -0.096	 -9.457	  0.001	 -0.001	  0.010	 29.900	 99.504	 -1.121
19786	  0.195	 -0.094	  0.169	 -0.056	 -0.120	 -9.480	  0.003	  0.000	  0.011	 29.900	 99.488	  0.351
19836	  0.195	 -0.088	  0.177	 -0.067	 -0.084	 -9.482	  0.003	  0.000	  0.011	 29.900	 99.492	 -0.016
19886	  0.193	 -0.092	  0.179	 -0.037	 -0.136	 -9.508	  0.003	 -0.002	  0.011	 29.900	 99.492	 -0.016
19936	  0.192	 -0.095	  0.172	 -0.075	 -0.094	 -9.483	  0.002	 -0.001	  0.010	 29.900	 99.492	 -0.016
19986	  0.197	 -0.085	  0.175	 -0.012	 -0.129	 -9.501	  0.003	  0.000	  0.010	 29.900	 99.492	 -0.016
20036	  0.195	 -0.090	  0.176	 -0.085	 -0.050	 -9.517	  0.004	 -0.003	  0.010	 29.900	 99.504	 -1.121
20086	  0.195	 -0.094	  0.175	 -0.002	 -0.127	 -9.471	  0.003	 -0.001	  0.010	 29.900	 99.480	  1.088
20136	  0.195	 -0.092	  0.179	 -0.066	 -0.110	 -9.484	  0.003	 -0.002	  0.011	 29.900	 99.492	 -0.016
20186	  0.196	 -0.087	  0.176	  0.011	 -0.122	 -9.537	  0.003	 -0.001	  0.010	 29.900	 99.492	 -0.016
20236	  0.193	 -0.089	  0.172	 -0.106	 -0.097	 -9.510	  0.002	  0.000	  0.011	 29.900	 99.504	 -1.121
20286	  0.194	 -0.094	  0.177	  0.010	 -0.128	 -9.499	  0.003	 -0.001	  0.011	 29.900	 99.488	  0.351
20336	  0.195	 -0.093	  0.176	 -0.095	 -0.102	 -9.508	  0.002	  0.001	  0.011	 29.900	 99.492	 -0.016
20386	  0.195	 -0.083	  0.179	 -0.002	 -0.115	 -9.456	  0.002	  0.000	  0.011	 29.900	 99.492	 -0.016
20436	  0.195	 -0.092	  0.171	 -0.113	 -0.085	 -9.472	  0.002	 -0.001	  0.010	 29.900	 99.492	 -0.016
20486	  0.192	 -0.093	  0.171	 -0.017	 -0.151	 -9.435	  0.002	 -0.001	  0.010	 29.900	 99.492	 -0.016
20536	  0.194	 -0.094	  0.176	 -0.109	 -0.099	 -9.495	  0.002	  0.000	  0.011	 29.900	 99.492	 -0.016
20586	  0.195	 -0.093	  0.171	 -0.020	 -0.132	 -9.502	  0.002	 -0.001	  0.010	 29.900	 99.492	 -0.016
20636	  0.196	 -0.095	  0.176	 -0.101	 -0.101	 -9.484	  0.002	 -0.000	  0.010	 29.900	 99.480	  1.088
20686	  0.195	 -0.094	  0.168	 -0.018	 -0.103	 -9.512	  0.003	 -0.000	  0.010	 29.900	 99.504	 -1.121
20736	  0.195	 -0.093	  0.172	 -0.088	 -0.104	 -9.492	  0.003	 -0.001	  0.010	 29.900	 99.492	 -0.016
20786	  0.193	 -0.088	  0.176	 -0.018	 -0.124	 -9.461	  0.002	 -0.001	  0.010	 29.900	 99.492	 -0.016
20836	  0.194	 -0.093	  0.179	 -0.093	 -0.099	 -9.468	  0.002	  0.002	  0.010	 29.900	 99.488	  0.351
20886	  0.196	 -0.090	  0.175	 -0.023	 -0.094	 -9.514	  0.003	 -0.001	  0.011	 29.900	 99.492	 -0.016
20937	  0.196	 -0.098	  0.169	 -0.060	 -0.114	 -9.498	  0.002	 -0.000	  0.010	 29.900	 99.492	 -0.016
20987	  0.196	 -0.095	  0.175	 -0.012	 -0.118	 -9.490	  0.002	 -0.000	  0.010	 29.900	 99.500	 -0.753
21035	  0.196	 -0.101	  0.179	 -0.069	 -0.113	 -9.504	  0.002	  0.000	  0.011	 29.900	 99.492	 -0.016
21086	  0.195	 -0.093	  0.176	  0.002	 -0.111	 -9.498	  0.002	 -0.000	  0.011	 29.900	 99.504	 -1.121
21137	  0.193	 -0.090	  0.176	 -0.051	 -0.110	 -9.493	  0.002	 -0.000	  0.009	 29.900	 99.504	 -1.121
21187	  0.193	 -0.083	  0.176	 -0.048	 -0.088	 -9.538	  0.002	 -0.001	  0.010	 29.900	 99.492	 -0.016
21237	  0.195	 -0.084	  0.176	 -0.040	 -0.106	 -9.478	  0.002	  0.000	  0.010	 29.900	 99.504	 -1.121
21287	  0.195	 -0.090	  0.176	 -0.052	 -0.081	 -9.492	  0.003	 -0.000	  0.011	 29.900	 99.492	 -0.016
21337	  0.193	 -0.076	  0.178	 -0.043	 -0.110	 -9.500	  0.004	 -0.000	  0.010	 29.900	 99.492	 -0.016
21387	  0.194	 -0.094	  0.172	 -0.020	 -0.077	 -9.364	  0.002	 -0.002	  0.009	 29.900	 99.492	 -0.016
21437	  0.196	 -0.095	  0.179	 -0.020	 -0.097	 -9.452	  0.003	 -0.001	  0.010	 29.900	 99.504	 -1.121
21487	  0.196	 -0.093	  0.175	 -0.400	 -0.002	 -9.894	  0.004	  0.000	  0.011	 29.900	 99.492	 -0.016
21537	  0.196	 -0.095	  0.176	  0.086	 -0.186	 -9.396	  0.000	  0.011	  0.009	 29.900	 99.492	 -0.016
21587	  0.196	 -0.094	  0.176	 -0.239	 -0.107	 -9.529	  0.001	 -0.003	  0.011	 29.900	 99.488	  0.351
21637	  0.193	 -0.090	  0.172	  0.009	 -0.159	 -9.553	  0.002	  0.002	  0.010	 29.900	 99.500	 -0.753
21687	  0.197	 -0.092	  0.172	  0.048	 -0.067	 -9.222	  0.003	 -0.001	  0.010	 29.900	 99.504	 -1.121
21737	  0.196	 -0.087	  0.169	 -0.109	 -0.195	 -9.756	  0.002	 -0.004	  0.011	 29.900	 99.480	  1.088
21787	  0.195	 -0.093	  0.171	 -0.084	 -0.102	 -9.458	  0.002	  0.005	  0.010	 29.900	 99.492	 -0.016
21837	  0.195	 -0.093	  0.176	 -0.020	 -0.130	 -9.434	  0.001	 -0.002	  0.011	 29.900	 99.492	 -0.016
21886	  0.194	 -0.095	  0.177	 -0.082	 -0.059	 -9.446	  0.003	 -0.001	  0.012	 29.900	 99.504	 -1.121
21936	  0.197	 -0.092	  0.172	  0.051	 -0.104	 -9.375	  0.004	 -0.001	  0.009	 29.900	 99.492	 -0.016
21986	  0.191	 -0.090	  0.169	 -0.113	 -0.087	 -9.548	  0.003	 -0.002	  0.010	 29.900	 99.492	 -0.016
22036	  0.195	 -0.094	  0.174	 -0.018	 -0.123	 -9.536	  0.002	 -0.001	  0.012	 29.900	 99.504	 -1.121
22086	  0.196	 -0.090	  0.177	 -0.089	 -0.045	 -9.442	  0.002	 -0.001	  0.010	 29.900	 99.492	 -0.016
22136	  0.196	 -0.090	  0.173	 -0.014	 -0.132	 -9.493	  0.003	 -0.000	  0.010	 29.900	 99.492	 -0.016
22186	  0.198	 -0.090	  0.175	 -0.050	 -0.099	 -9.473	  0.002	 -0.001	  0.010	 29.900	 99.500	 -0.753
22236	  0.196	 -0.093	  0.176	  0.023	 -0.099	 -9.414	  0.002	 -0.002	  0.011	 29.900	 99.504	 -1.121
22286	  0.195	 -0.095	  0.180	  0.025	 -0.046	 -9.387	  0.003	 -0.004	  0.006	 29.900	 99.504	 -1.121
22336	  0.197	 -0.097	  0.175	 -0.089	 -0.123	 -9.610	  0.001	  0.002	  0.008	 29.900	 99.492	 -0.016
22386	  0.197	 -0.094	  0.174	  0.090	  0.177	 -9.269	  0.001	  0.005	  0.020	 29.900	 99.500	 -0.753
22436	  0.196	 -0.080	  0.172	  0.261	  0.524	 -9.577	  0.304	  0.013	  0.135	 29.900	 99.504	 -1.121
22486	  0.188	 -0.090	  0.184	 -0.197	 -0.488	 -10.154	  0.149	  0.435	  0.231	 29.900	 99.492	 -0.016
22536	  0.180	 -0.095	  0.194	  0.577	 -0.320	 -8.728	 -0.494	  0.464	  0.157	 29.900	 99.492	 -0.016
22586	  0.181	 -0.112	  0.191	  0.428	  0.126	 -9.225	 -0.168	 -0.383	  0.063	 29.900	 99.492	 -0.016
22636	  0.183	 -0.107	  0.177	 -0.093	  0.122	 -9.052	  0.221	 -0.018	  0.014	 29.900	 99.492	 -0.016
22686	  0.186	 -0.116	  0.183	  0.296	  0.058	 -9.562	  0.009	 -0.021	  0.090	 29.900	 99.476	  1.456
22736	  0.190	 -0.117	  0.176	  0.297	  0.071	 -9.362	  0.028	 -0.091	  0.105	 29.900	 99.492	 -0.016
22786	  0.192	 -0.101	  0.175	 -0.045	 -0.389	 -9.499	  0.045	 -0.161	  0.128	 29.900	 99.504	 -1.121
22836	  0.192	 -0.111	  0.171	 -0.770	 -0.263	 -9.636	  0.003	  0.044	  0.063	 29.900	 99.492	 -0.016
22886	  0.191	 -0.121	  0.174	 -0.155	 -0.114	 -9.487	  0.004	 -0.001	  0.009	 29.900	 99.492	 -0.016
22936	  0.194	 -0.123	  0.173	 -0.050	 -0.103	 -9.475	  0.005	 -0.002	  0.013	 29.900	 99.492	 -0.016
22986	  0.190	 -0.120	  0.174	 -0.015	 -0.149	 -9.510	  0.003	 -0.003	  0.010	 29.900	 99.504	 -1.121
23036	  0.193	 -0.123	  0.166	 -0.074	 -0.100	 -9.510	  0.003	 -0.000	  0.011	 29.900	 99.492	 -0.016
23086	  0.191	 -0.111	  0.171	 -0.037	 -0.137	 -9.526	  0.003	 -0.002	  0.013	 29.900	 99.496	 -0.385
23136	  0.192	 -0.117	  0.170	 -0.085	 -0.082	 -9.470	  0.003	  0.001	  0.008	 29.900	 99.492	 -0.016
23186	  0.192	 -0.108	  0.175	 -0.253	 -0.101	 -9.667	 -0.006	  0.001	  0.013	 29.900	 99.480	  1.088
23236	  0.191	 -0.118	  0.171	 -0.187	 -0.148	 -9.494	 -0.000	 -0.006	  0.022	 29.900	 99.504	 -1.121
23286	  0.191	 -0.122	  0.174	 -0.166	 -0.002	 -9.433	  0.003	 -0.016	  0.069	 29.900	 99.492	 -0.016
23336	  0.187	 -0.127	  0.171	 -0.215	 -0.048	 -9.447	  0.006	  0.008	  0.184	 29.900	 99.504	 -1.121
23386	  0.190	 -0.120	  0.172	  0.049	  0.074	 -9.535	  0.007	  0.005	  0.170	 29.900	 99.496	 -0.385
23436	  0.187	 -0.135	  0.163	  0.392	 -0.105	 -9.459	 -0.001	 -0.050	  0.103	 29.900	 99.504	 -1.121
23486	  0.190	 -0.131	  0.166	 -0.223	 -0.193	 -9.469	 -0.004	  0.022	  0.073	 29.900	 99.492	 -0.016
23536	  0.188	 -0.142	  0.166	  0.334	  0.163	 -10.282	  0.161	  0.161	  0.140	 29.900	 99.504	 -1.121
23586	  0.178	 -0.139	  0.171	  1.198	 -0.125	 -12.243	  0.103	  0.365	  0.107	 29.900	 99.492	 -0.016
23636	  0.161	 -0.136	  0.188	  1.323	 -1.298	 -13.507	 -0.363	  0.498	 -0.256	 29.900	 99.504	 -1.121
23686	  0.137	 -0.125	  0.190	 -0.532	 -0.067	 -8.904	 -1.281	  0.365	 -0.237	 29.900	 99.492	 -0.016
23736	  0.115	 -0.149	  0.185	 -0.889	  0.586	 -4.789	 -1.091	  0.043	 -0.066	 29.900	 99.492	 -0.016
23786	  0.116	 -0.169	  0.176	 -0.028	  0.529	 -5.726	 -0.779	 -0.048	 -0.182	 29.900	 99.492	 -0.016
23836	  0.117	 -0.173	  0.168	  0.628	  2.045	 -7.563	  0.546	 -0.390	  0.263	 29.900	 99.492	 -0.016
23886	  0.133	 -0.167	  0.169	  1.283	  1.073	 -10.403	  1.223	 -0.817	  0.293	 29.900	 99.492	 -0.016
23936	  0.148	 -0.152	  0.160	 -0.509	 -0.069	 -11.782	  0.563	 -0.752	  0.011	 29.900	 99.480	  1.088
23986	  0.154	 -0.149	  0.142	 -2.982	  0.755	 -7.928	  0.063	 -0.403	  0.418	 29.900	 99.492	 -0.016
24036	  0.162	 -0.164	  0.135	 -1.630	  0.804	 -5.723	  0.362	 -0.439	  0.749	 29.900	 99.504	 -1.121
24086	  0.181	 -0.177	  0.114	  3.879	  0.008	 -12.771	  0.372	 -0.717	 -0.119	 29.900	 99.500	 -0.753
24136	  0.198	 -0.160	  0.106	  0.165	 -0.221	 -16.514	 -0.586	 -0.067	 -0.779	 29.900	 99.504	 -1.121
24186	  0.183	 -0.152	  0.116	 -2.838	 -0.391	 -12.042	 -0.885	  0.356	 -0.523	 29.900	 99.492	 -0.016
24236	  0.163	 -0.153	  0.113	 -4.410	  1.662	 -3.684	 -0.164	 -0.542	  0.537	 29.900	 99.480	  1.088
24286	  0.165	 -0.167	  0.085	 -4.216	  1.288	 -1.683	  0.875	 -1.304	  1.279	 29.900	 99.492	 -0.016
24336	  0.184	 -0.180	  0.055	  0.573	 -0.485	 -7.289	  0.971	 -1.010	  0.849	 29.900	 99.492	 -0.016
24386	  0.206	 -0.190	  0.040	  2.105	 -1.983	 -17.660	  0.028	  0.049	 -0.633	 29.900	 99.468	  2.192
24436	  0.204	 -0.171	  0.074	 -2.635	 -1.782	 -14.446	 -0.493	  1.549	 -1.029	 29.900	 99.492	 -0.016
24486	  0.185	 -0.149	  0.102	 -2.648	  0.359	 -9.679	 -0.669	  0.225	 -0.727	 29.900	 99.504	 -1.121
24536	  0.181	 -0.145	  0.092	 -3.353	  1.549	 -5.871	 -0.653	 -1.107	 -0.056	 29.900	 99.480	  1.088
24586	  0.183	 -0.146	  0.061	 -3.529	  1.137	 -5.633	 -0.083	 -0.811	  0.344	 29.900	 99.517	 -2.318
24636	  0.192	 -0.161	  0.049	 -1.941	  0.892	 -7.408	  0.536	  0.057	  0.389	 29.900	 99.504	 -1.121
24686	  0.193	 -0.162	  0.060	 -1.492	  0.154	 -9.310	  0.652	  0.873	  0.084	 29.900	 99.492	 -0.016
24736	  0.183	 -0.157	  0.094	 -1.493	  0.015	 -9.956	  0.334	  0.925	 -0.062	 29.900	 99.492	 -0.016
24786	  0.177	 -0.154	  0.107	 -1.393	  0.140	 -10.009	  0.079	  0.359	  0.013	 29.900	 99.492	 -0.016
24836	  0.187	 -0.164	  0.115	 -1.381	  0.261	 -9.809	  0.054	 -0.079	  0.095	 29.900	 99.492	 -0.016
24886	  0.189	 -0.163	  0.098	 -1.245	  0.139	 -9.680	  0.067	 -0.112	  0.201	 29.900	 99.492	 -0.016
24936	  0.194	 -0.170	  0.106	 -1.102	 -0.070	 -9.643	  0.064	  0.094	  0.179	 29.900	 99.492	 -0.016
24986	  0.189	 -0.170	  0.110	 -0.926	  0.122	 -9.602	  0.053	  0.264	  0.096	 29.900	 99.492	 -0.016
25036	  0.188	 -0.160	  0.114	 -0.995	 -0.086	 -9.354	  0.040	  0.241	  0.052	 29.900	 99.480	  1.088
25086	  0.188	 -0.160	  0.122	 -1.043	  0.006	 -9.400	  0.086	  0.121	  0.078	 29.900	 99.480	  1.088
25136	  0.188	 -0.176	  0.122	 -0.881	 -0.357	 -9.629	  0.036	  0.081	  0.036	 29.900	 99.492	 -0.016
25186	  0.191	 -0.181	  0.127	 -0.953	 -0.163	 -9.523	 -0.010	  0.083	  0.040	 29.900	 99.492	 -0.016
25236	  0.191	 -0.177	  0.125	 -0.650	 -0.225	 -9.575	 -0.018	  0.105	 -0.001	 29.900	 99.492	 -0.016
25286	  0.192	 -0.179	  0.124	 -0.751	 -0.054	 -9.465	  0.031	  0.099	 -0.032	 29.900	 99.492	 -0.016
25336	  0.188	 -0.176	  0.133	 -0.552	 -0.128	 -9.500	  0.033	  0.092	 -0.060	 29.900	 99.504	 -1.121
25386	  0.194	 -0.177	  0.129	 -0.790	  0.018	 -9.465	 -0.029	  0.085	 -0.088	 29.900	 99.504	 -1.121
25435	  0.188	 -0.172	  0.137	 -0.487	 -0.168	 -9.471	  0.009	  0.279	 -0.053	 29.900	 99.504	 -1.121
25485	  0.189	 -0.177	  0.155	 -0.631	 -0.063	 -9.432	 -0.021	  0.289	  0.025	 29.900	 99.492	 -0.016
25535	  0.183	 -0.170	  0.149	 -0.266	 -0.189	 -9.479	  0.017	  0.173	  0.034	 29.900	 99.492	 -0.016
25585	  0.183	 -0.175	  0.150	 -0.250	 -0.060	 -9.357	  0.092	  0.097	  0.064	 29.900	 99.492	 -0.016
25635	  0.182	 -0.172	  0.152	 -0.454	 -0.078	 -9.418	  0.193	  0.189	  0.062	 29.900	 99.492	 -0.016
25685	  0.176	 -0.173	  0.162	 -0.167	 -0.127	 -9.458	 -0.017	  0.047	  0.009	 29.900	 99.492	 -0.016
25735	  0.181	 -0.170	  0.162	 -0.119	 -0.157	 -9.510	 -0.012	  0.050	  0.009	 29.900	 99.492	 -0.016
25785	  0.178	 -0.163	  0.160	 -0.174	 -0.137	 -9.481	 -0.018	  0.063	  0.001	 29.900	 99.484	  0.719
25835	  0.177	 -0.170	  0.166	  0.167	  0.072	 -9.413	 -0.021	  0.109	 -0.052	 29.900	 99.492	 -0.016
25885	  0.177	 -0.170	  0.164	 -0.111	  0.005	 -9.522	  0.006	 -0.026	 -0.047	 29.900	 99.492	 -0.016
25935	  0.177	 -0.170	  0.166	 -0.330	 -0.242	 -9.464	 -0.001	  0.056	 -0.022	 29.900	 99.492	 -0.016
25985	  0.180	 -0.155	  0.165	 -0.254	 -0.156	 -9.521	  0.001	  0.027	  0.010	 29.900	 99.492	 -0.016
26035	  0.178	 -0.170	  0.164	  0.066	 -0.152	 -9.506	  0.003	  0.024	  0.010	 29.900	 99.504	 -1.121
26085	  0.180	 -0.159	  0.162	 -0.104	 -0.099	 -9.441	  0.002	 -0.004	  0.011	 29.900	 99.492	 -0.016
26135	  0.177	 -0.174	  0.165	 -0.266	 -0.126	 -9.538	  0.003	 -0.008	  0.013	 29.900	 99.480	  1.088
26186	  0.177	 -0.173	  0.165	 -0.280	 -0.169	 -9.581	  0.003	  0.033	  0.010	 29.900	 99.492	 -0.016
26235	  0.175	 -0.171	  0.172	 -0.320	 -0.138	 -9.583	  0.003	  0.027	  0.010	 29.900	 99.517	 -2.318
26285	  0.176	 -0.159	  0.169	  0.479	 -0.028	 -9.324	  0.005	 -0.021	  0.014	 29.900	 99.492	 -0.016
26335	  0.177	 -0.169	  0.168	 -0.006	 -0.107	 -9.544	  0.001	  0.018	  0.008	 29.900	 99.488	  0.351
26385	  0.178	 -0.174	  0.172	  0.036	 -0.172	 -9.466	  0.001	  0.010	  0.008	 29.900	 99.488	  0.351
26435	  0.177	 -0.173	  0.166	  0.089	 -0.091	 -9.447	  0.003	 -0.006	  0.011	 29.900	 99.492	 -0.016
26485	  0.178	 -0.165	  0.169	 -0.074	 -0.117	 -9.484	  0.001	 -0.001	  0.011	 29.900	 99.492	 -0.016
26535	  0.176	 -0.167	  0.169	 -0.013	 -0.109	 -9.465	  0.002	 -0.001	  0.011	 29.900	 99.500	 -0.753
26585	  0.178	 -0.172	  0.162	  0.001	 -0.119	 -9.502	  0.001	 -0.004	  0.010	 29.900	 99.492	 -0.016
26635	  0.178	 -0.168	  0.168	 -0.783	 -0.222	 -9.597	 -0.003	  0.031	 -0.002	 29.900	 99.504	 -1.121
26686	  0.177	 -0.175	  0.156	  0.436	 -0.139	 -9.459	  0.004	  0.000	  0.010	 29.900	 99.492	 -0.016
26736	  0.178	 -0.173	  0.168	 -0.325	 -0.119	 -9.491	  0.002	  0.006	  0.007	 29.900	 99.492	 -0.016
26786	  0.175	 -0.173	  0.168	  0.160	 -0.092	 -9.406	 -0.001	  0.011	  0.010	 29.900	 99.492	 -0.016
26836	  0.178	 -0.161	  0.166	 -0.169	 -0.130	 -9.527	  0.002	  0.002	  0.011	 29.900	 99.492	 -0.016
26885	  0.178	 -0.173	  0.172	 -0.054	 -0.134	 -9.475	  0.002	 -0.001	  0.010	 29.900	 99.504	 -1.121
26936	  0.177	 -0.161	  0.166	 -0.166	 -0.173	 -9.505	  0.009	 -0.090	 -0.003	 29.900	 99.504	 -1.121
26986	  0.177	 -0.169	  0.165	 -0.265	 -0.312	 -9.599	  0.002	  0.020	  0.011	 29.900	 99.492	 -0.016
27037	  0.176	 -0.173	  0.168	 -0.448	 -0.159	 -9.629	  0.001	  0.007	  0.005	 29.900	 99.492	 -0.016
27087	  0.183	 -0.170	  0.165	 -0.084	 -0.112	 -9.525	 -0.007	 -0.017	 -0.574	 29.900	 99.492	 -0.016
27137	  0.187	 -0.147	  0.166	 -0.911	  0.089	 -9.648	  0.034	 -0.113	 -0.355	 29.900	 99.492	 -0.016
27187	  0.187	 -0.132	  0.164	  0.439	  0.473	 -9.382	  0.055	 -0.168	 -0.498	 29.900	 99.504	 -1.121
27237	  0.194	 -0.121	  0.152	 -0.428	 -0.100	 -9.500	  0.052	 -0.128	 -0.147	 29.900	 99.488	  0.351
27287	  0.197	 -0.116	  0.159	 -0.428	  0.011	 -9.471	 -0.021	  0.015	 -0.256	 29.900	 99.504	 -1.121
27337	  0.200	 -0.113	  0.158	 -0.315	  0.283	 -9.494	 -0.008	  0.004	 -0.280	 29.900	 99.492	 -0.016
27387	  0.202	 -0.102	  0.163	 -0.262	  0.199	 -9.447	 -0.011	  0.026	 -0.114	 29.900	 99.492	 -0.016
27437	  0.204	 -0.084	  0.159	 -0.411	 -0.716	 -9.531	 -0.006	 -0.016	 -0.413	 29.900	 99.492	 -0.016
27487	  0.207	 -0.082	  0.152	 -0.232	 -0.587	 -9.453	  0.024	 -0.057	 -0.397	 29.900	 99.509	 -1.582
27536	  0.208	 -0.056	  0.158	  0.018	 -0.430	 -9.437	  0.095	 -0.146	 -0.230	 29.900	 99.488	  0.351
27586	  0.214	 -0.056	  0.148	 -0.416	 -0.272	 -9.531	  0.145	 -0.208	 -0.269	 29.900	 99.504	 -1.121
27636	  0.217	 -0.041	  0.148	 -0.141	  0.094	 -9.437	  0.235	 -0.135	 -0.045	 29.900	 99.504	 -1.121
27686	  0.220	 -0.044	  0.140	 -2.386	 -2.540	 -9.737	 -0.032	  0.106	  0.313	 29.900	 99.492	 -0.016
27736	  0.225	 -0.101	  0.176	  0.971	  0.442	 -9.099	 -0.626	  1.823	  0.579	 29.900	 99.504	 -1.121
27786	  0.201	 -0.136	  0.154	  0.061	  0.591	 -9.639	 -0.016	  0.238	  1.033	 29.900	 99.476	  1.456
27836	  0.192	 -0.150	  0.148	  0.694	  1.067	 -9.348	  0.016	  0.062	  0.632	 29.900	 99.492	 -0.016
27887	  0.184	 -0.165	  0.145	  0.431	  1.230	 -9.502	  0.006	  0.013	  0.123	 29.900	 99.492	 -0.016
27936	  0.183	 -0.158	  0.149	 -0.125	  0.030	 -9.414	  0.002	  0.005	  0.040	 29.900	 99.488	  0.351
27986	  0.186	 -0.155	  0.141	 -0.007	 -0.141	 -9.506	  0.002	 -0.004	  0.020	 29.900	 99.504	 -1.121
28036	  0.186	 -0.164	  0.138	 -0.074	 -0.162	 -9.551	  0.002	 -0.002	  0.021	 29.900	 99.504	 -1.121
28086	  0.184	 -0.156	  0.143	 -0.077	 -0.119	 -9.470	  0.002	 -0.001	  0.010	 29.900	 99.492	 -0.016
28136	  0.186	 -0.164	  0.145	  0.160	 -0.114	 -9.407	  0.001	 -0.045	  0.011	 29.900	 99.492	 -0.016
28186	  0.182	 -0.164	  0.139	  0.070	 -0.048	 -9.461	  0.002	  0.002	 -0.047	 29.900	 99.504	 -1.121
28236	  0.184	 -0.151	  0.135	  0.445	 -0.125	 -9.496	  0.001	 -0.008	 -0.150	 29.900	 99.492	 -0.016
28286	  0.182	 -0.148	  0.140	 -0.284	 -0.088	 -9.453	  0.000	 -0.004	 -0.209	 29.900	 99.492	 -0.016
28336	  0.183	 -0.143	  0.138	 -0.266	 -0.065	 -9.511	  0.001	 -0.006	 -0.024	 29.900	 99.504	 -1.121
28386	  0.178	 -0.148	  0.140	 -0.325	  0.003	 -9.488	  0.006	 -0.001	  0.189	 29.900	 99.492	 -0.016
28436	  0.180	 -0.156	  0.140	 -0.043	 -0.259	 -9.498	  0.011	 -0.033	  0.154	 29.900	 99.492	 -0.016
28486	  0.181	 -0.156	  0.143	 -0.726	 -0.148	 -9.507	 -0.005	  0.041	  0.181	 29.900	 99.496	 -0.385
28536	  0.176	 -0.162	  0.138	 -0.456	 -0.226	 -9.475	  0.001	  0.014	  0.104	 29.900	 99.492	 -0.016
28586	  0.176	 -0.143	  0.143	  0.008	 -0.149	 -9.508	 -0.000	  0.047	 -0.000	 29.900	 99.492	 -0.016
28636	  0.180	 -0.156	  0.139	  0.153	 -0.205	 -9.510	 -0.006	  0.002	 -0.256	 29.900	 99.504	 -1.121
28686	  0.178	 -0.139	  0.143	  0.830	  0.714	 -8.494	  0.040	 -0.175	 -0.217	 29.900	 99.480	  1.088
28736	  0.188	 -0.149	  0.130	  0.689	 -0.641	 -9.959	  0.353	 -0.478	  0.071	 29.900	 99.504	 -1.121
28786	  0.184	 -0.149	  0.137	 -1.175	 -0.403	 -9.229	 -0.473	  0.643	 -0.267	 29.900	 99.492	 -0.016
28836	  0.171	 -0.134	  0.152	 -2.608	  0.160	 -9.456	 -0.012	 -0.100	 -0.204	 29.900	 99.492	 -0.016
28886	  0.172	 -0.130	  0.141	 -0.595	 -0.154	 -9.590	  0.002	  0.011	  0.052	 29.900	 99.492	 -0.016
28936	  0.173	 -0.134	  0.140	  0.200	 -0.122	 -9.461	  0.005	 -0.028	 -0.001	 29.900	 99.492	 -0.016
28986	  0.172	 -0.129	  0.145	 -0.259	 -0.222	 -9.484	 -0.003	  0.025	 -0.198	 29.900	 99.492	 -0.016
29036	  0.172	 -0.131	  0.150	 -0.305	  0.074	 -9.506	  0.001	  0.009	  0.010	 29.900	 99.492	 -0.016
29086	  0.172	 -0.131	  0.152	 -0.510	 -0.071	 -9.417	 -0.005	  0.038	  0.009	 29.900	 99.492	 -0.016
29136	  0.172	 -0.130	  0.152	 -0.412	 -0.057	 -9.522	 -0.006	  0.091	  0.008	 29.900	 99.492	 -0.016
29186	  0.173	 -0.129	  0.149	 -0.380	 -0.163	 -9.550	  0.004	  0.014	  0.000	 29.900	 99.492	 -0.016
29236	  0.172	 -0.125	  0.152	 -0.186	 -0.171	 -9.510	 -0.001	  0.008	  0.011	 29.900	 99.492	 -0.016
29286	  0.167	 -0.127	  0.149	 -0.052	 -0.175	 -9.553	  0.003	  0.012	  0.011	 29.900	 99.480	  1.088
29336	  0.171	 -0.132	  0.148	 -0.021	 -0.052	 -9.439	  0.004	 -0.008	  0.010	 29.900	 99.492	 -0.016
29386	  0.172	 -0.129	  0.152	  1.353	 -0.707	 -9.401	  0.003	 -0.062	 -0.016	 29.900	 99.480	  1.088
29436	  0.170	 -0.122	  0.145	  2.619	 -0.530	 -9.579	  0.002	 -0.026	 -0.438	 29.900	 99.488	  0.351
29486	  0.171	 -0.110	  0.155	  1.247	 -1.230	 -11.138	 -0.006	 -0.397	 -0.608	 29.900	 99.492	 -0.016
29536	  0.163	 -0.094	  0.159	  0.873	 -1.342	 -12.077	 -0.173	 -0.243	 -0.208	 29.900	 99.504	 -1.121
29586	  0.148	 -0.096	  0.166	  1.330	 -1.472	 -11.158	 -0.501	 -0.156	  0.471	 29.900	 99.504	 -1.121
29636	  0.123	 -0.121	  0.171	  0.962	 -1.187	 -10.419	 -0.497	 -0.272	  0.369	 29.900	 99.492	 -0.016
29686	  0.106	 -0.130	  0.184	  0.331	 -0.785	 -10.333	 -0.382	  0.219	  0.275	 29.900	 99.492	 -0.016
29736	  0.066	 -0.131	  0.205	  1.586	 -0.114	 -8.691	 -0.159	  1.091	 -0.049	 29.900	 99.504	 -1.121
29786	  0.029	 -0.111	  0.239	 -0.190	 -0.295	 -9.092	  0.016	  0.920	 -0.254	 29.900	 99.504	 -1.121
29836	  0.001	 -0.101	  0.262	  1.029	 -0.881	 -8.797	  0.257	  0.336	  0.251	 29.900	 99.492	 -0.016
29886	 -0.018	 -0.084	  0.277	  0.452	 -1.726	 -10.419	  0.383	  0.021	  0.215	 29.900	 99.492	 -0.016
29936	 -0.035	 -0.079	  0.282	 -0.398	 -1.792	 -10.703	  0.200	 -0.080	  0.361	 29.900	 99.492	 -0.016
29986	 -0.046	 -0.076	  0.291	  0.088	 -1.574	 -10.273	 -0.083	  0.102	  0.479	 29.900	 99.492	 -0.016
30036	 -0.065	 -0.079	  0.297	 -0.697	 -1.389	 -10.094	 -0.350	 -0.127	  0.678	 29.900	 99.492	 -0.016
30086	 -0.077	 -0.116	  0.288	 -0.615	 -0.604	 -9.453	 -0.333	 -0.160	  0.837	 29.900	 99.504	 -1.121
30136	 -0.086	 -0.121	  0.299	 -0.966	  0.212	 -9.378	  0.139	 -0.073	  0.960	 29.900	 99.492	 -0.016
30186	 -0.105	 -0.126	  0.298	  0.209	  0.225	 -8.748	  0.431	  0.012	  1.048	 29.900	 99.492	 -0.016
30236	 -0.113	 -0.111	  0.315	 -0.345	 -0.342	 -9.050	  0.354	 -0.245	  0.753	 29.900	 99.492	 -0.016
30286	 -0.118	 -0.105	  0.315	 -0.596	 -0.655	 -8.973	  0.026	 -0.147	  0.510	 29.900	 99.492	 -0.016
30336	 -0.120	 -0.125	  0.307	 -0.543	 -0.704	 -8.664	 -0.434	 -0.209	  0.702	 29.900	 99.484	  0.719
30386	 -0.124	 -0.146	  0.304	 -0.586	 -0.431	 -8.283	 -0.581	 -0.160	  0.657	 29.900	 99.492	 -0.016
30436	 -0.131	 -0.157	  0.302	 -0.395	  0.696	 -7.794	 -0.253	 -0.025	  0.698	 29.900	 99.480	  1.088
30486	 -0.135	 -0.154	  0.301	 -0.703	 -0.030	 -7.998	  0.213	 -0.109	  0.543	 29.900	 99.480	  1.088
30536	 -0.143	 -0.154	  0.303	 -0.805	  0.223	 -8.387	  0.516	 -0.070	  0.392	 29.900	 99.492	 -0.016
30586	 -0.148	 -0.135	  0.295	 -1.196	 -0.363	 -9.343	  0.728	  0.034	  0.324	 29.900	 99.480	  1.088
30636	 -0.153	 -0.122	  0.299	 -0.613	 -0.492	 -9.431	  0.618	  0.179	  0.212	 29.900	 99.492	 -0.016
30686	 -0.163	 -0.106	  0.313	 -0.160	 -0.627	 -9.908	  0.396	  0.228	  0.050	 29.900	 99.492	 -0.016
30736	 -0.173	 -0.093	  0.306	 -0.187	 -0.924	 -10.785	  0.157	  0.152	 -0.055	 29.900	 99.496	 -0.385
30786	 -0.183	 -0.098	  0.312	  0.225	  0.076	 -11.315	  0.130	  0.431	  0.410	 29.900	 99.492	 -0.016
30836	 -0.202	 -0.084	  0.307	  1.824	  0.250	 -11.123	  0.352	  0.388	  0.411	 29.900	 99.492	 -0.016
30886	 -0.207	 -0.081	  0.293	  1.377	 -0.849	 -10.914	  0.176	 -0.216	  0.352	 29.900	 99.492	 -0.016
30936	 -0.211	 -0.076	  0.296	  0.892	 -0.380	 -9.526	 -0.141	 -0.509	  0.376	 29.900	 99.480	  1.088
30986	 -0.203	 -0.090	  0.290	  0.289	 -0.579	 -8.384	 -0.331	 -0.351	  0.238	 29.900	 99.488	  0.351
31036	 -0.201	 -0.105	  0.268	  0.152	 -0.946	 -6.971	 -0.651	 -0.230	  0.275	 29.900	 99.492	 -0.016
31086	 -0.202	 -0.119	  0.267	  0.058	 -0.152	 -6.462	 -0.678	 -0.246	 -0.161	 29.900	 99.492	 -0.016
31136	 -0.199	 -0.138	  0.256	 -0.722	 -0.317	 -7.242	 -0.408	 -0.221	 -0.315	 29.900	 99.496	 -0.385
31186	 -0.199	 -0.137	  0.249	 -1.412	 -0.433	 -8.159	 -0.142	  0.018	 -0.384	 29.900	 99.480	  1.088
31236	 -0.202	 -0.128	  0.242	 -1.206	 -0.130	 -9.079	  0.026	  0.206	 -0.151	 29.900	 99.504	 -1.121
31286	 -0.210	 -0.123	  0.236	 -0.021	  0.251	 -9.484	  0.359	  0.230	 -0.552	 29.900	 99.496	 -0.385
31335	 -0.213	 -0.116	  0.228	  0.302	  0.452	 -10.571	  0.733	  0.424	 -1.150	 29.900	 99.480	  1.088
31386	 -0.219	 -0.077	  0.240	 -0.847	 -0.185	 -13.214	  0.753	  0.595	 -1.367	 29.900	 99.492	 -0.016
31435	 -0.231	 -0.072	  0.242	  0.571	  0.721	 -12.464	  0.440	  0.306	 -1.047	 29.900	 99.492	 -0.016
31485	 -0.228	 -0.062	  0.234	  0.596	  0.693	 -10.425	  0.263	 -0.166	 -1.057	 29.900	 99.492	 -0.016
31536	 -0.221	 -0.051	  0.234	  0.059	  0.918	 -9.323	  0.184	 -0.349	 -1.200	 29.900	 99.492	 -0.016
31585	 -0.212	 -0.037	  0.237	 -0.776	  0.569	 -8.225	  0.278	 -0.232	 -0.885	 29.900	 99.496	 -0.385
31635	 -0.211	 -0.032	  0.230	 -1.153	 -0.270	 -7.740	  0.160	  0.071	 -0.530	 29.900	 99.480	  1.088
31685	 -0.215	 -0.031	  0.229	 -0.911	 -0.631	 -7.726	 -0.044	  0.402	 -0.220	 29.900	 99.480	  1.088
31735	 -0.220	 -0.035	  0.227	 -0.128	 -1.103	 -8.321	 -0.123	  0.253	 -0.164	 29.900	 99.492	 -0.016
31785	 -0.223	 -0.048	  0.219	 -0.403	 -0.822	 -9.147	 -0.110	  0.077	  0.074	 29.900	 99.480	  1.088
31835	 -0.221	 -0.049	  0.218	 -0.028	 -0.449	 -9.275	  0.178	  0.012	  0.275	 29.900	 99.484	  0.719
31885	 -0.219	 -0.044	  0.215	 -0.097	 -0.863	 -9.652	  0.369	  0.104	  0.373	 29.900	 99.492	 -0.016
31935	 -0.222	 -0.041	  0.202	  0.412	 -1.380	 -10.073	  0.202	  0.366	  0.120	 29.900	 99.484	  0.719
31985	 -0.223	 -0.021	  0.213	  2.143	  0.360	 -11.367	  0.324	 -0.290	 -0.822	 29.900	 99.492	 -0.016
32036	 -0.217	 -0.031	  0.202	 -0.088	 -0.945	 -11.665	  0.094	 -0.382	 -0.664	 29.900	 99.488	  0.351
32085	 -0.216	 -0.038	  0.203	  1.487	 -0.040	 -10.453	 -0.293	 -0.207	 -0.632	 29.900	 99.492	 -0.016
32136	 -0.207	 -0.049	  0.197	  0.569	 -0.174	 -9.925	 -0.205	 -0.202	 -0.595	 29.900	 99.492	 -0.016
32185	 -0.210	 -0.058	  0.180	  0.836	 -0.877	 -8.409	 -0.220	 -0.122	 -0.481	 29.900	 99.492	 -0.016
32236	 -0.204	 -0.074	  0.179	  0.838	 -1.039	 -7.533	 -0.351	 -0.396	 -0.790	 29.900	 99.480	  1.088
32285	 -0.194	 -0.084	  0.163	 -0.144	 -0.323	 -7.625	 -0.275	 -0.660	 -0.917	 29.900	 99.492	 -0.016
32336	 -0.181	 -0.105	  0.155	 -0.704	 -0.068	 -8.019	  0.136	 -0.555	 -0.846	 29.900	 99.492	 -0.016
32386	 -0.170	 -0.105	  0.150	 -0.456	 -0.018	 -8.761	  0.561	 -0.121	 -0.714	 29.900	 99.492	 -0.016
32435	 -0.160	 -0.112	  0.142	  0.455	 -0.561	 -9.650	  0.742	 -0.110	 -0.977	 29.900	 99.492	 -0.016
32486	 -0.141	 -0.105	  0.148	  0.269	 -0.802	 -10.472	  0.531	 -0.153	 -1.190	 29.900	 99.492	 -0.016
32537	 -0.123	 -0.092	  0.143	 -0.282	 -1.172	 -11.658	  0.159	  0.153	 -1.373	 29.900	 99.480	  1.088
32587	 -0.098	 -0.088	  0.143	 -0.349	 -1.099	 -11.772	 -0.493	  0.053	 -1.083	 29.900	 99.480	  1.088
32637	 -0.076	 -0.078	  0.134	  0.572	  0.206	 -11.723	 -0.645	 -0.313	 -0.991	 29.900	 99.496	 -0.385
32687	 -0.050	 -0.064	  0.122	  0.495	 -0.323	 -8.853	 -0.540	 -0.233	 -0.987	 29.900	 99.484	  0.719
32737	 -0.028	 -0.037	  0.125	 -0.152	  0.816	 -8.499	 -0.268	 -0.110	 -1.464	 29.900	 99.496	 -0.385
32787	 -0.017	  0.011	  0.130	 -1.084	 -0.252	 -8.047	 -0.043	  0.389	 -1.241	 29.900	 99.492	 -0.016
32837	 -0.022	  0.062	  0.149	 -0.519	 -0.199	 -7.727	 -0.194	  0.405	 -1.013	 29.900	 99.492	 -0.016
32887	 -0.034	  0.083	  0.152	 -0.046	 -0.677	 -8.645	 -0.376	  0.116	 -0.899	 29.900	 99.496	 -0.385
32937	 -0.051	  0.101	  0.167	 -0.423	 -0.596	 -9.365	 -0.450	  0.203	 -0.804	 29.900	 99.504	 -1.121
32987	 -0.074	  0.120	  0.176	  0.102	 -0.569	 -9.668	 -0.396	  0.146	 -0.508	 29.900	 99.492	 -0.016
33037	 -0.089	  0.135	  0.196	  0.902	  0.771	 -10.144	  0.006	 -0.356	 -0.516	 29.900	 99.492	 -0.016
33087	 -0.097	  0.169	  0.195	  0.339	  1.277	 -10.181	  0.898	 -0.465	 -0.120	 29.900	 99.492	 -0.016
33137	 -0.107	  0.174	  0.189	  0.766	 -0.285	 -11.021	  1.207	 -0.573	 -0.004	 29.900	 99.492	 -0.016
33186	 -0.108	  0.203	  0.170	 -0.509	 -1.053	 -11.607	  0.916	 -0.285	  0.130	 29.900	 99.492	 -0.016
33237	 -0.114	  0.212	  0.174	  0.892	 -0.766	 -11.059	  0.503	 -0.214	  0.112	 29.900	 99.492	 -0.016
33287	 -0.120	  0.212	  0.177	  0.112	 -0.901	 -9.524	  0.020	 -0.336	  0.230	 29.900	 99.492	 -0.016
33337	 -0.123	  0.212	  0.184	  0.284	 -0.822	 -7.560	 -0.040	 -0.124	 -0.076	 29.900	 99.480	  1.088
33387	 -0.124	  0.207	  0.185	  0.207	 -0.803	 -6.390	  0.233	 -0.531	 -0.159	 29.900	 99.496	 -0.385
33437	 -0.115	  0.223	  0.169	 -1.110	 -1.335	 -6.884	  0.359	 -0.868	 -0.343	 29.900	 99.480	  1.088
33487	 -0.107	  0.230	  0.171	 -1.844	 -1.822	 -7.806	  0.354	 -0.816	 -0.223	 29.900	 99.492	 -0.016
33537	 -0.101	  0.239	  0.165	 -1.892	 -2.278	 -8.800	  0.237	 -0.656	 -0.300	 29.900	 99.492	 -0.016
33587	 -0.097	  0.231	  0.160	 -2.353	 -2.350	 -9.522	  0.130	 -0.413	 -0.533	 29.900	 99.492	 -0.016
33637	 -0.100	  0.256	  0.164	 -2.780	 -1.753	 -9.989	  0.061	 -0.153	 -0.777	 29.900	 99.504	 -1.121
33687	 -0.109	  0.255	  0.166	 -2.624	 -1.719	 -10.785	  0.052	  0.317	 -0.764	 29.900	 99.504	 -1.121
33736	 -0.123	  0.270	  0.168	 -2.588	 -1.421	 -11.499	 -0.093	  0.400	 -0.874	 29.900	 99.504	 -1.121
33786	 -0.134	  0.293	  0.187	 -0.636	 -0.618	 -11.320	 -0.097	  0.324	 -1.004	 29.900	 99.496	 -0.385
33836	 -0.151	  0.293	  0.187	 -1.354	 -1.285	 -11.398	 -0.096	 -0.026	 -1.335	 29.900	 99.496	 -0.385
33886	 -0.169	  0.298	  0.190	 -1.086	 -1.180	 -9.499	 -0.439	  0.208	 -1.634	 29.900	 99.492	 -0.016
33936	 -0.190	  0.308	  0.211	 -1.809	 -0.961	 -8.282	 -0.882	  0.110	 -1.540	 29.900	 99.492	 -0.016
33986	 -0.206	  0.296	  0.228	 -1.609	 -1.367	 -7.335	 -1.189	  0.375	 -1.259	 29.900	 99.492	 -0.016
34036	 -0.231	  0.270	  0.252	 -1.305	 -0.546	 -7.308	 -1.284	  0.552	 -1.007	 29.900	 99.492	 -0.016
34086	 -0.249	  0.252	  0.262	 -0.686	 -0.260	 -8.170	 -0.911	  0.577	 -0.654	 29.900	 99.492	 -0.016
34136	 -0.265	  0.240	  0.263	  0.111	  0.349	 -8.758	 -0.272	  0.321	 -0.571	 29.900	 99.480	  1.088
34186	 -0.266	  0.249	  0.268	  0.397	  0.506	 -9.407	  0.398	 -0.011	 -0.407	 29.900	 99.492	 -0.016
34236	 -0.265	  0.264	  0.259	 -0.286	  0.528	 -10.149	  0.892	 -0.219	 -0.374	 29.900	 99.492	 -0.016
34286	 -0.258	  0.288	  0.239	  0.051	  0.162	 -11.232	  1.025	  0.013	 -0.258	 29.900	 99.488	  0.351
34336	 -0.259	  0.317	  0.220	  0.648	 -0.135	 -11.562	  1.029	  0.130	 -0.533	 29.900	 99.492	 -0.016
34386	 -0.258	  0.326	  0.204	  0.945	 -0.972	 -11.589	  0.673	 -0.303	 -0.629	 29.900	 99.496	 -0.385
34436	 -0.255	  0.326	  0.192	  0.271	 -1.153	 -10.243	  0.002	 -0.556	 -0.583	 29.900	 99.488	  0.351
34486	 -0.250	  0.315	  0.180	 -0.020	 -0.368	 -8.949	 -0.476	 -0.587	 -0.832	 29.900	 99.492	 -0.016
34536	 -0.249	  0.287	  0.195	 -0.887	 -0.549	 -7.941	 -0.823	 -0.350	 -0.563	 29.900	 99.480	  1.088
34586	 -0.247	  0.255	  0.208	 -0.246	 -0.671	 -7.145	 -1.016	 -0.226	 -0.608	 29.900	 99.492	 -0.016
34636	 -0.250	  0.221	  0.207	 -0.620	 -0.432	 -7.712	 -1.082	 -0.359	 -0.776	 29.900	 99.492	 -0.016
34686	 -0.252	  0.186	  0.220	 -1.466	  0.523	 -8.149	 -0.808	 -0.187	 -0.768	 29.900	 99.504	 -1.121
34736	 -0.258	  0.164	  0.220	 -1.033	  0.932	 -8.608	 -0.288	  0.113	 -0.766	 29.900	 99.492	 -0.016
34786	 -0.273	  0.147	  0.230	 -0.517	  0.927	 -9.447	  0.217	  0.074	 -0.899	 29.900	 99.492	 -0.016
34836	 -0.286	  0.151	  0.224	 -0.747	  1.055	 -10.691	  0.596	  0.028	 -0.981	 29.900	 99.496	 -0.385
34886	 -0.298	  0.152	  0.230	 -0.873	  0.185	 -12.335	  0.583	 -0.165	 -1.007	 29.900	 99.492	 -0.016
34936	 -0.304	  0.163	  0.242	 -1.008	  1.129	 -12.477	  0.477	 -0.325	 -1.211	 29.900	 99.492	 -0.016
34986	 -0.314	  0.181	  0.248	 -1.820	  0.735	 -11.789	  0.505	  0.089	 -1.248	 29.900	 99.504	 -1.121
35036	 -0.337	  0.188	  0.248	 -1.002	  0.051	 -9.425	  0.135	  0.492	 -1.411	 29.900	 99.504	 -1.121
35086	 -0.365	  0.170	  0.254	 -1.217	  0.151	 -8.408	 -0.160	  0.587	 -1.474	 29.900	 99.492	 -0.016
35136	 -0.391	  0.156	  0.263	 -1.043	 -0.475	 -7.160	 -0.432	  0.536	 -1.441	 29.900	 99.492	 -0.016
35186	 -0.412	  0.135	  0.265	 -0.752	 -0.237	 -7.083	 -0.565	  0.464	 -1.468	 29.900	 99.492	 -0.016
35236	 -0.432	  0.105	  0.271	 -0.541	  0.065	 -8.069	 -0.570	  0.276	 -1.154	 29.900	 99.504	 -1.121
35286	 -0.447	  0.089	  0.276	 -0.038	  0.457	 -8.585	 -0.255	  0.039	 -0.742	 29.900	 99.492	 -0.016
35336	 -0.450	  0.077	  0.287	 -0.104	 -0.045	 -9.092	 -0.079	 -0.309	 -0.568	 29.900	 99.504	 -1.121
35386	 -0.444	  0.077	  0.284	 -1.228	  0.972	 -10.026	  0.148	 -0.411	 -0.388	 29.900	 99.492	 -0.016
35436	 -0.442	  0.082	  0.288	 -0.646	  0.555	 -11.096	  0.396	 -0.122	 -0.070	 29.900	 99.492	 -0.016
35486	 -0.443	  0.086	  0.285	  1.014	  1.413	 -11.603	  0.512	 -0.120	 -0.144	 29.900	 99.480	  1.088
35536	 -0.441	  0.089	  0.283	  1.182	  0.460	 -12.003	  0.499	 -0.279	 -0.146	 29.900	 99.492	 -0.016
35586	 -0.438	  0.108	  0.280	  0.207	 -0.339	 -10.882	  0.022	 -0.274	 -0.044	 29.900	 99.480	  1.088
35636	 -0.444	  0.085	  0.284	  1.122	  0.384	 -9.494	 -0.294	 -0.360	 -0.224	 29.900	 99.476	  1.456
35686	 -0.434	  0.066	  0.287	  0.324	  0.317	 -8.387	 -0.422	 -1.013	 -0.330	 29.900	 99.480	  1.088
35736	 -0.419	  0.051	  0.296	 -0.206	  0.268	 -7.768	 -0.382	 -1.149	 -0.531	 29.900	 99.480	  1.088
35786	 -0.400	  0.034	  0.311	 -1.790	  0.223	 -7.860	 -0.298	 -0.849	 -0.368	 29.900	 99.480	  1.088
35836	 -0.397	  0.036	  0.319	 -2.023	 -0.523	 -8.190	 -0.399	 -0.189	 -0.035	 29.900	 99.504	 -1.121
35886	 -0.407	  0.017	  0.329	 -1.382	 -0.363	 -8.473	 -0.491	  0.242	  0.032	 29.900	 99.492	 -0.016
35936	 -0.417	  0.018	  0.336	 -0.960	 -0.342	 -9.104	 -0.441	  0.122	 -0.038	 29.900	 99.480	  1.088
35986	 -0.428	 -0.002	  0.346	 -1.069	  0.260	 -9.190	 -0.208	  0.054	 -0.275	 29.900	 99.492	 -0.016
36036	 -0.436	  0.004	  0.344	 -1.432	  0.922	 -9.956	  0.223	  0.289	 -0.273	 29.900	 99.492	 -0.016
36086	 -0.446	  0.024	  0.342	 -0.924	  1.292	 -10.601	  0.650	  0.437	 -0.210	 29.900	 99.480	  1.088
36136	 -0.458	  0.058	  0.347	 -1.146	  1.675	 -10.714	  1.008	  0.438	  0.206	 29.900	 99.492	 -0.016
36186	 -0.462	  0.100	  0.333	  1.680	  1.210	 -11.594	  1.090	 -0.094	  0.437	 29.900	 99.492	 -0.016
36236	 -0.442	  0.136	  0.329	  0.213	  0.352	 -12.097	  0.847	 -0.603	  0.554	 29.900	 99.492	 -0.016
36286	 -0.427	  0.162	  0.329	 -0.224	 -0.237	 -10.477	  0.462	 -0.262	  0.358	 29.900	 99.492	 -0.016
36336	 -0.412	  0.167	  0.312	 -1.175	 -0.539	 -9.072	 -0.228	 -0.259	  0.471	 29.900	 99.492	 -0.016
36386	 -0.400	  0.153	  0.322	 -1.438	 -0.844	 -8.171	 -0.661	  0.124	  0.519	 29.900	 99.492	 -0.016
36436	 -0.407	  0.137	  0.314	 -0.773	 -0.751	 -7.759	 -1.020	  0.394	  0.599	 29.900	 99.492	 -0.016
36486	 -0.412	  0.110	  0.322	 -0.369	  0.513	 -8.093	 -0.887	  0.355	  0.798	 29.900	 99.496	 -0.385
36536	 -0.415	  0.094	  0.317	 -0.043	  0.874	 -8.766	 -0.291	  0.369	  1.184	 29.900	 99.492	 -0.016
36586	 -0.415	  0.101	  0.312	  0.871	  0.477	 -9.043	  0.341	  0.088	  0.980	 29.900	 99.480	  1.088
36636	 -0.406	  0.120	  0.313	  0.482	  0.471	 -9.280	  0.799	 -0.273	  0.539	 29.900	 99.492	 -0.016
36686	 -0.395	  0.141	  0.303	 -0.126	  0.177	 -10.558	  1.064	 -0.417	  0.211	 29.900	 99.492	 -0.016
36736	 -0.391	  0.185	  0.299	 -1.868	 -0.855	 -11.662	  0.993	  0.082	  0.264	 29.900	 99.480	  1.088
36786	 -0.402	  0.195	  0.285	 -0.706	 -0.757	 -11.349	  0.594	  0.797	  0.468	 29.900	 99.492	 -0.016
36836	 -0.411	  0.201	  0.284	  1.233	 -0.290	 -10.679	  0.415	  0.590	  0.823	 29.900	 99.492	 -0.016
36886	 -0.412	  0.213	  0.281	  1.569	 -1.719	 -9.137	  0.083	  0.115	  0.577	 29.900	 99.484	  0.719
36936	 -0.404	  0.224	  0.293	  0.786	 -1.414	 -8.578	 -0.394	 -0.290	  0.203	 29.900	 99.480	  1.088
36986	 -0.395	  0.206	  0.302	  0.010	 -0.963	 -8.264	 -0.578	 -0.247	  0.101	 29.900	 99.492	 -0.016
37036	 -0.388	  0.176	  0.315	 -0.429	 -0.772	 -8.294	 -0.472	  0.025	 -0.173	 29.900	 99.492	 -0.016
37086	 -0.385	  0.174	  0.330	 -0.400	 -0.357	 -8.805	 -0.243	 -0.190	 -0.137	 29.900	 99.480	  1.088
37136	 -0.374	  0.169	  0.341	 -0.667	 -0.150	 -9.224	  0.151	 -0.228	 -0.352	 29.900	 99.504	 -1.121
37186	 -0.365	  0.173	  0.347	 -0.853	 -0.244	 -9.417	  0.447	 -0.389	 -0.504	 29.900	 99.480	  1.088
37236	 -0.356	  0.189	  0.351	 -2.053	 -0.861	 -10.020	  0.624	  0.139	 -0.664	 29.900	 99.480	  1.088
37286	 -0.360	  0.203	  0.355	 -1.742	 -0.941	 -9.712	  0.467	  0.440	 -0.411	 29.900	 99.492	 -0.016
37336	 -0.357	  0.218	  0.368	 -1.478	 -0.485	 -9.059	  0.208	  0.426	 -0.198	 29.900	 99.484	  0.719
37386	 -0.361	  0.232	  0.389	 -1.211	  0.253	 -8.889	 -0.002	  0.620	 -0.096	 29.900	 99.480	  1.088
37436	 -0.365	  0.248	  0.402	  0.537	  0.441	 -7.925	  0.182	  0.581	 -0.363	 29.900	 99.480	  1.088
37486	 -0.360	  0.265	  0.419	 -0.370	  0.673	 -8.019	  0.403	  0.075	 -0.825	 29.900	 99.504	 -1.121
37536	 -0.336	  0.300	  0.433	 -0.018	 -0.039	 -8.486	  0.411	 -0.341	 -0.531	 29.900	 99.492	 -0.016
37586	 -0.304	  0.324	  0.455	 -1.038	  0.023	 -8.683	  0.128	 -0.487	 -0.493	 29.900	 99.480	  1.088
37635	 -0.268	  0.348	  0.476	 -1.089	  0.342	 -8.023	 -0.077	 -0.114	 -0.279	 29.900	 99.492	 -0.016
37685	 -0.251	  0.371	  0.508	 -0.421	  0.916	 -7.959	 -0.172	  0.215	 -0.171	 29.900	 99.492	 -0.016
37735	 -0.233	  0.391	  0.548	  0.731	  1.076	 -8.498	 -0.063	  0.081	 -0.170	 29.900	 99.492	 -0.016
37785	 -0.211	  0.402	  0.586	  0.199	  0.305	 -9.519	 -0.135	 -0.319	 -0.104	 29.900	 99.492	 -0.016
37835	 -0.192	  0.403	  0.627	 -0.046	 -0.153	 -10.360	 -0.334	 -0.189	  0.071	 29.900	 99.492	 -0.016
37886	 -0.184	  0.395	  0.652	  0.645	 -0.058	 -10.726	 -0.518	 -0.226	  0.170	 29.900	 99.480	  1.088
37936	 -0.162	  0.375	  0.685	  0.638	  0.426	 -10.927	 -0.481	 -0.212	  0.239	 29.900	 99.492	 -0.016
37986	 -0.150	  0.377	  0.697	  0.089	  0.313	 -10.057	 -0.351	 -0.223	  0.043	 29.900	 99.480	  1.088
38035	 -0.138	  0.358	  0.709	  0.024	 -0.064	 -9.499	 -0.425	 -0.296	  0.114	 29.900	 99.480	  1.088
38086	 -0.122	  0.336	  0.727	 -0.444	  0.614	 -9.083	 -0.402	 -0.349	  0.128	 29.900	 99.480	  1.088
38136	 -0.111	  0.345	  0.738	 -1.140	  0.572	 -8.905	 -0.145	 -0.233	  0.091	 29.900	 99.492	 -0.016
38185	 -0.099	  0.347	  0.756	 -1.304	  0.575	 -9.331	  0.150	  0.013	  0.272	 29.900	 99.492	 -0.016
38235	 -0.090	  0.378	  0.773	 -1.034	  0.049	 -9.519	  0.358	 -0.106	  0.053	 29.900	 99.492	 -0.016
38286	 -0.091	  0.413	  0.785	 -2.343	 -2.155	 -12.272	  0.139	  0.973	 -0.034	 29.900	 99.492	 -0.016
38335	 -0.147	  0.421	  0.824	  0.105	 -1.097	 -10.560	 -0.235	  1.079	 -0.351	 29.900	 99.488	  0.351
38386	 -0.186	  0.423	  0.838	  0.077	  1.139	 -8.079	  0.143	  0.793	 -0.031	 29.900	 99.488	  0.351
38436	 -0.201	  0.473	  0.842	  0.778	 -0.734	 -8.082	  0.628	  0.138	 -0.345	 29.900	 99.492	 -0.016
38486	 -0.209	  0.534	  0.850	  1.970	 -0.946	 -8.398	  0.825	  0.523	 -0.281	 29.900	 99.492	 -0.016
38536	 -0.173	  0.597	  0.857	  0.564	 -1.244	 -9.916	  0.618	 -0.996	  0.176	 29.900	 99.492	 -0.016
38586	 -0.091	  0.652	  0.864	 -1.276	 -2.151	 -10.789	  0.234	 -1.068	  0.187	 29.900	 99.492	 -0.016
38636	 -0.021	  0.666	  0.857	 -0.186	 -2.171	 -10.974	 -0.558	 -0.623	  0.078	 29.900	 99.504	 -1.121
38686	  0.006	  0.629	  0.887	 -0.308	 -1.130	 -10.139	 -0.986	 -0.085	  0.078	 29.900	 99.492	 -0.016
38737	  0.012	  0.577	  0.908	 -0.021	 -0.638	 -8.974	 -1.068	 -0.135	 -0.314	 29.900	 99.492	 -0.016
38787	  0.026	  0.529	  0.949	 -0.842	 -0.014	 -9.712	 -0.941	 -0.310	 -0.325	 29.900	 99.480	  1.088
38837	  0.048	  0.490	  0.965	 -0.737	  0.533	 -9.523	 -0.670	 -0.436	 -0.041	 29.900	 99.480	  1.088
38887	  0.071	  0.488	  0.984	 -1.030	  0.302	 -9.119	 -0.350	 -0.178	 -0.030	 29.900	 99.480	  1.088
38937	  0.063	  0.499	  0.999	 -1.128	 -0.160	 -9.060	  0.410	  0.388	 -0.175	 29.900	 99.480	  1.088
38987	  0.038	  0.548	  1.004	 -1.343	  0.148	 -7.054	  0.702	  1.240	 -0.097	 29.900	 99.480	  1.088
39037	  0.019	  0.576	  1.004	 -2.178	  0.463	 -9.100	  0.048	  0.026	 -0.052	 29.900	 99.492	 -0.016
39087	  0.015	  0.571	  1.009	 -0.481	 -0.172	 -9.240	 -0.122	  0.111	  0.009	 29.900	 99.492	 -0.016
39137	  0.002	  0.553	  1.009	 -0.309	 -0.319	 -9.655	 -0.199	  0.204	 -0.022	 29.900	 99.492	 -0.016
39187	 -0.024	  0.564	  1.001	  0.119	  0.474	 -7.058	  0.157	  0.382	 -0.462	 29.900	 99.504	 -1.121
39237	 -0.054	  0.606	  1.006	 -3.505	  1.453	 -11.251	 -0.014	  0.033	 -0.189	 29.900	 99.492	 -0.016
39287	 -0.053	  0.615	  1.007	  0.830	  0.520	 -9.161	  0.034	 -0.180	  0.015	 29.900	 99.480	  1.088
39337	 -0.048	  0.613	  1.008	 -0.188	  0.015	 -9.308	  0.011	 -0.003	  0.012	 29.900	 99.492	 -0.016
39387	 -0.051	  0.614	  1.010	  0.081	 -0.057	 -9.448	  0.002	  0.002	  0.012	 29.900	 99.492	 -0.016
39437	 -0.048	  0.618	  1.010	 -0.032	 -0.029	 -9.574	  0.004	 -0.001	  0.010	 29.900	 99.492	 -0.016
39487	 -0.051	  0.609	  1.013	  0.001	 -0.070	 -9.433	  0.003	 -0.002	  0.010	 29.900	 99.504	 -1.121
39537	 -0.047	  0.628	  1.014	 -0.037	 -0.019	 -9.492	  0.002	 -0.001	  0.010	 29.900	 99.492	 -0.016
39587	 -0.047	  0.615	  1.013	 -0.007	 -0.072	 -9.508	  0.002	  0.001	  0.010	 29.900	 99.492	 -0.016
39637	 -0.043	  0.610	  1.016	 -0.057	 -0.064	 -9.509	  0.003	 -0.001	  0.011	 29.900	 99.492	 -0.016
39687	 -0.045	  0.629	  1.010	  0.012	 -0.101	 -9.465	  0.003	 -0.001	  0.010	 29.900	 99.504	 -1.121
39737	 -0.045	  0.615	  1.013	 -0.037	 -0.021	 -9.524	  0.003	  0.000	  0.011	 29.900	 99.492	 -0.016
39787	 -0.047	  0.608	  1.013	  0.007	 -0.063	 -9.440	  0.003	 -0.001	  0.012	 29.900	 99.488	  0.351
39837	 -0.048	  0.613	  1.014	 -0.085	 -0.054	 -9.500	  0.002	 -0.001	  0.010	 29.900	 99.492	 -0.016
39887	 -0.047	  0.610	  1.009	  0.030	 -0.082	 -9.497	  0.002	 -0.000	  0.011	 29.900	 99.480	  1.088
39937	 -0.045	  0.609	  1.008	 -0.056	 -0.054	 -9.478	  0.003	 -0.001	  0.011	 29.900	 99.492	 -0.016
39987	 -0.047	  0.621	  1.012	  0.058	 -0.048	 -9.496	  0.004	 -0.002	  0.011	 29.900	 99.492	 -0.016
40037	 -0.047	  0.616	  1.013	 -0.105	 -0.043	 -9.503	  0.002	 -0.001	  0.011	 29.900	 99.492	 -0.016
40087	 -0.047	  0.618	  1.006	  0.005	 -0.040	 -9.443	  0.003	 -0.001	  0.010	 29.900	 99.492	 -0.016
40137	 -0.048	  0.620	  1.010	 -0.065	 -0.058	 -9.504	  0.003	 -0.001	  0.011	 29.900	 99.492	 -0.016
40187	 -0.047	  0.619	  1.017	 -0.015	 -0.062	 -9.500	  0.002	 -0.001	  0.011	 29.900	 99.488	  0.351
40236	 -0.045	  0.610	  1.012	 -0.114	 -0.116	 -9.553	 -0.008	  0.003	  0.010	 29.900	 99.492	 -0.016
40286	 -0.047	  0.609	  1.016	  0.116	 -0.020	 -9.402	  0.010	 -0.003	  0.009	 29.900	 99.492	 -0.016
40336	 -0.042	  0.613	  1.020	 -0.129	 -0.060	 -9.512	 -0.002	 -0.017	  0.012	 29.900	 99.492	 -0.016
40386	 -0.042	  0.611	  1.008	  0.262	 -0.039	 -9.438	  0.011	 -0.140	  0.016	 29.900	 99.492	 -0.016
40437	 -0.038	  0.623	  1.017	 -0.564	 -0.071	 -9.458	  0.004	 -0.009	  0.015	 29.900	 99.504	 -1.121
40487	 -0.045	  0.611	  1.012	 -0.295	 -0.015	 -9.408	 -0.002	  0.058	  0.009	 29.900	 99.509	 -1.582
40537	 -0.043	  0.613	  1.016	  0.216	 -0.235	 -9.540	 -0.003	  0.039	  0.010	 29.900	 99.492	 -0.016
40586	 -0.046	  0.629	  1.011	 -0.003	 -0.079	 -9.486	  0.006	  0.004	  0.011	 29.900	 99.492	 -0.016
40636	 -0.046	  0.615	  1.008	 -0.090	 -0.073	 -9.505	 -0.001	  0.000	  0.010	 29.900	 99.492	 -0.016
40686	 -0.047	  0.629	  1.017	  0.097	 -0.036	 -9.489	  0.004	 -0.013	  0.012	 29.900	 99.492	 -0.016
40736	 -0.043	  0.613	  1.013	 -0.095	 -0.034	 -9.497	  0.003	 -0.025	  0.011	 29.900	 99.492	 -0.016
40786	 -0.045	  0.625	  1.013	 -0.118	 -0.060	 -9.504	 -0.003	  0.035	  0.010	 29.900	 99.504	 -1.121
40836	 -0.043	  0.620	  1.009	  0.076	 -0.041	 -9.455	  0.004	 -0.047	  0.011	 29.900	 99.488	  0.351
40886	 -0.040	  0.618	  1.015	 -0.256	  0.033	 -9.445	  0.017	 -0.073	  0.014	 29.900	 99.504	 -1.121
40936	 -0.032	  0.620	  1.016	  1.078	  0.318	 -9.209	  0.099	 -0.346	  0.011	 29.900	 99.492	 -0.016
40986	 -0.003	  0.629	  1.017	 -1.828	 -0.418	 -9.438	 -0.031	  0.068	  1.040	 29.900	 99.488	  0.351
41036	  0.032	  0.600	  1.011	 -0.227	 -0.172	 -9.506	  0.091	 -0.105	  1.222	 29.900	 99.500	 -0.753
41086	  0.068	  0.578	  1.008	 -0.499	 -0.188	 -9.525	  0.041	  0.010	  1.416	 29.900	 99.500	 -0.753
41136	  0.093	  0.559	  1.010	 -0.643	 -0.543	 -9.439	 -0.001	  0.098	  0.917	 29.900	 99.492	 -0.016
41186	  0.086	  0.537	  1.003	 -2.035	 -0.398	 -9.653	 -0.162	  0.610	  0.005	 29.900	 99.500	 -0.753
41236	  0.076	  0.538	  0.998	  1.303	  0.821	 -9.073	  0.155	 -0.533	  0.013	 29.900	 99.492	 -0.016
41286	  0.074	  0.540	  1.011	  4.657	 -0.226	 -9.380	 -0.058	  0.191	  0.029	 29.900	 99.492	 -0.016
41336	  0.077	  0.540	  1.010	 -0.658	 -0.667	 -9.697	  0.001	  0.011	  0.006	 29.900	 99.504	 -1.121
41386	  0.077	  0.538	  1.004	  0.001	  0.047	 -9.412	  0.003	  0.003	  0.012	 29.900	 99.492	 -0.016
41436	  0.079	  0.536	  1.007	 -0.128	 -0.099	 -9.546	  0.001	 -0.000	  0.009	 29.900	 99.488	  0.351
41486	  0.080	  0.542	  1.011	 -0.141	 -0.063	 -9.475	  0.001	  0.000	  0.010	 29.900	 99.488	  0.351
41536	  0.077	  0.551	  1.009	 -0.097	 -0.070	 -9.461	  0.003	 -0.000	  0.010	 29.900	 99.492	 -0.016
41586	  0.080	  0.547	  1.004	 -0.167	 -0.016	 -9.447	  0.002	 -0.000	  0.010	 29.900	 99.492	 -0.016
41636	  0.074	  0.541	  1.007	 -0.093	 -0.071	 -9.490	  0.002	 -0.000	  0.010	 29.900	 99.476	  1.456
41686	  0.079	  0.540	  1.006	 -0.153	 -0.045	 -9.516	  0.002	 -0.002	  0.010	 29.900	 99.492	 -0.016
41736	  0.077	  0.540	  1.010	 -0.058	 -0.085	 -9.488	  0.003	 -0.002	  0.011	 29.900	 99.504	 -1.121
41786	  0.080	  0.538	  1.004	 -0.181	 -0.008	 -9.484	  0.002	 -0.001	  0.011	 29.900	 99.492	 -0.016
41836	  0.079	  0.540	  1.010	 -0.055	 -0.066	 -9.459	  0.003	 -0.001	  0.011	 29.900	 99.480	  1.088
41886	  0.080	  0.543	  1.002	 -0.160	 -0.046	 -9.477	  0.002	 -0.001	  0.011	 29.900	 99.488	  0.351
41936	  0.079	  0.538	  1.007	 -0.075	 -0.081	 -9.505	  0.003	 -0.002	  0.011	 29.900	 99.480	  1.088
41986	  0.077	  0.541	  1.005	 -0.172	 -0.035	 -9.511	  0.003	 -0.002	  0.011	 29.900	 99.492	 -0.016
42036	  0.081	  0.545	  1.004	 -0.068	 -0.061	 -9.490	  0.003	  0.000	  0.010	 29.900	 99.488	  0.351
42086	  0.073	  0.540	  1.004	 -0.159	 -0.055	 -9.473	  0.003	 -0.001	  0.010	 29.900	 99.496	 -0.385
42136	  0.080	  0.543	  1.007	 -0.085	 -0.048	 -9.486	  0.003	 -0.001	  0.010	 29.900	 99.492	 -0.016
42186	  0.079	  0.552	  1.005	 -0.172	 -0.037	 -9.503	  0.002	 -0.001	  0.011	 29.900	 99.492	 -0.016
42236	  0.079	  0.543	  1.010	 -0.258	  0.516	 -8.974	  0.024	 -0.033	  0.012	 29.900	 99.504	 -1.121
42286	  0.082	  0.540	  1.002	  1.039	 -0.377	 -9.249	  0.001	  0.032	  0.006	 29.900	 99.500	 -0.753
42336	  0.080	  0.554	  1.008	 -0.182	 -0.098	 -9.521	  0.004	 -0.004	  0.010	 29.900	 99.492	 -0.016
42386	  0.077	  0.540	  1.007	 -0.155	 -0.012	 -9.477	  0.002	  0.001	  0.011	 29.900	 99.492	 -0.016
42436	  0.081	  0.540	  1.007	 -0.127	 -0.030	 -9.513	 -0.005	  0.003	  0.011	 29.900	 99.480	  1.088
42486	  0.080	  0.540	  1.007	 -0.691	 -0.620	 -10.558	 -0.047	  0.008	  0.008	 29.900	 99.480	  1.088
42536	  0.080	  0.542	  1.008	  0.152	  0.609	 -9.129	  0.078	 -0.036	  0.066	 29.900	 99.504	 -1.121
42586	  0.081	  0.546	  1.007	 -0.280	  0.360	 -9.291	  0.006	  0.001	  0.007	 29.900	 99.476	  1.456
42636	  0.080	  0.538	  1.008	  0.341	 -0.265	 -9.578	  0.019	 -0.007	  0.014	 29.900	 99.492	 -0.016
42686	  0.081	  0.540	  1.003	  0.260	  0.164	 -9.006	  0.011	 -0.012	  0.007	 29.900	 99.492	 -0.016
42736	  0.080	  0.540	  1.010	 -0.056	 -0.016	 -9.446	  0.006	 -0.004	  0.013	 29.900	 99.476	  1.456
42786	  0.081	  0.546	  1.007	 -0.164	 -0.245	 -9.642	  0.008	 -0.007	  0.013	 29.900	 99.492	 -0.016
42836	  0.078	  0.535	  1.002	 -0.234	  0.039	 -9.442	  0.003	 -0.001	  0.011	 29.900	 99.492	 -0.016
42886	  0.080	  0.540	  1.007	 -0.626	  0.574	 -9.411	 -0.044	  0.027	  0.006	 29.900	 99.492	 -0.016
42936	  0.081	  0.541	  1.007	 -0.242	  0.041	 -9.431	  0.025	 -0.009	  0.012	 29.900	 99.492	 -0.016
42986	  0.081	  0.546	  1.003	 -0.074	  0.111	 -9.342	 -0.012	  0.007	  0.009	 29.900	 99.488	  0.351
43036	  0.076	  0.545	  1.005	  0.075	  0.001	 -9.178	  0.005	 -0.006	  0.010	 29.900	 99.480	  1.088
43086	  0.080	  0.541	  1.003	 -0.123	 -1.412	 -10.571	 -0.005	 -0.008	  0.007	 29.900	 99.492	 -0.016
43136	  0.080	  0.537	  1.010	 -0.158	 -0.033	 -9.539	  0.005	 -0.005	  0.009	 29.900	 99.492	 -0.016
43186	  0.082	  0.540	  1.007	 -0.208	 -0.210	 -9.615	 -0.002	  0.001	  0.011	 29.900	 99.492	 -0.016
43236	  0.081	  0.555	  1.005	 -0.154	  0.001	 -9.494	  0.004	 -0.001	  0.011	 29.900	 99.492	 -0.016
43286	  0.076	  0.545	  1.005	 -0.083	 -0.095	 -9.459	  0.002	 -0.001	  0.010	 29.900	 99.504	 -1.121
43336	  0.081	  0.542	  1.007	 -0.156	 -0.014	 -9.474	  0.003	 -0.001	  0.011	 29.900	 99.504	 -1.121
43386	  0.080	  0.537	  0.996	 -0.720	  1.066	 -8.922	 -0.023	  0.021	  0.012	 29.900	 99.504	 -1.121
43436	  0.082	  0.549	  1.005	 -0.353	 -0.926	 -9.531	 -0.044	 -0.013	  0.018	 29.900	 99.529	 -3.422
43486	  0.079	  0.542	  1.002	 -0.035	 -0.050	 -9.529	  0.001	 -0.006	  0.010	 29.900	 99.492	 -0.016
43536	  0.082	  0.540	  1.007	 -0.339	 -0.256	 -9.542	  0.005	 -0.002	  0.009	 29.900	 99.492	 -0.016
43587	  0.083	  0.554	  1.008	  0.000	 -0.061	 -9.432	  0.001	 -0.002	  0.011	 29.900	 99.492	 -0.016
43637	  0.082	  0.542	  0.995	 -0.194	 -0.010	 -9.499	  0.003	 -0.002	  0.009	 29.900	 99.488	  0.351
43686	  0.082	  0.547	  1.007	 -0.071	 -0.068	 -9.481	  0.002	 -0.001	  0.009	 29.900	 99.492	 -0.016
43737	  0.081	  0.540	  1.006	 -0.167	 -0.049	 -9.479	  0.002	 -0.000	  0.011	 29.900	 99.488	  0.351
43786	  0.083	  0.537	  1.002	 -0.062	 -0.040	 -9.513	  0.003	  0.000	  0.010	 29.900	 99.492	 -0.016
43837	  0.083	  0.538	  0.996	 -0.162	 -0.056	 -9.512	  0.002	 -0.001	  0.011	 29.900	 99.488	  0.351
43886	  0.081	  0.555	  1.007	 -0.085	 -0.076	 -9.479	  0.002	 -0.000	  0.011	 29.900	 99.488	  0.351
43937	  0.082	  0.554	  1.007	 -0.146	 -0.048	 -9.479	  0.003	 -0.001	  0.010	 29.900	 99.480	  1.088
43987	  0.081	  0.535	  1.000	 -0.107	 -0.086	 -9.513	  0.002	  0.001	  0.010	 29.900	 99.492	 -0.016
44037	  0.080	  0.556	  1.004	  0.062	 -1.286	 -9.631	  0.000	 -0.005	 -0.256	 29.900	 99.504	 -1.121
44087	  0.076	  0.554	  1.009	  0.075	  0.413	 -9.513	 -0.004	  0.015	 -0.148	 29.900	 99.806	 -28.869
44137	  0.071	  0.548	  1.001	 -0.152	  0.211	 -9.521	 -0.000	 -0.003	 -0.078	 29.900	 99.818	 -29.970
44187	  0.074	  0.552	  1.004	 -0.051	 -0.045	 -9.470	  0.005	 -0.006	  0.011	 29.900	 99.891	 -36.661
44237	  0.074	  0.570	  1.001	 -0.243	 -0.147	 -9.582	 -0.001	 -0.004	  0.009	 29.900	 99.932	 -40.416
44287	  0.071	  0.552	  0.996	 -0.133	 -0.092	 -9.508	  0.002	  0.000	  0.010	 29.900	 99.969	 -43.804
44337	  0.071	  0.545	  1.001	 -0.138	 -0.059	 -9.482	  0.001	  0.000	  0.010	 29.900	 99.944	 -41.515
44387	  0.071	  0.551	  0.992	 -0.084	 -0.047	 -9.491	  0.003	 -0.002	  0.009	 29.900	 99.932	 -40.416
44437	  0.071	  0.553	  0.998	 -0.156	 -0.061	 -9.480	  0.004	 -0.001	  0.011	 29.900	 99.928	 -40.050
44487	  0.072	  0.557	  0.992	 -0.193	 -0.241	 -9.448	  0.001	  0.001	 -0.062	 29.900	 99.977	 -44.536
44537	  0.064	  0.558	  0.999	 -0.547	 -0.474	 -9.565	 -0.004	 -0.003	 -0.341	 29.900	 100.433	 -86.158
44587	  0.054	  0.567	  0.996	 -0.566	  0.192	 -9.449	 -0.004	 -0.007	 -0.438	 29.900	 100.820	 -121.305
44637	  0.041	  0.574	  0.996	 -0.127	  0.086	 -9.465	  0.000	 -0.005	 -0.420	 29.900	 100.935	 -131.717
44687	  0.034	  0.598	  0.995	 -0.101	  0.228	 -9.462	 -0.002	 -0.002	 -0.226	 29.900	 100.947	 -132.803
44737	  0.029	  0.587	  0.992	  0.170	 -0.043	 -9.425	  0.002	 -0.008	  0.011	 29.900	 100.922	 -130.541
44787	  0.030	  0.590	  0.989	 -0.156	 -0.102	 -9.528	 -0.000	  0.000	  0.011	 29.900	 100.886	 -127.283
44837	  0.031	  0.586	  0.993	 -1.198	  0.225	 -9.395	  0.006	 -0.016	  0.103	 29.900	 100.849	 -123.932
44887	  0.032	  0.585	  0.988	  0.396	 -0.247	 -9.551	  0.003	  0.003	  0.039	 29.900	 100.812	 -120.580
44937	  0.031	  0.585	  0.989	  0.058	 -0.405	 -9.523	  0.005	 -0.009	 -0.035	 29.900	 100.788	 -118.406
44987	  0.025	  0.589	  0.989	 -0.143	  0.472	 -9.462	  0.002	  0.003	 -0.026	 29.900	 100.776	 -117.318
45037	  0.026	  0.587	  0.992	 -0.019	 -0.022	 -9.454	  0.003	 -0.002	  0.011	 29.900	 100.722	 -112.420
45087	  0.026	  0.585	  0.984	 -0.222	 -0.095	 -9.508	  0.001	 -0.001	  0.011	 29.900	 100.690	 -109.517
45137	  0.025	  0.592	  0.980	 -0.064	 -0.068	 -9.508	  0.003	 -0.001	  0.009	 29.900	 100.653	 -106.158
45187	  0.026	  0.592	  0.990	 -0.182	 -0.044	 -9.457	  0.003	 -0.002	  0.011	 29.900	 100.625	 -103.615
45237	  0.025	  0.586	  0.989	 -0.082	 -0.067	 -9.496	  0.002	 -0.002	  0.010	 29.900	 100.600	 -101.344
45287	  0.025	  0.596	  0.993	 -0.169	 -0.048	 -9.496	  0.003	 -0.001	  0.010	 29.900	 100.556	 -97.346
45337	  0.029	  0.585	  0.992	 -0.077	 -0.074	 -9.511	  0.001	  0.001	  0.010	 29.900	 100.531	 -95.073
45387	  0.029	  0.589	  0.988	 -0.190	 -0.043	 -9.484	  0.003	 -0.001	  0.011	 29.900	 100.494	 -91.709
45437	  0.028	  0.587	  0.991	 -0.062	 -0.084	 -9.481	  0.002	 -0.000	  0.011	 29.900	 100.470	 -89.525
45486	  0.024	  0.586	  0.991	 -0.156	 -0.043	 -9.461	  0.003	 -0.001	  0.010	 29.900	 100.429	 -85.795
45536	  0.029	  0.590	  0.987	  0.038	 -0.207	 -9.536	  0.000	 -0.004	  0.011	 29.900	 100.409	 -83.973
45586	  0.026	  0.586	  0.989	 -0.196	 -0.037	 -9.506	  0.003	 -0.002	  0.011	 29.900	 100.384	 -81.697
45636	  0.026	  0.584	  0.988	 -0.064	 -0.060	 -9.497	  0.004	 -0.001	  0.010	 29.900	 100.344	 -78.053
45686	  0.026	  0.590	  0.991	  0.453	  0.458	 -9.539	  0.001	 -0.002	 -0.142	 29.900	 100.331	 -76.868
45736	  0.025	  0.592	  0.993	 -0.002	 -0.118	 -9.485	  0.001	  0.003	  0.011	 29.900	 100.282	 -72.400
45786	  0.024	  0.589	  0.992	 -0.067	 -0.015	 -9.467	  0.004	 -0.004	  0.012	 29.900	 100.287	 -72.857
45836	  0.026	  0.586	  0.992	 -0.139	 -0.071	 -9.502	  0.003	  0.000	  0.011	 29.900	 100.246	 -69.117
45886	  0.025	  0.589	  0.992	 -0.105	 -0.049	 -9.516	  0.001	 -0.001	  0.011	 29.900	 100.238	 -68.387
45936	  0.028	  0.581	  0.996	 -0.102	 -0.052	 -9.516	  0.002	 -0.000	  0.012	 29.900	 100.201	 -65.010
45986	  0.029	  0.582	  0.998	 -0.184	 -0.027	 -9.490	  0.003	 -0.001	  0.009	 29.900	 100.177	 -62.819
46036	  0.028	  0.586	  0.991	 -0.101	 -0.033	 -9.490	  0.002	 -0.001	  0.009	 29.900	 100.164	 -61.632
46086	  0.029	  0.600	  0.996	 -0.136	 -0.068	 -9.473	  0.001	 -0.001	  0.011	 29.900	 100.140	 -59.440
46136	  0.028	  0.590	  0.997	 -0.131	 -0.029	 -9.458	  0.002	 -0.001	  0.010	 29.900	 100.116	 -57.248
