Time	 MagX	 MagY	 MagZ	 AccelX	 AccelY	 AccelZ	 Yaw	 Pitch	 Roll	 Temperature	 Pressure	 Altitude
1328	 -0.242	  0.598	  0.553	 -0.209	 -0.097	 -9.528	  0.002	 -0.001	  0.020	 30.300	 99.401	 -99999.000
1377	 -0.241	  0.599	  0.557	 -0.211	 -0.092	 -9.524	  0.002	 -0.001	  0.020	 30.300	 99.401	 -99999.000
1427	 -0.241	  0.609	  0.552	 -0.241	 -0.102	 -9.489	  0.002	 -0.001	  0.019	 30.300	 99.389	 -99999.000
1477	 -0.241	  0.596	  0.555	 -0.273	 -0.093	 -9.516	  0.002	 -0.002	  0.019	 30.300	 99.401	 -99999.000
1527	 -0.241	  0.599	  0.550	 -0.219	 -0.096	 -9.489	  0.002	 -0.000	  0.020	 30.300	 99.406	 -99999.000
1577	 -0.244	  0.600	  0.546	 -0.274	 -0.082	 -9.485	  0.003	 -0.001	  0.020	 30.300	 99.389	 -99999.000
1627	 -0.244	  0.604	  0.556	 -0.185	 -0.100	 -9.498	  0.002	 -0.002	  0.020	 30.300	 99.401	 -99999.000
1677	 -0.243	  0.605	  0.546	 -0.266	 -0.082	 -9.513	  0.002	 -0.002	  0.018	 30.300	 99.401	 -99999.000
1727	 -0.245	  0.599	  0.554	 -0.171	 -0.115	 -9.483	  0.001	 -0.002	  0.019	 30.300	 99.389	 -99999.000
1777	 -0.243	  0.603	  0.546	 -0.271	 -0.082	 -9.520	  0.003	 -0.000	  0.018	 30.300	 99.401	 -99999.000
1827	 -0.244	  0.594	  0.545	 -0.215	 -0.083	 -9.488	  0.003	 -0.002	  0.019	 30.300	 99.406	 -99999.000
1877	 -0.244	  0.601	  0.557	 -0.255	 -0.095	 -9.496	  0.003	 -0.001	  0.019	 30.300	 99.401	 -99999.000
1927	 -0.243	  0.613	  0.550	 -0.226	 -0.101	 -9.534	  0.002	  0.000	  0.018	 30.300	 99.401	 -99999.000
1977	 -0.244	  0.598	  0.552	 -0.229	 -0.105	 -9.490	  0.003	  0.001	  0.020	 30.300	 99.394	 -99999.000
2027	 -0.244	  0.598	  0.556	 -0.264	 -0.106	 -9.507	  0.001	 -0.002	  0.020	 30.300	 99.406	 -99999.000
2077	 -0.242	  0.599	  0.550	 -0.190	 -0.141	 -9.520	  0.002	 -0.001	  0.019	 30.300	 99.385	 -99999.000
2127	 -0.240	  0.601	  0.554	 -0.282	 -0.076	 -9.504	  0.001	 -0.001	  0.019	 30.300	 99.406	 -99999.000
2177	 -0.244	  0.604	  0.548	 -0.191	 -0.104	 -9.517	  0.002	 -0.001	  0.019	 30.300	 99.389	 -99999.000
2227	 -0.241	  0.597	  0.542	 -0.280	 -0.096	 -9.488	  0.002	 -0.002	  0.019	 30.300	 99.401	 -99999.000
2277	 -0.243	  0.606	  0.553	 -0.185	 -0.110	 -9.523	  0.002	 -0.001	  0.020	 30.300	 99.389	 -99999.000
2327	 -0.240	  0.598	  0.550	 -0.288	 -0.089	 -9.506	  0.003	 -0.002	  0.020	 30.300	 99.406	 -99999.000
2377	 -0.242	  0.600	  0.552	 -0.191	 -0.089	 -9.513	  0.001	 -0.001	  0.019	 30.300	 99.401	 -99999.000
2427	 -0.244	  0.600	  0.556	 -0.232	 -0.109	 -9.498	  0.002	 -0.001	  0.019	 30.300	 99.406	 -99999.000
2477	 -0.241	  0.596	  0.555	 -0.232	 -0.058	 -9.510	  0.002	 -0.000	  0.020	 30.300	 99.401	 -99999.000
2527	 -0.241	  0.594	  0.553	 -0.199	 -0.122	 -9.492	  0.001	 -0.001	  0.020	 30.300	 99.401	 -99999.000
2577	 -0.244	  0.595	  0.556	 -0.276	 -0.066	 -9.489	  0.002	 -0.002	  0.020	 30.300	 99.389	 -99999.000
2627	 -0.245	  0.601	  0.553	 -0.165	 -0.108	 -9.510	  0.002	 -0.000	  0.019	 30.300	 99.389	 -99999.000
2677	 -0.244	  0.594	  0.553	 -0.275	 -0.080	 -9.502	  0.002	 -0.001	  0.018	 30.300	 99.389	 -99999.000
2727	 -0.244	  0.596	  0.553	 -0.187	 -0.108	 -9.487	  0.002	 -0.001	  0.019	 30.300	 99.406	 -99999.000
2777	 -0.241	  0.606	  0.552	 -0.279	 -0.076	 -9.543	  0.003	 -0.001	  0.019	 30.300	 99.406	 -99999.000
2827	 -0.244	  0.599	  0.552	 -0.197	 -0.098	 -9.544	  0.002	 -0.000	  0.020	 30.300	 99.406	 -99999.000
2877	 -0.241	  0.595	  0.552	 -0.233	 -0.096	 -9.490	  0.003	 -0.001	  0.018	 30.300	 99.389	 -99999.000
2927	 -0.244	  0.598	  0.556	 -0.232	 -0.081	 -9.528	  0.001	 -0.002	  0.018	 30.300	 99.401	 -99999.000
2977	 -0.244	  0.596	  0.552	 -0.253	 -0.080	 -9.500	  0.002	 -0.001	  0.018	 30.300	 99.389	 -99999.000
3027	 -0.246	  0.596	  0.553	 -0.244	 -0.071	 -9.511	  0.002	 -0.001	  0.019	 30.300	 99.401	 -99999.000
3077	 -0.244	  0.603	  0.553	 -0.188	 -0.094	 -9.486	  0.003	 -0.001	  0.018	 30.300	 99.406	 -99999.000
3127	 -0.245	  0.598	  0.552	 -0.270	 -0.069	 -9.471	  0.002	 -0.001	  0.019	 30.300	 99.401	 -99999.000
3177	 -0.242	  0.600	  0.553	 -0.180	 -0.132	 -9.528	  0.003	 -0.002	  0.020	 30.300	 99.389	 -99999.000
3227	 -0.242	  0.596	  0.556	 -0.285	 -0.063	 -9.507	  0.002	 -0.001	  0.019	 30.300	 99.394	 -99999.000
3277	 -0.243	  0.604	  0.556	 -0.195	 -0.122	 -9.526	  0.001	 -0.001	  0.019	 30.300	 99.394	 -99999.000
3327	 -0.241	  0.598	  0.557	 -0.274	 -0.093	 -9.502	  0.002	 -0.003	  0.020	 30.300	 99.401	 -99999.000
3377	 -0.243	  0.613	  0.552	 -0.192	 -0.079	 -9.519	  0.003	 -0.002	  0.019	 30.300	 99.389	 -99999.000
3427	 -0.242	  0.598	  0.552	 -0.260	 -0.086	 -9.504	  0.002	 -0.001	  0.018	 30.300	 99.401	 -99999.000
3477	 -0.244	  0.597	  0.542	 -0.225	 -0.102	 -9.501	  0.002	 -0.001	  0.019	 30.300	 99.401	 -99999.000
3527	 -0.244	  0.596	  0.549	 -0.217	 -0.100	 -9.499	  0.001	 -0.002	  0.018	 30.300	 99.414	 -99999.000
3577	 -0.241	  0.595	  0.557	 -0.248	 -0.082	 -9.512	  0.003	 -0.002	  0.018	 30.300	 99.406	 -99999.000
3627	 -0.245	  0.599	  0.553	 -0.194	 -0.106	 -9.519	  0.002	 -0.000	  0.019	 30.300	 99.377	 -99999.000
3677	 -0.245	  0.599	  0.557	 -0.266	 -0.075	 -9.542	  0.002	 -0.001	  0.020	 30.300	 99.394	 -99999.000
3727	 -0.244	  0.599	  0.553	 -0.199	 -0.101	 -9.480	  0.002	 -0.002	  0.020	 30.300	 99.389	 -99999.000
3777	 -0.242	  0.599	  0.556	 -0.288	 -0.086	 -9.527	  0.003	 -0.002	  0.019	 30.300	 99.394	 -99999.000
3827	 -0.241	  0.600	  0.556	 -0.200	 -0.116	 -9.515	  0.002	  0.002	  0.019	 30.300	 99.394	 -99999.000
3877	 -0.244	  0.598	  0.558	 -0.246	 -0.121	 -9.485	  0.000	 -0.002	  0.020	 30.300	 99.406	 -99999.000
3927	 -0.242	  0.600	  0.554	 -0.219	 -0.107	 -9.509	  0.003	 -0.001	  0.019	 30.300	 99.389	 -99999.000
3977	 -0.241	  0.600	  0.558	 -0.229	 -0.106	 -9.490	  0.002	  0.001	  0.019	 30.300	 99.389	 -99999.000
4027	 -0.240	  0.603	  0.554	 -0.237	 -0.074	 -9.528	  0.002	 -0.001	  0.019	 30.300	 99.389	 -99999.000
4077	 -0.241	  0.604	  0.556	 -0.219	 -0.108	 -9.496	  0.001	 -0.002	  0.020	 30.300	 99.401	 -99999.000
4127	 -0.239	  0.599	  0.556	 -0.264	 -0.087	 -9.514	  0.002	 -0.001	  0.019	 30.300	 99.394	 -99999.000
4177	 -0.241	  0.604	  0.549	 -0.193	 -0.103	 -9.496	  0.002	 -0.001	  0.019	 30.300	 99.389	 -99999.000
4227	 -0.240	  0.598	  0.560	 -0.264	 -0.073	 -9.517	  0.002	 -0.002	  0.020	 30.300	 99.389	 -99999.000
4277	 -0.239	  0.601	  0.557	 -0.179	 -0.121	 -9.497	  0.002	 -0.001	  0.019	 30.300	 99.401	 -99999.000
5327	 -0.241	  0.615	  0.554	 -0.283	 -0.112	 -9.484	  0.002	 -0.001	  0.019	 30.300	 99.406	 -99999.000
5376	 -0.240	  0.600	  0.553	 -0.188	 -0.104	 -9.496	  0.003	 -0.001	  0.019	 30.300	 99.401	 -99999.000
5426	 -0.241	  0.614	  0.555	 -0.280	 -0.087	 -9.481	  0.003	 -0.001	  0.019	 30.300	 99.401	 -99999.000
5476	 -0.243	  0.601	  0.550	 -0.205	 -0.102	 -9.529	  0.003	 -0.002	  0.019	 30.300	 99.406	 -99999.000
5526	 -0.241	  0.604	  0.561	 -0.269	 -0.094	 -9.492	  0.003	 -0.001	  0.020	 30.300	 99.401	 -99999.000
5576	 -0.241	  0.599	  0.559	 -0.206	 -0.104	 -9.498	  0.001	 -0.002	  0.018	 30.300	 99.401	 -99999.000
5626	 -0.241	  0.611	  0.554	 -0.268	 -0.089	 -9.513	  0.002	 -0.001	  0.019	 30.300	 99.401	 -99999.000
5676	 -0.241	  0.604	  0.560	 -0.205	 -0.104	 -9.482	  0.002	  0.000	  0.020	 30.300	 99.401	 -99999.000
5726	 -0.243	  0.603	  0.550	 -0.232	 -0.124	 -9.510	  0.002	 -0.001	  0.020	 30.300	 99.401	 -99999.000
5776	 -0.245	  0.605	  0.561	 -0.254	 -0.081	 -9.503	  0.003	 -0.001	  0.020	 30.300	 99.394	 -99999.000
5826	 -0.241	  0.604	  0.558	 -0.208	 -0.122	 -9.498	  0.001	 -0.002	  0.018	 30.300	 99.401	 -99999.000
5876	 -0.241	  0.606	  0.556	 -0.253	 -0.048	 -9.472	  0.002	 -0.001	  0.019	 30.300	 99.406	 -99999.000
5926	 -0.241	  0.608	  0.561	 -0.188	 -0.102	 -9.496	  0.002	  0.000	  0.020	 30.300	 99.389	 -99999.000
5976	 -0.240	  0.605	  0.556	 -0.285	 -0.075	 -9.538	  0.002	 -0.001	  0.019	 30.300	 99.401	 -99999.000
6027	 -0.243	  0.614	  0.558	 -0.187	 -0.094	 -9.512	  0.002	 -0.001	  0.020	 30.300	 99.377	 -99999.000
6076	 -0.241	  0.604	  0.560	 -0.246	 -0.130	 -9.486	  0.002	 -0.002	  0.020	 30.300	 99.401	 -99999.000
6127	 -0.243	  0.605	  0.558	 -0.203	 -0.090	 -9.522	  0.003	 -0.001	  0.019	 30.300	 99.389	 -99999.000
6177	 -0.244	  0.601	  0.558	 -0.205	 -0.138	 -9.500	  0.002	 -0.001	  0.019	 30.300	 99.401	 -99999.000
6228	 -0.241	  0.608	  0.546	 -0.275	 -0.082	 -9.529	  0.002	 -0.001	  0.019	 30.300	 99.406	 -99999.000
6278	 -0.238	  0.606	  0.560	 -0.188	 -0.102	 -9.503	  0.002	 -0.001	  0.020	 30.300	 99.401	 -99999.000
6327	 -0.243	  0.604	  0.560	 -0.319	 -0.058	 -9.507	  0.001	 -0.001	  0.020	 30.300	 99.389	 -99999.000
6377	 -0.241	  0.599	  0.556	 -0.173	 -0.104	 -9.539	  0.002	 -0.001	  0.020	 30.300	 99.389	 -99999.000
6427	 -0.240	  0.605	  0.557	 -0.278	 -0.090	 -9.489	  0.002	 -0.001	  0.018	 30.300	 99.389	 -99999.000
6476	 -0.245	  0.608	  0.561	 -0.194	 -0.107	 -9.492	  0.002	 -0.001	  0.019	 30.300	 99.401	 -99999.000
6527	 -0.243	  0.606	  0.557	 -0.280	 -0.073	 -9.516	  0.002	 -0.001	  0.020	 30.300	 99.401	 -99999.000
6577	 -0.241	  0.603	  0.561	 -0.214	 -0.090	 -9.503	  0.002	 -0.001	  0.019	 30.300	 99.389	 -99999.000
6627	 -0.240	  0.613	  0.561	 -0.228	 -0.113	 -9.524	  0.002	 -0.002	  0.019	 30.300	 99.401	 -99999.000
6677	 -0.238	  0.608	  0.554	 -0.254	 -0.068	 -9.533	  0.001	  0.001	  0.019	 30.300	 99.406	 -99999.000
6727	 -0.243	  0.603	  0.556	 -0.233	 -0.127	 -9.500	  0.002	 -0.001	  0.018	 30.300	 99.389	 -99999.000
6777	 -0.241	  0.605	  0.548	 -0.290	 -0.070	 -9.479	  0.003	 -0.000	  0.019	 30.300	 99.389	 -99999.000
6827	 -0.244	  0.604	  0.558	 -0.198	 -0.115	 -9.522	  0.002	 -0.001	  0.020	 30.300	 99.389	 -99999.000
6877	 -0.241	  0.608	  0.557	 -0.268	 -0.066	 -9.475	  0.001	 -0.001	  0.020	 30.300	 99.389	 -99999.000
6927	 -0.243	  0.604	  0.560	 -0.198	 -0.120	 -9.487	  0.002	 -0.001	  0.019	 30.300	 99.389	 -99999.000
6977	 -0.241	  0.605	  0.562	 -0.261	 -0.078	 -9.499	  0.002	 -0.002	  0.018	 30.300	 99.389	 -99999.000
7027	 -0.244	  0.603	  0.556	 -0.197	 -0.132	 -9.523	  0.003	 -0.001	  0.020	 30.300	 99.401	 -99999.000
7077	 -0.244	  0.605	  0.560	 -0.225	 -0.093	 -9.504	  0.002	 -0.000	  0.019	 30.300	 99.406	 -99999.000
7127	 -0.244	  0.601	  0.560	 -0.258	 -0.078	 -9.542	  0.003	 -0.002	  0.020	 30.300	 99.406	 -99999.000
7177	 -0.243	  0.606	  0.554	 -0.200	 -0.109	 -9.518	  0.003	 -0.002	  0.018	 30.300	 99.389	 -99999.000
7227	 -0.243	  0.604	  0.552	 -0.265	 -0.081	 -9.466	  0.002	 -0.001	  0.020	 30.300	 99.389	 -99999.000
7277	 -0.241	  0.610	  0.560	 -0.209	 -0.137	 -9.520	  0.002	 -0.002	  0.018	 30.300	 99.385	 -99999.000
7327	 -0.240	  0.609	  0.553	 -0.280	 -0.101	 -9.503	  0.001	 -0.001	  0.019	 30.300	 99.389	 -99999.000
7377	 -0.245	  0.604	  0.562	 -0.190	 -0.110	 -9.539	  0.002	 -0.001	  0.020	 30.300	 99.401	 -99999.000
7427	 -0.243	  0.615	  0.551	 -0.260	 -0.082	 -9.482	  0.002	 -0.002	  0.019	 30.300	 99.401	 -99999.000
7477	 -0.244	  0.603	  0.558	 -0.200	 -0.079	 -9.505	  0.002	 -0.001	  0.018	 30.300	 99.394	 -99999.000
7527	 -0.241	  0.615	  0.555	 -0.263	 -0.100	 -9.512	  0.002	 -0.001	  0.019	 30.300	 99.389	 -99999.000
7577	 -0.239	  0.600	  0.557	 -0.215	 -0.094	 -9.518	  0.003	 -0.000	  0.019	 30.300	 99.401	 -99999.000
7627	 -0.243	  0.606	  0.557	 -0.235	 -0.101	 -9.504	  0.001	 -0.001	  0.019	 30.300	 99.389	 -99999.000
7677	 -0.247	  0.605	  0.552	 -0.248	 -0.097	 -9.530	  0.003	 -0.001	  0.019	 30.300	 99.389	 -99999.000
7727	 -0.238	  0.604	  0.559	 -0.214	 -0.106	 -9.510	  0.002	 -0.001	  0.020	 30.300	 99.401	 -99999.000
7777	 -0.243	  0.601	  0.550	 -0.288	 -0.070	 -9.506	  0.002	 -0.001	  0.019	 30.300	 99.401	 -99999.000
7827	 -0.239	  0.614	  0.556	 -0.195	 -0.100	 -9.460	  0.002	 -0.002	  0.019	 30.300	 99.406	 -99999.000
7877	 -0.240	  0.604	  0.558	 -0.292	 -0.060	 -9.490	  0.003	 -0.001	  0.019	 30.300	 99.401	 -99999.000
7927	 -0.241	  0.603	  0.556	 -0.186	 -0.109	 -9.519	  0.002	 -0.002	  0.020	 30.300	 99.389	 -99999.000
7977	 -0.243	  0.604	  0.558	 -0.264	 -0.081	 -9.509	  0.002	 -0.002	  0.020	 30.300	 99.394	 -99999.000
8027	 -0.239	  0.615	  0.560	 -0.202	 -0.108	 -9.511	  0.002	 -0.001	  0.019	 30.300	 99.394	 -99999.000
8077	 -0.243	  0.603	  0.544	 -0.255	 -0.098	 -9.504	  0.002	 -0.001	  0.019	 30.300	 99.389	 -99999.000
8127	 -0.241	  0.604	  0.558	 -0.219	 -0.071	 -9.541	  0.002	 -0.001	  0.018	 30.300	 99.394	 -99999.000
8177	 -0.240	  0.611	  0.553	 -0.206	 -0.108	 -9.523	  0.002	 -0.001	  0.020	 30.300	 99.389	 -99999.000
8227	 -0.241	  0.605	  0.558	 -0.264	 -0.072	 -9.556	  0.002	 -0.000	  0.019	 30.300	 99.389	 -99999.000
8277	 -0.239	  0.622	  0.554	 -0.183	 -0.099	 -9.507	  0.002	 -0.001	  0.019	 30.300	 99.389	 -99999.000
9727	 -0.243	  0.606	  0.554	 -0.232	 -0.032	 -9.475	  0.002	 -0.000	  0.018	 30.300	 99.401	 -0.478
9777	 -0.243	  0.606	  0.560	 -0.285	 -0.075	 -9.497	  0.003	 -0.001	  0.018	 30.300	 99.389	  0.627
9827	 -0.240	  0.604	  0.564	 -0.215	 -0.101	 -9.506	  0.002	 -0.001	  0.018	 30.300	 99.401	 -0.478
9877	 -0.239	  0.608	  0.558	 -0.269	 -0.089	 -9.487	  0.001	 -0.002	  0.021	 30.300	 99.401	 -0.478
9927	 -0.240	  0.609	  0.558	 -0.192	 -0.114	 -9.498	  0.002	 -0.001	  0.020	 30.300	 99.389	  0.627
9977	 -0.239	  0.600	  0.561	 -0.301	 -0.056	 -9.492	  0.003	 -0.001	  0.019	 30.300	 99.389	  0.627
10027	 -0.245	  0.608	  0.554	 -0.180	 -0.100	 -9.479	  0.002	 -0.001	  0.019	 30.300	 99.406	 -0.939
10077	 -0.245	  0.603	  0.556	 -0.277	 -0.080	 -9.470	  0.002	 -0.002	  0.018	 30.300	 99.401	 -0.478
10127	 -0.240	  0.605	  0.552	 -0.168	 -0.129	 -9.508	  0.002	 -0.001	  0.020	 30.300	 99.401	 -0.478
10177	 -0.244	  0.608	  0.561	 -0.281	 -0.079	 -9.529	  0.003	 -0.002	  0.019	 30.300	 99.389	  0.627
10227	 -0.241	  0.608	  0.558	 -0.175	 -0.120	 -9.526	  0.002	 -0.001	  0.018	 30.300	 99.389	  0.627
10277	 -0.243	  0.613	  0.557	 -0.259	 -0.106	 -9.522	  0.002	 -0.001	  0.019	 30.300	 99.389	  0.627
10327	 -0.244	  0.609	  0.558	 -0.217	 -0.088	 -9.521	  0.004	 -0.002	  0.020	 30.300	 99.406	 -0.939
10377	 -0.244	  0.605	  0.558	 -0.236	 -0.101	 -9.496	  0.001	 -0.002	  0.017	 30.300	 99.414	 -1.677
10427	 -0.241	  0.600	  0.556	 -0.274	 -0.068	 -9.542	  0.002	 -0.001	  0.020	 30.300	 99.406	 -0.939
10477	 -0.240	  0.601	  0.560	 -0.209	 -0.109	 -9.490	  0.002	 -0.001	  0.020	 30.300	 99.389	  0.627
10527	 -0.239	  0.609	  0.556	 -0.248	 -0.096	 -9.495	  0.001	 -0.002	  0.019	 30.300	 99.401	 -0.478
10577	 -0.241	  0.600	  0.563	 -0.166	 -0.115	 -9.481	  0.001	 -0.002	  0.017	 30.300	 99.389	  0.627
10627	 -0.243	  0.612	  0.560	 -0.294	 -0.100	 -9.504	  0.002	 -0.000	  0.019	 30.300	 99.394	  0.166
10677	 -0.244	  0.605	  0.560	 -0.199	 -0.138	 -9.480	  0.003	 -0.001	  0.018	 30.300	 99.394	  0.166
10727	 -0.241	  0.603	  0.558	 -0.298	 -0.068	 -9.476	  0.001	 -0.000	  0.019	 30.300	 99.389	  0.627
10776	 -0.242	  0.598	  0.558	 -0.195	 -0.105	 -9.504	  0.002	 -0.001	  0.019	 30.300	 99.401	 -0.478
10826	 -0.245	  0.603	  0.557	 -0.265	 -0.102	 -9.524	  0.003	 -0.001	  0.019	 30.300	 99.406	 -0.939
10876	 -0.238	  0.603	  0.559	 -0.222	 -0.077	 -9.465	  0.003	 -0.003	  0.020	 30.300	 99.401	 -0.478
10926	 -0.241	  0.601	  0.557	 -0.236	 -0.106	 -9.500	  0.001	 -0.002	  0.018	 30.300	 99.389	  0.627
10976	 -0.240	  0.604	  0.561	 -0.244	 -0.096	 -9.542	  0.001	 -0.001	  0.019	 30.300	 99.389	  0.627
11026	 -0.239	  0.610	  0.558	 -0.216	 -0.102	 -9.504	  0.002	 -0.001	  0.021	 30.300	 99.389	  0.627
11076	 -0.238	  0.619	  0.556	 -0.266	 -0.077	 -9.508	  0.002	 -0.002	  0.021	 30.300	 99.401	 -0.478
11126	 -0.240	  0.617	  0.560	 -0.195	 -0.111	 -9.512	  0.001	 -0.001	  0.019	 30.300	 99.401	 -0.478
11176	 -0.239	  0.603	  0.550	 -0.266	 -0.078	 -9.466	  0.003	  0.000	  0.019	 30.300	 99.389	  0.627
11226	 -0.243	  0.604	  0.554	 -0.184	 -0.103	 -9.510	  0.002	 -0.002	  0.019	 30.300	 99.389	  0.627
11276	 -0.238	  0.604	  0.559	 -0.271	 -0.091	 -9.524	  0.002	  0.000	  0.018	 30.300	 99.401	 -0.478
11328	 -0.240	  0.601	  0.560	 -0.227	 -0.095	 -9.513	  0.002	 -0.001	  0.020	 30.300	 99.394	  0.166
11377	 -0.241	  0.600	  0.558	 -0.208	 -0.111	 -9.476	  0.004	 -0.001	  0.018	 30.300	 99.389	  0.627
11428	 -0.242	  0.601	  0.560	 -0.217	 -0.096	 -9.498	  0.001	 -0.001	  0.020	 30.300	 99.401	 -0.478
11477	 -0.243	  0.605	  0.557	 -0.156	 -0.138	 -9.485	  0.002	 -0.001	  0.019	 30.300	 99.394	  0.166
11528	 -0.238	  0.606	  0.552	 -0.274	 -0.077	 -9.502	  0.001	 -0.002	  0.021	 30.300	 99.394	  0.166
11577	 -0.241	  0.605	  0.550	 -0.186	 -0.104	 -9.524	  0.002	 -0.001	  0.020	 30.300	 99.406	 -0.939
11627	 -0.240	  0.603	  0.556	 -0.291	 -0.075	 -9.501	  0.003	  0.000	  0.018	 30.300	 99.401	 -0.478
11678	 -0.241	  0.603	  0.558	 -0.215	 -0.097	 -9.471	  0.002	 -0.000	  0.015	 30.300	 99.389	  0.627
11728	 -0.241	  0.605	  0.556	 -0.225	 -0.118	 -9.494	  0.001	 -0.001	  0.022	 30.300	 99.401	 -0.478
11778	 -0.241	  0.614	  0.558	 -0.243	 -0.063	 -9.531	  0.002	 -0.001	  0.021	 30.300	 99.394	  0.166
11828	 -0.242	  0.598	  0.556	 -0.201	 -0.110	 -9.493	  0.002	 -0.001	  0.022	 30.300	 99.394	  0.166
11878	 -0.239	  0.601	  0.555	 -0.247	 -0.078	 -9.502	  0.002	 -0.001	  0.016	 30.300	 99.401	 -0.478
11928	 -0.240	  0.599	  0.555	 -0.196	 -0.136	 -9.524	  0.002	 -0.001	  0.017	 30.300	 99.401	 -0.478
11978	 -0.241	  0.606	  0.558	 -0.267	 -0.059	 -9.459	  0.002	 -0.000	  0.015	 30.300	 99.394	  0.166
12027	 -0.242	  0.595	  0.559	 -0.182	 -0.118	 -9.524	  0.001	 -0.001	  0.021	 30.300	 99.389	  0.627
12077	 -0.242	  0.598	  0.553	 -0.241	 -0.087	 -9.521	  0.001	 -0.002	  0.022	 30.300	 99.401	 -0.478
12128	 -0.242	  0.599	  0.553	 -0.202	 -0.119	 -9.512	  0.003	 -0.001	  0.024	 30.300	 99.389	  0.627
12178	 -0.244	  0.599	  0.557	 -0.284	 -0.092	 -9.492	  0.003	 -0.001	  0.017	 30.300	 99.401	 -0.478
12228	 -0.242	  0.598	  0.550	 -0.250	 -0.090	 -9.499	  0.003	 -0.002	  0.018	 30.300	 99.389	  0.627
12278	 -0.239	  0.609	  0.554	 -0.242	 -0.124	 -9.507	  0.003	 -0.001	  0.020	 30.300	 99.389	  0.627
12328	 -0.241	  0.608	  0.558	 -0.258	 -0.095	 -9.515	  0.002	 -0.001	  0.024	 30.300	 99.389	  0.627
12378	 -0.240	  0.610	  0.553	 -0.202	 -0.118	 -9.495	  0.002	 -0.001	  0.021	 30.300	 99.406	 -0.939
12428	 -0.241	  0.615	  0.555	 -0.265	 -0.094	 -9.528	  0.003	 -0.001	  0.023	 30.300	 99.389	  0.627
12478	 -0.244	  0.599	  0.554	 -0.175	 -0.107	 -9.504	  0.003	 -0.001	  0.016	 30.300	 99.389	  0.627
12528	 -0.238	  0.595	  0.548	 -0.238	 -0.110	 -9.516	  0.002	 -0.001	  0.020	 30.300	 99.389	  0.627
12578	 -0.240	  0.595	  0.555	 -0.180	 -0.103	 -9.493	  0.001	 -0.001	  0.016	 30.300	 99.401	 -0.478
12628	 -0.243	  0.603	  0.553	 -0.275	 -0.076	 -9.506	  0.002	 -0.001	  0.017	 30.300	 99.401	 -0.478
12678	 -0.241	  0.600	  0.556	 -0.192	 -0.096	 -9.520	  0.002	 -0.002	  0.016	 30.300	 99.389	  0.627
13727	 -0.241	  0.596	  0.556	 -0.266	 -0.100	 -9.502	  0.003	 -0.001	  0.021	 30.300	 99.389	  0.627
13777	 -0.240	  0.603	  0.553	 -0.224	 -0.066	 -9.512	  0.001	 -0.000	  0.014	 30.300	 99.385	  0.995
13827	 -0.240	  0.604	  0.553	 -0.206	 -0.101	 -9.488	  0.001	 -0.002	  0.015	 30.300	 99.394	  0.166
13877	 -0.241	  0.612	  0.556	 -0.248	 -0.096	 -9.479	  0.002	  0.000	  0.023	 30.300	 99.406	 -0.939
13927	 -0.242	  0.598	  0.549	 -0.199	 -0.125	 -9.516	  0.003	 -0.002	  0.023	 30.300	 99.389	  0.627
13977	 -0.241	  0.598	  0.555	 -0.287	 -0.068	 -9.556	  0.000	 -0.002	  0.017	 30.300	 99.389	  0.627
14027	 -0.245	  0.604	  0.553	 -0.207	 -0.119	 -9.504	  0.003	 -0.002	  0.024	 30.300	 99.401	 -0.478
14077	 -0.242	  0.600	  0.548	 -0.289	 -0.066	 -9.516	  0.002	 -0.001	  0.017	 30.300	 99.406	 -0.939
14127	 -0.243	  0.604	  0.553	 -0.195	 -0.112	 -9.486	  0.002	 -0.001	  0.016	 30.300	 99.394	  0.166
14177	 -0.240	  0.595	  0.551	 -0.270	 -0.079	 -9.491	  0.003	 -0.000	  0.016	 30.300	 99.401	 -0.478
14227	 -0.244	  0.610	  0.549	 -0.204	 -0.078	 -9.486	  0.003	 -0.001	  0.014	 30.300	 99.406	 -0.939
14277	 -0.241	  0.596	  0.553	 -0.259	 -0.093	 -9.501	  0.002	 -0.001	  0.018	 30.300	 99.389	  0.627
14327	 -0.242	  0.598	  0.552	 -0.254	 -0.077	 -9.470	  0.002	 -0.001	  0.018	 30.300	 99.406	 -0.939
14377	 -0.241	  0.599	  0.553	 -0.216	 -0.105	 -9.468	  0.003	 -0.001	  0.022	 30.300	 99.394	  0.166
14427	 -0.243	  0.601	  0.556	 -0.273	 -0.083	 -9.495	  0.001	 -0.002	  0.019	 30.300	 99.389	  0.627
14477	 -0.244	  0.613	  0.554	 -0.189	 -0.110	 -9.492	  0.001	 -0.001	  0.014	 30.300	 99.389	  0.627
14527	 -0.242	  0.600	  0.556	 -0.291	 -0.107	 -9.536	  0.001	 -0.000	  0.016	 30.300	 99.389	  0.627
14577	 -0.244	  0.604	  0.554	 -0.214	 -0.133	 -9.497	  0.002	 -0.001	  0.017	 30.300	 99.389	  0.627
14627	 -0.240	  0.595	  0.556	 -0.270	 -0.088	 -9.480	  0.002	 -0.003	  0.020	 30.300	 99.401	 -0.478
14677	 -0.241	  0.606	  0.548	 -0.202	 -0.108	 -9.512	  0.002	 -0.001	  0.022	 30.300	 99.401	 -0.478
14727	 -0.241	  0.603	  0.554	 -0.250	 -0.095	 -9.500	  0.002	 -0.001	  0.022	 30.300	 99.389	  0.627
14777	 -0.242	  0.600	  0.549	 -0.233	 -0.088	 -9.504	  0.001	 -0.002	  0.020	 30.300	 99.394	  0.166
14827	 -0.244	  0.601	  0.552	 -0.246	 -0.116	 -9.491	  0.003	 -0.002	  0.022	 30.300	 99.377	  1.733
14877	 -0.241	  0.599	  0.554	 -0.258	 -0.068	 -9.520	  0.003	  0.000	  0.019	 30.300	 99.389	  0.627
14927	 -0.246	  0.600	  0.554	 -0.204	 -0.115	 -9.515	  0.003	 -0.000	  0.023	 30.300	 99.401	 -0.478
14977	 -0.241	  0.601	  0.550	 -0.273	 -0.104	 -9.515	  0.003	 -0.001	  0.019	 30.300	 99.389	  0.627
15027	 -0.241	  0.600	  0.549	 -0.214	 -0.081	 -9.504	  0.002	 -0.001	  0.024	 30.300	 99.389	  0.627
15077	 -0.241	  0.601	  0.556	 -0.280	 -0.084	 -9.454	  0.003	 -0.000	  0.020	 30.300	 99.389	  0.627
15127	 -0.239	  0.601	  0.556	 -0.228	 -0.082	 -9.517	  0.003	 -0.000	  0.023	 30.300	 99.389	  0.627
15177	 -0.243	  0.608	  0.556	 -0.277	 -0.099	 -9.489	  0.002	 -0.001	  0.017	 30.300	 99.389	  0.627
15227	 -0.243	  0.601	  0.549	 -0.205	 -0.112	 -9.517	  0.003	 -0.001	  0.020	 30.300	 99.401	 -0.478
15277	 -0.244	  0.609	  0.558	 -0.255	 -0.094	 -9.503	  0.001	 -0.000	  0.015	 30.300	 99.401	 -0.478
15327	 -0.241	  0.609	  0.553	 -0.244	 -0.089	 -9.548	  0.002	 -0.000	  0.019	 30.300	 99.401	 -0.478
15377	 -0.242	  0.600	  0.556	 -0.235	 -0.101	 -9.489	  0.003	 -0.001	  0.025	 30.300	 99.401	 -0.478
15427	 -0.240	  0.599	  0.550	 -0.249	 -0.100	 -9.495	  0.002	 -0.002	  0.017	 30.300	 99.389	  0.627
15477	 -0.243	  0.606	  0.548	 -0.218	 -0.119	 -9.490	  0.003	 -0.000	  0.016	 30.300	 99.394	  0.166
15527	 -0.239	  0.614	  0.553	 -0.286	 -0.077	 -9.518	  0.003	 -0.001	  0.017	 30.300	 99.389	  0.627
15577	 -0.243	  0.601	  0.556	 -0.176	 -0.102	 -9.479	  0.002	 -0.002	  0.014	 30.300	 99.389	  0.627
15627	 -0.245	  0.601	  0.553	 -0.275	 -0.083	 -9.504	  0.002	 -0.001	  0.023	 30.300	 99.394	  0.166
15677	 -0.244	  0.605	  0.550	 -0.196	 -0.109	 -9.486	  0.003	 -0.002	  0.017	 30.300	 99.389	  0.627
15727	 -0.243	  0.614	  0.553	 -0.270	 -0.095	 -9.512	  0.003	 -0.002	  0.016	 30.300	 99.389	  0.627
15777	 -0.241	  0.599	  0.554	 -0.218	 -0.110	 -9.478	  0.003	 -0.001	  0.021	 30.300	 99.401	 -0.478
15827	 -0.240	  0.595	  0.547	 -0.264	 -0.104	 -9.486	  0.002	 -0.000	  0.015	 30.300	 99.401	 -0.478
15877	 -0.244	  0.603	  0.554	 -0.246	 -0.105	 -9.483	  0.003	 -0.001	  0.018	 30.300	 99.389	  0.627
15927	 -0.241	  0.601	  0.553	 -0.192	 -0.100	 -9.490	  0.002	 -0.002	  0.015	 30.300	 99.394	  0.166
15977	 -0.246	  0.604	  0.550	 -0.266	 -0.064	 -9.502	  0.002	 -0.001	  0.020	 30.300	 99.394	  0.166
16027	 -0.242	  0.600	  0.557	 -0.185	 -0.113	 -9.499	  0.001	 -0.001	  0.019	 30.300	 99.389	  0.627
16077	 -0.244	  0.603	  0.553	 -0.274	 -0.075	 -9.497	  0.002	 -0.000	  0.016	 30.300	 99.401	 -0.478
16127	 -0.242	  0.598	  0.549	 -0.185	 -0.092	 -9.489	  0.003	 -0.002	  0.022	 30.300	 99.401	 -0.478
16177	 -0.241	  0.598	  0.555	 -0.297	 -0.064	 -9.482	  0.003	 -0.000	  0.020	 30.300	 99.389	  0.627
16227	 -0.244	  0.595	  0.554	 -0.190	 -0.110	 -9.507	  0.002	 -0.001	  0.021	 30.300	 99.394	  0.166
16277	 -0.247	  0.605	  0.550	 -0.288	 -0.092	 -9.514	  0.002	 -0.002	  0.015	 30.300	 99.394	  0.166
16327	 -0.240	  0.598	  0.552	 -0.204	 -0.082	 -9.470	  0.002	 -0.000	  0.021	 30.300	 99.401	 -0.478
16377	 -0.240	  0.610	  0.550	 -0.231	 -0.115	 -9.516	  0.002	 -0.002	  0.024	 30.300	 99.401	 -0.478
16427	 -0.241	  0.613	  0.556	 -0.266	 -0.083	 -9.488	  0.001	 -0.001	  0.016	 30.300	 99.406	 -0.939
16477	 -0.243	  0.608	  0.554	 -0.193	 -0.115	 -9.504	  0.003	 -0.002	  0.023	 30.300	 99.389	  0.627
16527	 -0.244	  0.608	  0.550	 -0.264	 -0.087	 -9.499	  0.003	 -0.001	  0.022	 30.300	 99.389	  0.627
16577	 -0.241	  0.605	  0.552	 -0.181	 -0.127	 -9.508	  0.002	 -0.001	  0.022	 30.300	 99.389	  0.627
16627	 -0.240	  0.600	  0.549	 -0.300	 -0.079	 -9.503	  0.002	  0.000	  0.017	 30.300	 99.389	  0.627
16677	 -0.240	  0.598	  0.553	 -0.190	 -0.101	 -9.501	  0.001	 -0.001	  0.021	 30.300	 99.389	  0.627
19377	 -0.240	  0.595	  0.551	 -0.203	 -0.108	 -9.469	  0.002	 -0.002	  0.019	 30.300	 99.389	  0.459
19427	 -0.245	  0.603	  0.554	 -0.251	 -0.070	 -9.505	  0.003	  0.000	  0.019	 30.300	 99.389	  0.459
19477	 -0.245	  0.599	  0.554	 -0.196	 -0.126	 -9.480	  0.003	 -0.002	  0.019	 30.300	 99.389	  0.459
19527	 -0.245	  0.604	  0.556	 -0.259	 -0.074	 -9.509	  0.002	 -0.001	  0.020	 30.300	 99.394	 -0.002
19577	 -0.241	  0.599	  0.554	 -0.178	 -0.135	 -9.493	  0.002	 -0.000	  0.020	 30.300	 99.401	 -0.648
19627	 -0.242	  0.598	  0.549	 -0.293	 -0.071	 -9.531	  0.001	 -0.000	  0.019	 30.300	 99.389	  0.459
19677	 -0.241	  0.604	  0.554	 -0.184	 -0.120	 -9.525	  0.003	 -0.002	  0.019	 30.300	 99.401	 -0.648
19727	 -0.242	  0.600	  0.557	 -0.294	 -0.075	 -9.499	  0.003	 -0.001	  0.019	 30.300	 99.414	 -1.846
19777	 -0.241	  0.600	  0.541	 -0.178	 -0.088	 -9.491	  0.002	 -0.001	  0.019	 30.300	 99.401	 -0.648
19827	 -0.243	  0.606	  0.554	 -0.256	 -0.093	 -9.509	  0.002	 -0.000	  0.019	 30.300	 99.401	 -0.648
19877	 -0.244	  0.603	  0.545	 -0.208	 -0.109	 -9.468	  0.003	 -0.002	  0.018	 30.300	 99.394	 -0.002
19927	 -0.245	  0.610	  0.554	 -0.237	 -0.097	 -9.529	  0.002	 -0.001	  0.019	 30.300	 99.401	 -0.648
19977	 -0.243	  0.605	  0.549	 -0.249	 -0.080	 -9.500	  0.001	 -0.003	  0.020	 30.300	 99.406	 -1.109
20027	 -0.241	  0.596	  0.552	 -0.192	 -0.096	 -9.511	  0.002	 -0.003	  0.019	 30.300	 99.401	 -0.648
20077	 -0.240	  0.603	  0.552	 -0.281	 -0.082	 -9.507	  0.001	 -0.001	  0.020	 30.300	 99.394	 -0.002
20127	 -0.243	  0.605	  0.556	 -0.184	 -0.115	 -9.526	  0.002	 -0.001	  0.019	 30.300	 99.401	 -0.648
20177	 -0.243	  0.601	  0.553	 -0.296	 -0.071	 -9.498	  0.003	 -0.001	  0.020	 30.300	 99.401	 -0.648
20227	 -0.243	  0.603	  0.554	 -0.202	 -0.088	 -9.483	  0.003	 -0.002	  0.019	 30.300	 99.401	 -0.648
20277	 -0.241	  0.600	  0.554	 -0.301	 -0.081	 -9.507	  0.002	  0.001	  0.020	 30.300	 99.401	 -0.648
20327	 -0.242	  0.600	  0.556	 -0.189	 -0.098	 -9.432	  0.003	 -0.001	  0.020	 30.300	 99.401	 -0.648
20377	 -0.242	  0.601	  0.558	 -0.261	 -0.090	 -9.479	  0.002	 -0.003	  0.020	 30.300	 99.389	  0.459
20427	 -0.241	  0.599	  0.549	 -0.248	 -0.071	 -9.507	  0.002	 -0.001	  0.018	 30.300	 99.401	 -0.648
20477	 -0.242	  0.599	  0.558	 -0.226	 -0.108	 -9.504	  0.001	  0.000	  0.019	 30.300	 99.394	 -0.002
20527	 -0.241	  0.599	  0.553	 -0.282	 -0.073	 -9.487	  0.002	 -0.002	  0.019	 30.300	 99.394	 -0.002
20577	 -0.243	  0.603	  0.553	 -0.208	 -0.118	 -9.478	  0.002	 -0.001	  0.019	 30.300	 99.406	 -1.109
20627	 -0.244	  0.601	  0.554	 -0.276	 -0.067	 -9.510	  0.002	 -0.001	  0.019	 30.300	 99.394	 -0.002
20677	 -0.242	  0.599	  0.553	 -0.204	 -0.110	 -9.491	  0.002	 -0.001	  0.019	 30.300	 99.394	 -0.002
20727	 -0.242	  0.596	  0.550	 -0.291	 -0.080	 -9.495	  0.001	 -0.001	  0.019	 30.300	 99.401	 -0.648
20777	 -0.244	  0.609	  0.554	 -0.191	 -0.095	 -9.472	  0.001	 -0.001	  0.019	 30.300	 99.406	 -1.109
20827	 -0.241	  0.598	  0.553	 -0.270	 -0.089	 -9.504	  0.002	 -0.001	  0.019	 30.300	 99.394	 -0.002
20877	 -0.240	  0.600	  0.557	 -0.213	 -0.079	 -9.490	  0.001	 -0.002	  0.020	 30.300	 99.389	  0.459
20927	 -0.241	  0.604	  0.552	 -0.243	 -0.121	 -9.504	  0.003	 -0.001	  0.019	 30.300	 99.389	  0.459
20977	 -0.245	  0.605	  0.554	 -0.210	 -0.077	 -9.484	  0.003	  0.000	  0.020	 30.300	 99.389	  0.459
21027	 -0.242	  0.598	  0.550	 -0.199	  0.181	 -9.298	  0.009	 -0.002	  0.021	 30.300	 99.394	 -0.002
21077	 -0.239	  0.601	  0.548	  0.939	 -1.860	 -9.455	  0.015	 -0.001	 -0.105	 30.300	 99.401	 -0.648
21127	 -0.266	  0.594	  0.554	 -0.464	  0.383	 -9.363	 -0.138	 -0.025	 -1.263	 30.300	 99.389	  0.459
21177	 -0.278	  0.587	  0.549	 -1.198	  2.082	 -9.102	  0.355	  0.079	  0.029	 30.300	 99.389	  0.459
21227	 -0.270	  0.602	  0.537	  0.405	 -0.545	 -9.119	 -0.112	 -0.097	  1.040	 30.300	 99.401	 -0.648
21277	 -0.259	  0.606	  0.544	  0.152	 -0.446	 -9.512	 -0.187	 -0.074	  0.026	 30.300	 99.394	 -0.002
21327	 -0.266	  0.587	  0.546	  0.296	 -2.962	 -10.214	  0.131	  0.051	 -1.599	 30.300	 99.389	  0.459
21377	 -0.288	  0.585	  0.546	 -0.927	  2.435	 -8.809	  0.265	  0.054	  0.020	 30.300	 99.389	  0.459
21427	 -0.282	  0.595	  0.544	 -1.352	  2.023	 -9.696	 -0.129	 -0.019	  1.098	 30.300	 99.389	  0.459
21477	 -0.275	  0.605	  0.541	  0.019	 -0.821	 -9.605	 -0.171	 -0.068	  0.021	 30.300	 99.401	 -0.648
21527	 -0.281	  0.583	  0.551	 -0.090	 -2.270	 -10.547	  0.103	  0.037	 -1.358	 30.300	 99.401	 -0.648
21577	 -0.288	  0.586	  0.548	 -0.792	  1.117	 -9.278	  0.365	  0.141	  0.097	 30.300	 99.389	  0.459
21627	 -0.273	  0.601	  0.545	  1.469	 -4.725	 -10.025	  0.110	  0.093	  1.527	 30.300	 99.389	  0.459
21677	 -0.256	  0.603	  0.549	 -0.048	 -0.803	 -9.664	 -0.199	 -0.082	  0.025	 30.300	 99.394	 -0.002
21727	 -0.273	  0.587	  0.547	  1.980	 -3.329	 -10.055	  0.117	  0.031	 -2.068	 30.300	 99.389	  0.459
21777	 -0.298	  0.573	  0.553	 -1.752	  4.391	 -8.354	  0.338	  0.076	  0.027	 30.300	 99.394	 -0.002
21827	 -0.283	  0.590	  0.544	 -0.662	  3.305	 -8.778	  0.033	  0.035	  1.994	 30.300	 99.406	 -1.109
21877	 -0.252	  0.609	  0.549	  1.484	 -3.367	 -9.562	 -0.201	 -0.118	  0.009	 30.300	 99.389	  0.459
21927	 -0.259	  0.596	  0.557	  6.097	 -2.679	 -8.435	  0.346	  0.068	 -1.826	 30.300	 99.401	 -0.648
21977	 -0.296	  0.567	  0.550	 -8.322	 10.655	 -7.676	 -0.231	  0.002	 -0.655	 30.300	 99.401	 -0.648
22027	 -0.295	  0.582	  0.545	 -1.635	 -0.645	 -9.717	 -0.231	 -0.146	  1.689	 30.300	 99.389	  0.459
22077	 -0.251	  0.608	  0.549	  4.402	 -6.958	 -9.378	 -0.203	 -0.143	  1.267	 30.300	 99.389	  0.459
22127	 -0.246	  0.600	  0.550	  1.115	 -2.115	 -9.535	 -0.415	 -0.164	 -0.034	 30.300	 99.394	 -0.002
22176	 -0.289	  0.588	  0.548	 -2.777	 -0.719	 -9.863	  0.036	 -0.026	 -2.877	 30.300	 99.406	 -1.109
22226	 -0.308	  0.563	  0.552	 -3.279	  3.944	 -9.939	  0.652	  0.191	  0.249	 30.300	 99.389	  0.459
22276	 -0.286	  0.588	  0.538	  4.113	 -4.305	 -10.454	  0.198	  0.134	  1.380	 30.300	 99.401	 -0.648
22326	 -0.277	  0.589	  0.549	  0.095	 -0.924	 -9.617	 -0.068	 -0.028	  0.020	 30.300	 99.406	 -1.109
22378	 -0.274	  0.578	  0.550	  2.302	  0.755	 -7.936	 -0.100	 -0.023	 -0.575	 30.300	 99.401	 -0.648
22427	 -0.284	  0.573	  0.553	 -0.472	  1.110	 -9.129	  0.095	  0.020	  0.019	 30.300	 99.401	 -0.648
22477	 -0.284	  0.580	  0.551	 -0.520	  0.661	 -9.344	  0.047	  0.014	  0.018	 30.300	 99.394	 -0.002
22527	 -0.288	  0.582	  0.553	 -0.190	 -0.423	 -9.595	 -0.023	 -0.009	  0.020	 30.300	 99.394	 -0.002
22576	 -0.286	  0.573	  0.555	 -0.303	 -0.064	 -9.535	 -0.107	 -0.020	  0.023	 30.300	 99.389	  0.459
22626	 -0.286	  0.573	  0.549	 -0.106	 -0.675	 -9.678	 -0.011	 -0.004	  0.019	 30.300	 99.389	  0.459
22677	 -0.286	  0.570	  0.556	 -0.200	 -0.421	 -9.661	  0.009	  0.001	  0.019	 30.300	 99.389	  0.459
22727	 -0.286	  0.573	  0.553	 -0.185	 -0.484	 -9.616	 -0.024	 -0.005	  0.018	 30.300	 99.401	 -0.648
22777	 -0.286	  0.576	  0.553	 -0.178	 -0.194	 -9.561	 -0.007	 -0.000	  0.019	 30.300	 99.389	  0.459
22827	 -0.286	  0.575	  0.555	 -0.273	 -0.017	 -9.410	  0.002	 -0.000	  0.020	 30.300	 99.389	  0.459
22877	 -0.282	  0.571	  0.555	 -0.192	 -0.202	 -9.559	  0.003	 -0.002	  0.020	 30.300	 99.401	 -0.648
22927	 -0.286	  0.580	  0.553	 -0.249	 -0.112	 -9.475	 -0.001	 -0.002	  0.019	 30.300	 99.401	 -0.648
22977	 -0.287	  0.578	  0.553	 -0.209	 -0.100	 -9.492	  0.005	 -0.000	  0.019	 30.300	 99.389	  0.459
23027	 -0.286	  0.575	  0.552	 -0.229	 -0.163	 -9.521	  0.001	 -0.002	  0.020	 30.300	 99.389	  0.459
23077	 -0.287	  0.582	  0.556	 -0.240	 -0.077	 -9.516	  0.002	 -0.000	  0.019	 30.300	 99.401	 -0.648
23127	 -0.287	  0.577	  0.544	 -0.194	 -0.151	 -9.504	  0.003	 -0.001	  0.019	 30.300	 99.389	  0.459
23178	 -0.287	  0.575	  0.556	 -0.292	 -0.121	 -9.526	  0.002	 -0.001	  0.020	 30.300	 99.406	 -1.109
23228	 -0.286	  0.577	  0.553	 -0.169	 -0.130	 -9.441	  0.001	 -0.001	  0.020	 30.300	 99.389	  0.459
23278	 -0.289	  0.575	  0.548	 -0.286	 -0.124	 -9.504	  0.002	 -0.002	  0.018	 30.300	 99.406	 -1.109
23328	 -0.284	  0.578	  0.552	 -0.201	 -0.111	 -9.488	  0.001	 -0.001	  0.017	 30.300	 99.389	  0.459
23378	 -0.287	  0.577	  0.557	 -0.259	 -0.134	 -9.501	  0.002	 -0.002	  0.019	 30.300	 99.401	 -0.648
23428	 -0.283	  0.573	  0.548	 -0.206	 -0.100	 -9.450	  0.002	 -0.002	  0.020	 30.300	 99.389	  0.459
23478	 -0.282	  0.572	  0.555	 -0.223	 -0.124	 -9.509	  0.001	 -0.001	  0.018	 30.300	 99.389	  0.459
23528	 -0.283	  0.573	  0.545	 -0.253	 -0.120	 -9.543	  0.001	 -0.001	  0.019	 30.300	 99.389	  0.459
23578	 -0.284	  0.572	  0.547	 -0.205	 -0.143	 -9.501	  0.002	 -0.002	  0.018	 30.300	 99.401	 -0.648
23628	 -0.284	  0.572	  0.553	 -0.268	 -0.076	 -9.497	  0.003	  0.001	  0.017	 30.300	 99.389	  0.459
23678	 -0.286	  0.571	  0.551	 -0.179	 -0.107	 -9.439	  0.003	 -0.000	  0.019	 30.300	 99.394	 -0.002
23728	 -0.287	  0.576	  0.555	 -0.281	 -0.102	 -9.485	  0.002	 -0.001	  0.017	 30.300	 99.401	 -0.648
23778	 -0.287	  0.573	  0.552	 -0.166	 -0.164	 -9.495	  0.001	 -0.001	  0.017	 30.300	 99.389	  0.459
23828	 -0.286	  0.576	  0.549	 -0.293	 -0.085	 -9.465	  0.002	  0.000	  0.019	 30.300	 99.401	 -0.648
23878	 -0.287	  0.576	  0.553	 -0.215	 -0.154	 -9.511	  0.002	 -0.001	  0.018	 30.300	 99.389	  0.459
23928	 -0.288	  0.576	  0.551	 -0.262	 -0.121	 -9.496	 -0.001	 -0.000	  0.019	 30.300	 99.389	  0.459
23978	 -0.287	  0.573	  0.552	 -0.241	 -0.203	 -9.571	 -0.011	 -0.001	  0.021	 30.300	 99.389	  0.459
24028	 -0.286	  0.577	  0.555	 -0.239	 -0.316	 -9.580	 -0.097	  0.004	  0.021	 30.300	 99.389	  0.459
24078	 -0.287	  0.569	  0.548	 -0.321	 -0.404	 -9.634	 -0.004	 -0.002	  0.020	 30.300	 99.389	  0.459
24128	 -0.288	  0.569	  0.547	 -0.209	 -0.122	 -9.499	 -0.001	 -0.001	  0.018	 30.300	 99.389	  0.459
24178	 -0.284	  0.570	  0.554	 -0.290	 -0.040	 -9.490	  0.002	  0.000	  0.022	 30.300	 99.397	 -0.280
24228	 -0.287	  0.571	  0.553	 -0.165	 -0.128	 -9.501	  0.004	 -0.001	  0.020	 30.300	 99.401	 -0.648
24278	 -0.286	  0.570	  0.553	 -0.288	 -0.064	 -9.518	  0.002	 -0.001	  0.020	 30.300	 99.389	  0.459
24328	 -0.286	  0.571	  0.553	 -0.162	 -0.093	 -9.497	  0.003	 -0.000	  0.020	 30.300	 99.418	 -2.215
24378	 -0.284	  0.568	  0.550	 -0.253	 -0.097	 -9.488	  0.002	 -0.001	  0.020	 30.300	 99.389	  0.459
24428	 -0.287	  0.572	  0.548	 -0.201	 -0.092	 -9.505	  0.002	 -0.002	  0.021	 30.300	 99.401	 -0.648
24478	 -0.286	  0.578	  0.552	 -0.220	 -0.076	 -9.489	  0.001	 -0.001	  0.018	 30.300	 99.401	 -0.648
24527	 -0.287	  0.581	  0.552	 -0.236	 -0.107	 -9.553	  0.002	 -0.001	  0.018	 30.300	 99.389	  0.459
24577	 -0.287	  0.577	  0.551	 -0.209	 -0.096	 -9.518	  0.001	 -0.000	  0.018	 30.300	 99.377	  1.565
24627	 -0.288	  0.569	  0.549	 -0.267	 -0.083	 -9.485	  0.003	 -0.001	  0.019	 30.300	 99.389	  0.459
24677	 -0.286	  0.575	  0.549	 -0.193	 -0.121	 -9.501	  0.001	 -0.000	  0.018	 30.300	 99.406	 -1.109
24727	 -0.286	  0.571	  0.552	 -0.290	 -0.075	 -9.516	  0.003	  0.000	  0.021	 30.300	 99.401	 -0.648
24777	 -0.286	  0.580	  0.551	 -0.163	 -0.092	 -9.471	  0.002	 -0.003	  0.019	 30.300	 99.389	  0.459
24827	 -0.286	  0.572	  0.549	 -0.280	 -0.071	 -9.444	  0.001	 -0.002	  0.020	 30.300	 99.401	 -0.648
24877	 -0.286	  0.577	  0.553	 -0.195	 -0.121	 -9.475	  0.002	 -0.001	  0.016	 30.300	 99.389	  0.459
24927	 -0.284	  0.568	  0.551	 -0.263	 -0.099	 -9.483	  0.002	 -0.001	  0.018	 30.300	 99.401	 -0.648
24977	 -0.286	  0.572	  0.552	 -0.198	 -0.096	 -9.475	  0.002	 -0.000	  0.022	 30.300	 99.401	 -0.648
25027	 -0.288	  0.572	  0.552	 -0.217	 -0.116	 -9.465	  0.002	 -0.001	  0.020	 30.300	 99.389	  0.459
25077	 -0.288	  0.571	  0.547	 -0.266	 -0.076	 -9.466	  0.002	 -0.002	  0.015	 30.300	 99.389	  0.459
25127	 -0.287	  0.576	  0.555	 -0.210	 -0.088	 -9.519	  0.001	 -0.002	  0.022	 30.300	 99.389	  0.459
25177	 -0.287	  0.578	  0.551	 -0.277	 -0.092	 -9.503	  0.001	 -0.000	  0.021	 30.300	 99.394	 -0.002
25227	 -0.288	  0.572	  0.552	 -0.189	 -0.104	 -9.493	  0.001	 -0.001	  0.018	 30.300	 99.389	  0.459
25278	 -0.287	  0.571	  0.548	 -0.287	 -0.102	 -9.520	  0.000	 -0.002	  0.019	 30.300	 99.401	 -0.648
25327	 -0.290	  0.577	  0.553	 -0.184	 -0.113	 -9.504	  0.003	 -0.001	  0.021	 30.300	 99.389	  0.459
25377	 -0.286	  0.573	  0.551	 -0.259	 -0.074	 -9.523	  0.001	 -0.001	  0.018	 30.300	 99.401	 -0.648
25427	 -0.286	  0.569	  0.551	 -0.206	 -0.093	 -9.467	  0.001	 -0.001	  0.021	 30.300	 99.389	  0.459
25477	 -0.284	  0.580	  0.549	 -0.236	 -0.086	 -9.495	  0.003	 -0.001	  0.019	 30.300	 99.394	 -0.002
25527	 -0.287	  0.575	  0.551	 -0.220	 -0.094	 -9.498	  0.001	 -0.001	  0.020	 30.300	 99.401	 -0.648
25577	 -0.289	  0.576	  0.552	 -0.224	 -0.086	 -9.461	  0.003	 -0.001	  0.021	 30.300	 99.389	  0.459
25627	 -0.288	  0.571	  0.549	 -0.261	 -0.077	 -9.552	  0.001	 -0.003	  0.018	 30.300	 99.389	  0.459
25677	 -0.286	  0.571	  0.553	 -0.203	 -0.102	 -9.470	  0.004	 -0.001	  0.022	 30.300	 99.401	 -0.648
25727	 -0.288	  0.575	  0.547	 -0.265	 -0.086	 -9.484	  0.002	 -0.002	  0.018	 30.300	 99.389	  0.459
25777	 -0.287	  0.577	  0.549	 -0.168	 -0.111	 -9.517	  0.002	 -0.000	  0.021	 30.300	 99.401	 -0.648
25827	 -0.284	  0.575	  0.551	 -0.276	 -0.083	 -9.490	  0.003	 -0.002	  0.019	 30.300	 99.389	  0.459
25877	 -0.287	  0.578	  0.551	 -0.196	 -0.090	 -9.528	  0.003	 -0.001	  0.021	 30.300	 99.394	 -0.002
25927	 -0.287	  0.578	  0.548	 -0.255	 -0.081	 -9.484	  0.002	 -0.001	  0.021	 30.300	 99.414	 -1.846
25977	 -0.288	  0.571	  0.555	 -0.226	 -0.110	 -9.519	  0.004	 -0.001	  0.021	 30.300	 99.389	  0.459
26027	 -0.288	  0.572	  0.548	 -0.266	 -0.102	 -9.482	  0.002	 -0.000	  0.019	 30.300	 99.394	 -0.002
26077	 -0.284	  0.572	  0.553	 -0.240	 -0.092	 -9.524	  0.003	 -0.001	  0.019	 30.300	 99.389	  0.459
26127	 -0.284	  0.573	  0.549	 -0.204	 -0.108	 -9.483	  0.002	 -0.002	  0.019	 30.300	 99.389	  0.459
26177	 -0.287	  0.581	  0.550	 -0.250	 -0.070	 -9.481	  0.002	 -0.002	  0.018	 30.300	 99.401	 -0.648
26227	 -0.289	  0.572	  0.549	 -0.205	 -0.113	 -9.483	  0.002	 -0.001	  0.019	 30.300	 99.401	 -0.648
26277	 -0.288	  0.568	  0.553	 -0.278	 -0.073	 -9.477	  0.002	 -0.002	  0.021	 30.300	 99.406	 -1.109
26327	 -0.283	  0.566	  0.555	 -0.195	 -0.110	 -9.519	  0.001	 -0.002	  0.020	 30.300	 99.389	  0.459
26377	 -0.287	  0.573	  0.547	 -0.271	 -0.098	 -9.515	  0.002	 -0.001	  0.018	 30.300	 99.401	 -0.648
26427	 -0.287	  0.571	  0.552	 -0.186	 -0.090	 -9.524	  0.001	 -0.001	  0.020	 30.300	 99.377	  1.565
26477	 -0.289	  0.575	  0.552	 -0.263	 -0.099	 -9.513	  0.002	 -0.000	  0.020	 30.300	 99.401	 -0.648
26527	 -0.288	  0.572	  0.547	 -0.215	 -0.089	 -9.525	  0.001	 -0.001	  0.020	 30.300	 99.389	  0.459
26577	 -0.287	  0.576	  0.551	 -0.225	 -0.101	 -9.498	  0.002	 -0.001	  0.019	 30.300	 99.377	  1.565
26627	 -0.284	  0.581	  0.551	 -0.244	 -0.097	 -9.520	  0.001	 -0.000	  0.020	 30.300	 99.389	  0.459
26677	 -0.288	  0.573	  0.548	 -0.196	 -0.121	 -9.544	  0.002	 -0.001	  0.019	 30.300	 99.389	  0.459
26727	 -0.288	  0.571	  0.545	 -0.277	 -0.085	 -9.527	  0.003	 -0.001	  0.020	 30.300	 99.406	 -1.109
26777	 -0.284	  0.577	  0.552	 -0.173	 -0.122	 -9.499	  0.002	 -0.001	  0.019	 30.300	 99.401	 -0.648
26827	 -0.287	  0.572	  0.549	 -0.277	 -0.074	 -9.507	  0.003	 -0.001	  0.019	 30.300	 99.401	 -0.648
26877	 -0.287	  0.576	  0.556	 -0.180	 -0.110	 -9.503	  0.001	 -0.000	  0.019	 30.300	 99.401	 -0.648
26927	 -0.289	  0.575	  0.549	 -0.265	 -0.083	 -9.501	  0.002	 -0.002	  0.019	 30.300	 99.389	  0.459
26977	 -0.287	  0.575	  0.552	 -0.210	 -0.126	 -9.486	  0.001	 -0.001	  0.021	 30.300	 99.414	 -1.846
27027	 -0.287	  0.569	  0.551	 -0.238	 -0.107	 -9.518	  0.002	 -0.001	  0.020	 30.300	 99.394	 -0.002
27077	 -0.286	  0.572	  0.547	 -0.236	 -0.089	 -9.526	  0.001	  0.000	  0.018	 30.300	 99.389	  0.459
27127	 -0.288	  0.575	  0.552	 -0.220	 -0.093	 -9.521	  0.002	 -0.001	  0.020	 30.300	 99.389	  0.459
27177	 -0.286	  0.586	  0.549	 -0.247	 -0.064	 -9.542	  0.002	 -0.001	  0.017	 30.300	 99.401	 -0.648
27227	 -0.289	  0.582	  0.550	 -0.213	 -0.132	 -9.485	  0.003	 -0.001	  0.018	 30.300	 99.401	 -0.648
27277	 -0.286	  0.572	  0.553	 -0.285	 -0.081	 -9.504	  0.003	 -0.002	  0.018	 30.300	 99.389	  0.459
27327	 -0.288	  0.575	  0.553	 -0.175	 -0.085	 -9.525	  0.002	 -0.001	  0.019	 30.300	 99.389	  0.459
27377	 -0.289	  0.573	  0.553	 -0.271	 -0.105	 -9.533	  0.003	 -0.001	  0.019	 30.300	 99.389	  0.459
27427	 -0.286	  0.575	  0.549	 -0.191	 -0.098	 -9.513	  0.007	 -0.001	  0.019	 30.300	 99.389	  0.459
27477	 -0.284	  0.578	  0.552	 -0.261	 -0.116	 -9.560	  0.001	 -0.001	  0.018	 30.300	 99.389	  0.459
27527	 -0.288	  0.577	  0.555	 -0.182	 -0.094	 -9.521	 -0.006	 -0.000	  0.019	 30.300	 99.401	 -0.648
27578	 -0.286	  0.569	  0.552	 -0.245	 -0.135	 -9.500	 -0.004	 -0.002	  0.020	 30.300	 99.401	 -0.648
27627	 -0.284	  0.580	  0.552	 -0.257	 -0.133	 -9.539	  0.003	 -0.001	  0.018	 30.300	 99.401	 -0.648
27677	 -0.286	  0.573	  0.536	 -0.189	 -0.142	 -9.587	  0.001	 -0.000	  0.020	 30.300	 99.401	 -0.648
27727	 -0.287	  0.576	  0.552	 -0.294	 -0.057	 -9.472	  0.002	 -0.001	  0.020	 30.300	 99.401	 -0.648
27777	 -0.287	  0.581	  0.549	 -0.189	 -0.131	 -9.522	  0.002	 -0.001	  0.018	 30.300	 99.389	  0.459
27827	 -0.286	  0.573	  0.551	 -0.280	 -0.075	 -9.479	  0.002	 -0.001	  0.019	 30.300	 99.401	 -0.648
27877	 -0.287	  0.571	  0.551	 -0.178	 -0.089	 -9.490	  0.002	 -0.001	  0.018	 30.300	 99.389	  0.459
27927	 -0.288	  0.575	  0.548	 -0.261	 -0.099	 -9.506	  0.002	 -0.000	  0.019	 30.300	 99.401	 -0.648
27977	 -0.288	  0.574	  0.543	 -0.211	 -0.074	 -9.489	  0.003	 -0.002	  0.019	 30.300	 99.406	 -1.109
28027	 -0.287	  0.572	  0.548	 -0.258	 -0.098	 -9.506	  0.003	 -0.001	  0.019	 30.300	 99.389	  0.459
28077	 -0.286	  0.575	  0.552	 -0.217	 -0.085	 -9.519	  0.003	 -0.002	  0.019	 30.300	 99.389	  0.459
28128	 -0.284	  0.572	  0.551	 -0.232	 -0.117	 -9.482	  0.002	 -0.002	  0.019	 30.300	 99.389	  0.459
28177	 -0.286	  0.580	  0.556	 -0.247	 -0.068	 -9.509	  0.003	 -0.001	  0.020	 30.300	 99.389	  0.459
28228	 -0.288	  0.572	  0.551	 -0.187	 -0.114	 -9.511	  0.002	 -0.001	  0.018	 30.300	 99.401	 -0.648
28278	 -0.288	  0.572	  0.549	 -0.294	 -0.095	 -9.515	  0.003	 -0.001	  0.018	 30.300	 99.401	 -0.648
28328	 -0.284	  0.571	  0.540	 -0.186	 -0.106	 -9.525	  0.002	 -0.001	  0.019	 30.300	 99.389	  0.459
28378	 -0.283	  0.577	  0.549	 -0.288	 -0.096	 -9.487	  0.003	 -0.001	  0.019	 30.300	 99.401	 -0.648
28428	 -0.288	  0.572	  0.553	 -0.201	 -0.095	 -9.532	  0.002	 -0.001	  0.019	 30.300	 99.401	 -0.648
28478	 -0.284	  0.573	  0.551	 -0.253	 -0.062	 -9.511	  0.002	 -0.002	  0.018	 30.300	 99.401	 -0.648
28528	 -0.286	  0.572	  0.552	 -0.213	 -0.087	 -9.555	  0.002	 -0.001	  0.019	 30.300	 99.394	 -0.002
28578	 -0.286	  0.576	  0.549	 -0.248	 -0.095	 -9.522	  0.002	 -0.002	  0.019	 30.300	 99.401	 -0.648
28628	 -0.286	  0.581	  0.549	 -0.233	 -0.081	 -9.528	  0.002	 -0.001	  0.019	 30.300	 99.401	 -0.648
28678	 -0.288	  0.576	  0.552	 -0.207	 -0.121	 -9.470	  0.000	 -0.001	  0.018	 30.300	 99.406	 -1.109
28728	 -0.282	  0.570	  0.554	 -0.270	 -0.062	 -9.522	  0.002	 -0.002	  0.018	 30.300	 99.401	 -0.648
28778	 -0.288	  0.573	  0.549	 -0.178	 -0.091	 -9.494	  0.003	 -0.001	  0.021	 30.300	 99.377	  1.565
28828	 -0.284	  0.569	  0.549	 -0.269	 -0.060	 -9.491	  0.003	 -0.001	  0.019	 30.300	 99.401	 -0.648
28878	 -0.287	  0.581	  0.550	 -0.176	 -0.121	 -9.514	  0.002	 -0.001	  0.020	 30.300	 99.401	 -0.648
28928	 -0.288	  0.572	  0.555	 -0.270	 -0.082	 -9.533	  0.003	 -0.000	  0.018	 30.300	 99.401	 -0.648
28978	 -0.284	  0.569	  0.547	 -0.192	 -0.105	 -9.487	  0.003	 -0.001	  0.017	 30.300	 99.394	 -0.002
29028	 -0.283	  0.572	  0.552	 -0.274	 -0.114	 -9.479	  0.002	 -0.002	  0.022	 30.300	 99.389	  0.459
29078	 -0.284	  0.576	  0.551	 -0.211	 -0.122	 -9.485	  0.002	 -0.003	  0.018	 30.300	 99.389	  0.459
29128	 -0.288	  0.573	  0.549	 -0.247	 -0.096	 -9.487	  0.002	 -0.000	  0.017	 30.300	 99.401	 -0.648
29178	 -0.287	  0.582	  0.553	 -0.277	 -0.070	 -9.511	  0.002	 -0.002	  0.021	 30.300	 99.401	 -0.648
29228	 -0.286	  0.571	  0.553	 -0.178	 -0.097	 -9.487	  0.003	 -0.001	  0.019	 30.300	 99.389	  0.459
29278	 -0.287	  0.575	  0.552	 -0.281	 -0.075	 -9.507	  0.002	  0.000	  0.019	 30.300	 99.377	  1.565
29328	 -0.288	  0.582	  0.550	 -0.187	 -0.130	 -9.518	  0.002	 -0.002	  0.019	 30.300	 99.401	 -0.648
29378	 -0.284	  0.576	  0.552	 -0.274	 -0.079	 -9.464	  0.001	 -0.002	  0.019	 30.300	 99.389	  0.459
29428	 -0.286	  0.580	  0.551	 -0.198	 -0.108	 -9.526	  0.002	 -0.001	  0.021	 30.300	 99.401	 -0.648
29478	 -0.286	  0.571	  0.555	 -0.266	 -0.084	 -9.483	  0.003	 -0.001	  0.017	 30.300	 99.389	  0.459
29528	 -0.283	  0.567	  0.548	 -0.206	 -0.076	 -9.499	  0.002	 -0.001	  0.016	 30.300	 99.389	  0.459
29578	 -0.285	  0.568	  0.556	 -0.249	 -0.092	 -9.512	  0.003	 -0.001	  0.018	 30.300	 99.397	 -0.280
29628	 -0.283	  0.571	  0.547	 -0.265	 -0.081	 -9.498	  0.002	 -0.000	  0.019	 30.300	 99.401	 -0.648
29678	 -0.283	  0.573	  0.553	 -0.209	 -0.117	 -9.479	  0.003	 -0.001	  0.021	 30.300	 99.394	 -0.002
29728	 -0.288	  0.576	  0.553	 -0.267	 -0.091	 -9.515	  0.002	 -0.001	  0.016	 30.300	 99.406	 -1.109
29778	 -0.289	  0.576	  0.549	 -0.178	 -0.132	 -9.507	  0.003	 -0.001	  0.021	 30.300	 99.389	  0.459
29827	 -0.286	  0.571	  0.552	 -0.271	 -0.092	 -9.493	  0.002	 -0.002	  0.018	 30.300	 99.401	 -0.648
29877	 -0.286	  0.573	  0.553	 -0.201	 -0.140	 -9.486	 -0.000	 -0.001	  0.019	 30.300	 99.406	 -1.109
29927	 -0.286	  0.576	  0.551	 -0.275	 -0.086	 -9.525	  0.002	 -0.001	  0.019	 30.300	 99.401	 -0.648
29977	 -0.286	  0.571	  0.556	 -0.188	 -0.108	 -9.480	 -0.000	  0.001	  0.020	 30.300	 99.414	 -1.846
30027	 -0.288	  0.575	  0.552	 -0.244	 -0.129	 -9.495	  0.004	 -0.003	  0.019	 30.300	 99.401	 -0.648
30077	 -0.284	  0.572	  0.540	 -0.206	 -0.058	 -9.485	  0.004	 -0.001	  0.019	 30.300	 99.394	 -0.002
30127	 -0.284	  0.581	  0.549	 -0.201	 -0.113	 -9.528	  0.002	  0.002	  0.019	 30.300	 99.401	 -0.648
30177	 -0.286	  0.569	  0.548	 -0.236	 -0.091	 -9.517	  0.001	 -0.001	  0.020	 30.300	 99.401	 -0.648
30227	 -0.287	  0.583	  0.553	 -0.188	 -0.160	 -9.509	  0.002	 -0.001	  0.018	 30.300	 99.389	  0.459
30277	 -0.288	  0.572	  0.551	 -0.278	 -0.052	 -9.430	  0.003	 -0.001	  0.020	 30.300	 99.401	 -0.648
30327	 -0.286	  0.586	  0.546	 -0.168	 -0.067	 -9.488	  0.004	 -0.002	  0.018	 30.300	 99.389	  0.459
30377	 -0.288	  0.572	  0.552	 -0.273	 -0.103	 -9.521	  0.002	 -0.003	  0.019	 30.300	 99.389	  0.459
30427	 -0.286	  0.573	  0.543	 -0.168	 -0.097	 -9.497	  0.003	 -0.002	  0.018	 30.300	 99.406	 -1.109
30477	 -0.287	  0.575	  0.551	 -0.219	 -0.081	 -9.497	  0.003	 -0.003	  0.020	 30.300	 99.401	 -0.648
30527	 -0.289	  0.575	  0.552	 -0.072	  0.193	 -9.255	  0.090	 -0.000	  0.005	 30.300	 99.389	  0.459
30577	 -0.292	  0.575	  0.549	 -0.326	 -0.548	 -9.763	  0.151	  0.039	 -0.376	 30.300	 99.406	 -1.109
30627	 -0.308	  0.568	  0.549	 -0.019	 -0.342	 -9.391	  0.175	  0.064	 -0.571	 30.300	 99.389	  0.459
30677	 -0.331	  0.559	  0.541	  0.121	 -0.578	 -9.367	  0.023	 -0.005	 -0.906	 30.300	 99.389	  0.459
30727	 -0.352	  0.536	  0.550	 -0.470	  0.707	 -9.429	 -0.215	 -0.091	 -0.869	 30.300	 99.389	  0.459
30777	 -0.362	  0.522	  0.558	 -0.114	 -0.783	 -9.518	  0.071	  0.020	 -0.033	 30.300	 99.389	  0.459
30827	 -0.363	  0.524	  0.554	 -0.145	 -0.736	 -9.713	 -0.074	 -0.019	  0.024	 30.300	 99.406	 -1.109
30877	 -0.363	  0.522	  0.562	 -0.633	  2.778	 -7.733	  0.038	  0.011	  0.015	 30.300	 99.389	  0.459
30927	 -0.362	  0.522	  0.554	 -0.410	  0.047	 -9.511	 -0.001	  0.003	  0.022	 30.300	 99.406	 -1.109
30977	 -0.360	  0.522	  0.553	 -0.199	  0.162	 -9.356	  0.093	 -0.002	  0.016	 30.300	 99.389	  0.459
31027	 -0.361	  0.525	  0.554	 -0.320	 -0.759	 -9.788	 -0.126	  0.001	  0.024	 30.300	 99.389	  0.459
31077	 -0.360	  0.522	  0.558	 -0.078	 -0.427	 -9.585	  0.004	 -0.002	  0.020	 30.300	 99.406	 -1.109
31127	 -0.360	  0.524	  0.554	 -0.241	 -0.132	 -9.523	  0.002	 -0.001	  0.019	 30.300	 99.389	  0.459
31177	 -0.356	  0.527	  0.557	 -0.232	 -0.019	 -9.464	  0.000	 -0.002	  0.021	 30.300	 99.389	  0.459
31227	 -0.359	  0.527	  0.558	 -0.201	 -0.101	 -9.485	  0.002	 -0.003	  0.018	 30.300	 99.406	 -1.109
31277	 -0.359	  0.521	  0.556	 -0.277	 -0.092	 -9.530	  0.002	 -0.002	  0.018	 30.300	 99.389	  0.459
31327	 -0.357	  0.529	  0.556	 -0.167	 -0.101	 -9.477	  0.002	 -0.001	  0.019	 30.300	 99.389	  0.459
31377	 -0.358	  0.536	  0.554	 -0.278	 -0.084	 -9.520	  0.003	 -0.002	  0.019	 30.300	 99.389	  0.459
31427	 -0.356	  0.525	  0.556	 -0.216	 -0.107	 -9.530	  0.001	 -0.001	  0.019	 30.300	 99.406	 -1.109
31477	 -0.357	  0.525	  0.556	 -0.278	 -0.077	 -9.536	  0.003	 -0.001	  0.020	 30.300	 99.401	 -0.648
31527	 -0.355	  0.524	  0.559	 -0.192	 -0.100	 -9.496	  0.004	 -0.001	  0.019	 30.300	 99.389	  0.459
31577	 -0.360	  0.525	  0.553	 -0.254	 -0.096	 -9.494	  0.002	 -0.002	  0.018	 30.300	 99.389	  0.459
31627	 -0.361	  0.525	  0.553	 -0.176	 -0.076	 -9.491	  0.002	 -0.000	  0.020	 30.300	 99.389	  0.459
31677	 -0.359	  0.527	  0.560	 -0.202	 -0.058	 -9.495	  0.004	 -0.002	  0.019	 30.300	 99.389	  0.459
31727	 -0.355	  0.525	  0.557	 -0.250	 -0.062	 -9.536	 -0.001	 -0.002	  0.019	 30.300	 99.389	  0.459
31777	 -0.355	  0.526	  0.556	 -0.208	 -0.088	 -9.474	  0.003	 -0.002	  0.019	 30.300	 99.389	  0.459
31827	 -0.361	  0.527	  0.557	 -0.247	 -0.085	 -9.516	  0.001	 -0.001	  0.019	 30.300	 99.389	  0.459
31877	 -0.357	  0.529	  0.557	 -0.175	 -0.126	 -9.528	  0.004	 -0.005	  0.019	 30.300	 99.389	  0.459
31927	 -0.359	  0.534	  0.556	 -0.279	 -0.073	 -9.529	  0.003	 -0.000	  0.017	 30.300	 99.389	  0.459
31977	 -0.359	  0.526	  0.558	 -0.153	 -0.083	 -9.503	  0.003	 -0.001	  0.020	 30.300	 99.377	  1.565
32027	 -0.359	  0.522	  0.559	 -0.279	  0.392	 -9.288	  0.070	 -0.003	  0.017	 30.300	 99.401	 -0.648
32077	 -0.356	  0.527	  0.556	 -0.216	  0.177	 -9.392	 -0.007	 -0.000	  0.019	 30.300	 99.401	 -0.648
32127	 -0.359	  0.527	  0.553	 -0.263	 -0.069	 -9.457	  0.005	 -0.002	  0.021	 30.300	 99.401	 -0.648
32177	 -0.357	  0.526	  0.560	 -0.213	 -0.182	 -9.553	  0.002	 -0.000	  0.019	 30.300	 99.401	 -0.648
32227	 -0.357	  0.527	  0.554	 -0.269	 -0.079	 -9.495	  0.003	 -0.002	  0.017	 30.300	 99.389	  0.459
32277	 -0.355	  0.530	  0.559	 -0.193	 -0.106	 -9.458	 -0.003	 -0.001	  0.018	 30.300	 99.401	 -0.648
32327	 -0.357	  0.527	  0.558	 -0.234	 -0.032	 -9.453	 -0.009	 -0.003	  0.020	 30.300	 99.389	  0.459
32377	 -0.359	  0.525	  0.552	 -0.251	  0.054	 -9.416	  0.004	 -0.000	  0.022	 30.300	 99.389	  0.459
32427	 -0.359	  0.534	  0.557	 -0.202	 -0.149	 -9.469	  0.002	 -0.000	  0.020	 30.300	 99.377	  1.565
32477	 -0.357	  0.527	  0.557	 -0.256	 -0.148	 -9.526	  0.001	 -0.001	  0.019	 30.300	 99.389	  0.459
32527	 -0.357	  0.526	  0.549	 -0.190	 -0.170	 -9.509	 -0.000	  0.001	  0.018	 30.300	 99.389	  0.459
32577	 -0.360	  0.524	  0.557	 -0.267	 -0.066	 -9.452	  0.007	 -0.000	  0.018	 30.300	 99.389	  0.459
32627	 -0.359	  0.526	  0.557	 -0.186	 -0.125	 -9.495	 -0.002	 -0.003	  0.019	 30.300	 99.401	 -0.648
32677	 -0.359	  0.525	  0.558	 -0.273	 -0.149	 -9.520	  0.003	 -0.001	  0.019	 30.300	 99.406	 -1.109
32727	 -0.359	  0.530	  0.557	 -0.176	 -0.136	 -9.496	  0.001	  0.000	  0.020	 30.300	 99.406	 -1.109
32777	 -0.359	  0.526	  0.556	 -0.253	 -0.093	 -9.490	  0.000	 -0.000	  0.020	 30.300	 99.389	  0.459
32827	 -0.359	  0.526	  0.560	 -0.213	 -0.122	 -9.452	 -0.002	  0.000	  0.019	 30.300	 99.389	  0.459
32877	 -0.359	  0.530	  0.553	 -0.237	 -0.168	 -9.534	 -0.004	 -0.002	  0.019	 30.300	 99.394	 -0.002
32927	 -0.361	  0.526	  0.558	 -0.214	 -0.081	 -9.477	  0.020	 -0.002	  0.018	 30.300	 99.401	 -0.648
32977	 -0.356	  0.529	  0.549	 -0.210	 -0.100	 -9.479	  0.003	 -0.002	  0.021	 30.300	 99.401	 -0.648
33027	 -0.355	  0.526	  0.557	 -0.779	 -1.066	 -10.383	 -0.048	 -0.045	  0.090	 30.300	 99.389	  0.459
33077	 -0.354	  0.530	  0.557	  0.086	  0.316	 -9.416	  0.025	  0.004	  0.234	 30.300	 99.389	  0.459
33127	 -0.350	  0.533	  0.556	 -0.986	 -0.635	 -9.585	 -0.000	  0.000	  0.021	 30.300	 99.389	  0.459
33177	 -0.349	  0.532	  0.549	 -0.264	 -0.422	 -9.695	 -0.082	  0.005	  0.020	 30.300	 99.394	 -0.002
33227	 -0.347	  0.531	  0.559	 -0.347	 -0.282	 -9.617	  0.012	 -0.002	  0.021	 30.300	 99.389	  0.459
33277	 -0.349	  0.538	  0.552	 -0.215	  0.033	 -9.439	  0.050	 -0.004	  0.019	 30.300	 99.389	  0.459
33327	 -0.349	  0.531	  0.553	 -0.294	  0.044	 -9.430	  0.019	  0.001	  0.019	 30.300	 99.401	 -0.648
33377	 -0.349	  0.531	  0.560	 -0.234	 -0.039	 -9.460	  0.014	  0.000	  0.016	 30.300	 99.389	  0.459
33428	 -0.349	  0.533	  0.556	 -0.240	 -0.116	 -9.498	  0.002	 -0.002	  0.019	 30.300	 99.389	  0.459
33477	 -0.347	  0.529	  0.556	 -0.301	  0.004	 -9.437	  0.005	 -0.000	  0.016	 30.300	 99.394	 -0.002
33527	 -0.349	  0.531	  0.556	 -0.241	 -0.399	 -9.639	 -0.092	  0.001	  0.022	 30.300	 99.389	  0.459
33577	 -0.348	  0.536	  0.559	 -0.235	  0.132	 -9.377	  0.003	 -0.001	  0.017	 30.300	 99.394	 -0.002
33626	 -0.348	  0.527	  0.563	 -0.140	 -0.121	 -9.501	  0.001	 -0.002	  0.020	 30.300	 99.389	  0.459
33676	 -0.348	  0.529	  0.552	 -0.276	 -0.035	 -9.447	  0.003	  0.000	  0.019	 30.300	 99.401	 -0.648
33726	 -0.349	  0.531	  0.557	 -0.167	  0.017	 -9.430	  0.000	 -0.001	  0.019	 30.300	 99.394	 -0.002
33777	 -0.350	  0.540	  0.557	 -0.194	 -0.236	 -9.542	  0.004	 -0.001	  0.020	 30.300	 99.401	 -0.648
33828	 -0.349	  0.535	  0.545	 -0.247	 -0.078	 -9.484	  0.001	 -0.002	  0.020	 30.300	 99.401	 -0.648
33878	 -0.350	  0.540	  0.553	 -0.198	 -0.109	 -9.497	  0.003	  0.000	  0.020	 30.300	 99.389	  0.459
33928	 -0.352	  0.551	  0.545	 -0.276	 -0.062	 -9.483	  0.001	 -0.000	  0.018	 30.300	 99.389	  0.459
33978	 -0.356	  0.541	  0.548	 -0.189	 -0.111	 -9.498	  0.003	 -0.001	  0.018	 30.300	 99.406	 -1.109
34028	 -0.356	  0.545	  0.543	 -0.354	 -0.025	 -9.527	  0.005	  0.001	  0.019	 30.300	 99.401	 -0.648
34078	 -0.358	  0.539	  0.552	 -0.184	 -0.113	 -9.509	  0.003	 -0.000	  0.020	 30.300	 99.389	  0.459
34127	 -0.359	  0.530	  0.557	 -0.285	 -0.098	 -9.474	  0.002	 -0.002	  0.019	 30.300	 99.389	  0.459
34177	 -0.353	  0.532	  0.552	 -0.217	 -0.097	 -9.490	  0.002	 -0.000	  0.018	 30.300	 99.406	 -1.109
34227	 -0.347	  0.527	  0.559	 -0.208	  0.224	 -9.357	  0.031	 -0.002	  0.017	 30.300	 99.394	 -0.002
34277	 -0.341	  0.524	  0.565	  0.033	 -0.666	 -10.118	 -0.206	 -0.046	  0.020	 30.300	 99.389	  0.459
34327	 -0.324	  0.507	  0.586	  0.479	  1.070	 -9.143	 -0.068	 -0.001	  0.154	 30.300	 99.406	 -1.109
34378	 -0.319	  0.507	  0.591	 -0.343	  0.252	 -9.424	  0.210	  0.016	  0.011	 30.300	 99.394	 -0.002
34428	 -0.326	  0.506	  0.582	 -0.207	 -0.090	 -9.550	  0.122	  0.027	  0.016	 30.300	 99.401	 -0.648
34478	 -0.324	  0.512	  0.570	 -0.385	  0.288	 -9.404	  0.295	  0.070	  0.012	 30.300	 99.389	  0.459
34528	 -0.327	  0.510	  0.579	 -0.156	 -0.273	 -9.602	  0.010	  0.000	  0.016	 30.300	 99.394	 -0.002
34577	 -0.326	  0.509	  0.575	 -0.278	 -0.082	 -9.530	  0.003	  0.000	  0.018	 30.300	 99.389	  0.459
34628	 -0.325	  0.505	  0.578	 -0.201	 -0.108	 -9.495	  0.002	 -0.000	  0.020	 30.300	 99.389	  0.459
34678	 -0.327	  0.505	  0.575	 -0.278	 -0.099	 -9.529	  0.004	 -0.000	  0.020	 30.300	 99.389	  0.459
34728	 -0.331	  0.515	  0.573	 -0.211	 -0.073	 -9.493	  0.007	  0.001	  0.019	 30.300	 99.389	  0.459
34777	 -0.328	  0.509	  0.573	 -0.261	 -0.103	 -9.537	  0.010	 -0.003	  0.021	 30.300	 99.389	  0.459
34827	 -0.331	  0.506	  0.567	 -0.164	  0.514	 -9.219	  0.019	 -0.002	  0.015	 30.300	 99.401	 -0.648
34877	 -0.327	  0.506	  0.578	 -0.208	 -0.161	 -9.554	  0.004	 -0.000	  0.018	 30.300	 99.389	  0.459
34928	 -0.328	  0.507	  0.569	 -0.267	 -0.112	 -9.500	  0.002	 -0.000	  0.019	 30.300	 99.401	 -0.648
34978	 -0.325	  0.505	  0.576	 -0.188	 -0.121	 -9.475	  0.003	 -0.003	  0.020	 30.300	 99.401	 -0.648
35028	 -0.326	  0.509	  0.576	 -0.269	 -0.080	 -9.481	  0.001	 -0.001	  0.019	 30.300	 99.401	 -0.648
35078	 -0.327	  0.512	  0.579	 -0.174	 -0.100	 -9.525	  0.002	 -0.002	  0.019	 30.300	 99.394	 -0.002
35128	 -0.329	  0.519	  0.576	 -0.252	 -0.083	 -9.481	  0.002	 -0.001	  0.018	 30.300	 99.389	  0.459
35178	 -0.327	  0.510	  0.579	 -0.196	 -0.083	 -9.525	  0.003	 -0.002	  0.019	 30.300	 99.389	  0.459
35228	 -0.325	  0.506	  0.575	 -0.261	 -0.070	 -9.489	  0.004	  0.001	  0.019	 30.300	 99.389	  0.459
35278	 -0.326	  0.506	  0.578	 -0.184	 -0.104	 -9.503	  0.003	 -0.001	  0.018	 30.300	 99.401	 -0.648
35328	 -0.328	  0.505	  0.573	 -0.245	 -0.113	 -9.511	  0.002	 -0.002	  0.018	 30.300	 99.401	 -0.648
35378	 -0.328	  0.502	  0.576	 -0.237	 -0.068	 -9.469	  0.002	 -0.001	  0.017	 30.300	 99.401	 -0.648
35428	 -0.326	  0.501	  0.579	 -0.209	 -0.097	 -9.483	  0.002	 -0.001	  0.019	 30.300	 99.389	  0.459
35478	 -0.326	  0.505	  0.574	 -0.258	 -0.071	 -9.489	  0.002	 -0.002	  0.020	 30.300	 99.406	 -1.109
35528	 -0.328	  0.506	  0.579	 -0.186	 -0.099	 -9.491	  0.002	 -0.002	  0.020	 30.300	 99.401	 -0.648
35578	 -0.325	  0.506	  0.580	 -0.277	 -0.090	 -9.530	  0.002	 -0.001	  0.019	 30.300	 99.401	 -0.648
35628	 -0.328	  0.505	  0.576	 -0.179	 -0.097	 -9.526	  0.001	  0.000	  0.019	 30.300	 99.389	  0.459
35678	 -0.328	  0.506	  0.579	 -0.270	 -0.086	 -9.484	  0.002	 -0.001	  0.019	 30.300	 99.389	  0.459
35728	 -0.327	  0.520	  0.576	 -0.188	 -0.104	 -9.530	  0.003	 -0.001	  0.019	 30.300	 99.406	 -1.109
35778	 -0.328	  0.500	  0.580	 -0.240	 -0.116	 -9.494	  0.002	 -0.001	  0.019	 30.300	 99.414	 -1.846
35828	 -0.325	  0.507	  0.579	 -0.241	 -0.074	 -9.495	  0.004	 -0.002	  0.018	 30.300	 99.401	 -0.648
35878	 -0.326	  0.502	  0.578	 -0.223	 -0.113	 -9.534	  0.003	 -0.001	  0.019	 30.300	 99.389	  0.459
35928	 -0.325	  0.507	  0.576	 -0.238	 -0.038	 -9.506	  0.016	 -0.003	  0.018	 30.300	 99.406	 -1.109
35978	 -0.327	  0.511	  0.583	 -0.219	 -0.250	 -9.566	 -0.012	 -0.000	  0.020	 30.300	 99.389	  0.459
36028	 -0.328	  0.505	  0.575	 -0.255	  0.056	 -9.462	  0.044	 -0.002	  0.019	 30.300	 99.389	  0.459
36078	 -0.326	  0.503	  0.580	 -0.177	  0.256	 -9.286	 -0.046	  0.003	  0.138	 30.300	 99.389	  0.459
36128	 -0.318	  0.512	  0.572	 -1.121	  1.037	 -9.494	  0.060	  0.004	  0.623	 30.300	 99.389	  0.459
36178	 -0.303	  0.529	  0.568	 -0.566	  0.556	 -9.370	  0.051	  0.008	  1.185	 30.300	 99.401	 -0.648
36228	 -0.272	  0.547	  0.580	 -0.627	  0.036	 -9.523	  0.053	  0.012	  1.602	 30.300	 99.401	 -0.648
36277	 -0.238	  0.563	  0.580	 -0.169	 -0.104	 -9.293	  0.076	  0.013	  1.675	 30.300	 99.389	  0.459
36327	 -0.198	  0.579	  0.587	 -0.319	 -0.677	 -9.607	  0.009	  0.009	  1.657	 30.300	 99.401	 -0.648
36377	 -0.168	  0.593	  0.592	  0.744	 -1.747	 -9.510	  0.016	  0.006	  0.907	 30.300	 99.401	 -0.648
36427	 -0.158	  0.589	  0.593	 -0.230	 -0.668	 -9.770	 -0.121	  0.003	  0.022	 30.300	 99.389	  0.459
36477	 -0.159	  0.589	  0.593	 -0.151	  0.568	 -9.188	 -0.038	 -0.001	  0.019	 30.300	 99.377	  1.565
