Time	 MagX	 MagY	 MagZ	 AccelX	 AccelY	 AccelZ	 Yaw	 Pitch	 Roll	 Temperature	 Pressure	 Altitude
1245	  0.182	  0.100	  0.943	 -0.304	 -0.050	 -9.506	  0.003	 -0.001	  0.020	 28.500	 99.486	 -99999.000
1292	  0.182	  0.090	  0.939	 -0.344	 -0.009	 -9.469	  0.002	 -0.001	  0.019	 28.500	 99.510	 -99999.000
1342	  0.183	  0.094	  0.943	 -0.381	 -0.011	 -9.507	  0.003	 -0.000	  0.020	 28.500	 99.510	 -99999.000
1392	  0.180	  0.097	  0.939	 -0.311	 -0.038	 -9.522	  0.003	  0.000	  0.019	 28.500	 99.498	 -99999.000
1442	  0.180	  0.094	  0.943	 -0.338	 -0.035	 -9.492	  0.002	 -0.002	  0.020	 28.500	 99.510	 -99999.000
1492	  0.180	  0.093	  0.938	 -0.366	 -0.035	 -9.493	  0.003	 -0.001	  0.020	 28.500	 99.482	 -99999.000
1542	  0.181	  0.097	  0.942	 -0.291	 -0.058	 -9.473	  0.002	  0.000	  0.020	 28.500	 99.498	 -99999.000
1592	  0.181	  0.097	  0.939	 -0.369	 -0.014	 -9.494	  0.002	 -0.001	  0.019	 28.500	 99.510	 -99999.000
1642	  0.177	  0.097	  0.943	 -0.328	 -0.051	 -9.497	  0.002	  0.000	  0.020	 28.500	 99.494	 -99999.000
1692	  0.178	  0.095	  0.938	 -0.319	 -0.037	 -9.495	  0.002	 -0.000	  0.019	 28.500	 99.506	 -99999.000
1742	  0.178	  0.097	  0.940	 -0.342	 -0.063	 -9.469	  0.003	 -0.001	  0.020	 28.500	 99.506	 -99999.000
1792	  0.181	  0.097	  0.939	 -0.270	 -0.027	 -9.476	  0.003	 -0.000	  0.020	 28.500	 99.498	 -99999.000
1842	  0.178	  0.099	  0.944	 -0.397	 -0.030	 -9.493	  0.004	 -0.001	  0.019	 28.500	 99.510	 -99999.000
1892	  0.178	  0.097	  0.942	 -0.294	 -0.061	 -9.476	  0.004	 -0.000	  0.019	 28.500	 99.494	 -99999.000
1942	  0.177	  0.098	  0.942	 -0.392	 -0.044	 -9.497	  0.003	 -0.001	  0.020	 28.500	 99.498	 -99999.000
1992	  0.178	  0.107	  0.944	 -0.297	 -0.073	 -9.483	  0.002	 -0.001	  0.020	 28.500	 99.506	 -99999.000
2042	  0.178	  0.097	  0.940	 -0.332	 -0.020	 -9.483	  0.003	 -0.001	  0.019	 28.500	 99.506	 -99999.000
2092	  0.178	  0.097	  0.947	 -0.383	 -0.035	 -9.467	  0.002	 -0.000	  0.019	 28.500	 99.498	 -99999.000
2142	  0.180	  0.101	  0.939	 -0.368	 -0.021	 -9.491	  0.002	  0.001	  0.020	 28.500	 99.510	 -99999.000
2192	  0.180	  0.095	  0.942	 -0.348	 -0.059	 -9.486	  0.001	 -0.000	  0.020	 28.500	 99.494	 -99999.000
2242	  0.177	  0.097	  0.940	 -0.308	 -0.033	 -9.467	  0.002	 -0.001	  0.019	 28.500	 99.498	 -99999.000
2292	  0.177	  0.098	  0.943	 -0.394	 -0.012	 -9.465	  0.003	 -0.000	  0.019	 28.500	 99.506	 -99999.000
2342	  0.178	  0.095	  0.939	 -0.297	 -0.062	 -9.497	  0.001	 -0.001	  0.020	 28.500	 99.510	 -99999.000
2392	  0.178	  0.095	  0.939	 -0.366	 -0.035	 -9.460	  0.002	 -0.001	  0.019	 28.500	 99.498	 -99999.000
2442	  0.177	  0.100	  0.942	 -0.358	 -0.063	 -9.441	  0.004	 -0.000	  0.019	 28.500	 99.510	 -99999.000
2492	  0.180	  0.095	  0.938	 -0.313	 -0.022	 -9.478	  0.003	 -0.000	  0.019	 28.500	 99.506	 -99999.000
2542	  0.177	  0.093	  0.938	 -0.385	 -0.023	 -9.460	  0.002	  0.000	  0.019	 28.500	 99.510	 -99999.000
2592	  0.178	  0.097	  0.940	 -0.314	 -0.049	 -9.483	  0.004	 -0.001	  0.019	 28.500	 99.494	 -99999.000
2642	  0.176	  0.095	  0.943	 -0.395	 -0.017	 -9.495	  0.003	 -0.002	  0.020	 28.500	 99.494	 -99999.000
2692	  0.176	  0.103	  0.939	 -0.287	 -0.054	 -9.510	  0.002	 -0.001	  0.020	 28.500	 99.510	 -99999.000
2742	  0.180	  0.095	  0.943	 -0.375	 -0.024	 -9.437	  0.003	 -0.001	  0.019	 28.500	 99.510	 -99999.000
2792	  0.180	  0.099	  0.942	 -0.321	 -0.067	 -9.487	  0.002	 -0.001	  0.020	 28.500	 99.486	 -99999.000
2842	  0.180	  0.097	  0.945	 -0.359	 -0.033	 -9.493	  0.003	 -0.002	  0.019	 28.500	 99.510	 -99999.000
2892	  0.178	  0.108	  0.944	 -0.409	 -0.053	 -9.489	  0.003	  0.001	  0.019	 28.500	 99.498	 -99999.000
2942	  0.180	  0.095	  0.942	 -0.293	 -0.047	 -9.473	  0.003	 -0.001	  0.020	 28.500	 99.494	 -99999.000
2992	  0.177	  0.108	  0.943	 -0.388	 -0.045	 -9.445	  0.003	 -0.002	  0.020	 28.500	 99.510	 -99999.000
3042	  0.177	  0.094	  0.947	 -0.292	 -0.046	 -9.516	  0.002	 -0.000	  0.020	 28.500	 99.510	 -99999.000
3092	  0.180	  0.097	  0.939	 -0.369	 -0.021	 -9.471	  0.002	 -0.001	  0.019	 28.500	 99.510	 -99999.000
3142	  0.180	  0.097	  0.942	 -0.323	 -0.062	 -9.473	  0.003	 -0.001	  0.019	 28.500	 99.510	 -99999.000
3192	  0.177	  0.097	  0.938	 -0.345	 -0.029	 -9.479	  0.002	 -0.001	  0.020	 28.500	 99.510	 -99999.000
3241	  0.177	  0.098	  0.943	 -0.351	 -0.017	 -9.452	  0.001	  0.000	  0.020	 28.500	 99.498	 -99999.000
3292	  0.178	  0.094	  0.943	 -0.301	 -0.037	 -9.473	  0.004	  0.001	  0.020	 28.500	 99.510	 -99999.000
3341	  0.182	  0.097	  0.941	 -0.371	 -0.024	 -9.464	  0.003	 -0.001	  0.019	 28.500	 99.498	 -99999.000
3391	  0.176	  0.095	  0.940	 -0.307	 -0.077	 -9.477	  0.002	 -0.000	  0.020	 28.500	 99.498	 -99999.000
3441	  0.174	  0.093	  0.935	 -0.366	 -0.016	 -9.505	  0.003	 -0.000	  0.021	 28.500	 99.510	 -99999.000
3491	  0.176	  0.094	  0.943	 -0.301	 -0.047	 -9.475	  0.003	 -0.001	  0.019	 28.500	 99.498	 -99999.000
3541	  0.177	  0.097	  0.943	 -0.347	 -0.011	 -9.470	  0.002	 -0.001	  0.020	 28.500	 99.510	 -99999.000
3591	  0.177	  0.095	  0.943	 -0.366	 -0.032	 -9.475	  0.003	 -0.001	  0.019	 28.500	 99.498	 -99999.000
3641	  0.175	  0.108	  0.940	 -0.336	 -0.041	 -9.469	  0.002	  0.000	  0.019	 28.500	 99.506	 -99999.000
3691	  0.177	  0.091	  0.939	 -0.379	 -0.033	 -9.462	  0.002	 -0.001	  0.021	 28.500	 99.498	 -99999.000
3741	  0.178	  0.097	  0.940	 -0.282	 -0.072	 -9.475	  0.001	 -0.001	  0.019	 28.500	 99.498	 -99999.000
3791	  0.177	  0.098	  0.944	 -0.397	 -0.017	 -9.456	  0.003	  0.001	  0.021	 28.500	 99.494	 -99999.000
3842	  0.174	  0.097	  0.942	 -0.288	 -0.049	 -9.521	  0.003	 -0.000	  0.019	 28.500	 99.510	 -99999.000
3891	  0.176	  0.097	  0.943	 -0.417	 -0.035	 -9.509	  0.002	 -0.001	  0.019	 28.500	 99.510	 -99999.000
3942	  0.177	  0.091	  0.946	 -0.334	 -0.049	 -9.463	  0.003	 -0.001	  0.020	 28.500	 99.510	 -99999.000
3991	  0.178	  0.099	  0.942	 -0.356	 -0.032	 -9.474	  0.003	 -0.000	  0.019	 28.500	 99.498	 -99999.000
4041	  0.178	  0.091	  0.938	 -0.347	 -0.020	 -9.467	  0.002	 -0.001	  0.020	 28.500	 99.498	 -99999.000
4091	  0.178	  0.093	  0.939	 -0.296	 -0.048	 -9.454	  0.003	 -0.000	  0.019	 28.500	 99.498	 -99999.000
4141	  0.177	  0.090	  0.938	 -0.390	 -0.010	 -9.469	  0.003	 -0.000	  0.021	 28.500	 99.498	 -99999.000
4191	  0.177	  0.105	  0.942	 -0.286	 -0.036	 -9.458	  0.003	  0.000	  0.018	 28.500	 99.510	 -99999.000
5243	  0.181	  0.097	  0.937	 -0.339	 -0.037	 -9.495	  0.002	 -0.001	  0.019	 28.500	 99.494	 -99999.000
5293	  0.181	  0.100	  0.943	 -0.377	 -0.026	 -9.458	  0.002	 -0.000	  0.019	 28.500	 99.498	 -99999.000
5343	  0.182	  0.095	  0.939	 -0.291	 -0.027	 -9.443	  0.003	 -0.000	  0.020	 28.500	 99.510	 -99999.000
5393	  0.180	  0.089	  0.933	 -0.398	 -0.007	 -9.510	  0.003	  0.000	  0.020	 28.500	 99.498	 -99999.000
5443	  0.180	  0.091	  0.943	 -0.274	 -0.068	 -9.485	  0.004	 -0.001	  0.020	 28.500	 99.498	 -99999.000
5493	  0.182	  0.098	  0.941	 -0.371	 -0.035	 -9.453	  0.003	 -0.001	  0.018	 28.500	 99.510	 -99999.000
5542	  0.182	  0.094	  0.945	 -0.309	 -0.029	 -9.454	  0.002	 -0.000	  0.020	 28.500	 99.498	 -99999.000
5592	  0.180	  0.095	  0.943	 -0.329	 -0.067	 -9.482	  0.002	 -0.001	  0.020	 28.500	 99.498	 -99999.000
5642	  0.181	  0.095	  0.942	 -0.374	 -0.035	 -9.462	  0.003	 -0.001	  0.019	 28.500	 99.498	 -99999.000
5692	  0.180	  0.095	  0.947	 -0.289	 -0.062	 -9.470	  0.002	  0.001	  0.020	 28.500	 99.486	 -99999.000
5742	  0.180	  0.097	  0.943	 -0.391	 -0.045	 -9.481	  0.002	  0.000	  0.019	 28.500	 99.498	 -99999.000
5792	  0.181	  0.094	  0.937	 -0.285	 -0.060	 -9.461	  0.003	 -0.001	  0.020	 28.500	 99.498	 -99999.000
5842	  0.182	  0.097	  0.943	 -0.399	 -0.010	 -9.487	  0.002	 -0.000	  0.020	 28.500	 99.498	 -99999.000
5892	  0.178	  0.095	  0.942	 -0.310	 -0.069	 -9.480	  0.003	 -0.000	  0.020	 28.500	 99.486	 -99999.000
5942	  0.182	  0.107	  0.939	 -0.351	 -0.026	 -9.457	  0.003	 -0.001	  0.020	 28.500	 99.498	 -99999.000
5992	  0.182	  0.104	  0.944	 -0.359	 -0.058	 -9.443	  0.003	 -0.001	  0.019	 28.500	 99.498	 -99999.000
6042	  0.180	  0.098	  0.941	 -0.300	 -0.041	 -9.486	  0.002	 -0.000	  0.019	 28.500	 99.498	 -99999.000
6092	  0.182	  0.089	  0.943	 -0.378	 -0.044	 -9.474	  0.002	 -0.001	  0.019	 28.500	 99.498	 -99999.000
6142	  0.180	  0.094	  0.935	 -0.278	 -0.035	 -9.488	  0.002	 -0.001	  0.020	 28.500	 99.498	 -99999.000
6192	  0.181	  0.103	  0.946	 -0.381	 -0.026	 -9.471	  0.003	 -0.000	  0.020	 28.500	 99.498	 -99999.000
6242	  0.183	  0.100	  0.943	 -0.294	 -0.074	 -9.481	  0.003	 -0.001	  0.019	 28.500	 99.514	 -99999.000
6292	  0.181	  0.094	  0.945	 -0.393	 -0.037	 -9.480	  0.003	 -0.000	  0.020	 28.500	 99.502	 -99999.000
6342	  0.183	  0.091	  0.945	 -0.349	 -0.034	 -9.465	  0.003	 -0.000	  0.021	 28.500	 99.498	 -99999.000
6392	  0.180	  0.093	  0.937	 -0.295	 -0.030	 -9.478	  0.004	 -0.001	  0.019	 28.500	 99.486	 -99999.000
6442	  0.180	  0.091	  0.943	 -0.367	 -0.035	 -9.451	  0.001	 -0.001	  0.020	 28.500	 99.510	 -99999.000
6492	  0.178	  0.097	  0.943	 -0.277	 -0.061	 -9.466	  0.003	  0.000	  0.020	 28.500	 99.510	 -99999.000
6542	  0.180	  0.095	  0.942	 -0.390	 -0.024	 -9.483	  0.003	 -0.000	  0.019	 28.500	 99.498	 -99999.000
6592	  0.186	  0.097	  0.942	 -0.287	 -0.084	 -9.512	  0.003	 -0.000	  0.020	 28.500	 99.494	 -99999.000
6642	  0.181	  0.104	  0.944	 -0.342	 -0.033	 -9.537	  0.003	 -0.000	  0.020	 28.500	 99.514	 -99999.000
6692	  0.180	  0.097	  0.942	 -0.305	 -0.036	 -9.476	  0.003	 -0.001	  0.019	 28.500	 99.498	 -99999.000
6742	  0.180	  0.100	  0.944	 -0.333	 -0.037	 -9.455	  0.003	  0.000	  0.019	 28.500	 99.502	 -99999.000
6792	  0.181	  0.094	  0.946	 -0.375	 -0.034	 -9.466	  0.002	 -0.000	  0.019	 28.500	 99.502	 -99999.000
6842	  0.180	  0.094	  0.945	 -0.300	 -0.036	 -9.470	  0.004	 -0.002	  0.019	 28.500	 99.498	 -99999.000
6892	  0.181	  0.102	  0.944	 -0.381	 -0.025	 -9.473	  0.003	 -0.001	  0.020	 28.500	 99.502	 -99999.000
6942	  0.177	  0.093	  0.943	 -0.284	 -0.055	 -9.466	  0.002	 -0.002	  0.020	 28.500	 99.498	 -99999.000
6992	  0.180	  0.094	  0.942	 -0.380	 -0.030	 -9.490	  0.002	 -0.001	  0.019	 28.500	 99.498	 -99999.000
7042	  0.180	  0.091	  0.942	 -0.311	 -0.061	 -9.425	  0.003	 -0.001	  0.020	 28.500	 99.498	 -99999.000
7092	  0.182	  0.108	  0.946	 -0.340	 -0.052	 -9.410	  0.002	 -0.001	  0.019	 28.500	 99.498	 -99999.000
7142	  0.181	  0.097	  0.943	 -0.370	 -0.048	 -9.485	  0.001	 -0.000	  0.019	 28.500	 99.486	 -99999.000
7192	  0.178	  0.094	  0.939	 -0.282	 -0.050	 -9.443	  0.003	 -0.000	  0.020	 28.500	 99.502	 -99999.000
7242	  0.181	  0.095	  0.942	 -0.383	 -0.027	 -9.478	  0.001	 -0.001	  0.018	 28.500	 99.498	 -99999.000
7292	  0.180	  0.093	  0.942	 -0.325	 -0.059	 -9.466	  0.003	 -0.001	  0.019	 28.500	 99.510	 -99999.000
7342	  0.180	  0.097	  0.939	 -0.348	 -0.034	 -9.470	  0.002	 -0.000	  0.020	 28.500	 99.502	 -99999.000
7392	  0.180	  0.094	  0.938	 -0.361	 -0.060	 -9.457	  0.004	 -0.001	  0.019	 28.500	 99.510	 -99999.000
7442	  0.181	  0.093	  0.943	 -0.298	 -0.059	 -9.476	  0.003	  0.000	  0.019	 28.500	 99.490	 -99999.000
7492	  0.181	  0.090	  0.942	 -0.407	 -0.016	 -9.469	  0.002	 -0.002	  0.019	 28.500	 99.498	 -99999.000
7542	  0.182	  0.102	  0.945	 -0.289	 -0.045	 -9.451	  0.003	 -0.002	  0.019	 28.500	 99.498	 -99999.000
7592	  0.182	  0.099	  0.945	 -0.395	 -0.021	 -9.479	  0.002	 -0.001	  0.019	 28.500	 99.510	 -99999.000
7642	  0.180	  0.095	  0.941	 -0.311	 -0.052	 -9.467	  0.004	  0.000	  0.020	 28.500	 99.502	 -99999.000
7692	  0.177	  0.093	  0.946	 -0.371	 -0.018	 -9.462	  0.002	 -0.000	  0.020	 28.500	 99.510	 -99999.000
7742	  0.182	  0.094	  0.938	 -0.372	 -0.047	 -9.427	  0.001	 -0.001	  0.019	 28.500	 99.510	 -99999.000
7792	  0.180	  0.097	  0.945	 -0.323	 -0.051	 -9.464	  0.002	 -0.001	  0.020	 28.500	 99.498	 -99999.000
7842	  0.178	  0.090	  0.942	 -0.395	 -0.023	 -9.522	  0.002	 -0.000	  0.020	 28.500	 99.490	 -99999.000
7892	  0.182	  0.093	  0.937	 -0.279	 -0.048	 -9.469	  0.002	 -0.000	  0.019	 28.500	 99.502	 -99999.000
7942	  0.182	  0.095	  0.945	 -0.388	 -0.034	 -9.453	  0.003	 -0.000	  0.019	 28.500	 99.502	 -99999.000
7992	  0.184	  0.093	  0.941	 -0.303	 -0.058	 -9.496	  0.002	 -0.001	  0.020	 28.500	 99.490	 -99999.000
8042	  0.182	  0.091	  0.943	 -0.344	 -0.017	 -9.499	  0.003	 -0.001	  0.020	 28.500	 99.498	 -99999.000
8092	  0.180	  0.091	  0.943	 -0.345	 -0.073	 -9.470	  0.002	 -0.001	  0.019	 28.500	 99.490	 -99999.000
8142	  0.180	  0.098	  0.942	 -0.333	 -0.041	 -9.493	  0.003	  0.000	  0.019	 28.500	 99.502	 -99999.000
8192	  0.180	  0.095	  0.943	 -0.388	 -0.040	 -9.477	  0.002	 -0.001	  0.018	 28.500	 99.502	 -99999.000
57443	  0.182	  0.110	  0.938	 -0.333	 -0.051	 -9.489	  0.003	 -0.001	  0.019	 28.600	 99.503	 -0.311
57493	  0.180	  0.099	  0.941	 -0.385	 -0.029	 -9.483	  0.004	 -0.000	  0.020	 28.600	 99.503	 -0.311
57543	  0.178	  0.100	  0.939	 -0.371	 -0.045	 -9.473	  0.004	 -0.000	  0.019	 28.600	 99.503	 -0.311
57593	  0.181	  0.099	  0.939	 -0.307	 -0.026	 -9.501	  0.002	 -0.000	  0.020	 28.600	 99.503	 -0.311
57643	  0.184	  0.109	  0.938	 -0.373	 -0.030	 -9.492	  0.003	 -0.001	  0.020	 28.600	 99.503	 -0.311
57693	  0.182	  0.108	  0.941	 -0.328	 -0.038	 -9.468	  0.002	  0.000	  0.019	 28.600	 99.499	  0.056
57743	  0.181	  0.100	  0.938	 -0.379	 -0.018	 -9.447	  0.002	 -0.001	  0.019	 28.600	 99.503	 -0.311
57793	  0.181	  0.095	  0.941	 -0.294	 -0.037	 -9.477	  0.003	 -0.002	  0.020	 28.600	 99.503	 -0.311
57843	  0.182	  0.103	  0.939	 -0.369	 -0.039	 -9.455	  0.003	 -0.001	  0.020	 28.600	 99.491	  0.790
57893	  0.182	  0.103	  0.937	 -0.302	 -0.064	 -9.459	  0.003	 -0.000	  0.019	 28.600	 99.503	 -0.311
57943	  0.183	  0.098	  0.941	 -0.376	 -0.013	 -9.481	  0.003	 -0.002	  0.018	 28.600	 99.508	 -0.771
57993	  0.184	  0.104	  0.933	 -0.341	 -0.050	 -9.473	  0.002	 -0.000	  0.020	 28.600	 99.503	 -0.311
58043	  0.183	  0.097	  0.934	 -0.312	 -0.039	 -9.483	  0.002	 -0.001	  0.019	 28.600	 99.508	 -0.771
58093	  0.183	  0.103	  0.942	 -0.374	 -0.040	 -9.478	  0.003	 -0.001	  0.020	 28.600	 99.503	 -0.311
58143	  0.184	  0.099	  0.936	 -0.307	 -0.061	 -9.478	  0.003	 -0.001	  0.020	 28.600	 99.503	 -0.311
58193	  0.183	  0.095	  0.940	 -0.380	 -0.021	 -9.499	  0.002	 -0.001	  0.019	 28.600	 99.491	  0.790
58243	  0.183	  0.102	  0.939	 -0.294	 -0.069	 -9.465	  0.003	 -0.001	  0.019	 28.600	 99.503	 -0.311
58293	  0.184	  0.105	  0.941	 -0.389	 -0.016	 -9.520	  0.002	 -0.001	  0.019	 28.600	 99.503	 -0.311
58343	  0.184	  0.097	  0.932	 -0.307	 -0.052	 -9.428	  0.003	 -0.000	  0.019	 28.600	 99.503	 -0.311
58393	  0.183	  0.098	  0.937	 -0.347	 -0.029	 -9.470	  0.002	 -0.000	  0.019	 28.600	 99.491	  0.790
58443	  0.183	  0.099	  0.940	 -0.327	 -0.041	 -9.461	  0.003	  0.000	  0.019	 28.600	 99.503	 -0.311
58493	  0.178	  0.101	  0.937	 -0.288	 -0.060	 -9.443	  0.003	 -0.001	  0.019	 28.600	 99.503	 -0.311
58543	  0.182	  0.100	  0.941	 -0.395	 -0.086	 -9.524	 -0.002	  0.000	  0.020	 28.600	 99.503	 -0.311
58593	  0.186	  0.102	  0.937	 -0.269	  0.006	 -9.422	  0.003	 -0.002	  0.020	 28.600	 99.503	 -0.311
58643	  0.183	  0.099	  0.941	 -0.389	 -0.006	 -9.481	  0.002	  0.001	  0.019	 28.600	 99.503	 -0.311
58693	  0.180	  0.100	  0.929	 -0.323	 -0.086	 -9.492	  0.003	 -0.001	  0.019	 28.600	 99.503	 -0.311
58743	  0.178	  0.101	  0.935	 -0.333	 -0.007	 -9.492	  0.002	 -0.000	  0.018	 28.600	 99.503	 -0.311
58793	  0.180	  0.109	  0.935	 -0.360	 -0.050	 -9.462	  0.001	 -0.000	  0.019	 28.600	 99.520	 -1.872
58843	  0.182	  0.100	  0.938	 -0.415	  0.092	 -9.386	  0.008	 -0.001	 -0.003	 28.600	 99.503	 -0.311
58893	  0.189	  0.089	  0.931	 -7.398	  2.139	 -9.614	  0.035	  0.001	  2.580	 28.600	 99.503	 -0.311
58943	  0.240	  0.023	  0.894	  2.608	 -1.772	 -10.026	  0.141	 -0.011	  4.831	 28.600	 99.503	 -0.311
58993	  0.255	 -0.032	  0.875	  3.521	 -4.910	 -9.547	 -0.026	  0.002	 -0.238	 28.600	 99.491	  0.790
59043	  0.235	  0.007	  0.895	 -0.516	 -1.892	 -9.226	 -0.103	  0.005	 -3.293	 28.600	 99.503	 -0.311
59094	  0.194	  0.084	  0.925	 -2.451	 -1.112	 -9.637	 -0.157	  0.007	 -3.962	 28.600	 99.503	 -0.311
59143	  0.169	  0.105	  0.946	 -4.658	  6.248	 -9.289	 -0.012	 -0.006	 -0.291	 28.600	 99.516	 -1.505
59193	  0.177	  0.103	  0.941	 -1.539	  1.083	 -9.510	  0.044	 -0.004	  1.401	 28.600	 99.503	 -0.311
59243	  0.189	  0.086	  0.936	  5.069	 -1.843	 -9.970	 -0.014	  0.003	 -0.490	 28.600	 99.479	  1.892
59292	  0.140	  0.117	  0.958	 -6.065	 -0.396	 -9.298	 -0.069	  0.004	 -3.031	 28.600	 99.508	 -0.771
59343	  0.119	  0.127	  0.964	 -5.055	  1.594	 -8.704	  0.008	 -0.000	 -0.234	 28.600	 99.503	 -0.311
59393	  0.147	  0.115	  0.966	 -1.459	  2.555	 -9.477	  0.057	 -0.005	  1.872	 28.600	 99.491	  0.790
59442	  0.184	  0.100	  0.946	  6.019	 -1.068	 -9.039	  0.137	  0.013	  1.418	 28.600	 99.503	 -0.311
59492	  0.164	  0.113	  0.953	 -0.538	 -1.880	 -9.583	 -0.080	  0.003	 -1.941	 28.600	 99.503	 -0.311
59542	  0.141	  0.123	  0.963	 -5.637	  0.108	 -9.764	 -0.048	  0.007	 -0.710	 28.600	 99.503	 -0.311
59592	  0.177	  0.113	  0.951	  2.122	  0.402	 -9.162	  0.094	 -0.008	  2.483	 28.600	 99.503	 -0.311
59643	  0.187	  0.094	  0.949	  3.569	 -1.926	 -10.108	 -0.136	 -0.040	 -0.322	 28.600	 99.503	 -0.311
59694	  0.169	  0.108	  0.960	 -3.542	 -2.719	 -10.274	 -0.229	 -0.001	 -0.580	 28.600	 99.503	 -0.311
59744	  0.184	  0.117	  0.947	 -0.391	  0.785	 -9.142	  0.005	  0.011	  0.576	 28.600	 99.503	 -0.311
59793	  0.203	  0.102	  0.936	  2.617	  0.626	 -10.385	 -0.232	 -0.062	  0.240	 28.600	 99.508	 -0.771
59843	  0.194	  0.080	  0.943	 -1.943	  0.242	 -7.648	  0.129	 -0.012	  0.211	 28.600	 99.503	 -0.311
59894	  0.189	  0.086	  0.939	  0.672	 -4.123	 -9.988	 -0.158	 -0.030	 -0.485	 28.600	 99.503	 -0.311
59944	  0.170	  0.100	  0.959	 -2.333	  2.866	 -9.268	 -0.055	  0.016	 -1.315	 28.600	 99.491	  0.790
59994	  0.161	  0.103	  0.960	 -4.224	  0.423	 -9.276	  0.203	  0.024	  1.026	 28.600	 99.503	 -0.311
60044	  0.167	  0.095	  0.959	  0.477	 -2.027	 -9.612	 -0.415	 -0.005	 -0.195	 28.600	 99.491	  0.790
60093	  0.159	  0.097	  0.959	  0.793	  2.076	 -10.129	 -0.113	  0.037	 -0.991	 28.600	 99.503	 -0.311
60143	  0.151	  0.094	  0.971	 -1.838	  0.730	 -8.994	  0.110	 -0.036	  0.664	 28.600	 99.516	 -1.505
60194	  0.162	  0.086	  0.961	 -1.815	 -1.418	 -10.180	 -0.074	 -0.012	  0.909	 28.600	 99.503	 -0.311
60243	  0.179	  0.092	  0.957	  1.852	  1.513	 -7.850	  0.160	 -0.020	 -0.226	 28.600	 99.479	  1.892
60293	  0.186	  0.121	  0.959	 -0.608	 -1.567	 -14.080	  0.875	 -0.012	 -0.168	 28.600	 99.516	 -1.505
60343	  0.181	  0.139	  0.953	  0.556	 -1.396	 -9.201	  0.009	  0.028	 -0.011	 28.600	 99.503	 -0.311
60393	  0.182	  0.129	  0.958	 -0.150	 -0.412	 -9.572	 -0.199	 -0.080	  0.033	 28.600	 99.495	  0.422
60443	  0.184	  0.118	  0.958	 -0.410	  0.566	 -9.331	 -0.072	 -0.014	 -0.020	 28.600	 99.503	 -0.311
60493	  0.184	  0.119	  0.951	 -0.897	 -0.462	 -10.763	 -0.094	 -0.072	 -0.167	 28.600	 99.508	 -0.771
60543	  0.196	  0.114	  0.932	 -0.839	 -1.085	 -14.974	 -0.451	 -0.613	 -0.342	 28.600	 99.508	 -0.771
60593	  0.187	  0.138	  0.869	 -2.358	  0.555	 -12.795	 -0.132	 -0.111	  0.010	 28.600	 99.508	 -0.771
60643	  0.138	  0.162	  0.804	 -1.626	  2.143	 -3.402	  0.423	  1.236	  0.119	 28.600	 99.508	 -0.771
60693	  0.068	  0.195	  0.791	  1.604	 -0.330	  2.454	  0.437	  1.927	  0.383	 28.600	 99.495	  0.422
60743	  0.030	  0.198	  0.842	  3.826	 -0.728	 -7.100	  0.136	  0.836	 -0.185	 28.600	 99.503	 -0.311
60793	  0.032	  0.171	  0.922	  0.957	 -0.879	 -16.536	 -0.305	 -0.636	 -0.651	 28.600	 99.508	 -0.771
60843	  0.071	  0.169	  0.929	 -2.058	  0.604	 -16.520	  0.468	 -0.717	  0.533	 28.600	 99.491	  0.790
60893	  0.091	  0.210	  0.862	  1.818	 -2.181	 -10.652	  0.053	  0.070	  0.479	 28.600	 99.508	 -0.771
60943	  0.064	  0.184	  0.822	  2.579	  0.451	 -5.165	 -1.628	  0.227	 -0.621	 28.600	 99.491	  0.790
60993	  0.055	  0.124	  0.806	  0.828	  2.111	 -5.141	 -1.244	 -0.486	 -0.097	 28.600	 99.503	 -0.311
61044	  0.072	  0.094	  0.802	  0.343	  1.696	 -6.228	 -0.011	 -0.719	 -0.138	 28.600	 99.508	 -0.771
61093	  0.101	  0.103	  0.813	 -1.468	  0.401	 -7.685	  0.682	 -0.656	  0.220	 28.600	 99.516	 -1.505
61143	  0.122	  0.107	  0.827	 -1.068	 -0.566	 -12.960	 -0.065	  0.485	  0.043	 28.600	 99.516	 -1.505
61193	  0.088	  0.076	  0.855	 -0.506	  1.977	 -12.367	 -0.664	  1.139	 -0.252	 28.600	 99.503	 -0.311
61243	  0.054	  0.072	  0.855	  0.459	  2.044	 -8.582	  0.246	  0.388	  0.217	 28.600	 99.491	  0.790
61293	  0.056	  0.093	  0.843	  1.458	  0.426	 -7.046	  0.577	 -0.306	  0.223	 28.600	 99.508	 -0.771
61343	  0.092	  0.117	  0.850	  0.864	  0.479	 -7.872	  0.542	 -0.624	  0.237	 28.600	 99.503	 -0.311
61393	  0.118	  0.122	  0.852	  0.869	  0.069	 -9.430	  0.235	 -0.344	  0.113	 28.600	 99.508	 -0.771
61443	  0.130	  0.131	  0.877	 -0.150	 -0.296	 -10.586	 -0.168	  0.150	  0.070	 28.600	 99.495	  0.422
61493	  0.115	  0.100	  0.896	 -0.309	  0.512	 -9.708	 -0.122	  0.466	  0.057	 28.600	 99.503	 -0.311
61543	  0.110	  0.092	  0.917	  0.724	  0.756	 -9.631	  0.001	  0.058	  0.127	 28.600	 99.508	 -0.771
61593	  0.127	  0.089	  0.934	  0.297	  0.836	 -9.701	  0.131	 -0.346	  0.113	 28.600	 99.495	  0.422
61643	  0.151	  0.081	  0.943	  0.209	  0.566	 -9.508	 -0.013	 -0.427	  0.148	 28.600	 99.503	 -0.311
61693	  0.179	  0.084	  0.946	 -0.164	  0.387	 -8.537	  0.219	 -0.650	  0.054	 28.600	 99.508	 -0.771
61743	  0.206	  0.097	  0.950	 -0.139	 -0.446	 -9.077	  0.421	 -0.103	  0.101	 28.600	 99.495	  0.422
61793	  0.206	  0.093	  0.946	 -0.659	  0.253	 -9.439	 -0.004	  0.001	  0.028	 28.600	 99.508	 -0.771
61843	  0.206	  0.111	  0.951	 -0.322	  0.461	 -9.239	  0.068	 -0.011	  0.017	 28.600	 99.508	 -0.771
61893	  0.211	  0.104	  0.954	 -0.346	  0.439	 -9.238	  0.215	 -0.007	  0.008	 28.600	 99.508	 -0.771
61943	  0.210	  0.113	  0.948	 -0.366	  0.413	 -9.172	  0.288	  0.073	  0.011	 28.600	 99.516	 -1.505
61993	  0.207	  0.119	  0.947	 -0.541	 -0.813	 -10.076	 -0.164	  0.006	  0.028	 28.600	 99.503	 -0.311
62043	  0.207	  0.127	  0.953	 -0.269	 -0.678	 -9.786	 -0.071	  0.002	  0.023	 28.600	 99.508	 -0.771
62093	  0.206	  0.126	  0.956	 -0.534	  0.822	 -8.573	 -0.000	  0.001	  0.025	 28.600	 99.508	 -0.771
62143	  0.204	  0.124	  0.949	 -0.306	 -0.150	 -9.611	  0.008	 -0.001	  0.020	 28.600	 99.508	 -0.771
62193	  0.206	  0.121	  0.951	 -0.303	  0.036	 -9.428	  0.002	  0.000	  0.020	 28.600	 99.508	 -0.771
62243	  0.207	  0.121	  0.956	 -0.364	 -0.039	 -9.488	  0.003	 -0.001	  0.019	 28.600	 99.503	 -0.311
62293	  0.208	  0.117	  0.953	 -0.288	 -0.007	 -9.445	  0.002	 -0.001	  0.019	 28.600	 99.491	  0.790
62343	  0.208	  0.117	  0.952	 -0.373	 -0.028	 -9.462	  0.003	 -0.000	  0.019	 28.600	 99.503	 -0.311
62393	  0.209	  0.123	  0.948	 -0.275	 -0.039	 -9.482	  0.002	  0.000	  0.019	 28.600	 99.508	 -0.771
62443	  0.206	  0.119	  0.952	 -0.394	 -0.030	 -9.452	  0.002	 -0.001	  0.018	 28.600	 99.508	 -0.771
62493	  0.208	  0.126	  0.955	 -0.324	 -0.039	 -9.487	  0.002	 -0.001	  0.019	 28.600	 99.491	  0.790
62543	  0.206	  0.117	  0.949	 -0.287	 -0.013	 -9.441	 -0.000	 -0.000	  0.018	 28.600	 99.491	  0.790
62593	  0.207	  0.118	  0.949	 -0.340	 -0.051	 -9.516	  0.003	 -0.002	  0.021	 28.600	 99.495	  0.422
62643	  0.207	  0.114	  0.953	 -0.328	 -0.055	 -9.480	  0.008	 -0.001	  0.022	 28.600	 99.508	 -0.771
62693	  0.207	  0.117	  0.953	 -0.390	  0.038	 -9.432	  0.005	 -0.001	  0.019	 28.600	 99.491	  0.790
62743	  0.209	  0.121	  0.955	 -0.251	 -0.097	 -9.432	  0.002	 -0.002	  0.018	 28.600	 99.491	  0.790
62793	  0.207	  0.118	  0.953	 -0.346	 -0.023	 -9.484	  0.006	 -0.001	  0.020	 28.600	 99.508	 -0.771
62843	  0.208	  0.121	  0.952	 -0.309	  0.064	 -9.406	  0.003	  0.000	  0.020	 28.600	 99.503	 -0.311
62893	  0.206	  0.123	  0.952	 -0.363	  0.020	 -9.481	  0.003	 -0.001	  0.020	 28.600	 99.491	  0.790
62943	  0.211	  0.124	  0.953	 -0.335	 -0.226	 -9.646	 -0.010	  0.001	  0.018	 28.600	 99.508	 -0.771
62993	  0.206	  0.121	  0.952	 -0.304	 -0.074	 -9.481	  0.000	 -0.001	  0.020	 28.600	 99.495	  0.422
63043	  0.207	  0.124	  0.956	 -0.377	 -0.023	 -9.446	  0.007	 -0.000	  0.019	 28.600	 99.508	 -0.771
63093	  0.206	  0.118	  0.949	 -0.294	 -0.054	 -9.495	  0.003	  0.001	  0.019	 28.600	 99.520	 -1.872
63143	  0.206	  0.137	  0.950	 -0.330	 -0.058	 -9.499	  0.004	 -0.000	  0.020	 28.600	 99.508	 -0.771
63193	  0.210	  0.118	  0.951	 -0.299	 -0.053	 -9.470	  0.002	 -0.002	  0.019	 28.600	 99.495	  0.422
63243	  0.205	  0.118	  0.948	 -0.378	  0.044	 -9.485	  0.003	  0.001	  0.019	 28.600	 99.508	 -0.771
63293	  0.210	  0.118	  0.956	 -0.314	 -0.078	 -9.461	  0.001	 -0.000	  0.017	 28.600	 99.495	  0.422
63343	  0.207	  0.116	  0.951	 -0.324	  0.017	 -9.452	 -0.005	 -0.000	  0.019	 28.600	 99.508	 -0.771
63393	  0.209	  0.122	  0.956	 -0.354	 -0.103	 -9.472	  0.002	 -0.000	  0.019	 28.600	 99.503	 -0.311
63443	  0.209	  0.119	  0.951	 -0.466	  0.072	 -9.410	  0.029	 -0.005	  0.023	 28.600	 99.491	  0.790
63493	  0.211	  0.128	  0.952	  0.061	 -0.034	 -9.399	  0.016	 -0.001	  0.025	 28.600	 99.508	 -0.771
63543	  0.208	  0.116	  0.952	 -0.262	 -0.115	 -9.531	 -0.000	 -0.002	  0.020	 28.600	 99.495	  0.422
63593	  0.206	  0.122	  0.949	 -0.362	 -0.066	 -9.534	 -0.001	  0.001	  0.018	 28.600	 99.508	 -0.771
63643	  0.208	  0.108	  0.948	 -0.301	 -0.181	 -9.645	 -0.004	 -0.000	  0.021	 28.600	 99.495	  0.422
63693	  0.206	  0.113	  0.950	 -0.307	 -0.042	 -9.403	  0.000	 -0.002	  0.019	 28.600	 99.508	 -0.771
63743	  0.210	  0.112	  0.946	 -0.383	 -0.078	 -9.463	  0.002	  0.001	  0.020	 28.600	 99.495	  0.422
63793	  0.208	  0.114	  0.944	 -0.355	 -0.021	 -9.464	  0.006	 -0.000	  0.019	 28.600	 99.508	 -0.771
63843	  0.206	  0.117	  0.941	 -0.373	 -0.053	 -9.473	  0.001	 -0.002	  0.019	 28.600	 99.508	 -0.771
63893	  0.202	  0.112	  0.937	 -0.145	 -0.105	 -9.858	 -0.004	  0.003	  0.013	 28.600	 99.503	 -0.311
63943	  0.205	  0.105	  0.946	 -0.239	  0.080	 -9.239	  0.007	 -0.001	  0.020	 28.600	 99.508	 -0.771
63993	  0.202	  0.111	  0.941	 -0.350	  0.048	 -9.402	  0.017	 -0.001	  0.020	 28.600	 99.495	  0.422
64043	  0.206	  0.126	  0.938	 -0.222	  0.075	 -9.358	  0.013	 -0.003	  0.017	 28.600	 99.495	  0.422
64093	  0.204	  0.109	  0.939	 -0.321	 -0.085	 -9.517	 -0.000	  0.000	  0.019	 28.600	 99.508	 -0.771
64143	  0.201	  0.113	  0.936	 -0.311	 -0.018	 -9.469	  0.003	 -0.000	  0.019	 28.700	 99.500	 -0.036
64193	  0.204	  0.113	  0.939	 -0.365	  0.029	 -9.420	  0.006	 -0.002	  0.020	 28.600	 99.508	 -0.771
64243	  0.204	  0.118	  0.935	 -0.226	 -0.316	 -9.565	  0.018	 -0.002	  0.020	 28.600	 99.503	 -0.311
64293	  0.202	  0.108	  0.928	 -0.380	 -0.260	 -10.013	  0.023	 -0.001	  0.022	 28.600	 99.520	 -1.872
64343	  0.202	  0.107	  0.928	 -0.334	 -0.084	 -9.649	 -0.009	  0.000	  0.018	 28.600	 99.508	 -0.771
64393	  0.202	  0.108	  0.928	 -0.291	  0.027	 -9.429	 -0.004	  0.000	  0.020	 28.600	 99.508	 -0.771
64442	  0.205	  0.109	  0.928	 -0.434	  0.070	 -9.408	 -0.000	  0.001	  0.020	 28.600	 99.508	 -0.771
64492	  0.203	  0.103	  0.928	 -0.275	 -0.047	 -9.478	 -0.002	  0.000	  0.020	 28.600	 99.495	  0.422
64542	  0.201	  0.100	  0.925	 -0.300	 -0.043	 -9.445	  0.004	 -0.001	  0.020	 28.600	 99.508	 -0.771
64592	  0.201	  0.104	  0.924	 -0.289	 -0.060	 -9.453	 -0.001	 -0.001	  0.020	 28.600	 99.495	  0.422
64642	  0.205	  0.098	  0.931	 -0.346	 -0.020	 -9.499	  0.004	 -0.001	  0.021	 28.600	 99.508	 -0.771
64692	  0.204	  0.112	  0.933	  0.276	  0.318	 -8.708	  0.019	 -0.024	  0.021	 28.600	 99.508	 -0.771
64742	  0.200	  0.103	  0.928	 -0.322	  0.007	 -9.418	 -0.000	 -0.001	  0.018	 28.600	 99.512	 -1.138
64792	  0.201	  0.100	  0.931	 -0.372	 -0.069	 -9.472	  0.002	  0.001	  0.019	 28.600	 99.508	 -0.771
64843	  0.204	  0.109	  0.925	 -0.292	 -0.265	 -9.616	  0.000	  0.007	  0.007	 28.600	 99.508	 -0.771
64892	  0.204	  0.103	  0.928	 -1.158	 -0.088	 -9.884	  0.014	  0.010	  0.017	 28.600	 99.495	  0.422
64943	  0.204	  0.099	  0.923	 -0.286	  0.029	 -9.463	  0.003	 -0.002	  0.019	 28.600	 99.508	 -0.771
64992	  0.201	  0.099	  0.931	 -0.405	  0.010	 -9.455	  0.001	  0.000	  0.017	 28.600	 99.508	 -0.771
65043	  0.204	  0.105	  0.932	 -0.254	  0.046	 -9.459	  0.013	 -0.002	  0.016	 28.600	 99.508	 -0.771
65093	  0.201	  0.107	  0.927	 -0.370	 -0.071	 -9.520	  0.000	 -0.002	  0.020	 28.600	 99.495	  0.422
65142	  0.201	  0.099	  0.929	 -0.291	 -0.100	 -9.511	  0.001	 -0.001	  0.019	 28.600	 99.508	 -0.771
65192	  0.200	  0.099	  0.924	 -0.285	 -0.064	 -9.544	  0.004	 -0.003	  0.019	 28.700	 99.512	 -1.138
65243	  0.204	  0.103	  0.929	 -0.384	 -0.047	 -9.467	  0.002	 -0.001	  0.019	 28.600	 99.508	 -0.771
65292	  0.199	  0.110	  0.928	 -0.312	  0.002	 -9.475	  0.003	 -0.001	  0.020	 28.600	 99.495	  0.422
65343	  0.201	  0.105	  0.925	 -0.389	  0.067	 -9.509	  0.008	  0.001	  0.019	 28.600	 99.508	 -0.771
65393	  0.201	  0.110	  0.931	 -0.165	 -1.238	 -9.947	  0.009	 -0.004	  0.021	 28.600	 99.508	 -0.771
65443	  0.202	  0.117	  0.929	 -0.394	 -0.058	 -9.583	 -0.032	  0.000	  0.030	 28.600	 99.508	 -0.771
65493	  0.205	  0.098	  0.930	  0.247	  0.860	 -9.669	  0.012	 -0.001	  0.387	 28.600	 99.508	 -0.771
65543	  0.200	  0.097	  0.928	  0.434	  0.716	 -9.373	  0.022	 -0.001	  0.551	 28.700	 99.512	 -1.138
65593	  0.193	  0.081	  0.931	 -0.536	  0.061	 -9.432	  0.017	 -0.003	  0.342	 28.700	 99.512	 -1.138
65643	  0.173	  0.081	  0.928	  0.058	 -0.496	 -9.462	  0.007	 -0.001	  0.047	 28.600	 99.503	 -0.311
65693	  0.155	  0.080	  0.932	  0.002	 -0.217	 -9.765	  0.049	 -0.007	 -0.133	 28.600	 99.520	 -1.872
65743	  0.128	  0.085	  0.935	 -0.263	 -0.093	 -9.599	 -0.001	 -0.001	 -0.218	 28.600	 99.508	 -0.771
65793	  0.102	  0.084	  0.942	 -0.662	  0.082	 -9.455	 -0.065	 -0.018	 -0.225	 28.600	 99.508	 -0.771
65843	  0.077	  0.082	  0.942	 -0.202	 -1.468	 -11.381	 -0.150	 -0.119	 -0.199	 28.600	 99.520	 -1.872
65893	  0.054	  0.083	  0.945	 -1.157	 -0.287	 -9.217	  0.023	 -0.021	 -0.396	 28.600	 99.508	 -0.771
65943	  0.035	  0.083	  0.940	  0.308	  0.962	 -7.223	  0.061	 -0.033	 -0.218	 28.600	 99.508	 -0.771
65993	  0.026	  0.086	  0.937	 -0.866	 -0.330	 -9.578	  0.013	 -0.018	 -0.148	 28.600	 99.508	 -0.771
66043	  0.016	  0.081	  0.929	 -0.380	 -0.034	 -9.782	  0.004	  0.001	 -0.179	 28.600	 99.508	 -0.771
66093	  0.006	  0.084	  0.925	 -0.071	  0.496	 -9.077	  0.042	  0.002	 -0.137	 28.600	 99.508	 -0.771
66143	 -0.015	  0.093	  0.928	 -0.327	  0.376	 -9.044	  0.045	  0.010	 -0.200	 28.600	 99.508	 -0.771
66193	 -0.029	  0.088	  0.925	  0.433	 -0.471	 -9.022	 -0.030	 -0.093	 -0.009	 28.600	 99.508	 -0.771
66243	 -0.047	  0.086	  0.915	 -2.371	 -0.670	 -9.361	  0.011	 -0.052	  0.085	 28.600	 99.508	 -0.771
66293	 -0.054	  0.095	  0.911	 -1.405	 -0.566	 -9.453	 -0.002	 -0.045	  0.464	 28.700	 99.500	 -0.036
66343	 -0.055	  0.085	  0.905	 -0.960	  0.173	 -9.921	  0.006	 -0.052	  0.426	 28.600	 99.508	 -0.771
66393	 -0.057	  0.095	  0.905	 -1.491	 -0.073	 -9.800	  0.039	 -0.002	  0.235	 28.600	 99.495	  0.422
66443	 -0.061	  0.082	  0.899	 -0.629	 -0.266	 -9.573	  0.010	 -0.010	  0.212	 28.600	 99.508	 -0.771
66493	 -0.064	  0.079	  0.892	 -0.625	  0.084	 -9.472	  0.008	 -0.013	  0.246	 28.700	 99.500	 -0.036
66543	 -0.066	  0.085	  0.903	  0.816	  0.445	 -7.939	  0.028	  0.089	 -0.101	 28.600	 99.508	 -0.771
66593	 -0.081	  0.091	  0.897	 -0.696	  0.646	 -9.289	  0.100	  0.089	  0.195	 28.600	 99.508	 -0.771
66643	 -0.090	  0.097	  0.890	  1.561	 -0.728	 -10.009	 -0.032	 -0.107	  0.123	 28.700	 99.512	 -1.138
66693	 -0.104	  0.089	  0.878	  0.056	 -0.697	 -9.080	 -0.167	 -0.424	 -0.755	 28.600	 99.495	  0.422
66743	 -0.104	  0.085	  0.857	 -3.449	 -0.384	 -10.140	 -0.015	 -0.700	 -0.199	 28.600	 99.495	  0.422
66793	 -0.104	  0.085	  0.853	 -1.409	 -0.979	 -10.734	 -0.167	  0.454	  0.016	 28.600	 99.495	  0.422
66843	 -0.133	  0.071	  0.854	 -1.809	  0.107	 -10.269	 -0.355	  0.597	 -0.463	 28.600	 99.495	  0.422
66893	 -0.153	  0.076	  0.849	 -1.956	  0.537	 -12.268	  0.048	  0.434	 -0.186	 28.600	 99.508	 -0.771
66943	 -0.133	  0.097	  0.816	 -0.516	 -0.275	 -17.145	  0.010	  0.060	  0.080	 28.700	 99.524	 -2.240
66993	 -0.070	  0.106	  0.761	  0.003	  1.180	 -10.878	 -0.482	 -0.906	  0.010	 28.600	 99.495	  0.422
67043	  0.008	  0.125	  0.698	  1.559	  2.100	 -2.266	 -0.192	 -1.934	 -0.002	 28.600	 99.508	 -0.771
67093	  0.074	  0.148	  0.655	 -2.347	 -1.145	  3.518	  0.493	 -0.593	 -0.218	 28.600	 99.495	  0.422
67143	  0.044	  0.167	  0.687	 -0.583	 -2.632	 -4.212	  0.587	  2.366	  0.195	 28.700	 99.512	 -1.138
67193	 -0.115	  0.131	  0.786	  1.323	  0.383	 -13.968	 -0.387	  3.734	 -0.557	 28.600	 99.508	 -0.771
67243	 -0.236	  0.101	  0.832	  2.543	  1.768	 -20.516	  0.308	  0.754	  0.174	 28.600	 99.495	  0.422
67293	 -0.157	  0.135	  0.809	  2.076	  0.216	 -17.938	  0.120	 -2.616	  0.126	 28.600	 99.508	 -0.771
67343	 -0.020	  0.159	  0.741	  0.893	 -0.934	 -10.784	 -0.338	 -2.478	  0.107	 28.600	 99.508	 -0.771
67393	  0.072	  0.177	  0.656	  0.968	  1.009	  0.379	 -0.019	 -1.816	 -0.150	 28.600	 99.495	  0.422
67443	  0.103	  0.202	  0.636	  0.120	  0.828	  2.447	  0.057	  0.050	 -0.014	 28.600	 99.508	 -0.771
67493	  0.069	  0.168	  0.673	 -1.691	 -0.823	 -4.421	 -0.570	  1.212	 -0.033	 28.600	 99.508	 -0.771
67543	 -0.019	  0.110	  0.762	 -3.904	  0.525	 -14.474	 -0.212	  2.640	  0.061	 28.600	 99.508	 -0.771
67593	 -0.114	  0.115	  0.812	  1.462	  0.622	 -21.054	  0.914	  1.479	 -0.035	 28.600	 99.495	  0.422
67643	 -0.088	  0.160	  0.784	  1.373	  0.077	 -17.402	  0.264	 -1.346	  0.115	 28.700	 99.500	 -0.036
67693	  0.016	  0.194	  0.709	  0.828	  1.087	 -5.354	  0.186	 -2.590	  0.335	 28.700	 99.512	 -1.138
67743	  0.095	  0.212	  0.642	  2.395	  0.080	  0.972	  0.130	 -0.979	 -0.012	 28.700	 99.524	 -2.240
67793	  0.090	  0.206	  0.653	  0.875	 -0.143	  0.352	 -0.279	  0.876	 -0.250	 28.700	 99.500	 -0.036
67843	  0.010	  0.168	  0.739	 -4.509	 -1.826	 -10.184	 -0.411	  2.222	 -0.310	 28.600	 99.483	  1.524
67893	 -0.126	  0.131	  0.823	 -3.181	 -1.226	 -22.309	 -0.126	  3.158	 -0.068	 28.600	 99.495	  0.422
67943	 -0.130	  0.140	  0.831	  3.165	  0.408	 -24.200	  0.014	 -1.684	  0.681	 28.700	 99.512	 -1.138
67993	  0.014	  0.170	  0.731	  4.030	  1.476	 -10.152	 -0.211	 -3.100	  0.625	 28.700	 99.500	 -0.036
68043	  0.119	  0.197	  0.630	  4.643	  2.353	  2.379	  0.340	 -2.072	  0.025	 28.700	 99.500	 -0.036
68093	  0.141	  0.223	  0.599	  0.862	  1.841	  7.263	  0.475	 -0.306	 -0.383	 28.600	 99.495	  0.422
68143	  0.107	  0.225	  0.650	 -4.128	 -2.358	 -2.468	  0.050	  1.620	  0.030	 28.700	 99.500	 -0.036
68193	 -0.035	  0.170	  0.776	 -6.920	 -3.378	 -19.523	 -0.327	  4.526	 -0.149	 28.700	 99.500	 -0.036
68243	 -0.141	  0.178	  0.822	  6.786	  0.769	 -27.123	  0.195	  0.491	  0.173	 28.700	 99.512	 -1.138
68293	 -0.043	  0.189	  0.765	  3.711	  0.565	 -13.744	 -0.297	 -2.770	  0.439	 28.700	 99.512	 -1.138
68343	  0.075	  0.207	  0.672	  3.696	  1.197	  0.273	 -0.287	 -2.108	 -0.024	 28.700	 99.500	 -0.036
68393	  0.104	  0.212	  0.640	  0.468	  1.153	  2.840	  0.320	 -0.194	 -0.106	 28.700	 99.500	 -0.036
68443	  0.084	  0.207	  0.670	 -4.032	 -3.258	 -7.723	 -0.261	  0.915	  0.105	 28.600	 99.495	  0.422
68493	  0.019	  0.163	  0.747	 -5.089	 -0.971	 -13.457	 -0.386	  1.852	  0.124	 28.700	 99.512	 -1.138
68543	  0.001	  0.153	  0.793	 -0.390	  1.231	 -16.778	  0.188	  0.143	  0.174	 28.700	 99.512	 -1.138
68593	  0.035	  0.166	  0.780	  0.801	  0.796	 -14.702	 -0.179	 -0.494	 -0.004	 28.600	 99.508	 -0.771
68643	  0.083	  0.187	  0.729	  2.307	  1.717	 -6.942	  0.186	 -1.474	  0.051	 28.700	 99.500	 -0.036
68693	  0.140	  0.207	  0.687	 -0.335	  0.895	 -4.272	  0.281	 -0.937	  0.029	 28.700	 99.500	 -0.036
68743	  0.150	  0.206	  0.683	 -0.107	 -0.261	 -5.087	 -0.022	  0.073	 -0.046	 28.600	 99.512	 -1.138
68793	  0.143	  0.204	  0.715	 -1.597	 -0.324	 -9.552	 -0.042	  0.612	 -0.038	 28.600	 99.495	  0.422
68843	  0.114	  0.184	  0.753	  0.156	 -0.115	 -10.404	 -0.153	  0.818	 -0.120	 28.700	 99.500	 -0.036
68893	  0.084	  0.171	  0.798	 -1.250	  0.932	 -10.553	 -0.003	  0.303	 -0.175	 28.600	 99.495	  0.422
68943	  0.073	  0.161	  0.822	 -0.703	  0.020	 -11.191	 -0.030	  0.082	 -0.010	 28.700	 99.500	 -0.036
68993	  0.063	  0.148	  0.828	 -0.960	  0.002	 -9.906	 -0.354	  0.085	 -0.201	 28.600	 99.495	  0.422
69043	  0.044	  0.119	  0.843	 -1.169	  0.496	 -9.137	 -0.463	  0.272	 -0.098	 28.700	 99.500	 -0.036
69093	  0.029	  0.098	  0.844	 -0.133	  0.116	 -9.374	 -0.300	  0.310	 -0.116	 28.700	 99.500	 -0.036
69143	  0.009	  0.086	  0.875	 -0.318	  0.554	 -9.571	 -0.308	  0.361	 -0.004	 28.700	 99.500	 -0.036
69193	 -0.001	  0.068	  0.887	 -0.271	  1.347	 -8.585	  0.017	  0.120	 -0.100	 28.700	 99.488	  1.066
69243	  0.000	  0.075	  0.900	 -1.251	  0.802	 -9.340	  0.271	 -0.177	  0.245	 28.700	 99.500	 -0.036
69293	  0.029	  0.084	  0.909	 -1.066	 -0.196	 -11.846	  0.422	 -0.391	  0.141	 28.700	 99.512	 -1.138
69343	  0.025	  0.071	  0.918	  0.176	 -0.107	 -8.919	 -0.454	  0.375	  0.009	 28.600	 99.500	 -0.036
69393	  0.014	  0.049	  0.925	  0.313	  0.539	 -9.227	 -0.336	  0.526	  0.017	 28.700	 99.500	 -0.036
69443	 -0.013	  0.019	  0.930	  0.553	  0.151	 -9.372	 -0.448	  0.684	 -0.383	 28.600	 99.508	 -0.771
69493	 -0.035	  0.004	  0.951	  0.664	  1.841	 -8.470	 -0.320	  0.529	 -0.001	 28.600	 99.508	 -0.771
69543	 -0.033	  0.000	  0.966	  0.497	  1.584	 -9.777	 -0.277	 -0.063	  0.168	 28.700	 99.512	 -1.138
69593	 -0.019	 -0.031	  0.981	  2.606	 -1.356	 -8.866	  0.403	 -0.288	  0.182	 28.700	 99.512	 -1.138
69643	  0.010	 -0.003	  0.989	  0.302	  1.382	 -11.025	  0.219	 -0.148	  0.129	 28.700	 99.500	 -0.036
69693	  0.013	 -0.008	  0.993	  0.778	  1.335	 -9.762	  0.131	 -0.028	 -0.105	 28.600	 99.495	  0.422
69743	  0.009	 -0.001	  0.996	  0.984	  0.871	 -9.591	  0.191	  0.087	 -0.286	 28.700	 99.500	 -0.036
69793	 -0.002	  0.015	  1.007	  0.805	  1.706	 -8.464	  0.277	  0.000	 -0.321	 28.700	 99.500	 -0.036
69843	 -0.004	  0.032	  1.013	 -0.735	  1.194	 -9.817	  0.421	 -0.224	 -0.022	 28.700	 99.500	 -0.036
69893	  0.016	  0.037	  1.014	  0.582	  1.277	 -8.798	  0.194	 -0.185	  0.497	 28.700	 99.500	 -0.036
69943	  0.024	  0.043	  1.013	  0.035	  1.095	 -9.261	  0.147	 -0.103	  0.240	 28.600	 99.495	  0.422
69993	  0.038	  0.040	  1.009	  1.001	  1.234	 -8.908	  0.038	 -0.173	  0.550	 28.700	 99.500	 -0.036
70043	  0.053	  0.030	  1.009	  0.603	 -0.098	 -9.918	  0.073	 -0.208	  0.291	 28.600	 99.495	  0.422
70093	  0.064	  0.038	  1.005	  0.706	  0.847	 -9.031	  0.006	 -0.262	  0.232	 28.700	 99.500	 -0.036
70144	  0.081	  0.037	  1.008	  2.205	  1.868	 -6.484	  0.254	 -0.509	  0.118	 28.700	 99.500	 -0.036
70193	  0.118	  0.093	  1.023	 -7.391	  3.191	 -12.430	  2.417	 -0.144	  0.009	 28.700	 99.500	 -0.036
70244	  0.114	  0.116	  1.017	 -0.723	 -1.661	 -9.677	 -0.474	 -0.077	  0.040	 28.600	 99.495	  0.422
70293	  0.120	  0.104	  1.024	 -0.119	  0.966	 -10.446	 -0.175	 -0.012	  0.010	 28.700	 99.500	 -0.036
70343	  0.116	  0.104	  1.024	 -0.472	  0.036	 -9.251	 -0.011	 -0.001	  0.019	 28.700	 99.500	 -0.036
70393	  0.116	  0.105	  1.019	 -0.453	 -0.038	 -9.384	  0.006	 -0.001	  0.020	 28.700	 99.512	 -1.138
70443	  0.115	  0.109	  1.021	 -0.343	 -0.164	 -9.424	  0.005	 -0.002	  0.019	 28.700	 99.512	 -1.138
70493	  0.117	  0.111	  1.023	 -0.343	 -0.174	 -9.500	  0.006	 -0.001	  0.019	 28.700	 99.500	 -0.036
70543	  0.114	  0.113	  1.016	 -0.411	 -0.177	 -9.511	  0.002	 -0.001	  0.018	 28.700	 99.500	 -0.036
70594	  0.114	  0.116	  1.021	 -0.317	 -0.226	 -9.495	  0.002	 -0.001	  0.018	 28.700	 99.524	 -2.240
70643	  0.116	  0.105	  1.021	 -0.433	 -0.132	 -9.486	  0.003	 -0.002	  0.020	 28.700	 99.500	 -0.036
70694	  0.117	  0.108	  1.021	 -0.324	 -0.209	 -9.508	  0.002	  0.000	  0.019	 28.700	 99.500	 -0.036
70743	  0.113	  0.114	  1.020	 -0.430	 -0.130	 -9.493	  0.003	 -0.001	  0.019	 28.600	 99.495	  0.422
70794	  0.115	  0.103	  1.024	 -0.328	 -0.181	 -9.437	  0.003	 -0.001	  0.021	 28.700	 99.500	 -0.036
70843	  0.114	  0.114	  1.024	 -0.409	 -0.152	 -9.488	  0.003	 -0.001	  0.019	 28.600	 99.495	  0.422
70894	  0.112	  0.107	  1.015	 -0.409	 -0.179	 -9.497	  0.000	 -0.001	  0.020	 28.700	 99.500	 -0.036
70944	  0.113	  0.109	  1.020	 -0.350	 -0.153	 -9.451	  0.003	 -0.003	  0.018	 28.700	 99.500	 -0.036
70994	  0.116	  0.104	  1.022	 -0.386	 -0.165	 -9.487	  0.004	 -0.002	  0.020	 28.600	 99.495	  0.422
71044	  0.115	  0.114	  1.020	 -0.330	 -0.163	 -9.490	  0.004	 -0.001	  0.020	 28.700	 99.500	 -0.036
71094	  0.115	  0.121	  1.024	 -0.437	 -0.096	 -9.508	  0.002	  0.002	  0.019	 28.700	 99.512	 -1.138
71144	  0.113	  0.104	  1.021	 -0.152	 -0.440	 -9.795	 -0.022	  0.002	  0.016	 28.700	 99.500	 -0.036
71194	  0.113	  0.108	  1.025	 -0.196	 -0.203	 -9.511	  0.005	 -0.004	  0.019	 28.600	 99.483	  1.524
71244	  0.117	  0.113	  1.023	 -0.368	 -0.210	 -9.492	  0.004	  0.001	  0.018	 28.700	 99.500	 -0.036
71294	  0.115	  0.112	  1.021	 -0.301	 -0.194	 -9.498	  0.000	 -0.001	  0.020	 28.700	 99.500	 -0.036
71344	  0.111	  0.112	  1.025	 -0.423	 -0.180	 -9.496	  0.001	  0.001	  0.019	 28.700	 99.500	 -0.036
71394	  0.116	  0.111	  1.019	 -0.310	 -0.104	 -9.446	  0.001	 -0.002	  0.021	 28.700	 99.500	 -0.036
71444	  0.114	  0.113	  1.023	 -0.438	 -0.147	 -9.459	  0.005	 -0.001	  0.019	 28.700	 99.504	 -0.403
71494	  0.114	  0.111	  1.017	 -0.326	 -0.203	 -9.468	  0.002	 -0.001	  0.021	 28.700	 99.500	 -0.036
71544	  0.115	  0.117	  1.015	 -0.371	 -0.221	 -9.533	  0.003	 -0.002	  0.020	 28.700	 99.512	 -1.138
71594	  0.116	  0.117	  1.020	 -0.258	 -0.198	 -9.428	  0.006	 -0.003	  0.019	 28.700	 99.500	 -0.036
71644	  0.114	  0.108	  1.019	 -0.301	 -0.365	 -9.396	  0.009	 -0.001	  0.021	 28.600	 99.508	 -0.771
71694	  0.115	  0.109	  1.019	 -0.426	 -0.123	 -9.473	  0.006	  0.002	  0.020	 28.700	 99.500	 -0.036
71744	  0.115	  0.111	  1.021	 -0.317	 -0.239	 -9.517	 -0.003	  0.000	  0.018	 28.700	 99.500	 -0.036
71794	  0.116	  0.121	  1.021	 -0.384	 -0.089	 -9.414	  0.002	 -0.001	  0.022	 28.700	 99.500	 -0.036
71844	  0.116	  0.112	  1.023	 -0.314	 -0.178	 -9.470	  0.001	  0.000	  0.020	 28.700	 99.512	 -1.138
71894	  0.110	  0.105	  1.021	 -0.406	 -0.195	 -9.423	  0.005	 -0.001	  0.020	 28.700	 99.488	  1.066
71944	  0.116	  0.108	  1.019	 -0.347	 -0.185	 -9.463	  0.004	 -0.001	  0.020	 28.700	 99.500	 -0.036
71994	  0.117	  0.111	  1.020	 -0.354	 -0.189	 -9.512	 -0.001	 -0.002	  0.019	 28.700	 99.512	 -1.138
72044	  0.115	  0.108	  1.021	 -0.408	 -0.264	 -9.508	  0.004	  0.000	  0.018	 28.700	 99.500	 -0.036
72094	  0.114	  0.114	  1.025	 -0.291	 -0.185	 -9.454	  0.005	 -0.001	  0.019	 28.700	 99.500	 -0.036
72144	  0.117	  0.113	  1.019	 -0.434	 -0.145	 -9.472	  0.002	 -0.002	  0.019	 28.700	 99.512	 -1.138
72194	  0.115	  0.107	  1.019	 -0.322	 -0.167	 -9.475	  0.004	 -0.001	  0.019	 28.700	 99.500	 -0.036
72243	  0.117	  0.116	  1.020	 -0.437	 -0.129	 -9.491	  0.003	 -0.001	  0.019	 28.600	 99.508	 -0.771
72294	  0.115	  0.107	  1.024	 -0.337	 -0.205	 -9.437	  0.002	 -0.000	  0.019	 28.700	 99.500	 -0.036
72343	  0.113	  0.105	  1.011	 -0.381	 -0.160	 -9.472	 -0.001	 -0.000	  0.018	 28.700	 99.500	 -0.036
72393	  0.113	  0.105	  1.021	 -0.118	 -0.126	 -9.323	  0.011	 -0.008	  0.019	 28.700	 99.500	 -0.036
72443	  0.113	  0.107	  1.020	 -0.329	 -0.177	 -9.484	 -0.004	 -0.003	  0.021	 28.700	 99.500	 -0.036
72493	  0.116	  0.107	  1.021	 -0.481	  0.004	 -9.386	  0.004	  0.001	  0.020	 28.700	 99.500	 -0.036
72543	  0.114	  0.111	  1.017	 -0.260	 -0.561	 -9.745	  0.010	 -0.000	  0.021	 28.700	 99.512	 -1.138
72593	  0.116	  0.111	  1.024	 -0.407	 -0.115	 -9.441	  0.000	 -0.001	  0.019	 28.700	 99.512	 -1.138
72643	  0.117	  0.111	  1.020	 -0.207	 -0.424	 -9.756	 -0.009	 -0.003	  0.017	 28.600	 99.495	  0.422
72693	  0.115	  0.111	  1.024	 -0.374	 -0.189	 -9.525	  0.003	 -0.001	  0.019	 28.700	 99.512	 -1.138
72743	  0.119	  0.105	  1.024	 -0.397	 -0.179	 -9.464	 -0.001	 -0.000	  0.019	 28.700	 99.512	 -1.138
72793	  0.117	  0.112	  1.023	 -0.355	 -0.157	 -9.490	  0.004	  0.002	  0.019	 28.700	 99.500	 -0.036
72843	  0.115	  0.112	  1.020	 -0.395	 -0.164	 -9.435	  0.004	 -0.001	  0.021	 28.700	 99.500	 -0.036
72893	  0.120	  0.116	  1.015	 -0.326	 -0.174	 -9.471	  0.004	 -0.001	  0.019	 28.700	 99.512	 -1.138
72943	  0.119	  0.107	  1.020	 -0.395	 -0.149	 -9.423	  0.004	  0.000	  0.018	 28.700	 99.500	 -0.036
72993	  0.114	  0.111	  1.019	 -0.310	 -0.184	 -9.443	 -0.003	 -0.002	  0.017	 28.700	 99.500	 -0.036
73043	  0.117	  0.105	  1.019	 -0.424	 -0.144	 -9.475	  0.008	 -0.002	  0.017	 28.700	 99.512	 -1.138
73093	  0.114	  0.105	  1.020	  0.897	 -2.680	 -10.342	 -0.384	 -0.144	  0.017	 28.700	 99.500	 -0.036
73143	  0.126	  0.074	  1.029	 -0.957	  0.644	 -8.773	 -0.597	  0.164	  0.045	 28.700	 99.504	 -0.403
73193	  0.129	  0.069	  1.029	 -0.997	  3.106	 -6.768	  0.871	 -0.233	  0.300	 28.700	 99.512	 -1.138
73243	  0.139	  0.103	  1.035	 -0.079	 -2.154	 -9.954	 -0.079	 -0.021	  0.028	 28.700	 99.500	 -0.036
73294	  0.140	  0.104	  1.038	 -0.189	 -0.183	 -10.354	 -0.114	 -0.008	  0.014	 28.700	 99.500	 -0.036
73343	  0.139	  0.099	  1.033	 -0.402	 -0.061	 -9.376	 -0.003	 -0.002	  0.020	 28.700	 99.500	 -0.036
73393	  0.140	  0.099	  1.036	 -0.412	 -0.111	 -9.472	  0.004	 -0.001	  0.019	 28.700	 99.500	 -0.036
73443	  0.138	  0.099	  1.037	 -0.347	 -0.167	 -9.489	  0.004	 -0.000	  0.018	 28.700	 99.500	 -0.036
73493	  0.138	  0.102	  1.032	 -0.373	 -0.150	 -9.507	  0.005	 -0.001	  0.021	 28.700	 99.500	 -0.036
73543	  0.140	  0.107	  1.036	 -0.376	 -0.205	 -9.492	  0.004	  0.000	  0.020	 28.700	 99.488	  1.066
73593	  0.139	  0.096	  1.032	 -0.398	 -0.158	 -9.458	  0.008	  0.000	  0.021	 28.700	 99.500	 -0.036
73643	  0.140	  0.094	  1.024	 -0.444	 -0.161	 -9.488	  0.006	 -0.000	  0.019	 28.700	 99.512	 -1.138
73693	  0.139	  0.092	  1.031	 -0.309	 -0.170	 -9.414	  0.004	 -0.001	  0.019	 28.700	 99.500	 -0.036
73743	  0.139	  0.094	  1.033	 -0.408	 -0.119	 -9.471	  0.003	 -0.001	  0.020	 28.700	 99.500	 -0.036
73793	  0.134	  0.096	  1.037	 -0.377	 -0.056	 -9.433	  0.002	 -0.000	  0.017	 28.700	 99.500	 -0.036
73843	  0.140	  0.094	  1.036	 -0.044	 -0.372	 -9.549	 -0.006	 -0.001	  0.018	 28.700	 99.500	 -0.036
73893	  0.138	  0.096	  1.035	 -0.425	 -0.162	 -9.521	  0.004	 -0.001	  0.019	 28.700	 99.500	 -0.036
73943	  0.137	  0.094	  1.031	 -0.196	 -0.518	 -9.702	 -0.037	 -0.015	  0.022	 28.700	 99.500	 -0.036
73993	  0.137	  0.090	  1.035	 -0.779	  0.443	 -9.160	 -0.075	 -0.017	  0.022	 28.700	 99.504	 -0.403
74043	  0.139	  0.083	  1.027	 -0.402	 -0.455	 -9.767	 -0.128	 -0.013	  0.022	 28.600	 99.500	 -0.036
74093	  0.132	  0.077	  1.029	  0.686	 -0.482	 -8.950	 -0.042	 -0.038	  0.023	 28.700	 99.500	 -0.036
74143	  0.136	  0.067	  1.036	 -0.411	 -0.203	 -9.716	 -0.244	 -0.020	  0.025	 28.700	 99.500	 -0.036
74193	  0.132	  0.063	  1.035	 -0.033	  0.302	 -9.255	  0.034	  0.000	 -0.015	 28.700	 99.504	 -0.403
74243	  0.127	  0.069	  1.040	 -0.103	 -0.376	 -9.705	  0.078	  0.009	 -0.369	 28.700	 99.500	 -0.036
74293	  0.117	  0.069	  1.033	 -0.446	  0.476	 -9.231	  0.003	  0.010	 -0.487	 28.700	 99.500	 -0.036
74343	  0.111	  0.072	  1.043	 -0.366	 -0.182	 -9.755	 -0.041	  0.006	 -0.200	 28.700	 99.512	 -1.138
74393	  0.101	  0.082	  1.048	 -0.068	  0.892	 -8.788	  0.019	  0.009	 -0.371	 28.700	 99.500	 -0.036
74443	  0.102	  0.083	  1.048	 -0.422	 -0.314	 -9.816	  0.082	  0.026	 -0.047	 28.700	 99.500	 -0.036
74493	  0.098	  0.087	  1.047	 -0.841	  0.315	 -9.586	 -0.050	 -0.002	 -0.012	 28.700	 99.516	 -1.505
74543	  0.100	  0.083	  1.047	 -0.355	  0.417	 -9.226	  0.030	 -0.003	  0.018	 28.700	 99.500	 -0.036
74593	  0.096	  0.089	  1.045	 -0.354	 -0.369	 -9.786	  0.056	  0.006	  0.014	 28.700	 99.500	 -0.036
74643	  0.098	  0.087	  1.054	 -0.028	 -0.229	 -9.564	 -0.096	 -0.006	  0.005	 28.700	 99.500	 -0.036
74693	  0.093	  0.087	  1.051	 -0.362	  0.333	 -9.331	 -0.042	  0.006	 -0.252	 28.700	 99.500	 -0.036
74743	  0.091	  0.090	  1.056	 -0.580	  0.370	 -9.306	  0.112	  0.013	 -0.231	 28.700	 99.500	 -0.036
74793	  0.084	  0.094	  1.061	 -0.258	 -0.107	 -9.623	  0.095	  0.025	 -0.023	 28.700	 99.504	 -0.403
74843	  0.083	  0.102	  1.059	 -0.684	 -0.079	 -9.757	  0.011	  0.066	  0.026	 28.700	 99.500	 -0.036
74893	  0.079	  0.099	  1.061	 -0.512	  0.276	 -8.833	 -0.113	  0.038	 -0.041	 28.700	 99.500	 -0.036
74943	  0.098	  0.099	  1.048	 -1.001	 -0.595	 -13.188	  0.240	  0.089	  0.251	 28.700	 99.488	  1.066
74993	  0.110	  0.092	  1.046	 -0.356	  0.353	 -9.367	 -0.174	 -0.052	  0.225	 28.700	 99.500	 -0.036
75043	  0.116	  0.086	  1.046	  0.545	  0.100	 -8.928	 -0.046	 -0.012	  0.116	 28.700	 99.504	 -0.403
75093	  0.118	  0.092	  1.051	 -0.269	 -0.025	 -9.524	  0.097	  0.024	  0.015	 28.700	 99.500	 -0.036
75143	  0.120	  0.093	  1.050	 -0.297	 -0.214	 -9.672	 -0.052	 -0.013	  0.019	 28.700	 99.500	 -0.036
75193	  0.120	  0.090	  1.043	 -0.280	  0.125	 -9.458	  0.036	  0.007	  0.021	 28.700	 99.488	  1.066
75243	  0.115	  0.088	  1.049	 -0.245	 -0.265	 -9.668	 -0.137	 -0.036	  0.021	 28.700	 99.500	 -0.036
75293	  0.120	  0.083	  1.048	 -0.823	  0.406	 -9.517	 -0.140	  0.079	  0.120	 28.700	 99.488	  1.066
75343	  0.118	  0.072	  1.048	  0.311	  0.153	 -9.210	 -0.123	 -0.000	  0.041	 28.700	 99.504	 -0.403
75393	  0.119	  0.073	  1.044	 -0.308	  0.722	 -9.069	  0.076	 -0.022	  0.117	 28.700	 99.504	 -0.403
75443	  0.116	  0.075	  1.045	 -0.205	  0.593	 -9.146	  0.194	 -0.033	 -0.116	 28.700	 99.500	 -0.036
75493	  0.121	  0.097	  1.050	  0.102	 -1.018	 -10.512	  0.106	  0.039	  0.019	 28.700	 99.512	 -1.138
75543	  0.119	  0.088	  1.042	 -0.200	 -0.420	 -9.806	 -0.052	 -0.013	  0.021	 28.700	 99.500	 -0.036
75593	  0.119	  0.079	  1.040	 -0.838	  0.486	 -9.428	 -0.139	  0.004	  0.058	 28.700	 99.504	 -0.403
75643	  0.125	  0.096	  1.043	  2.487	 -3.682	 -17.125	  0.393	 -0.128	  1.459	 28.700	 99.492	  0.699
75693	  0.112	  0.077	  1.033	 -0.601	 -3.517	 -12.992	 -0.014	 -0.012	 -0.570	 28.700	 99.500	 -0.036
75743	  0.077	  0.084	  1.033	 -3.222	 -0.934	 -9.493	  0.027	 -0.015	 -0.500	 28.700	 99.500	 -0.036
75793	  0.072	  0.082	  1.033	 -0.383	 -0.014	 -9.384	  0.013	 -0.002	  0.020	 28.700	 99.504	 -0.403
75843	  0.072	  0.084	  1.033	 -0.451	 -0.260	 -9.912	 -0.006	 -0.002	  0.022	 28.700	 99.500	 -0.036
75893	  0.071	  0.078	  1.031	 -0.466	  0.010	 -9.420	  0.009	 -0.002	  0.022	 28.700	 99.500	 -0.036
75942	  0.075	  0.081	  1.025	 -0.308	 -0.004	 -9.512	  0.004	 -0.001	  0.019	 28.700	 99.512	 -1.138
75993	  0.073	  0.088	  1.032	 -0.333	 -0.011	 -9.479	  0.007	 -0.001	  0.019	 28.700	 99.488	  1.066
76043	  0.073	  0.085	  1.027	 -0.305	 -0.116	 -9.551	  0.015	  0.009	  0.018	 28.700	 99.488	  1.066
76093	  0.071	  0.082	  1.033	  0.127	 -0.830	 -9.836	 -0.014	 -0.005	  0.023	 28.700	 99.500	 -0.036
76143	  0.072	  0.090	  1.028	 -0.227	 -0.282	 -9.689	  0.002	 -0.002	  0.020	 28.700	 99.512	 -1.138
76192	  0.073	  0.083	  1.027	 -0.395	 -0.051	 -9.509	  0.000	 -0.003	  0.020	 28.700	 99.504	 -0.403
76242	  0.071	  0.086	  1.022	 -0.307	 -0.073	 -9.511	  0.036	  0.021	  0.018	 28.700	 99.500	 -0.036
76292	  0.071	  0.102	  1.031	 -0.400	 -0.001	 -9.458	  0.019	  0.010	  0.018	 28.700	 99.500	 -0.036
76342	  0.068	  0.089	  1.028	 -0.436	  0.118	 -9.381	  0.105	  0.071	  0.015	 28.700	 99.504	 -0.403
76393	  0.071	  0.090	  1.031	 -0.376	 -0.138	 -9.576	 -0.001	  0.004	  0.023	 28.700	 99.504	 -0.403
76444	  0.067	  0.088	  1.032	 -0.354	 -0.042	 -9.469	 -0.010	 -0.009	  0.018	 28.700	 99.512	 -1.138
76494	  0.068	  0.093	  1.031	 -0.338	 -0.036	 -9.480	 -0.021	 -0.017	  0.020	 28.700	 99.512	 -1.138
76544	  0.073	  0.088	  1.035	 -0.367	 -0.027	 -9.508	 -0.025	 -0.021	  0.020	 28.700	 99.516	 -1.505
76593	  0.073	  0.084	  1.030	 -0.312	  0.005	 -9.437	  0.005	  0.002	  0.019	 28.700	 99.500	 -0.036
76643	  0.071	  0.085	  1.032	 -0.500	  0.168	 -9.377	  0.036	  0.023	  0.021	 28.700	 99.500	 -0.036
76693	  0.068	  0.095	  1.028	  0.067	 -0.643	 -9.752	 -0.032	 -0.026	  0.022	 28.700	 99.504	 -0.403
76743	  0.075	  0.084	  1.022	 -0.092	  1.088	 -9.780	 -0.026	 -0.056	  0.990	 28.700	 99.500	 -0.036
76793	  0.077	  0.073	  1.023	  0.229	  0.364	 -9.634	  0.012	 -0.061	  1.593	 28.700	 99.500	 -0.036
76843	  0.083	  0.054	  1.016	 -0.719	  0.174	 -8.077	  0.087	 -0.009	  1.181	 28.700	 99.500	 -0.036
76893	  0.074	  0.045	  1.011	 -0.484	 -1.490	 -10.217	  0.015	 -0.027	  0.716	 28.700	 99.500	 -0.036
76943	  0.071	  0.041	  1.024	  1.147	  1.582	 -6.629	 -0.029	 -0.066	  0.888	 28.700	 99.500	 -0.036
76993	  0.060	  0.035	  1.021	  0.273	 -0.334	 -9.458	 -0.041	 -0.173	  1.218	 28.700	 99.504	 -0.403
77043	  0.044	  0.035	  1.024	  0.876	 -0.288	 -9.663	 -0.288	 -0.396	  0.805	 28.700	 99.504	 -0.403
77093	  0.019	  0.033	  1.017	  0.028	  0.255	 -6.900	  0.083	 -0.421	  0.568	 28.700	 99.504	 -0.403
77143	  0.015	  0.036	  1.010	 -2.892	  0.769	 -8.089	 -0.137	 -0.330	  0.997	 28.700	 99.504	 -0.403
77193	  0.019	  0.030	  1.014	  1.227	 -0.049	 -10.608	 -0.085	 -0.137	  0.759	 28.700	 99.504	 -0.403
77243	  0.004	  0.043	  1.009	 -0.008	  0.123	 -9.434	  0.339	  0.282	 -0.238	 28.700	 99.500	 -0.036
77293	 -0.057	  0.092	  1.012	 -1.698	 -0.651	 -9.228	  0.722	  0.888	 -0.285	 28.700	 99.504	 -0.403
77343	 -0.128	  0.130	  1.000	 -0.142	 -2.647	 -11.063	 -0.220	  1.156	  0.094	 28.700	 99.512	 -1.138
77393	 -0.181	  0.126	  0.988	  0.574	 -0.284	 -9.210	 -0.536	  0.598	  0.572	 28.700	 99.504	 -0.403
77443	 -0.203	  0.123	  0.990	  0.815	 -0.002	 -8.705	 -0.335	  0.026	  0.541	 28.700	 99.504	 -0.403
77493	 -0.193	  0.138	  0.992	 -0.348	 -0.969	 -10.042	 -0.246	 -0.210	  0.702	 28.700	 99.500	 -0.036
77543	 -0.185	  0.169	  0.987	 -0.378	 -0.479	 -9.518	  0.091	 -0.091	  0.848	 28.700	 99.516	 -1.505
77593	 -0.173	  0.219	  0.990	 -0.261	 -0.508	 -10.302	 -0.032	  0.025	  0.761	 28.700	 99.500	 -0.036
77643	 -0.134	  0.268	  0.974	  0.750	 -1.158	 -10.408	  0.101	 -0.404	  1.067	 28.700	 99.492	  0.699
77693	 -0.050	  0.317	  0.921	  0.238	 -0.654	 -9.052	 -0.154	 -1.053	  0.937	 28.700	 99.504	 -0.403
77743	  0.047	  0.325	  0.854	 -0.970	 -0.649	 -9.299	 -0.213	 -1.012	  1.287	 28.700	 99.500	 -0.036
77793	  0.140	  0.327	  0.768	 -1.286	 -0.268	 -8.663	  0.016	 -0.680	  1.554	 28.700	 99.504	 -0.403
77843	  0.206	  0.308	  0.691	 -1.667	  0.811	 -8.407	  0.033	 -0.159	  1.682	 28.700	 99.516	 -1.505
77893	  0.234	  0.279	  0.619	 -2.019	  0.958	 -8.934	  0.260	  0.393	  1.724	 28.700	 99.504	 -0.403
77943	  0.248	  0.231	  0.572	 -0.239	  0.595	 -9.639	  0.179	  0.496	  1.821	 28.700	 99.504	 -0.403
77993	  0.252	  0.184	  0.529	  0.858	  1.029	 -10.419	 -0.086	  0.127	  1.346	 28.700	 99.492	  0.699
78043	  0.261	  0.131	  0.494	 -0.428	  1.098	 -10.518	 -0.098	 -0.079	  1.448	 28.700	 99.504	 -0.403
78093	  0.257	  0.088	  0.468	 -0.010	  1.397	 -11.331	  0.038	  0.054	  1.146	 28.700	 99.504	 -0.403
78143	  0.243	  0.040	  0.446	 -0.597	  1.117	 -12.004	  0.178	  0.400	  0.945	 28.700	 99.504	 -0.403
78193	  0.226	  0.011	  0.428	  0.563	  1.007	 -10.820	  0.563	  0.304	  0.966	 28.700	 99.500	 -0.036
78243	  0.216	 -0.008	  0.424	 -0.557	 -0.361	 -11.370	  0.468	  0.150	  0.716	 28.700	 99.492	  0.699
78293	  0.199	 -0.027	  0.416	  0.475	 -0.094	 -10.899	  0.183	  0.106	  0.709	 28.700	 99.492	  0.699
78343	  0.187	 -0.059	  0.407	  0.070	  0.017	 -9.695	 -0.231	 -0.210	  0.766	 28.700	 99.500	 -0.036
78393	  0.171	 -0.090	  0.391	  0.178	  0.545	 -9.941	 -0.052	 -0.087	  0.869	 28.700	 99.504	 -0.403
78443	  0.160	 -0.116	  0.382	  0.962	  1.089	 -9.110	 -0.023	 -0.031	  0.788	 28.700	 99.504	 -0.403
78493	  0.144	 -0.123	  0.377	  0.724	 -0.312	 -9.805	  0.150	  0.085	  0.580	 28.700	 99.504	 -0.403
78543	  0.130	 -0.137	  0.374	  0.872	  0.566	 -8.167	 -0.233	  0.007	  0.552	 28.700	 99.504	 -0.403
78593	  0.116	 -0.140	  0.368	  0.695	  0.374	 -8.307	 -0.072	 -0.011	  0.364	 28.700	 99.504	 -0.403
78644	  0.106	 -0.147	  0.366	 -0.020	  1.398	 -7.471	  0.123	 -0.027	  0.363	 28.700	 99.504	 -0.403
78694	  0.103	 -0.146	  0.367	  0.332	  0.760	 -8.312	  0.246	  0.011	  0.343	 28.700	 99.504	 -0.403
78744	  0.096	 -0.140	  0.366	 -0.392	  0.739	 -8.659	  0.053	 -0.041	  0.376	 28.700	 99.492	  0.699
78793	  0.094	 -0.152	  0.364	 -0.227	  0.753	 -8.366	 -0.114	 -0.141	  0.499	 28.700	 99.492	  0.699
78843	  0.086	 -0.159	  0.364	 -0.823	  1.073	 -8.432	 -0.199	 -0.050	  0.417	 28.700	 99.520	 -1.872
78893	  0.082	 -0.164	  0.358	 -0.426	  1.334	 -8.115	 -0.065	 -0.218	  0.616	 28.700	 99.492	  0.699
78943	  0.076	 -0.176	  0.357	 -1.168	  1.158	 -8.391	 -0.137	 -0.334	  0.529	 28.700	 99.492	  0.699
78993	  0.072	 -0.175	  0.352	 -1.192	  1.733	 -8.495	  0.049	 -0.196	  0.576	 28.700	 99.504	 -0.403
79043	  0.068	 -0.169	  0.349	 -1.231	  2.128	 -7.942	  0.083	 -0.117	  0.475	 28.700	 99.504	 -0.403
79093	  0.060	 -0.183	  0.349	 -0.977	  1.658	 -8.975	  0.251	 -0.111	  0.538	 28.700	 99.492	  0.699
79143	  0.059	 -0.175	  0.348	 -1.065	  1.215	 -8.606	  0.145	 -0.461	  0.541	 28.700	 99.488	  1.066
79193	  0.062	 -0.174	  0.338	 -1.941	  1.355	 -9.355	  0.255	 -0.893	  0.863	 28.700	 99.516	 -1.505
79243	  0.068	 -0.175	  0.335	 -1.895	  0.754	 -10.241	  0.168	 -0.381	  0.631	 28.700	 99.492	  0.699
79293	  0.058	 -0.167	  0.336	 -0.857	  0.687	 -11.180	  0.419	  0.170	  0.685	 28.700	 99.492	  0.699
79343	  0.041	 -0.162	  0.345	  0.798	  0.317	 -10.837	  0.253	  0.776	  0.247	 28.700	 99.492	  0.699
79393	  0.024	 -0.149	  0.347	  1.945	  0.121	 -9.925	  0.219	  0.710	  0.091	 28.700	 99.492	  0.699
79443	  0.007	 -0.145	  0.363	  2.344	 -0.339	 -9.366	 -0.037	  0.137	 -0.192	 28.700	 99.504	 -0.403
79493	  0.012	 -0.133	  0.355	  1.854	 -0.463	 -8.740	  0.038	 -0.469	 -0.888	 28.700	 99.492	  0.699
79543	  0.037	 -0.104	  0.357	 -0.096	 -0.431	 -9.751	 -0.155	 -0.904	 -1.115	 28.700	 99.504	 -0.403
79593	  0.060	 -0.111	  0.342	 -0.982	  0.428	 -9.763	 -0.452	 -0.893	 -1.050	 28.700	 99.504	 -0.403
79643	  0.080	 -0.105	  0.334	 -1.891	  0.533	 -9.028	 -0.501	 -0.336	 -0.962	 28.700	 99.492	  0.699
79693	  0.084	 -0.103	  0.342	 -0.869	  0.899	 -9.199	 -0.419	  0.214	 -1.084	 28.700	 99.492	  0.699
79743	  0.084	 -0.093	  0.345	 -0.776	  1.315	 -8.678	 -0.156	  0.265	 -1.166	 28.700	 99.492	  0.699
79793	  0.081	 -0.082	  0.351	 -0.024	  0.430	 -8.853	 -0.025	  0.209	 -0.964	 28.700	 99.492	  0.699
79843	  0.084	 -0.068	  0.342	 -0.463	  0.158	 -9.429	 -0.448	 -0.204	 -1.409	 28.700	 99.504	 -0.403
79893	  0.091	 -0.052	  0.350	 -1.125	  0.990	 -9.244	 -0.398	 -0.032	 -1.129	 28.700	 99.492	  0.699
79943	  0.093	 -0.052	  0.348	 -0.670	  0.424	 -9.479	 -0.455	  0.106	 -1.104	 28.700	 99.492	  0.699
79993	  0.095	 -0.050	  0.350	  0.037	  0.649	 -10.014	 -0.420	 -0.100	 -1.102	 28.700	 99.516	 -1.505
80043	  0.099	 -0.036	  0.351	 -1.304	  1.336	 -10.848	 -0.443	 -0.186	 -1.470	 28.700	 99.492	  0.699
80093	  0.101	 -0.029	  0.355	 -1.534	  2.062	 -10.385	 -0.067	  0.252	 -1.617	 28.700	 99.500	 -0.036
80143	  0.094	 -0.011	  0.354	 -1.760	  1.350	 -9.487	  0.000	  0.634	 -1.247	 28.700	 99.492	  0.699
80193	  0.076	  0.004	  0.373	 -0.749	  1.616	 -8.600	 -0.086	  0.720	 -0.946	 28.700	 99.504	 -0.403
80243	  0.061	  0.023	  0.379	  0.087	  1.530	 -8.051	 -0.085	  0.671	 -0.850	 28.700	 99.500	 -0.036
80293	  0.047	  0.023	  0.388	 -0.028	  1.449	 -8.352	 -0.153	  0.482	 -0.963	 28.700	 99.504	 -0.403
80343	  0.030	  0.028	  0.390	 -0.121	  1.993	 -8.827	 -0.154	  0.309	 -0.846	 28.700	 99.504	 -0.403
80393	  0.030	  0.029	  0.390	 -0.160	  1.328	 -9.646	 -0.076	 -0.213	 -0.436	 28.700	 99.500	 -0.036
80443	  0.038	  0.035	  0.396	 -0.669	  1.416	 -9.803	 -0.119	 -0.420	 -0.482	 28.700	 99.488	  1.066
80493	  0.041	  0.043	  0.387	 -1.539	  1.755	 -10.186	 -0.207	 -0.279	 -0.303	 28.700	 99.504	 -0.403
