Time	 MagX	 MagY	 MagZ	 AccelX	 AccelY	 AccelZ	 Yaw	 Pitch	 Roll	 Temperature	 Pressure	 Altitude
15223	  0.106	 -0.305	  0.181	 -0.015	 -0.177	 -9.473	  0.003	 -0.001	  0.011	 29.800	 99.483	 -99999.000
15273	  0.105	 -0.303	  0.183	  0.008	 -0.204	 -9.488	  0.002	 -0.001	  0.010	 29.900	 99.500	 -99999.000
15323	  0.105	 -0.292	  0.177	  0.042	 -0.215	 -9.470	  0.002	 -0.000	  0.010	 29.800	 99.483	 -99999.000
15373	  0.104	 -0.302	  0.183	  0.038	 -0.196	 -9.469	  0.002	 -0.002	  0.011	 29.800	 99.495	 -99999.000
15423	  0.104	 -0.305	  0.181	  0.028	 -0.201	 -9.505	  0.003	 -0.002	  0.011	 29.800	 99.483	 -99999.000
15473	  0.104	 -0.289	  0.177	  0.024	 -0.221	 -9.503	  0.003	 -0.000	  0.010	 29.800	 99.483	 -99999.000
15523	  0.105	 -0.305	  0.177	  0.035	 -0.199	 -9.489	  0.003	 -0.000	  0.011	 29.800	 99.471	 -99999.000
15572	  0.105	 -0.307	  0.185	  0.041	 -0.197	 -9.492	  0.002	 -0.001	  0.011	 29.800	 99.471	 -99999.000
15622	  0.106	 -0.306	  0.181	  0.026	 -0.195	 -9.481	  0.002	 -0.000	  0.010	 29.800	 99.483	 -99999.000
15672	  0.105	 -0.306	  0.183	  0.025	 -0.226	 -9.491	  0.002	 -0.001	  0.011	 29.800	 99.479	 -99999.000
15722	  0.104	 -0.306	  0.181	  0.018	 -0.185	 -9.507	  0.002	 -0.001	  0.011	 29.800	 99.483	 -99999.000
15772	  0.102	 -0.297	  0.181	  0.046	 -0.203	 -9.497	  0.003	 -0.000	  0.011	 29.800	 99.495	 -99999.000
15822	  0.104	 -0.301	  0.178	  0.022	 -0.190	 -9.481	  0.002	 -0.001	  0.011	 29.800	 99.483	 -99999.000
15872	  0.105	 -0.305	  0.183	  0.061	 -0.202	 -9.465	  0.003	 -0.001	  0.012	 29.800	 99.483	 -99999.000
15922	  0.105	 -0.306	  0.177	  0.015	 -0.200	 -9.535	  0.002	 -0.002	  0.011	 29.800	 99.483	 -99999.000
15972	  0.101	 -0.306	  0.177	  0.084	 -0.232	 -9.465	  0.002	 -0.001	  0.011	 29.800	 99.483	 -99999.000
16022	  0.106	 -0.302	  0.176	  0.023	 -0.203	 -9.513	  0.003	 -0.002	  0.010	 29.800	 99.495	 -99999.000
16072	  0.105	 -0.302	  0.184	  0.069	 -0.200	 -9.473	  0.002	 -0.000	  0.011	 29.800	 99.483	 -99999.000
16122	  0.107	 -0.305	  0.181	 -0.023	 -0.180	 -9.533	  0.002	  0.000	  0.010	 29.800	 99.495	 -99999.000
16172	  0.106	 -0.302	  0.185	  0.061	 -0.195	 -9.447	  0.002	  0.000	  0.011	 29.800	 99.495	 -99999.000
16222	  0.107	 -0.303	  0.181	 -0.012	 -0.160	 -9.480	  0.002	 -0.001	  0.010	 29.800	 99.483	 -99999.000
16272	  0.101	 -0.306	  0.173	  0.109	 -0.224	 -9.451	  0.002	 -0.000	  0.010	 29.800	 99.483	 -99999.000
16322	  0.102	 -0.307	  0.184	 -0.001	 -0.193	 -9.497	  0.002	 -0.002	  0.011	 29.800	 99.483	 -99999.000
16372	  0.106	 -0.306	  0.177	  0.050	 -0.219	 -9.476	  0.002	  0.000	  0.012	 29.800	 99.483	 -99999.000
16422	  0.104	 -0.303	  0.177	 -0.012	 -0.200	 -9.466	  0.002	 -0.000	  0.010	 29.800	 99.495	 -99999.000
25448	  0.105	 -0.297	  0.178	 -0.029	 -0.213	 -9.566	  0.002	 -0.001	  0.011	 29.800	 99.483	  0.225
25498	  0.106	 -0.299	  0.183	  0.086	 -0.216	 -9.455	  0.002	  0.002	  0.010	 29.800	 99.495	 -0.880
25547	  0.105	 -0.284	  0.182	  0.025	 -0.201	 -9.443	  0.003	 -0.000	  0.010	 29.900	 99.475	  0.962
25598	  0.104	 -0.305	  0.180	  0.001	 -0.217	 -9.500	  0.002	 -0.001	  0.011	 29.900	 99.487	 -0.143
25648	  0.101	 -0.301	  0.182	  0.079	 -0.198	 -9.478	  0.003	 -0.001	  0.011	 29.800	 99.483	  0.225
25698	  0.105	 -0.302	  0.177	  0.015	 -0.224	 -9.525	  0.003	  0.001	  0.011	 29.800	 99.495	 -0.880
25748	  0.104	 -0.301	  0.183	  0.069	 -0.189	 -9.465	  0.003	 -0.001	  0.011	 29.900	 99.475	  0.962
25798	  0.100	 -0.306	  0.183	  0.066	 -0.223	 -9.446	  0.003	  0.000	  0.010	 29.900	 99.471	  1.331
25848	  0.098	 -0.305	  0.178	  0.029	 -0.212	 -9.488	  0.003	 -0.002	  0.011	 29.900	 99.487	 -0.143
25898	  0.105	 -0.305	  0.176	  0.045	 -0.241	 -9.481	  0.002	 -0.000	  0.010	 29.900	 99.487	 -0.143
25948	  0.107	 -0.307	  0.180	  0.055	 -0.174	 -9.469	  0.002	 -0.000	  0.011	 29.800	 99.495	 -0.880
25998	  0.105	 -0.306	  0.180	  0.235	 -0.165	 -9.244	  0.003	  0.000	  0.012	 29.800	 99.483	  0.225
26048	  0.105	 -0.306	  0.177	  0.042	 -0.151	 -9.474	  0.003	 -0.004	  0.012	 29.800	 99.483	  0.225
26098	  0.104	 -0.306	  0.181	  0.065	 -0.203	 -9.417	  0.002	  0.001	  0.012	 29.800	 99.471	  1.331
26148	  0.106	 -0.296	  0.184	  0.050	 -0.188	 -9.503	  0.001	 -0.004	  0.010	 29.800	 99.483	  0.225
26198	  0.104	 -0.305	  0.180	  0.030	 -0.209	 -9.556	  0.003	  0.001	  0.011	 29.800	 99.487	 -0.143
26248	  0.106	 -0.298	  0.180	  0.026	 -0.184	 -9.393	  0.002	 -0.000	  0.011	 29.900	 99.487	 -0.143
26298	  0.105	 -0.299	  0.184	  0.096	 -0.222	 -9.433	  0.003	 -0.003	  0.010	 29.900	 99.483	  0.225
26348	  0.107	 -0.298	  0.181	 -0.053	 -0.194	 -9.561	  0.003	 -0.001	  0.012	 29.900	 99.487	 -0.143
26398	  0.105	 -0.306	  0.181	  0.108	 -0.208	 -9.515	  0.003	  0.000	  0.011	 29.900	 99.483	  0.225
26448	  0.106	 -0.303	  0.175	 -0.004	 -0.163	 -9.484	  0.004	  0.001	  0.012	 29.800	 99.471	  1.331
26497	  0.105	 -0.307	  0.181	  0.090	 -0.241	 -9.504	  0.002	 -0.000	  0.012	 29.900	 99.483	  0.225
26547	  0.106	 -0.301	  0.180	 -0.006	 -0.195	 -9.476	  0.004	 -0.002	  0.010	 29.900	 99.487	 -0.143
26597	  0.107	 -0.292	  0.180	  0.084	 -0.248	 -9.528	  0.002	 -0.002	  0.010	 29.900	 99.495	 -0.880
26647	  0.105	 -0.305	  0.183	 -0.012	 -0.168	 -9.465	  0.002	 -0.002	  0.011	 29.900	 99.487	 -0.143
26697	  0.105	 -0.305	  0.184	  0.074	 -0.217	 -9.473	  0.003	 -0.001	  0.010	 29.800	 99.483	  0.225
26747	  0.106	 -0.308	  0.179	 -0.001	 -0.185	 -9.496	  0.003	  0.000	  0.010	 29.900	 99.487	 -0.143
26797	  0.105	 -0.298	  0.183	  0.091	 -0.198	 -9.506	  0.002	 -0.002	  0.012	 29.800	 99.471	  1.331
26847	  0.106	 -0.298	  0.173	 -0.006	 -0.192	 -9.471	  0.002	 -0.001	  0.010	 29.900	 99.487	 -0.143
26898	  0.104	 -0.292	  0.181	  0.088	 -0.208	 -9.502	  0.003	 -0.001	  0.010	 29.800	 99.483	  0.225
26947	  0.105	 -0.292	  0.180	  0.003	 -0.217	 -9.468	  0.002	 -0.000	  0.011	 29.800	 99.495	 -0.880
26997	  0.110	 -0.298	  0.183	  0.097	 -0.216	 -9.499	  0.003	 -0.000	  0.010	 29.900	 99.483	  0.225
27047	  0.106	 -0.298	  0.183	 -0.012	 -0.203	 -9.511	  0.004	 -0.000	  0.011	 29.800	 99.483	  0.225
27097	  0.106	 -0.307	  0.184	  0.080	 -0.212	 -9.467	  0.002	 -0.001	  0.011	 29.800	 99.487	 -0.143
27147	  0.105	 -0.291	  0.184	 -0.005	 -0.190	 -9.490	  0.002	 -0.002	  0.012	 29.800	 99.483	  0.225
27197	  0.104	 -0.303	  0.177	  0.081	 -0.201	 -9.468	  0.003	 -0.002	  0.011	 29.800	 99.483	  0.225
27247	  0.107	 -0.297	  0.181	  0.004	 -0.177	 -9.498	  0.002	 -0.001	  0.010	 29.800	 99.483	  0.225
27297	  0.104	 -0.298	  0.182	  0.072	 -0.201	 -9.507	  0.002	  0.000	  0.011	 29.800	 99.483	  0.225
27347	  0.102	 -0.303	  0.178	  0.029	 -0.183	 -9.486	  0.004	 -0.002	  0.010	 29.800	 99.483	  0.225
27397	  0.105	 -0.310	  0.184	  0.062	 -0.214	 -9.485	  0.002	 -0.001	  0.010	 29.800	 99.483	  0.225
27447	  0.106	 -0.299	  0.180	 -0.004	 -0.187	 -9.483	  0.001	  0.000	  0.011	 29.800	 99.471	  1.331
27497	  0.105	 -0.301	  0.185	  0.025	 -0.222	 -9.514	  0.003	 -0.004	  0.011	 29.800	 99.483	  0.225
27547	  0.104	 -0.303	  0.183	 -0.015	 -0.227	 -9.492	  0.002	  0.003	  0.010	 29.800	 99.483	  0.225
27597	  0.107	 -0.305	  0.183	  0.055	 -0.200	 -9.518	  0.002	 -0.002	  0.012	 29.800	 99.483	  0.225
27647	  0.106	 -0.302	  0.177	  0.020	 -0.201	 -9.511	  0.002	 -0.001	  0.010	 29.800	 99.483	  0.225
27697	  0.103	 -0.308	  0.184	  0.054	 -0.187	 -9.466	  0.003	 -0.001	  0.010	 29.900	 99.483	  0.225
27747	  0.105	 -0.308	  0.183	  0.024	 -0.222	 -9.474	  0.001	 -0.001	  0.012	 29.800	 99.495	 -0.880
27797	  0.107	 -0.306	  0.180	 -0.003	 -0.181	 -9.500	  0.001	 -0.000	  0.011	 29.800	 99.483	  0.225
27847	  0.104	 -0.306	  0.176	  0.056	 -0.195	 -9.456	  0.002	 -0.001	  0.011	 29.800	 99.483	  0.225
27897	  0.106	 -0.302	  0.180	  0.024	 -0.175	 -9.471	  0.001	 -0.001	  0.011	 29.800	 99.483	  0.225
27947	  0.105	 -0.299	  0.181	  0.064	 -0.214	 -9.470	  0.002	 -0.001	  0.011	 29.800	 99.495	 -0.880
27997	  0.105	 -0.307	  0.179	  0.004	 -0.207	 -9.470	  0.003	 -0.002	  0.011	 29.800	 99.487	 -0.143
28047	  0.104	 -0.302	  0.180	  0.074	 -0.183	 -9.523	  0.004	 -0.000	  0.009	 29.900	 99.475	  0.962
28097	  0.104	 -0.307	  0.183	  0.036	 -0.196	 -9.477	  0.002	  0.000	  0.011	 29.900	 99.483	  0.225
28147	  0.104	 -0.289	  0.182	  0.091	 -0.214	 -9.474	  0.003	 -0.001	  0.010	 29.800	 99.483	  0.225
28197	  0.102	 -0.301	  0.182	  0.011	 -0.189	 -9.505	  0.002	 -0.001	  0.010	 29.800	 99.483	  0.225
28247	  0.106	 -0.299	  0.176	  0.067	 -0.244	 -9.529	  0.003	 -0.000	  0.011	 29.900	 99.487	 -0.143
28297	  0.104	 -0.303	  0.181	 -0.000	 -0.173	 -9.462	  0.002	 -0.002	  0.011	 29.800	 99.471	  1.331
28347	  0.104	 -0.303	  0.183	  0.092	 -0.207	 -9.523	  0.002	 -0.001	  0.011	 29.800	 99.483	  0.225
28397	  0.108	 -0.292	  0.180	 -0.012	 -0.172	 -9.498	  0.002	 -0.000	  0.011	 29.900	 99.483	  0.225
28447	  0.104	 -0.305	  0.187	  0.104	 -0.198	 -9.534	  0.003	 -0.000	  0.011	 29.800	 99.483	  0.225
28497	  0.102	 -0.288	  0.179	 -0.014	 -0.189	 -9.489	  0.002	 -0.001	  0.010	 29.900	 99.495	 -0.880
28547	  0.105	 -0.289	  0.186	  0.084	 -0.212	 -9.494	  0.003	 -0.001	  0.012	 29.800	 99.495	 -0.880
28597	  0.102	 -0.303	  0.183	 -0.015	 -0.175	 -9.490	  0.002	 -0.001	  0.010	 29.800	 99.483	  0.225
28647	  0.104	 -0.303	  0.177	  0.067	 -0.217	 -9.433	  0.002	 -0.000	  0.010	 29.800	 99.483	  0.225
28697	  0.105	 -0.305	  0.185	 -0.014	 -0.209	 -9.521	  0.001	 -0.001	  0.010	 29.800	 99.487	 -0.143
28747	  0.107	 -0.301	  0.183	  0.086	 -0.215	 -9.450	  0.003	  0.001	  0.010	 29.900	 99.487	 -0.143
28797	  0.104	 -0.308	  0.184	 -0.023	 -0.186	 -9.506	  0.001	 -0.002	  0.011	 29.800	 99.487	 -0.143
28847	  0.104	 -0.299	  0.173	  0.081	 -0.217	 -9.494	  0.002	 -0.001	  0.010	 29.800	 99.495	 -0.880
28897	  0.106	 -0.306	  0.183	  0.013	 -0.192	 -9.470	  0.002	  0.000	  0.011	 29.900	 99.475	  0.962
28947	  0.102	 -0.303	  0.180	  0.068	 -0.212	 -9.524	  0.003	 -0.001	  0.010	 29.800	 99.483	  0.225
28997	  0.106	 -0.303	  0.181	  0.006	 -0.181	 -9.489	  0.001	  0.000	  0.010	 29.800	 99.483	  0.225
29047	  0.105	 -0.303	  0.179	  0.088	 -0.200	 -9.488	  0.003	 -0.001	  0.011	 29.800	 99.483	  0.225
29097	  0.104	 -0.303	  0.180	 -0.025	 -0.193	 -9.468	  0.003	  0.000	  0.011	 29.900	 99.471	  1.331
29147	  0.106	 -0.294	  0.181	  0.081	 -0.230	 -9.497	  0.003	 -0.001	  0.011	 29.900	 99.487	 -0.143
29197	  0.102	 -0.302	  0.181	 -0.001	 -0.176	 -9.474	  0.003	 -0.001	  0.011	 29.800	 99.495	 -0.880
29247	  0.104	 -0.302	  0.170	  0.081	 -0.208	 -9.430	  0.003	 -0.001	  0.011	 29.800	 99.471	  1.331
29297	  0.105	 -0.303	  0.180	  0.011	 -0.177	 -9.501	  0.003	 -0.000	  0.011	 29.800	 99.483	  0.225
29347	  0.105	 -0.299	  0.185	  0.094	 -0.179	 -9.501	  0.002	 -0.000	  0.011	 29.800	 99.487	 -0.143
29397	  0.106	 -0.301	  0.180	  0.017	 -0.177	 -9.507	  0.002	 -0.002	  0.008	 29.800	 99.471	  1.331
29447	  0.106	 -0.305	  0.177	  0.081	 -0.215	 -9.474	  0.001	 -0.000	  0.011	 29.800	 99.471	  1.331
29497	  0.104	 -0.299	  0.185	 -0.013	 -0.208	 -9.486	  0.003	 -0.001	  0.010	 29.900	 99.487	 -0.143
29547	  0.105	 -0.305	  0.185	  0.047	 -0.223	 -9.470	  0.003	 -0.001	  0.010	 29.900	 99.471	  1.331
29597	  0.105	 -0.299	  0.180	  0.016	 -0.216	 -9.494	  0.003	 -0.000	  0.012	 29.800	 99.483	  0.225
29647	  0.104	 -0.306	  0.185	  0.061	 -0.202	 -9.454	  0.001	 -0.000	  0.010	 29.900	 99.483	  0.225
29697	  0.101	 -0.298	  0.173	 -0.011	 -0.193	 -9.450	  0.003	 -0.002	  0.011	 29.800	 99.471	  1.331
29747	  0.107	 -0.301	  0.176	 -0.011	 -0.199	 -9.513	  0.002	 -0.001	  0.011	 29.800	 99.471	  1.331
29797	  0.102	 -0.292	  0.184	 -0.003	 -0.195	 -9.445	  0.003	 -0.000	  0.011	 29.900	 99.487	 -0.143
29847	  0.101	 -0.305	  0.180	  0.045	 -0.196	 -9.484	  0.003	 -0.002	  0.012	 29.900	 99.487	 -0.143
29897	  0.105	 -0.303	  0.184	  0.026	 -0.182	 -9.488	  0.001	 -0.000	  0.010	 29.800	 99.483	  0.225
29947	  0.101	 -0.298	  0.172	  0.030	 -0.202	 -9.490	  0.001	 -0.000	  0.011	 29.900	 99.487	 -0.143
29997	  0.105	 -0.292	  0.185	  0.047	 -0.221	 -9.470	  0.004	 -0.002	  0.011	 29.800	 99.483	  0.225
30047	  0.102	 -0.297	  0.181	  0.044	 -0.193	 -9.471	  0.002	 -0.001	  0.011	 29.800	 99.483	  0.225
30097	  0.105	 -0.305	  0.180	  0.022	 -0.212	 -9.489	  0.002	 -0.000	  0.010	 29.800	 99.495	 -0.880
30147	  0.102	 -0.298	  0.177	  0.002	 -0.177	 -9.509	  0.002	 -0.001	  0.011	 29.900	 99.483	  0.225
30197	  0.102	 -0.301	  0.186	  0.037	 -0.197	 -9.491	  0.004	 -0.001	  0.012	 29.900	 99.500	 -1.340
30247	  0.107	 -0.291	  0.180	  0.038	 -0.176	 -9.516	  0.001	 -0.000	  0.010	 29.900	 99.475	  0.962
30297	  0.102	 -0.305	  0.181	  0.067	 -0.222	 -9.526	  0.003	  0.000	  0.010	 29.800	 99.483	  0.225
30348	  0.106	 -0.299	  0.178	  0.004	 -0.191	 -9.519	  0.003	 -0.002	  0.010	 29.900	 99.483	  0.225
30397	  0.105	 -0.306	  0.180	  0.071	 -0.204	 -9.462	  0.002	 -0.001	  0.011	 29.800	 99.471	  1.331
30447	  0.104	 -0.302	  0.178	 -0.002	 -0.193	 -9.473	  0.002	 -0.001	  0.011	 29.800	 99.483	  0.225
30497	  0.104	 -0.305	  0.181	  0.070	 -0.200	 -9.482	  0.003	  0.000	  0.012	 29.800	 99.483	  0.225
30547	  0.105	 -0.298	  0.180	  0.012	 -0.197	 -9.483	  0.003	 -0.001	  0.011	 29.900	 99.475	  0.962
30597	  0.105	 -0.299	  0.183	  0.079	 -0.218	 -9.474	  0.003	 -0.000	  0.010	 29.800	 99.495	 -0.880
30647	  0.105	 -0.303	  0.180	 -0.001	 -0.187	 -9.500	  0.004	 -0.002	  0.010	 29.800	 99.483	  0.225
30697	  0.106	 -0.299	  0.180	  0.062	 -0.241	 -9.485	  0.002	 -0.001	  0.011	 29.900	 99.487	 -0.143
30747	  0.105	 -0.291	  0.184	 -0.023	 -0.181	 -9.476	  0.004	 -0.001	  0.011	 29.900	 99.487	 -0.143
30797	  0.105	 -0.287	  0.184	  0.085	 -0.235	 -9.529	  0.002	 -0.000	  0.011	 29.800	 99.483	  0.225
30847	  0.104	 -0.303	  0.170	 -0.027	 -0.202	 -9.482	  0.002	 -0.000	  0.010	 29.800	 99.495	 -0.880
30898	  0.105	 -0.296	  0.180	  0.073	 -0.215	 -9.467	  0.002	 -0.001	  0.012	 29.900	 99.487	 -0.143
30948	  0.105	 -0.302	  0.181	 -0.019	 -0.184	 -9.451	  0.003	 -0.000	  0.010	 29.800	 99.483	  0.225
30998	  0.105	 -0.303	  0.179	  0.047	 -0.186	 -9.511	  0.002	 -0.001	  0.012	 29.900	 99.483	  0.225
31047	  0.102	 -0.294	  0.181	  0.010	 -0.188	 -9.461	  0.004	 -0.001	  0.011	 29.900	 99.487	 -0.143
31098	  0.107	 -0.299	  0.180	  0.042	 -0.190	 -9.457	  0.002	 -0.001	  0.011	 29.900	 99.487	 -0.143
31148	  0.104	 -0.305	  0.180	  0.022	 -0.214	 -9.477	  0.002	  0.001	  0.010	 29.900	 99.487	 -0.143
31198	  0.102	 -0.298	  0.181	  0.052	 -0.190	 -9.481	  0.003	 -0.002	  0.011	 29.800	 99.483	  0.225
31248	  0.104	 -0.298	  0.181	  0.035	 -0.206	 -9.477	  0.002	  0.001	  0.011	 29.900	 99.487	 -0.143
31298	  0.106	 -0.287	  0.186	  0.031	 -0.190	 -9.474	  0.001	  0.000	  0.011	 29.900	 99.483	  0.225
31348	  0.104	 -0.296	  0.182	  0.060	 -0.207	 -9.482	  0.002	 -0.002	  0.011	 29.900	 99.500	 -1.340
31398	  0.102	 -0.292	  0.181	  0.033	 -0.171	 -9.524	  0.003	 -0.001	  0.011	 29.900	 99.483	  0.225
31448	  0.102	 -0.299	  0.176	  0.051	 -0.190	 -9.491	  0.003	  0.000	  0.010	 29.800	 99.483	  0.225
31498	  0.105	 -0.283	  0.184	  0.034	 -0.174	 -9.541	  0.002	 -0.000	  0.012	 29.900	 99.483	  0.225
31548	  0.102	 -0.297	  0.177	  0.063	 -0.192	 -9.478	  0.003	 -0.001	  0.011	 29.800	 99.483	  0.225
31598	  0.102	 -0.291	  0.182	  0.013	 -0.182	 -9.467	  0.002	 -0.000	  0.011	 29.800	 99.471	  1.331
31648	  0.104	 -0.300	  0.168	  0.058	 -0.203	 -9.459	  0.003	  0.000	  0.011	 29.800	 99.495	 -0.880
31698	  0.104	 -0.291	  0.184	  0.016	 -0.180	 -9.460	  0.003	 -0.001	  0.011	 29.800	 99.483	  0.225
31748	  0.106	 -0.303	  0.176	  0.074	 -0.200	 -9.485	  0.003	 -0.000	  0.011	 29.800	 99.483	  0.225
31798	  0.102	 -0.306	  0.181	 -0.027	 -0.176	 -9.513	  0.002	 -0.000	  0.012	 29.800	 99.487	 -0.143
31848	  0.104	 -0.291	  0.181	  0.087	 -0.231	 -9.506	  0.003	 -0.001	  0.010	 29.800	 99.483	  0.225
31898	  0.100	 -0.292	  0.182	 -0.007	 -0.171	 -9.442	  0.003	 -0.001	  0.011	 29.900	 99.487	 -0.143
31948	  0.106	 -0.303	  0.179	  0.075	 -0.210	 -9.490	  0.002	  0.000	  0.011	 29.900	 99.487	 -0.143
31998	  0.105	 -0.287	  0.184	 -0.007	 -0.178	 -9.469	  0.002	 -0.000	  0.011	 29.800	 99.487	 -0.143
32048	  0.105	 -0.299	  0.178	  0.090	 -0.214	 -9.494	  0.002	 -0.001	  0.011	 29.900	 99.500	 -1.340
32098	  0.106	 -0.301	  0.184	 -0.025	 -0.181	 -9.507	  0.002	 -0.001	  0.011	 29.800	 99.500	 -1.340
32148	  0.106	 -0.293	  0.186	  0.073	 -0.203	 -9.503	  0.002	 -0.001	  0.011	 29.900	 99.487	 -0.143
32198	  0.104	 -0.302	  0.180	 -0.036	 -0.189	 -9.447	  0.002	 -0.001	  0.011	 29.800	 99.475	  0.962
32248	  0.101	 -0.302	  0.178	  0.087	 -0.222	 -9.490	  0.003	 -0.001	  0.011	 29.900	 99.487	 -0.143
32298	  0.106	 -0.303	  0.180	 -0.010	 -0.181	 -9.485	  0.003	 -0.001	  0.012	 29.800	 99.483	  0.225
32348	  0.104	 -0.303	  0.178	  0.074	 -0.191	 -9.498	  0.002	 -0.001	  0.011	 29.900	 99.487	 -0.143
32398	  0.105	 -0.298	  0.181	 -0.009	 -0.197	 -9.486	  0.002	 -0.001	  0.011	 29.800	 99.487	 -0.143
32448	  0.104	 -0.302	  0.178	  0.062	 -0.199	 -9.511	  0.002	 -0.000	  0.011	 29.800	 99.483	  0.225
32498	  0.105	 -0.301	  0.178	 -0.012	 -0.202	 -9.480	  0.004	 -0.000	  0.011	 29.800	 99.483	  0.225
32548	  0.105	 -0.291	  0.180	  0.098	 -0.198	 -9.505	  0.002	 -0.000	  0.011	 29.900	 99.487	 -0.143
32598	  0.105	 -0.286	  0.184	  0.008	 -0.194	 -9.507	  0.003	  0.000	  0.011	 29.900	 99.483	  0.225
32648	  0.106	 -0.303	  0.180	  0.066	 -0.203	 -9.497	  0.002	 -0.001	  0.011	 29.900	 99.500	 -1.340
32698	  0.102	 -0.306	  0.187	  0.018	 -0.193	 -9.495	  0.003	 -0.001	  0.010	 29.900	 99.483	  0.225
32748	  0.104	 -0.292	  0.181	  0.071	 -0.184	 -9.506	  0.002	 -0.001	  0.011	 29.800	 99.483	  0.225
32798	  0.102	 -0.292	  0.178	  0.032	 -0.207	 -9.469	  0.002	  0.001	  0.010	 29.800	 99.475	  0.962
32848	  0.105	 -0.299	  0.176	  0.048	 -0.193	 -9.503	  0.003	 -0.002	  0.011	 29.900	 99.487	 -0.143
32898	  0.104	 -0.299	  0.184	  0.021	 -0.217	 -9.491	  0.001	 -0.001	  0.011	 29.900	 99.483	  0.225
32948	  0.106	 -0.296	  0.181	  0.029	 -0.183	 -9.477	  0.002	 -0.001	  0.011	 29.900	 99.487	 -0.143
32998	  0.104	 -0.303	  0.177	  0.043	 -0.208	 -9.490	  0.002	  0.000	  0.010	 29.900	 99.487	 -0.143
33048	  0.104	 -0.299	  0.178	  0.017	 -0.206	 -9.472	  0.002	 -0.002	  0.011	 29.900	 99.487	 -0.143
33098	  0.101	 -0.305	  0.185	  0.052	 -0.231	 -9.505	  0.003	 -0.001	  0.010	 29.900	 99.471	  1.331
33148	  0.105	 -0.294	  0.180	  0.025	 -0.183	 -9.473	  0.002	  0.000	  0.011	 29.800	 99.483	  0.225
33198	  0.106	 -0.308	  0.180	  0.042	 -0.217	 -9.474	  0.001	 -0.002	  0.011	 29.900	 99.487	 -0.143
33248	  0.104	 -0.298	  0.177	  0.010	 -0.177	 -9.474	  0.002	 -0.001	  0.010	 29.800	 99.483	  0.225
33298	  0.104	 -0.302	  0.173	  0.056	 -0.224	 -9.464	  0.003	 -0.000	  0.011	 29.900	 99.487	 -0.143
33348	  0.102	 -0.298	  0.178	  0.002	 -0.203	 -9.482	  0.003	 -0.000	  0.010	 29.900	 99.487	 -0.143
33398	  0.105	 -0.302	  0.183	  0.049	 -0.211	 -9.503	  0.002	 -0.000	  0.010	 29.900	 99.483	  0.225
33448	  0.102	 -0.300	  0.168	 -0.003	 -0.184	 -9.475	  0.002	 -0.001	  0.011	 29.800	 99.483	  0.225
33498	  0.102	 -0.302	  0.180	  0.077	 -0.204	 -9.489	  0.002	 -0.001	  0.011	 29.900	 99.487	 -0.143
33548	  0.105	 -0.289	  0.181	 -0.006	 -0.168	 -9.456	  0.003	 -0.000	  0.011	 29.800	 99.483	  0.225
33598	  0.101	 -0.297	  0.180	  0.062	 -0.196	 -9.483	  0.002	 -0.000	  0.011	 29.900	 99.500	 -1.340
33648	  0.101	 -0.301	  0.174	 -0.036	 -0.172	 -9.533	  0.003	  0.000	  0.010	 29.900	 99.487	 -0.143
33698	  0.105	 -0.299	  0.177	  0.093	 -0.237	 -9.457	  0.002	 -0.001	  0.011	 29.900	 99.500	 -1.340
33748	  0.105	 -0.297	  0.172	 -0.030	 -0.164	 -9.459	  0.003	 -0.001	  0.011	 29.900	 99.487	 -0.143
33798	  0.101	 -0.302	  0.178	  0.125	 -0.225	 -9.480	  0.003	 -0.002	  0.011	 29.800	 99.487	 -0.143
33848	  0.104	 -0.302	  0.180	 -0.009	 -0.196	 -9.494	  0.002	 -0.001	  0.010	 29.800	 99.495	 -0.880
33898	  0.105	 -0.306	  0.181	  0.111	 -0.222	 -9.521	  0.002	 -0.000	  0.012	 29.900	 99.483	  0.225
33948	  0.104	 -0.298	  0.184	  0.001	 -0.176	 -9.484	  0.002	 -0.001	  0.010	 29.900	 99.475	  0.962
33998	  0.099	 -0.298	  0.174	  0.071	 -0.207	 -9.479	  0.002	 -0.001	  0.010	 29.900	 99.483	  0.225
34048	  0.104	 -0.303	  0.183	 -0.001	 -0.200	 -9.459	  0.003	 -0.000	  0.010	 29.800	 99.483	  0.225
34098	  0.106	 -0.294	  0.181	  0.071	 -0.196	 -9.473	  0.001	 -0.000	  0.011	 29.900	 99.483	  0.225
34148	  0.106	 -0.293	  0.181	 -0.013	 -0.197	 -9.478	  0.002	 -0.000	  0.011	 29.900	 99.487	 -0.143
34198	  0.101	 -0.288	  0.184	  0.072	 -0.209	 -9.523	  0.001	 -0.002	  0.011	 29.800	 99.483	  0.225
34248	  0.105	 -0.306	  0.179	 -0.036	 -0.186	 -9.485	  0.002	 -0.001	  0.011	 29.900	 99.487	 -0.143
34298	  0.104	 -0.289	  0.185	  0.071	 -0.183	 -9.450	  0.001	 -0.002	  0.009	 29.800	 99.500	 -1.340
34347	  0.104	 -0.299	  0.174	  0.005	 -0.145	 -9.432	  0.003	  0.001	  0.010	 29.900	 99.500	 -1.340
34397	  0.102	 -0.302	  0.184	  0.148	 -0.216	 -9.398	  0.001	 -0.002	  0.010	 29.800	 99.487	 -0.143
34447	  0.106	 -0.288	  0.181	 -0.081	 -0.173	 -9.527	  0.002	 -0.003	  0.011	 29.900	 99.487	 -0.143
34497	  0.106	 -0.303	  0.185	  0.063	 -0.227	 -9.512	  0.001	 -0.002	  0.010	 29.900	 99.483	  0.225
34547	  0.105	 -0.303	  0.181	 -0.035	 -0.216	 -9.499	  0.003	 -0.001	  0.010	 29.800	 99.483	  0.225
34597	  0.107	 -0.297	  0.185	  0.083	 -0.195	 -9.473	  0.002	 -0.001	  0.012	 29.900	 99.500	 -1.340
34647	  0.104	 -0.299	  0.177	  0.031	 -0.208	 -9.479	  0.003	 -0.001	  0.011	 29.900	 99.475	  0.962
34697	  0.106	 -0.287	  0.184	  0.061	 -0.159	 -9.489	  0.002	 -0.002	  0.011	 29.800	 99.487	 -0.143
34747	  0.102	 -0.298	  0.182	 -0.004	 -0.228	 -9.530	  0.003	 -0.002	  0.011	 29.900	 99.487	 -0.143
34798	  0.105	 -0.302	  0.183	  0.035	 -0.187	 -9.510	  0.002	 -0.001	  0.011	 29.900	 99.475	  0.962
34848	  0.101	 -0.297	  0.185	  0.010	 -0.193	 -9.504	  0.002	 -0.000	  0.010	 29.900	 99.475	  0.962
34898	  0.105	 -0.299	  0.177	  0.035	 -0.203	 -9.474	  0.003	 -0.002	  0.012	 29.900	 99.487	 -0.143
34947	  0.105	 -0.302	  0.184	  0.052	 -0.219	 -9.469	  0.002	 -0.001	  0.011	 29.800	 99.471	  1.331
34997	  0.106	 -0.305	  0.179	 -0.010	 -0.166	 -9.490	  0.002	  0.001	  0.011	 29.900	 99.500	 -1.340
35047	  0.101	 -0.297	  0.185	  0.046	 -0.211	 -9.483	  0.003	 -0.000	  0.011	 29.900	 99.487	 -0.143
35097	  0.104	 -0.298	  0.181	  0.038	 -0.188	 -9.532	  0.002	 -0.001	  0.010	 29.800	 99.487	 -0.143
35147	  0.106	 -0.296	  0.184	  0.060	 -0.208	 -9.455	  0.002	 -0.001	  0.010	 29.800	 99.483	  0.225
35197	  0.102	 -0.299	  0.184	  0.025	 -0.192	 -9.487	  0.002	  0.000	  0.011	 29.900	 99.487	 -0.143
35247	  0.104	 -0.301	  0.184	  0.061	 -0.231	 -9.471	  0.002	 -0.000	  0.011	 29.800	 99.483	  0.225
35297	  0.101	 -0.297	  0.182	  0.006	 -0.179	 -9.526	  0.002	 -0.001	  0.010	 29.800	 99.475	  0.962
35347	  0.104	 -0.301	  0.181	  0.067	 -0.228	 -9.468	  0.002	  0.000	  0.011	 29.900	 99.487	 -0.143
35397	  0.102	 -0.298	  0.176	  0.026	 -0.161	 -9.481	  0.001	  0.000	  0.011	 29.900	 99.487	 -0.143
35447	  0.105	 -0.302	  0.180	  0.065	 -0.212	 -9.504	  0.002	 -0.001	  0.011	 29.800	 99.483	  0.225
35497	  0.102	 -0.298	  0.184	 -0.001	 -0.170	 -9.467	  0.003	 -0.001	  0.012	 29.900	 99.487	 -0.143
35547	  0.102	 -0.302	  0.177	  0.102	 -0.227	 -9.464	  0.002	 -0.001	  0.010	 29.900	 99.487	 -0.143
35597	  0.105	 -0.301	  0.176	 -0.029	 -0.165	 -9.478	  0.002	 -0.001	  0.010	 29.800	 99.475	  0.962
35647	  0.100	 -0.301	  0.176	  0.111	 -0.224	 -9.474	  0.003	 -0.000	  0.010	 29.900	 99.487	 -0.143
35697	  0.104	 -0.305	  0.178	 -0.018	 -0.207	 -9.476	  0.002	 -0.001	  0.011	 29.900	 99.483	  0.225
35747	  0.105	 -0.299	  0.173	  0.059	 -0.222	 -9.477	  0.002	 -0.001	  0.011	 29.900	 99.500	 -1.340
35797	  0.106	 -0.308	  0.175	 -0.032	 -0.183	 -9.491	  0.003	 -0.001	  0.012	 29.900	 99.483	  0.225
35847	  0.108	 -0.303	  0.179	  0.073	 -0.186	 -9.525	  0.002	  0.001	  0.009	 29.800	 99.483	  0.225
35897	  0.104	 -0.302	  0.184	 -0.019	 -0.178	 -9.468	  0.003	 -0.000	  0.011	 29.900	 99.475	  0.962
35947	  0.100	 -0.298	  0.180	  0.078	 -0.186	 -9.484	  0.004	 -0.001	  0.010	 29.900	 99.487	 -0.143
35997	  0.106	 -0.299	  0.177	  0.027	 -0.187	 -9.477	  0.002	 -0.001	  0.010	 29.800	 99.500	 -1.340
36047	  0.106	 -0.296	  0.177	  0.078	 -0.209	 -9.459	  0.001	 -0.000	  0.011	 29.800	 99.483	  0.225
36097	  0.107	 -0.298	  0.184	  0.003	 -0.213	 -9.476	  0.002	 -0.001	  0.010	 29.900	 99.487	 -0.143
36147	  0.104	 -0.305	  0.183	  0.058	 -0.206	 -9.510	  0.002	  0.000	  0.011	 29.900	 99.475	  0.962
36198	  0.102	 -0.299	  0.177	  0.002	 -0.198	 -9.460	  0.003	  0.000	  0.011	 29.900	 99.487	 -0.143
36247	  0.104	 -0.302	  0.176	  0.067	 -0.232	 -9.469	  0.002	 -0.001	  0.011	 29.800	 99.471	  1.331
36298	  0.105	 -0.284	  0.177	  0.017	 -0.213	 -9.462	  0.003	 -0.002	  0.012	 29.900	 99.487	 -0.143
36347	  0.101	 -0.294	  0.181	  0.054	 -0.172	 -9.457	  0.003	  0.000	  0.011	 29.900	 99.487	 -0.143
36398	  0.104	 -0.299	  0.183	  0.017	 -0.195	 -9.472	  0.002	 -0.002	  0.011	 29.900	 99.475	  0.962
36448	  0.102	 -0.296	  0.181	  0.067	 -0.196	 -9.480	  0.003	  0.000	  0.012	 29.900	 99.487	 -0.143
36498	  0.104	 -0.302	  0.180	  0.008	 -0.208	 -9.483	  0.002	 -0.001	  0.011	 29.900	 99.495	 -0.880
36548	  0.102	 -0.297	  0.184	  0.031	 -0.193	 -9.478	  0.002	 -0.000	  0.011	 29.900	 99.487	 -0.143
36597	  0.105	 -0.303	  0.184	  0.020	 -0.214	 -9.485	  0.003	  0.001	  0.012	 29.900	 99.475	  0.962
36648	  0.107	 -0.302	  0.184	  0.073	 -0.208	 -9.453	  0.003	  0.001	  0.012	 29.900	 99.487	 -0.143
36698	  0.105	 -0.296	  0.178	 -0.013	 -0.207	 -9.400	  0.004	  0.003	  0.010	 29.900	 99.487	 -0.143
36748	  0.104	 -0.288	  0.179	  0.068	 -0.201	 -9.460	  0.002	 -0.002	  0.011	 29.900	 99.487	 -0.143
36798	  0.108	 -0.301	  0.185	  0.053	 -0.214	 -9.460	  0.003	  0.000	  0.010	 29.900	 99.500	 -1.340
36848	  0.105	 -0.301	  0.183	  0.029	 -0.178	 -9.449	  0.003	 -0.001	  0.011	 29.800	 99.483	  0.225
36898	  0.102	 -0.306	  0.181	  0.066	 -0.219	 -9.514	  0.003	 -0.001	  0.010	 29.900	 99.487	 -0.143
36948	  0.106	 -0.302	  0.179	  0.029	 -0.213	 -9.506	  0.002	 -0.001	  0.011	 29.800	 99.483	  0.225
36998	  0.104	 -0.303	  0.183	  0.070	 -0.189	 -9.481	  0.003	 -0.000	  0.010	 29.900	 99.475	  0.962
37048	  0.104	 -0.302	  0.185	  0.017	 -0.189	 -9.502	  0.003	 -0.000	  0.010	 29.800	 99.483	  0.225
37098	  0.105	 -0.302	  0.184	  0.073	 -0.224	 -9.510	  0.002	 -0.001	  0.011	 29.900	 99.500	 -1.340
37148	  0.104	 -0.296	  0.181	  0.015	 -0.170	 -9.505	  0.003	 -0.001	  0.011	 29.900	 99.475	  0.962
37198	  0.106	 -0.299	  0.184	  0.059	 -0.225	 -9.510	  0.001	 -0.000	  0.012	 29.900	 99.475	  0.962
37248	  0.105	 -0.287	  0.180	  0.022	 -0.163	 -9.420	  0.002	 -0.000	  0.010	 29.900	 99.500	 -1.340
37298	  0.105	 -0.302	  0.185	  0.061	 -0.254	 -9.459	  0.003	 -0.002	  0.011	 29.800	 99.475	  0.962
37348	  0.107	 -0.296	  0.184	 -0.006	 -0.209	 -9.499	  0.001	 -0.001	  0.010	 29.800	 99.483	  0.225
37398	  0.105	 -0.289	  0.182	  0.071	 -0.211	 -9.499	  0.002	 -0.001	  0.010	 29.900	 99.483	  0.225
37448	  0.107	 -0.302	  0.187	 -0.019	 -0.185	 -9.481	  0.003	 -0.001	  0.011	 29.900	 99.487	 -0.143
37498	  0.106	 -0.301	  0.184	  0.069	 -0.197	 -9.513	  0.002	 -0.003	  0.011	 29.900	 99.483	  0.225
37548	  0.107	 -0.303	  0.187	 -0.052	 -0.116	 -9.498	  0.004	 -0.002	  0.011	 29.800	 99.483	  0.225
37598	  0.105	 -0.298	  0.177	  0.075	 -0.130	 -9.432	  0.002	 -0.005	  0.010	 29.900	 99.475	  0.962
37648	  0.106	 -0.291	  0.190	 -0.024	 -0.165	 -9.510	  0.005	  0.002	  0.010	 29.900	 99.487	 -0.143
37698	  0.107	 -0.298	  0.189	  0.070	 -0.194	 -9.496	  0.004	 -0.001	  0.011	 29.900	 99.471	  1.331
37748	  0.108	 -0.296	  0.192	  0.036	 -0.303	 -9.516	  0.000	 -0.008	 -0.193	 29.800	 99.483	  0.225
37798	  0.107	 -0.285	  0.189	 -0.464	  0.379	 -9.515	  0.016	 -0.100	 -0.211	 29.900	 99.487	 -0.143
37848	  0.112	 -0.278	  0.188	  0.746	 -0.137	 -9.375	  0.018	 -0.079	 -0.600	 29.800	 99.483	  0.225
37898	  0.124	 -0.264	  0.188	 -0.341	 -2.157	 -9.482	 -0.070	  0.136	 -0.446	 29.900	 99.475	  0.962
37948	  0.127	 -0.259	  0.203	 -0.140	  0.320	 -9.306	  0.017	 -0.082	 -0.087	 29.900	 99.475	  0.962
37998	  0.132	 -0.251	  0.207	 -0.556	  1.120	 -9.466	  0.016	 -0.026	  0.101	 29.900	 99.483	  0.225
38048	  0.130	 -0.252	  0.203	 -0.476	 -0.303	 -9.547	  0.007	 -0.006	  0.008	 29.900	 99.487	 -0.143
38098	  0.129	 -0.271	  0.210	  0.182	 -0.205	 -9.480	  0.014	 -0.035	 -0.026	 29.900	 99.487	 -0.143
38148	  0.132	 -0.265	  0.203	  0.189	 -0.093	 -9.437	  0.035	 -0.098	 -0.080	 29.900	 99.487	 -0.143
38198	  0.136	 -0.256	  0.198	 -0.345	 -0.361	 -9.583	  0.058	 -0.110	 -0.109	 29.900	 99.500	 -1.340
38248	  0.137	 -0.249	  0.200	  1.937	 -1.104	 -8.857	 -0.053	  0.018	  0.044	 29.900	 99.475	  0.962
38298	  0.170	 -0.279	  0.207	 -0.137	 -0.556	 -9.537	  0.015	 -0.022	  0.248	 29.900	 99.487	 -0.143
38348	  0.132	 -0.293	  0.174	 -0.341	  0.533	 -9.464	  0.001	  0.022	  0.316	 29.900	 99.487	 -0.143
38398	  0.126	 -0.297	  0.176	 -0.240	 -0.166	 -9.477	  0.009	  0.005	  0.010	 29.900	 99.487	 -0.143
38448	  0.117	 -0.293	  0.169	 -0.638	 -0.438	 -9.550	 -0.076	  0.211	  0.010	 29.900	 99.487	 -0.143
38498	  0.114	 -0.283	  0.183	  0.611	 -0.259	 -9.475	 -0.003	 -0.010	 -0.040	 29.900	 99.475	  0.962
38548	  0.113	 -0.287	  0.176	  0.142	 -0.107	 -9.443	  0.008	 -0.007	  0.011	 29.900	 99.487	 -0.143
38597	  0.113	 -0.292	  0.177	 -0.096	 -0.209	 -9.491	 -0.007	  0.050	  0.009	 29.900	 99.483	  0.225
38648	  0.110	 -0.287	  0.174	  0.083	 -0.155	 -9.417	  0.001	  0.014	  0.010	 29.800	 99.483	  0.225
38698	  0.113	 -0.292	  0.176	 -0.061	 -0.208	 -9.485	  0.001	 -0.006	  0.011	 29.900	 99.483	  0.225
38748	  0.111	 -0.283	  0.181	  0.019	 -0.185	 -9.455	  0.003	  0.002	  0.010	 29.900	 99.487	 -0.143
38797	  0.111	 -0.289	  0.178	 -0.004	 -0.158	 -9.505	  0.002	 -0.001	  0.011	 29.900	 99.500	 -1.340
38847	  0.110	 -0.293	  0.180	  0.022	 -0.193	 -9.484	  0.002	 -0.002	  0.010	 29.800	 99.471	  1.331
38897	  0.109	 -0.272	  0.174	 -0.021	 -0.165	 -9.500	  0.001	 -0.001	  0.010	 29.800	 99.475	  0.962
38947	  0.108	 -0.288	  0.174	 -0.003	 -0.194	 -9.479	  0.003	  0.001	  0.011	 29.900	 99.500	 -1.340
38997	  0.109	 -0.278	  0.174	 -0.018	 -0.147	 -9.485	  0.002	  0.000	  0.011	 29.900	 99.487	 -0.143
39047	  0.110	 -0.288	  0.166	  0.026	 -0.176	 -9.480	  0.000	  0.002	  0.010	 29.800	 99.483	  0.225
39097	  0.110	 -0.287	  0.169	 -0.110	 -0.169	 -9.494	  0.001	  0.011	  0.010	 29.900	 99.471	  1.331
39147	  0.112	 -0.291	  0.177	 -0.069	 -0.435	 -9.655	  0.001	 -0.016	  0.011	 29.900	 99.487	 -0.143
39197	  0.110	 -0.282	  0.178	 -0.003	 -0.128	 -9.470	 -0.002	 -0.008	  0.012	 29.900	 99.475	  0.962
39247	  0.112	 -0.298	  0.181	 -0.108	 -0.244	 -9.520	 -0.001	 -0.020	  0.009	 29.900	 99.487	 -0.143
39297	  0.112	 -0.287	  0.177	  1.234	 -0.662	 -9.794	  0.001	  0.016	 -0.005	 29.800	 99.475	  0.962
39347	  0.118	 -0.286	  0.168	 -1.879	  1.722	 -9.853	  0.305	 -0.565	  0.264	 29.900	 99.483	  0.225
39397	  0.116	 -0.298	  0.167	 -0.509	 -2.369	 -9.994	  0.010	  0.047	  0.737	 29.900	 99.487	 -0.143
39447	  0.105	 -0.293	  0.173	 -0.862	 -0.951	 -9.418	 -0.310	  0.435	 -0.124	 29.900	 99.487	 -0.143
39497	  0.104	 -0.315	  0.176	 -1.132	 -0.315	 -9.559	 -0.132	  0.329	 -0.163	 29.800	 99.487	 -0.143
39547	  0.107	 -0.297	  0.168	 -0.249	 -0.188	 -9.609	 -0.006	 -0.013	 -0.498	 29.900	 99.487	 -0.143
39597	  0.111	 -0.289	  0.178	 -0.203	 -0.036	 -9.496	  0.001	 -0.016	 -0.109	 29.900	 99.487	 -0.143
39647	  0.114	 -0.284	  0.175	 -0.012	 -0.323	 -9.500	 -0.001	  0.003	  0.005	 29.900	 99.475	  0.962
39697	  0.113	 -0.287	  0.172	  1.284	 -0.900	 -9.490	  0.016	 -0.047	 -0.264	 29.900	 99.487	 -0.143
39747	  0.118	 -0.274	  0.180	  2.360	 -0.514	 -9.206	  0.005	 -0.032	 -0.585	 29.900	 99.487	 -0.143
39797	  0.118	 -0.263	  0.186	  0.815	 -0.444	 -9.538	 -0.002	 -0.005	 -0.495	 29.900	 99.487	 -0.143
39847	  0.116	 -0.230	  0.199	  0.168	 -0.421	 -9.636	  0.001	 -0.025	 -0.541	 29.900	 99.475	  0.962
39897	  0.117	 -0.216	  0.203	 -1.120	 -0.021	 -9.709	 -0.003	 -0.047	 -0.671	 29.900	 99.500	 -1.340
39947	  0.115	 -0.194	  0.213	 -0.875	 -0.239	 -9.440	 -0.009	 -0.009	 -0.806	 29.900	 99.487	 -0.143
39997	  0.117	 -0.173	  0.217	 -1.262	  0.331	 -9.452	 -0.002	 -0.009	 -0.571	 29.900	 99.487	 -0.143
40047	  0.117	 -0.165	  0.213	 -1.199	  0.323	 -9.492	 -0.002	 -0.008	 -0.189	 29.900	 99.487	 -0.143
40097	  0.118	 -0.164	  0.219	 -0.318	 -0.106	 -9.542	  0.004	  0.032	  0.010	 29.900	 99.475	  0.962
40147	  0.121	 -0.165	  0.225	  1.041	 -0.045	 -9.091	  0.009	 -0.017	 -0.006	 29.900	 99.475	  0.962
40197	  0.115	 -0.164	  0.215	  0.109	 -0.079	 -9.431	  0.005	 -0.001	  0.011	 29.900	 99.483	  0.225
40247	  0.117	 -0.164	  0.213	  0.131	 -0.176	 -9.475	  0.003	 -0.003	  0.011	 29.900	 99.487	 -0.143
40297	  0.117	 -0.163	  0.219	  0.046	 -0.140	 -9.484	  0.001	 -0.039	  0.010	 29.900	 99.487	 -0.143
40347	  0.119	 -0.164	  0.218	 -0.232	 -0.155	 -9.520	  0.006	  0.069	  0.009	 29.800	 99.483	  0.225
40397	  0.118	 -0.150	  0.219	 -0.031	 -0.103	 -9.444	  0.005	  0.026	  0.005	 29.800	 99.483	  0.225
40447	  0.118	 -0.164	  0.223	  0.069	 -0.337	 -9.505	 -0.001	  0.003	 -0.095	 29.900	 99.487	 -0.143
40497	  0.121	 -0.147	  0.216	  0.151	 -0.289	 -9.513	 -0.002	 -0.010	 -0.150	 29.900	 99.475	  0.962
40547	  0.121	 -0.160	  0.219	  0.034	 -0.154	 -9.491	  0.002	 -0.002	 -0.120	 29.900	 99.475	  0.962
40597	  0.124	 -0.151	  0.218	  0.061	 -0.286	 -9.440	  0.001	  0.001	 -0.101	 29.900	 99.475	  0.962
40647	  0.124	 -0.144	  0.218	  0.289	 -0.121	 -9.509	  0.004	 -0.007	 -0.046	 29.900	 99.487	 -0.143
40697	  0.128	 -0.141	  0.208	  2.285	 -1.366	 -9.305	  0.071	 -0.201	 -0.663	 29.900	 99.487	 -0.143
40747	  0.129	 -0.131	  0.209	 -0.011	 -2.290	 -12.333	 -0.106	 -0.465	 -0.256	 29.900	 99.487	 -0.143
40797	  0.125	 -0.121	  0.215	  1.582	 -2.008	 -11.598	 -0.236	 -0.336	  0.177	 29.900	 99.487	 -0.143
40847	  0.110	 -0.136	  0.208	  0.648	 -2.651	 -12.838	 -0.342	 -0.276	  0.195	 29.900	 99.487	 -0.143
40897	  0.089	 -0.144	  0.200	  0.795	 -2.687	 -11.596	 -0.841	 -0.174	  0.745	 29.900	 99.475	  0.962
40947	  0.057	 -0.154	  0.211	  0.665	 -1.252	 -9.808	 -0.616	 -0.024	  0.521	 29.900	 99.475	  0.962
40997	  0.037	 -0.174	  0.218	  0.536	 -0.828	 -9.502	 -0.005	  0.197	  0.399	 29.900	 99.487	 -0.143
41047	  0.003	 -0.168	  0.234	  0.322	 -0.478	 -9.440	  0.506	  0.449	  0.513	 29.900	 99.487	 -0.143
41097	 -0.029	 -0.147	  0.259	 -0.273	 -0.483	 -9.721	  0.570	  0.778	  0.533	 29.900	 99.487	 -0.143
41147	 -0.061	 -0.138	  0.269	  0.961	 -0.810	 -9.351	  0.489	  0.570	  0.123	 29.900	 99.500	 -1.340
41197	 -0.080	 -0.139	  0.287	 -0.810	 -0.780	 -9.040	  0.046	  0.010	  0.256	 29.900	 99.487	 -0.143
41247	 -0.086	 -0.125	  0.290	 -0.684	  0.070	 -8.908	 -0.018	 -0.478	  0.338	 29.900	 99.487	 -0.143
41297	 -0.087	 -0.137	  0.284	 -1.078	  0.527	 -8.714	  0.253	 -0.373	  0.673	 29.900	 99.475	  0.962
41347	 -0.094	 -0.132	  0.284	 -1.719	  0.021	 -9.376	  0.473	 -0.039	  0.892	 29.900	 99.475	  0.962
41397	 -0.107	 -0.135	  0.290	 -1.088	 -0.586	 -8.950	  0.229	  0.138	  1.210	 29.900	 99.475	  0.962
41447	 -0.126	 -0.140	  0.296	 -0.627	 -0.452	 -8.592	 -0.061	  0.116	  1.084	 29.800	 99.471	  1.331
41497	 -0.133	 -0.149	  0.296	 -0.648	 -0.532	 -8.177	 -0.341	  0.012	  0.899	 29.900	 99.475	  0.962
41547	 -0.141	 -0.166	  0.289	 -0.502	 -0.326	 -7.983	 -0.447	 -0.052	  0.650	 29.900	 99.487	 -0.143
41597	 -0.146	 -0.181	  0.283	 -0.117	 -0.082	 -7.798	 -0.278	 -0.126	  0.339	 29.800	 99.471	  1.331
41647	 -0.146	 -0.185	  0.285	 -1.183	 -0.002	 -7.677	 -0.151	 -0.245	  0.043	 29.800	 99.471	  1.331
41697	 -0.142	 -0.184	  0.290	 -1.589	  0.319	 -8.229	 -0.039	 -0.093	 -0.157	 29.800	 99.471	  1.331
41747	 -0.145	 -0.176	  0.289	 -2.099	  0.292	 -8.820	  0.330	  0.266	 -0.047	 29.900	 99.487	 -0.143
41797	 -0.155	 -0.162	  0.291	 -1.145	 -0.504	 -9.692	  0.350	  0.321	  0.050	 29.900	 99.487	 -0.143
41847	 -0.158	 -0.160	  0.290	 -1.273	 -0.090	 -9.974	  0.171	  0.150	  0.023	 29.900	 99.475	  0.962
41897	 -0.161	 -0.146	  0.295	 -0.801	  0.174	 -10.395	  0.203	 -0.079	 -0.086	 29.800	 99.495	 -0.880
41947	 -0.163	 -0.123	  0.290	 -0.675	  0.347	 -10.659	  0.363	 -0.275	  0.255	 29.900	 99.487	 -0.143
41997	 -0.162	 -0.132	  0.287	 -0.517	 -0.274	 -10.479	  0.283	 -0.358	  0.344	 29.900	 99.487	 -0.143
42048	 -0.160	 -0.128	  0.273	 -1.387	 -0.354	 -10.893	  0.050	 -0.183	  0.382	 29.900	 99.475	  0.962
42097	 -0.166	 -0.132	  0.282	  0.465	 -0.542	 -10.398	  0.103	 -0.099	  0.520	 29.900	 99.487	 -0.143
42148	 -0.162	 -0.129	  0.272	  0.017	 -0.007	 -9.495	  0.134	 -0.446	  0.196	 29.900	 99.475	  0.962
42198	 -0.161	 -0.114	  0.262	 -0.600	 -0.761	 -8.715	  0.068	 -0.595	  0.004	 29.900	 99.463	  2.068
42248	 -0.150	 -0.124	  0.256	 -0.997	 -0.961	 -8.341	 -0.385	 -0.535	 -0.329	 29.900	 99.475	  0.962
42298	 -0.144	 -0.132	  0.244	 -1.657	 -1.031	 -8.545	 -0.691	 -0.396	 -0.418	 29.900	 99.487	 -0.143
42348	 -0.138	 -0.142	  0.232	 -1.757	 -0.441	 -7.864	 -0.578	 -0.167	 -0.622	 29.900	 99.475	  0.962
42398	 -0.138	 -0.145	  0.227	 -1.969	  0.661	 -7.610	  0.121	  0.062	 -0.688	 29.900	 99.487	 -0.143
42448	 -0.143	 -0.119	  0.224	 -2.027	  0.023	 -8.480	  0.631	  0.129	 -0.705	 29.900	 99.475	  0.962
42498	 -0.143	 -0.104	  0.227	 -1.891	 -0.373	 -9.422	  0.690	  0.309	 -0.828	 29.900	 99.487	 -0.143
42548	 -0.152	 -0.074	  0.228	 -1.598	 -0.601	 -10.528	  0.539	  0.279	 -0.868	 29.900	 99.487	 -0.143
42598	 -0.153	 -0.054	  0.230	 -1.360	 -0.559	 -10.512	  0.416	 -0.053	 -1.084	 29.900	 99.475	  0.962
42648	 -0.150	 -0.033	  0.223	 -1.663	  0.111	 -10.230	  0.693	 -0.418	 -0.977	 29.900	 99.475	  0.962
42698	 -0.141	 -0.022	  0.216	 -2.041	 -0.844	 -11.223	  0.641	 -0.393	 -0.766	 29.900	 99.475	  0.962
42748	 -0.140	 -0.014	  0.212	 -1.662	 -1.433	 -9.635	 -0.006	 -0.148	 -0.714	 29.900	 99.487	 -0.143
42798	 -0.138	 -0.013	  0.203	 -1.541	 -0.707	 -8.410	 -0.508	 -0.155	 -0.992	 29.900	 99.475	  0.962
42848	 -0.135	 -0.014	  0.203	 -1.704	 -0.774	 -7.600	 -0.653	  0.039	 -0.914	 29.900	 99.487	 -0.143
42898	 -0.144	 -0.032	  0.202	 -1.877	 -0.921	 -7.603	 -0.760	  0.168	 -0.827	 29.900	 99.475	  0.962
42948	 -0.144	 -0.044	  0.198	 -1.884	 -0.692	 -7.976	 -0.475	  0.257	 -0.471	 29.900	 99.475	  0.962
42998	 -0.151	 -0.042	  0.192	 -1.832	 -1.182	 -8.212	 -0.079	  0.327	 -0.207	 29.900	 99.475	  0.962
43048	 -0.153	 -0.028	  0.196	 -1.392	 -1.333	 -8.916	  0.223	  0.243	  0.007	 29.900	 99.475	  0.962
43098	 -0.158	 -0.031	  0.192	 -1.043	 -1.212	 -9.848	  0.499	  0.314	  0.056	 29.900	 99.475	  0.962
43148	 -0.158	 -0.027	  0.192	 -0.876	 -1.689	 -10.731	  0.461	  0.353	 -0.205	 29.900	 99.487	 -0.143
43198	 -0.166	 -0.021	  0.191	 -0.761	 -0.973	 -11.226	  0.261	  0.473	 -0.170	 29.900	 99.487	 -0.143
43248	 -0.179	 -0.018	  0.189	  0.443	 -0.834	 -11.179	  0.202	  0.306	 -0.415	 29.900	 99.475	  0.962
43298	 -0.176	 -0.015	  0.188	  0.143	 -1.029	 -10.323	  0.305	  0.013	 -0.041	 29.900	 99.487	 -0.143
43348	 -0.182	 -0.007	  0.177	  1.420	 -1.257	 -8.964	  0.629	 -0.307	 -0.423	 29.900	 99.475	  0.962
43398	 -0.169	 -0.006	  0.172	 -0.235	 -1.812	 -8.960	  0.465	 -0.912	 -0.796	 29.900	 99.483	  0.225
43448	 -0.162	  0.002	  0.161	 -1.095	 -1.961	 -8.586	  0.117	 -0.423	 -0.569	 29.900	 99.487	 -0.143
43498	 -0.160	 -0.012	  0.155	 -0.761	 -2.083	 -8.178	 -0.437	 -0.017	 -0.598	 29.900	 99.475	  0.962
43548	 -0.164	 -0.022	  0.160	 -0.786	 -1.946	 -8.384	 -0.883	  0.058	 -0.750	 29.900	 99.475	  0.962
43598	 -0.166	 -0.060	  0.150	 -0.992	 -0.944	 -8.513	 -0.852	 -0.208	 -0.949	 29.900	 99.475	  0.962
43648	 -0.158	 -0.075	  0.140	 -1.241	 -0.169	 -9.151	 -0.428	 -0.378	 -1.199	 29.900	 99.475	  0.962
43698	 -0.143	 -0.086	  0.137	 -1.219	  0.307	 -10.090	  0.198	 -0.259	 -1.171	 29.900	 99.479	  0.594
43748	 -0.131	 -0.089	  0.132	 -0.922	 -0.809	 -11.053	  0.496	  0.014	 -1.008	 29.900	 99.475	  0.962
43798	 -0.111	 -0.083	  0.130	 -0.891	 -0.779	 -11.316	  0.313	 -0.248	 -1.112	 29.900	 99.487	 -0.143
43848	 -0.086	 -0.075	  0.115	 -0.786	 -0.701	 -11.229	  0.089	 -0.345	 -1.057	 29.800	 99.483	  0.225
43898	 -0.059	 -0.058	  0.106	 -0.314	 -0.693	 -9.605	 -0.199	 -0.230	 -1.152	 29.900	 99.475	  0.962
43948	 -0.038	 -0.037	  0.106	  0.222	 -1.061	 -8.102	 -0.335	 -0.187	 -1.428	 29.900	 99.475	  0.962
43998	 -0.018	 -0.009	  0.097	 -0.441	 -0.733	 -7.742	 -0.061	 -0.202	 -1.232	 29.900	 99.475	  0.962
44048	 -0.007	  0.017	  0.095	 -1.263	 -1.881	 -8.103	 -0.155	 -0.073	 -0.925	 29.900	 99.475	  0.962
44098	 -0.006	  0.056	  0.097	 -1.818	 -2.335	 -8.713	 -0.679	  0.407	 -0.870	 29.900	 99.487	 -0.143
44148	 -0.018	  0.079	  0.112	 -1.035	 -1.321	 -8.927	 -0.878	  0.613	 -0.495	 29.900	 99.487	 -0.143
44198	 -0.030	  0.087	  0.136	  0.172	 -0.769	 -9.390	 -0.568	  0.479	 -0.200	 29.900	 99.475	  0.962
44248	 -0.046	  0.102	  0.150	  0.815	  0.143	 -9.691	  0.063	  0.177	 -0.015	 29.900	 99.487	 -0.143
44298	 -0.054	  0.129	  0.153	  0.860	 -0.100	 -10.416	  0.518	 -0.278	  0.286	 29.900	 99.479	  0.594
44348	 -0.058	  0.146	  0.150	  0.661	 -0.885	 -11.117	  0.572	 -0.413	  0.398	 29.900	 99.475	  0.962
44398	 -0.062	  0.161	  0.147	 -0.062	 -1.563	 -11.268	  0.148	 -0.181	  0.415	 29.900	 99.463	  2.068
44448	 -0.067	  0.154	  0.160	  0.846	 -1.470	 -10.595	 -0.299	  0.068	  0.253	 29.900	 99.475	  0.962
44498	 -0.077	  0.154	  0.171	  0.313	 -0.996	 -9.840	 -0.555	 -0.257	 -0.007	 29.900	 99.492	 -0.604
44548	 -0.086	  0.158	  0.178	  0.124	  0.278	 -8.312	 -0.456	 -0.289	 -0.153	 29.900	 99.500	 -1.340
44598	 -0.091	  0.150	  0.181	 -0.024	 -0.334	 -7.930	 -0.254	 -0.613	 -0.191	 29.900	 99.487	 -0.143
44648	 -0.090	  0.145	  0.185	 -1.069	 -0.772	 -7.558	 -0.282	 -0.358	 -0.258	 29.900	 99.487	 -0.143
44698	 -0.096	  0.140	  0.193	 -1.374	 -0.597	 -8.140	 -0.234	  0.113	 -0.287	 29.900	 99.475	  0.962
44748	 -0.110	  0.142	  0.198	 -1.047	 -0.472	 -8.945	 -0.161	  0.363	 -0.137	 29.900	 99.475	  0.962
44798	 -0.123	  0.146	  0.212	 -0.466	 -0.112	 -9.467	  0.008	  0.204	 -0.140	 29.900	 99.471	  1.331
44848	 -0.134	  0.140	  0.219	  0.081	 -0.036	 -9.950	  0.242	  0.033	 -0.201	 29.900	 99.479	  0.594
44898	 -0.141	  0.155	  0.213	 -0.670	 -0.057	 -11.177	  0.468	 -0.119	 -0.348	 29.900	 99.487	 -0.143
44948	 -0.143	  0.163	  0.221	 -1.048	  0.080	 -11.302	  0.443	 -0.048	 -0.308	 29.900	 99.487	 -0.143
44998	 -0.147	  0.178	  0.223	 -0.424	 -0.114	 -10.641	  0.405	 -0.149	 -0.526	 29.900	 99.475	  0.962
45048	 -0.149	  0.188	  0.221	 -0.493	  0.223	 -10.419	  0.220	 -0.114	 -0.896	 29.900	 99.475	  0.962
45098	 -0.155	  0.202	  0.227	 -0.388	 -0.035	 -9.609	  0.137	 -0.185	 -1.019	 29.900	 99.475	  0.962
45148	 -0.160	  0.213	  0.228	 -0.826	 -0.597	 -8.553	 -0.178	 -0.176	 -1.347	 29.900	 99.475	  0.962
45198	 -0.166	  0.221	  0.231	 -1.646	 -0.134	 -7.891	 -0.448	 -0.022	 -1.285	 29.900	 99.475	  0.962
45248	 -0.184	  0.217	  0.242	 -2.067	  0.201	 -7.990	 -0.468	  0.401	 -0.752	 29.900	 99.475	  0.962
45298	 -0.194	  0.216	  0.254	 -1.070	  0.179	 -8.481	 -0.233	  0.380	 -0.323	 29.900	 99.487	 -0.143
45348	 -0.195	  0.218	  0.261	 -0.562	  0.139	 -8.746	  0.070	 -0.071	 -0.040	 29.900	 99.475	  0.962
45398	 -0.188	  0.234	  0.251	 -0.508	  0.354	 -9.856	  0.439	 -0.186	  0.044	 29.900	 99.487	 -0.143
45448	 -0.179	  0.251	  0.247	 -0.387	 -0.196	 -10.871	  0.542	 -0.091	  0.266	 29.900	 99.475	  0.962
45498	 -0.171	  0.259	  0.236	  0.330	 -0.789	 -11.093	  0.200	  0.107	  0.233	 29.900	 99.487	 -0.143
45548	 -0.169	  0.259	  0.231	 -0.019	 -0.327	 -11.024	 -0.117	  0.222	 -0.088	 29.900	 99.487	 -0.143
45598	 -0.164	  0.253	  0.242	  0.533	 -0.463	 -10.841	 -0.476	  0.061	 -0.342	 29.900	 99.475	  0.962
45648	 -0.164	  0.243	  0.248	  0.465	  0.900	 -10.172	 -0.458	 -0.071	 -0.527	 29.900	 99.475	  0.962
45698	 -0.161	  0.235	  0.237	  0.104	  0.598	 -8.887	 -0.308	 -0.214	 -0.757	 29.900	 99.475	  0.962
45748	 -0.164	  0.235	  0.244	  0.028	  0.516	 -6.970	 -0.097	 -0.292	 -0.771	 29.900	 99.475	  0.962
45798	 -0.155	  0.234	  0.232	 -1.074	 -0.152	 -7.084	 -0.081	 -0.316	 -0.709	 29.900	 99.475	  0.962
45848	 -0.158	  0.222	  0.226	 -1.298	 -0.031	 -7.948	 -0.022	  0.189	 -0.559	 29.900	 99.492	 -0.604
45898	 -0.170	  0.213	  0.220	 -0.788	 -0.178	 -8.745	  0.068	  0.681	 -0.560	 29.900	 99.487	 -0.143
45948	 -0.190	  0.212	  0.213	  0.169	 -0.236	 -9.103	  0.137	  0.403	 -0.634	 29.900	 99.487	 -0.143
45998	 -0.196	  0.204	  0.198	  0.111	 -0.412	 -9.497	  0.001	 -0.356	 -0.952	 29.900	 99.487	 -0.143
46048	 -0.200	  0.190	  0.190	 -0.884	  1.075	 -10.070	  0.059	 -0.589	 -1.072	 29.900	 99.479	  0.594
46098	 -0.206	  0.185	  0.191	 -0.815	  1.224	 -10.690	  0.214	 -0.020	 -1.071	 29.900	 99.475	  0.962
46148	 -0.228	  0.177	  0.190	 -0.333	  0.661	 -10.393	  0.201	 -0.068	 -1.225	 29.800	 99.483	  0.225
46198	 -0.244	  0.169	  0.186	 -0.013	  1.525	 -10.345	  0.125	  0.078	 -1.427	 29.900	 99.475	  0.962
46248	 -0.264	  0.169	  0.200	 -0.299	  1.118	 -11.251	  0.359	 -0.086	 -1.399	 29.900	 99.475	  0.962
46297	 -0.278	  0.186	  0.208	 -0.053	  0.608	 -10.087	  0.232	 -0.330	 -0.947	 29.900	 99.475	  0.962
46348	 -0.282	  0.171	  0.211	 -0.634	 -0.447	 -9.555	 -0.106	 -0.505	 -0.863	 29.900	 99.487	 -0.143
46397	 -0.285	  0.156	  0.224	 -0.951	 -0.881	 -8.698	 -0.534	 -0.272	 -0.837	 29.900	 99.487	 -0.143
46447	 -0.294	  0.143	  0.240	 -0.947	 -0.479	 -8.149	 -0.658	  0.029	 -0.841	 29.900	 99.475	  0.962
46497	 -0.306	  0.127	  0.238	 -0.766	 -0.324	 -8.294	 -0.464	  0.199	 -0.816	 29.900	 99.475	  0.962
46547	 -0.312	  0.132	  0.257	 -0.768	  0.025	 -8.717	 -0.099	  0.128	 -0.927	 29.900	 99.487	 -0.143
46597	 -0.330	  0.114	  0.263	 -0.910	  0.475	 -9.838	  0.307	  0.157	 -0.737	 29.900	 99.487	 -0.143
46647	 -0.339	  0.133	  0.267	 -0.215	 -0.121	 -10.659	  0.430	  0.081	 -0.522	 29.900	 99.475	  0.962
46697	 -0.349	  0.138	  0.267	 -0.072	 -0.069	 -11.001	  0.411	  0.256	 -0.423	 29.900	 99.475	  0.962
46747	 -0.359	  0.145	  0.272	  0.314	 -0.720	 -10.923	  0.200	  0.121	 -0.331	 29.900	 99.475	  0.962
46797	 -0.364	  0.147	  0.272	  0.182	 -0.808	 -9.865	 -0.078	 -0.359	 -0.236	 29.900	 99.487	 -0.143
46847	 -0.358	  0.141	  0.273	 -0.370	  0.183	 -9.086	 -0.126	 -0.466	 -0.192	 29.900	 99.487	 -0.143
46897	 -0.356	  0.142	  0.274	 -0.915	  0.060	 -8.286	  0.045	 -0.186	 -0.051	 29.900	 99.475	  0.962
46947	 -0.356	  0.146	  0.272	 -0.722	 -0.412	 -7.711	 -0.064	 -0.260	 -0.127	 29.900	 99.475	  0.962
46997	 -0.354	  0.138	  0.275	 -1.440	 -0.192	 -7.755	 -0.233	 -0.436	 -0.302	 29.900	 99.475	  0.962
47047	 -0.359	  0.136	  0.279	 -1.560	  0.266	 -8.710	 -0.191	 -0.045	 -0.501	 29.900	 99.487	 -0.143
47097	 -0.372	  0.129	  0.278	 -1.691	  0.477	 -10.375	  0.095	  0.341	 -0.540	 29.900	 99.487	 -0.143
47147	 -0.393	  0.129	  0.273	 -0.634	  0.260	 -10.986	  0.315	  0.502	 -0.462	 29.900	 99.463	  2.068
47197	 -0.408	  0.133	  0.272	 -0.215	  0.057	 -11.236	  0.394	 -0.315	 -0.636	 29.900	 99.487	 -0.143
47247	 -0.411	  0.144	  0.276	 -0.799	 -0.125	 -10.883	  0.321	 -0.807	 -0.695	 29.900	 99.475	  0.962
47297	 -0.407	  0.139	  0.285	 -1.769	 -0.140	 -10.376	  0.228	 -0.568	 -0.471	 29.900	 99.487	 -0.143
47347	 -0.407	  0.146	  0.287	 -1.254	 -0.409	 -8.707	  0.198	 -0.098	 -0.388	 29.900	 99.487	 -0.143
47397	 -0.418	  0.156	  0.301	 -1.264	 -1.357	 -7.396	  0.007	  0.090	 -0.383	 29.900	 99.479	  0.594
47447	 -0.431	  0.157	  0.305	 -1.109	 -1.400	 -7.481	 -0.200	  0.088	 -0.191	 29.900	 99.492	 -0.604
47497	 -0.434	  0.160	  0.304	 -1.096	 -1.027	 -7.873	 -0.120	  0.129	  0.087	 29.900	 99.487	 -0.143
47547	 -0.438	  0.171	  0.316	 -0.909	 -1.155	 -8.193	  0.101	  0.179	  0.432	 29.900	 99.487	 -0.143
47597	 -0.439	  0.189	  0.322	 -0.624	 -1.134	 -8.523	  0.263	  0.021	  0.610	 29.900	 99.475	  0.962
47647	 -0.431	  0.213	  0.322	 -0.605	 -1.296	 -9.529	  0.428	 -0.257	  0.753	 29.900	 99.487	 -0.143
47697	 -0.413	  0.241	  0.320	  0.206	 -1.140	 -10.794	  0.688	 -0.325	  0.734	 29.900	 99.475	  0.962
47747	 -0.388	  0.286	  0.309	 -0.648	 -2.046	 -12.483	  0.969	 -0.352	  0.829	 29.900	 99.487	 -0.143
47798	 -0.365	  0.309	  0.283	 -0.577	 -2.869	 -11.797	  0.762	  0.045	  1.011	 29.900	 99.475	  0.962
47847	 -0.345	  0.324	  0.279	 -0.020	 -3.847	 -10.675	  0.132	  0.036	  1.096	 29.900	 99.475	  0.962
47898	 -0.326	  0.313	  0.277	 -0.396	 -3.686	 -9.435	 -0.583	  0.063	  0.707	 29.900	 99.475	  0.962
47947	 -0.325	  0.298	  0.281	 -0.468	 -2.534	 -8.324	 -0.813	  0.417	  0.335	 29.900	 99.475	  0.962
47998	 -0.324	  0.270	  0.286	 -0.084	 -2.340	 -7.439	 -0.985	  0.013	  0.197	 29.900	 99.475	  0.962
48048	 -0.317	  0.245	  0.295	 -0.689	 -1.323	 -7.786	 -1.092	 -0.468	  0.113	 29.900	 99.487	 -0.143
48098	 -0.299	  0.216	  0.304	 -1.311	 -1.106	 -8.886	 -1.181	 -0.575	  0.237	 29.900	 99.479	  0.594
48148	 -0.289	  0.173	  0.307	 -1.968	 -0.731	 -9.197	 -0.917	 -0.195	  0.320	 29.900	 99.475	  0.962
48198	 -0.285	  0.156	  0.307	 -2.180	 -0.082	 -8.962	 -0.387	 -0.013	  0.201	 29.900	 99.463	  2.068
48248	 -0.288	  0.153	  0.307	 -1.864	  0.714	 -9.729	  0.550	  0.209	  0.283	 29.900	 99.475	  0.962
48298	 -0.292	  0.190	  0.290	 -1.014	 -0.502	 -10.599	  1.188	  0.150	  0.152	 29.800	 99.471	  1.331
48348	 -0.296	  0.195	  0.283	 -1.233	 -1.067	 -11.573	  1.193	  0.014	 -0.145	 29.900	 99.475	  0.962
48398	 -0.297	  0.231	  0.270	 -1.368	 -1.340	 -11.710	  0.787	 -0.180	 -0.113	 29.900	 99.479	  0.594
48448	 -0.294	  0.233	  0.257	 -1.914	 -1.435	 -10.978	  0.386	 -0.140	 -0.216	 29.900	 99.475	  0.962
48498	 -0.297	  0.229	  0.269	 -1.818	 -1.396	 -9.827	  0.066	  0.025	 -0.279	 29.900	 99.475	  0.962
48548	 -0.301	  0.246	  0.268	 -1.832	 -1.304	 -8.770	  0.024	  0.261	 -0.395	 29.800	 99.471	  1.331
48598	 -0.317	  0.227	  0.273	 -1.982	 -1.689	 -8.357	 -0.106	  0.531	 -0.301	 29.900	 99.479	  0.594
48648	 -0.335	  0.228	  0.284	 -1.048	 -1.452	 -8.283	 -0.241	  0.531	 -0.277	 29.900	 99.487	 -0.143
48698	 -0.343	  0.235	  0.295	 -1.310	 -1.330	 -8.608	 -0.183	  0.352	 -0.273	 29.900	 99.487	 -0.143
48748	 -0.348	  0.221	  0.303	 -0.959	 -0.541	 -8.550	  0.218	  0.292	 -0.121	 29.900	 99.487	 -0.143
48798	 -0.353	  0.235	  0.308	 -0.567	 -0.315	 -8.913	  0.796	  0.243	 -0.349	 29.900	 99.483	  0.225
48848	 -0.356	  0.257	  0.313	 -1.429	 -1.469	 -9.357	  1.047	  0.197	 -0.496	 29.900	 99.487	 -0.143
48898	 -0.361	  0.281	  0.308	 -1.144	 -2.215	 -9.585	  0.811	  0.332	 -0.235	 29.900	 99.475	  0.962
48948	 -0.363	  0.300	  0.320	 -1.379	 -2.312	 -10.125	  0.398	  0.433	 -0.171	 29.900	 99.475	  0.962
48998	 -0.364	  0.321	  0.333	 -0.773	 -1.712	 -9.267	  0.107	  0.826	  0.195	 29.900	 99.475	  0.962
49048	 -0.361	  0.328	  0.352	  1.590	 -1.532	 -8.918	 -0.090	  0.539	  0.300	 29.900	 99.475	  0.962
49098	 -0.341	  0.336	  0.371	  2.000	 -1.451	 -8.666	 -0.226	 -0.260	 -0.337	 29.900	 99.475	  0.962
49148	 -0.318	  0.338	  0.398	  1.111	 -1.564	 -8.375	 -0.491	 -0.794	 -0.747	 29.900	 99.475	  0.962
49198	 -0.274	  0.330	  0.418	 -0.664	 -0.412	 -7.986	 -0.545	 -0.763	 -0.391	 29.900	 99.475	  0.962
49248	 -0.234	  0.329	  0.449	 -0.796	 -0.999	 -8.163	 -0.661	 -0.459	 -0.017	 29.900	 99.475	  0.962
49298	 -0.197	  0.324	  0.471	 -0.909	  0.374	 -7.620	 -0.610	  0.281	  0.049	 29.900	 99.487	 -0.143
49348	 -0.173	  0.326	  0.518	  0.494	  0.868	 -7.396	 -0.235	  0.483	 -0.131	 29.900	 99.463	  2.068
49398	 -0.157	  0.336	  0.553	  0.538	  0.585	 -8.669	  0.073	  0.179	 -0.343	 29.800	 99.487	 -0.143
49448	 -0.149	  0.367	  0.578	  0.993	  1.105	 -9.354	  0.541	 -0.013	 -0.782	 29.900	 99.487	 -0.143
49498	 -0.154	  0.402	  0.591	  0.501	  0.128	 -9.599	  0.751	 -0.057	 -1.105	 29.900	 99.475	  0.962
49548	 -0.170	  0.435	  0.611	 -0.134	 -0.419	 -10.220	  0.380	  0.167	 -1.054	 29.900	 99.475	  0.962
49598	 -0.201	  0.459	  0.623	  0.134	 -0.907	 -10.899	 -0.232	  0.342	 -0.919	 29.900	 99.487	 -0.143
49648	 -0.220	  0.443	  0.656	  0.754	 -0.983	 -10.050	 -0.895	 -0.018	 -0.623	 29.900	 99.475	  0.962
49698	 -0.226	  0.406	  0.683	  0.436	 -0.442	 -9.664	 -1.209	 -0.183	 -0.510	 29.900	 99.487	 -0.143
49748	 -0.230	  0.355	  0.714	  0.931	 -0.096	 -8.972	 -1.112	 -0.303	 -0.592	 29.900	 99.487	 -0.143
49798	 -0.230	  0.326	  0.739	  0.295	  0.608	 -8.837	 -0.709	 -0.175	 -0.418	 29.900	 99.487	 -0.143
49848	 -0.229	  0.308	  0.753	  1.915	  0.300	 -8.657	 -0.163	 -0.358	 -0.456	 29.900	 99.475	  0.962
49898	 -0.215	  0.327	  0.770	 -0.018	  0.721	 -9.896	  0.366	 -0.731	 -0.864	 29.900	 99.487	 -0.143
49948	 -0.199	  0.374	  0.781	 -0.481	 -0.198	 -10.544	  0.681	 -0.270	 -0.553	 29.900	 99.487	 -0.143
49998	 -0.195	  0.406	  0.798	  0.357	 -1.795	 -9.993	  0.251	 -0.365	 -0.554	 29.900	 99.487	 -0.143
50048	 -0.172	  0.438	  0.817	 -0.787	 -1.150	 -10.468	 -0.350	 -0.662	 -0.504	 29.900	 99.487	 -0.143
50098	 -0.183	  0.423	  0.837	 -3.275	 -1.002	 -12.477	 -0.845	  1.145	 -0.648	 29.900	 99.487	 -0.143
50148	 -0.262	  0.369	  0.855	  1.212	 -0.331	 -7.899	 -1.124	  1.158	 -0.312	 29.900	 99.487	 -0.143
50198	 -0.294	  0.326	  0.874	  0.296	  0.516	 -7.989	 -1.086	  0.207	 -0.309	 29.900	 99.487	 -0.143
50248	 -0.321	  0.289	  0.899	 -0.294	  2.486	 -10.261	 -0.709	  0.812	 -0.233	 29.900	 99.479	  0.594
50298	 -0.351	  0.277	  0.912	  2.239	  2.379	 -8.959	 -0.165	  0.185	 -0.032	 29.900	 99.487	 -0.143
50348	 -0.343	  0.292	  0.927	  0.434	  1.195	 -9.501	  0.028	 -0.254	  0.012	 29.900	 99.487	 -0.143
50397	 -0.318	  0.297	  0.941	  0.739	  1.340	 -8.679	 -0.010	 -0.412	  0.144	 29.900	 99.487	 -0.143
50447	 -0.281	  0.322	  0.951	  0.910	  1.745	 -8.443	  0.588	 -0.743	  0.081	 29.900	 99.463	  2.068
50497	 -0.226	  0.387	  0.961	 -0.084	  0.328	 -9.763	  0.596	 -0.778	 -0.080	 29.900	 99.475	  0.962
50548	 -0.180	  0.433	  0.985	  0.795	  0.481	 -10.121	  0.191	 -0.635	  0.029	 29.900	 99.475	  0.962
50597	 -0.124	  0.470	  0.991	 -0.947	  0.714	 -9.676	 -0.105	 -0.823	 -0.061	 29.900	 99.475	  0.962
50647	 -0.081	  0.474	  1.013	 -1.561	  1.136	 -9.287	 -0.344	 -0.419	  0.099	 29.900	 99.487	 -0.143
50697	 -0.066	  0.523	  1.031	 -0.061	  0.043	 -8.819	  0.974	  0.259	 -0.162	 29.900	 99.475	  0.962
50747	 -0.066	  0.595	  1.039	 -1.639	 -0.881	 -11.118	  0.731	  0.281	  0.015	 29.800	 99.483	  0.225
50797	 -0.074	  0.630	  1.029	 -0.696	 -0.650	 -9.779	  0.101	  0.379	  0.134	 29.900	 99.475	  0.962
50847	 -0.099	  0.648	  1.029	  0.729	  1.381	 -9.126	  0.158	  0.267	 -0.006	 29.900	 99.487	 -0.143
50897	 -0.109	  0.682	  1.025	  0.329	  0.360	 -8.953	  0.331	  0.142	 -0.377	 29.800	 99.487	 -0.143
50947	 -0.123	  0.677	  1.037	 -2.036	 -0.140	 -9.317	 -0.119	  0.366	 -0.267	 29.900	 99.487	 -0.143
50997	 -0.161	  0.684	  1.033	  1.133	 -0.239	 -9.649	  0.041	  0.464	  0.011	 29.900	 99.475	  0.962
51047	 -0.152	  0.673	  1.037	 -1.062	 -0.102	 -9.565	  0.029	 -0.157	  0.015	 29.800	 99.483	  0.225
51097	 -0.161	  0.674	  1.026	  0.672	  0.077	 -9.410	  0.009	  0.077	  0.009	 29.900	 99.475	  0.962
51147	 -0.157	  0.675	  1.034	 -0.712	 -0.263	 -9.679	  0.002	 -0.025	  0.011	 29.900	 99.487	 -0.143
51197	 -0.157	  0.663	  1.035	  0.613	  0.025	 -9.423	  0.009	 -0.029	  0.012	 29.900	 99.487	 -0.143
51247	 -0.157	  0.669	  1.029	 -0.548	  0.101	 -9.490	 -0.007	  0.080	  0.010	 29.900	 99.475	  0.962
51297	 -0.156	  0.670	  1.037	 -0.629	 -0.033	 -9.537	  0.010	 -0.012	  0.010	 29.900	 99.475	  0.962
51347	 -0.157	  0.678	  1.033	 -0.490	  0.012	 -9.651	  0.010	 -0.052	  0.012	 29.800	 99.471	  1.331
51397	 -0.157	  0.670	  1.026	 -0.248	 -0.069	 -9.623	  0.004	 -0.061	  0.013	 29.900	 99.475	  0.962
51447	 -0.158	  0.673	  1.033	 -0.455	  0.012	 -9.547	  0.007	 -0.043	  0.011	 29.800	 99.483	  0.225
51497	 -0.159	  0.668	  1.036	 -0.539	 -0.352	 -9.704	 -0.002	  0.005	  0.010	 29.900	 99.475	  0.962
51547	 -0.158	  0.670	  1.031	  0.543	 -0.009	 -9.400	 -0.001	 -0.000	  0.011	 29.900	 99.475	  0.962
51597	 -0.156	  0.683	  1.037	 -0.393	 -0.087	 -9.589	  0.003	  0.022	  0.009	 29.800	 99.487	 -0.143
51647	 -0.157	  0.675	  1.033	 -0.341	 -0.072	 -9.563	  0.003	  0.016	  0.010	 29.900	 99.487	 -0.143
51697	 -0.158	  0.675	  1.029	 -0.020	 -0.055	 -9.484	  0.002	  0.011	  0.010	 29.900	 99.475	  0.962
51747	 -0.157	  0.668	  1.035	  0.135	  0.046	 -9.465	  0.005	 -0.002	  0.011	 29.900	 99.487	 -0.143
51797	 -0.155	  0.675	  1.028	 -0.021	 -0.018	 -9.480	  0.001	 -0.008	  0.011	 29.900	 99.475	  0.962
51847	 -0.153	  0.670	  1.037	 -0.216	  0.024	 -9.493	  0.002	 -0.003	  0.011	 29.900	 99.475	  0.962
51897	 -0.156	  0.673	  1.037	 -0.258	  0.027	 -9.485	  0.002	  0.003	  0.010	 29.900	 99.475	  0.962
51947	 -0.157	  0.672	  1.036	 -0.038	  0.009	 -9.480	  0.003	  0.001	  0.011	 29.900	 99.487	 -0.143
51997	 -0.156	  0.672	  1.036	 -0.119	  0.014	 -9.467	  0.002	 -0.002	  0.010	 29.900	 99.475	  0.962
52047	 -0.156	  0.669	  1.029	 -0.116	  0.020	 -9.501	  0.002	 -0.002	  0.010	 29.900	 99.487	 -0.143
52097	 -0.157	  0.668	  1.033	 -0.146	 -0.013	 -9.526	  0.003	  0.000	  0.011	 29.800	 99.483	  0.225
52147	 -0.156	  0.670	  1.035	 -0.072	  0.031	 -9.486	  0.003	 -0.001	  0.011	 29.900	 99.475	  0.962
52197	 -0.157	  0.670	  1.035	 -0.114	  0.008	 -9.472	 -0.000	 -0.001	  0.011	 29.900	 99.475	  0.962
52247	 -0.154	  0.668	  1.036	 -0.134	  0.012	 -9.519	 -0.000	 -0.000	  0.010	 29.900	 99.475	  0.962
52297	 -0.155	  0.679	  1.037	 -0.145	 -0.017	 -9.479	  0.001	 -0.001	  0.009	 29.800	 99.471	  1.331
52347	 -0.158	  0.670	  1.031	 -0.088	  0.013	 -9.497	  0.002	 -0.000	  0.011	 29.900	 99.475	  0.962
52397	 -0.152	  0.672	  1.032	 -0.376	  0.123	 -10.689	  0.024	 -0.006	 -0.004	 29.900	 99.500	 -1.340
52447	 -0.148	  0.673	  1.035	 -0.627	 -0.513	 -9.661	 -0.006	  0.006	  0.012	 29.900	 99.487	 -0.143
52497	 -0.152	  0.670	  1.039	  0.461	  0.177	 -9.312	  0.011	 -0.086	  0.014	 29.900	 99.487	 -0.143
52547	 -0.154	  0.666	  1.029	  0.531	  0.064	 -9.371	 -0.021	  0.027	  0.009	 29.900	 99.487	 -0.143
52597	 -0.156	  0.669	  1.035	  0.053	  0.104	 -9.518	 -0.005	  0.077	  0.005	 29.800	 99.459	  2.436
52647	 -0.152	  0.670	  1.036	 -0.596	 -0.102	 -9.540	  0.004	  0.058	  0.008	 29.900	 99.487	 -0.143
52697	 -0.156	  0.668	  1.029	 -0.176	  1.468	 -9.498	  0.013	  0.059	  0.002	 29.900	 99.487	 -0.143
52747	 -0.152	  0.680	  1.035	 -0.748	  0.157	 -9.519	 -0.005	  0.061	  0.009	 29.900	 99.487	 -0.143
52797	 -0.151	  0.670	  1.040	  0.067	  0.277	 -9.298	 -0.002	  0.051	  0.007	 29.900	 99.487	 -0.143
52847	 -0.152	  0.674	  1.032	  0.220	 -0.176	 -9.631	  0.039	 -0.023	  0.017	 29.900	 99.487	 -0.143
52897	 -0.151	  0.665	  1.038	  0.397	  0.283	 -9.520	  0.005	  0.004	  0.011	 29.900	 99.487	 -0.143
52947	 -0.152	  0.670	  1.035	  0.137	 -0.215	 -9.594	 -0.006	 -0.011	  0.011	 29.900	 99.463	  2.068
52997	 -0.152	  0.670	  1.032	  0.321	 -0.173	 -9.246	  0.009	 -0.010	  0.005	 29.900	 99.475	  0.962
53047	 -0.151	  0.669	  1.031	 -0.041	 -0.194	 -9.566	  0.002	  0.000	  0.009	 29.800	 99.471	  1.331
53097	 -0.153	  0.668	  1.029	  0.014	 -0.160	 -9.538	 -0.002	 -0.001	  0.009	 29.900	 99.475	  0.962
53147	 -0.151	  0.673	  1.040	 -0.173	  0.025	 -9.540	  0.001	 -0.001	  0.011	 29.900	 99.475	  0.962
53197	 -0.152	  0.672	  1.035	 -0.100	  0.026	 -9.432	 -0.005	  0.002	  0.012	 29.900	 99.487	 -0.143
53247	 -0.152	  0.666	  1.032	 -0.173	  0.123	 -9.343	  0.022	 -0.002	  0.016	 29.900	 99.475	  0.962
53297	 -0.152	  0.672	  1.028	 -0.023	 -1.687	 -10.150	 -0.092	  0.007	  0.013	 29.900	 99.500	 -1.340
53347	 -0.154	  0.668	  1.025	 -0.123	 -0.574	 -9.652	 -0.039	 -0.009	  0.002	 29.900	 99.500	 -1.340
53398	 -0.150	  0.669	  1.033	 -0.161	  0.498	 -9.382	  0.002	  0.048	  0.010	 29.900	 99.475	  0.962
