Time	 MagX	 MagY	 MagZ	 AccelX	 AccelY	 AccelZ	 Yaw	 Pitch	 Roll	 Temperature	 Pressure	 Altitude
1251	 -0.614	  0.147	  0.574	 -0.201	 -0.087	 -9.531	  0.001	 -0.002	  0.019	 30.000	 99.391	 -99999.000
1301	 -0.609	  0.145	  0.573	 -0.191	 -0.066	 -9.470	  0.002	 -0.001	  0.019	 30.000	 99.391	 -99999.000
1351	 -0.608	  0.151	  0.577	 -0.115	 -0.096	 -9.510	  0.002	 -0.001	  0.019	 30.000	 99.391	 -99999.000
1401	 -0.610	  0.142	  0.574	 -0.196	 -0.071	 -9.466	  0.002	 -0.001	  0.019	 30.000	 99.403	 -99999.000
1451	 -0.609	  0.142	  0.576	 -0.097	 -0.088	 -9.494	  0.002	 -0.001	  0.019	 30.000	 99.391	 -99999.000
1501	 -0.609	  0.142	  0.577	 -0.160	 -0.073	 -9.496	  0.002	 -0.000	  0.020	 30.000	 99.391	 -99999.000
1551	 -0.609	  0.141	  0.572	 -0.103	 -0.081	 -9.464	  0.003	 -0.002	  0.020	 30.000	 99.391	 -99999.000
1601	 -0.609	  0.141	  0.578	 -0.161	 -0.099	 -9.494	  0.003	 -0.001	  0.020	 30.000	 99.391	 -99999.000
1651	 -0.610	  0.151	  0.572	 -0.153	 -0.061	 -9.492	  0.002	 -0.002	  0.019	 30.000	 99.391	 -99999.000
1701	 -0.609	  0.145	  0.569	 -0.106	 -0.102	 -9.474	  0.003	 -0.002	  0.019	 30.000	 99.391	 -99999.000
1751	 -0.607	  0.141	  0.575	 -0.207	 -0.068	 -9.511	  0.003	 -0.000	  0.020	 30.000	 99.391	 -99999.000
1801	 -0.609	  0.153	  0.572	 -0.093	 -0.091	 -9.494	  0.001	 -0.001	  0.020	 30.000	 99.403	 -99999.000
1851	 -0.609	  0.145	  0.577	 -0.189	 -0.069	 -9.478	  0.003	 -0.001	  0.020	 30.000	 99.374	 -99999.000
1901	 -0.607	  0.142	  0.575	 -0.097	 -0.115	 -9.500	  0.003	 -0.002	  0.019	 30.000	 99.391	 -99999.000
1951	 -0.608	  0.145	  0.576	 -0.172	 -0.079	 -9.536	  0.002	 -0.002	  0.019	 30.000	 99.391	 -99999.000
2001	 -0.609	  0.144	  0.573	 -0.125	 -0.077	 -9.519	  0.002	 -0.001	  0.019	 30.000	 99.403	 -99999.000
2051	 -0.609	  0.139	  0.576	 -0.165	 -0.091	 -9.550	  0.002	 -0.000	  0.020	 30.000	 99.391	 -99999.000
2101	 -0.610	  0.139	  0.577	 -0.148	 -0.077	 -9.479	  0.001	 -0.002	  0.020	 30.000	 99.391	 -99999.000
2151	 -0.606	  0.141	  0.568	 -0.127	 -0.073	 -9.479	  0.001	 -0.003	  0.019	 30.000	 99.391	 -99999.000
2201	 -0.606	  0.141	  0.571	 -0.164	 -0.085	 -9.518	  0.002	 -0.000	  0.019	 30.000	 99.391	 -99999.000
2251	 -0.606	  0.142	  0.576	 -0.119	 -0.088	 -9.466	  0.003	 -0.001	  0.018	 30.000	 99.378	 -99999.000
2301	 -0.608	  0.149	  0.577	 -0.197	 -0.061	 -9.516	  0.001	 -0.002	  0.019	 30.000	 99.391	 -99999.000
2351	 -0.607	  0.140	  0.575	 -0.093	 -0.095	 -9.450	  0.002	 -0.002	  0.020	 30.000	 99.391	 -99999.000
2401	 -0.608	  0.148	  0.574	 -0.194	 -0.074	 -9.484	  0.002	 -0.001	  0.019	 30.000	 99.391	 -99999.000
2451	 -0.607	  0.165	  0.571	 -0.089	 -0.104	 -9.497	  0.003	 -0.001	  0.019	 30.000	 99.391	 -99999.000
2501	 -0.607	  0.141	  0.577	 -0.189	 -0.063	 -9.533	  0.003	 -0.001	  0.020	 30.000	 99.378	 -99999.000
2551	 -0.609	  0.142	  0.570	 -0.101	 -0.087	 -9.489	  0.003	 -0.001	  0.020	 30.000	 99.391	 -99999.000
2601	 -0.608	  0.150	  0.572	 -0.141	 -0.077	 -9.522	  0.003	 -0.001	  0.020	 30.000	 99.403	 -99999.000
2651	 -0.608	  0.144	  0.574	 -0.147	 -0.057	 -9.506	  0.002	 -0.002	  0.020	 30.000	 99.391	 -99999.000
2701	 -0.614	  0.142	  0.578	 -0.134	 -0.103	 -9.508	  0.003	 -0.001	  0.018	 30.000	 99.378	 -99999.000
2751	 -0.609	  0.140	  0.577	 -0.178	 -0.074	 -9.486	  0.003	 -0.001	  0.019	 30.000	 99.391	 -99999.000
2801	 -0.608	  0.151	  0.573	 -0.115	 -0.091	 -9.530	  0.003	 -0.001	  0.019	 30.000	 99.391	 -99999.000
2851	 -0.606	  0.142	  0.575	 -0.183	 -0.056	 -9.515	  0.003	 -0.001	  0.019	 30.000	 99.391	 -99999.000
2901	 -0.612	  0.158	  0.570	 -0.100	 -0.097	 -9.514	  0.002	 -0.001	  0.021	 30.000	 99.391	 -99999.000
2951	 -0.608	  0.140	  0.572	 -0.183	 -0.079	 -9.509	  0.002	 -0.002	  0.020	 30.000	 99.391	 -99999.000
3001	 -0.612	  0.144	  0.574	 -0.121	 -0.100	 -9.525	  0.003	 -0.002	  0.020	 30.000	 99.391	 -99999.000
3051	 -0.607	  0.142	  0.575	 -0.163	 -0.080	 -9.475	  0.002	  0.000	  0.019	 30.000	 99.391	 -99999.000
3100	 -0.608	  0.145	  0.573	 -0.118	 -0.070	 -9.430	  0.003	 -0.001	  0.019	 30.000	 99.391	 -99999.000
3150	 -0.607	  0.144	  0.577	 -0.136	 -0.087	 -9.502	  0.001	 -0.001	  0.019	 30.000	 99.391	 -99999.000
3200	 -0.608	  0.140	  0.575	 -0.162	 -0.069	 -9.493	  0.001	 -0.001	  0.018	 30.000	 99.391	 -99999.000
3250	 -0.607	  0.141	  0.575	 -0.105	 -0.106	 -9.516	  0.002	 -0.001	  0.019	 30.000	 99.391	 -99999.000
3300	 -0.608	  0.137	  0.571	 -0.165	 -0.063	 -9.517	  0.003	 -0.001	  0.020	 30.000	 99.403	 -99999.000
3350	 -0.604	  0.141	  0.572	 -0.102	 -0.081	 -9.510	  0.002	 -0.001	  0.020	 30.000	 99.391	 -99999.000
3400	 -0.609	  0.141	  0.577	 -0.198	 -0.052	 -9.461	  0.002	 -0.001	  0.018	 30.000	 99.391	 -99999.000
3450	 -0.610	  0.145	  0.577	 -0.075	 -0.102	 -9.515	  0.003	 -0.001	  0.020	 30.000	 99.391	 -99999.000
3500	 -0.609	  0.140	  0.573	 -0.177	 -0.065	 -9.510	  0.002	 -0.001	  0.019	 30.000	 99.391	 -99999.000
3550	 -0.608	  0.141	  0.568	 -0.107	 -0.082	 -9.523	  0.002	 -0.001	  0.020	 30.000	 99.391	 -99999.000
3600	 -0.608	  0.144	  0.580	 -0.159	 -0.072	 -9.527	  0.002	 -0.000	  0.020	 29.900	 99.386	 -99999.000
3650	 -0.609	  0.144	  0.576	 -0.109	 -0.080	 -9.492	  0.002	 -0.001	  0.019	 30.000	 99.391	 -99999.000
3700	 -0.612	  0.147	  0.574	 -0.129	 -0.099	 -9.469	  0.003	 -0.000	  0.018	 30.000	 99.403	 -99999.000
3750	 -0.613	  0.144	  0.574	 -0.137	 -0.073	 -9.507	  0.003	 -0.001	  0.019	 30.000	 99.391	 -99999.000
3800	 -0.608	  0.138	  0.580	 -0.139	 -0.079	 -9.498	  0.002	 -0.001	  0.020	 30.000	 99.386	 -99999.000
3850	 -0.606	  0.139	  0.575	 -0.173	 -0.059	 -9.510	  0.002	 -0.002	  0.019	 30.000	 99.391	 -99999.000
3900	 -0.608	  0.144	  0.574	 -0.141	 -0.093	 -9.508	  0.002	 -0.001	  0.020	 30.000	 99.391	 -99999.000
3950	 -0.610	  0.146	  0.577	 -0.191	 -0.057	 -9.522	  0.003	 -0.002	  0.019	 30.000	 99.403	 -99999.000
4000	 -0.607	  0.140	  0.575	 -0.093	 -0.131	 -9.515	  0.003	 -0.001	  0.020	 30.000	 99.391	 -99999.000
4050	 -0.608	  0.142	  0.573	 -0.187	 -0.053	 -9.497	  0.003	 -0.002	  0.019	 30.000	 99.391	 -99999.000
4100	 -0.608	  0.141	  0.572	 -0.103	 -0.118	 -9.493	  0.001	 -0.000	  0.020	 30.000	 99.391	 -99999.000
4150	 -0.606	  0.153	  0.574	 -0.189	 -0.068	 -9.496	  0.003	 -0.002	  0.019	 30.000	 99.391	 -99999.000
4200	 -0.608	  0.139	  0.568	 -0.122	 -0.103	 -9.485	  0.002	 -0.001	  0.020	 30.000	 99.391	 -99999.000
5250	 -0.604	  0.141	  0.569	 -0.118	 -0.112	 -9.502	  0.002	 -0.002	  0.019	 30.000	 99.391	 -99999.000
5300	 -0.607	  0.142	  0.575	 -0.119	 -0.090	 -9.494	  0.002	  0.000	  0.019	 30.000	 99.415	 -99999.000
5350	 -0.608	  0.148	  0.576	 -0.156	 -0.079	 -9.503	  0.002	 -0.002	  0.020	 30.000	 99.391	 -99999.000
5400	 -0.609	  0.141	  0.577	 -0.155	 -0.059	 -9.506	  0.002	 -0.002	  0.020	 30.000	 99.391	 -99999.000
5450	 -0.608	  0.140	  0.577	 -0.128	 -0.107	 -9.540	  0.002	 -0.001	  0.019	 30.000	 99.391	 -99999.000
5500	 -0.608	  0.140	  0.566	 -0.189	 -0.080	 -9.532	  0.002	 -0.001	  0.019	 30.000	 99.395	 -99999.000
5550	 -0.606	  0.140	  0.576	 -0.121	 -0.095	 -9.472	  0.001	 -0.002	  0.020	 30.000	 99.403	 -99999.000
5601	 -0.612	  0.142	  0.574	 -0.207	 -0.058	 -9.512	  0.001	  0.000	  0.019	 30.000	 99.403	 -99999.000
5650	 -0.609	  0.142	  0.578	 -0.119	 -0.079	 -9.534	  0.002	 -0.001	  0.019	 30.000	 99.391	 -99999.000
5701	 -0.608	  0.141	  0.577	 -0.184	 -0.071	 -9.475	  0.002	 -0.002	  0.020	 30.000	 99.391	 -99999.000
5750	 -0.608	  0.137	  0.576	 -0.172	 -0.074	 -9.510	  0.002	 -0.002	  0.019	 30.000	 99.391	 -99999.000
5800	 -0.607	  0.140	  0.571	 -0.173	 -0.098	 -9.481	  0.001	 -0.001	  0.020	 30.000	 99.391	 -99999.000
5850	 -0.613	  0.145	  0.572	 -0.165	 -0.085	 -9.494	  0.002	 -0.001	  0.019	 30.000	 99.391	 -99999.000
5900	 -0.612	  0.136	  0.573	 -0.137	 -0.083	 -9.497	  0.002	 -0.002	  0.020	 30.000	 99.391	 -99999.000
5950	 -0.607	  0.142	  0.578	 -0.175	 -0.057	 -9.512	  0.003	 -0.001	  0.019	 30.000	 99.391	 -99999.000
6000	 -0.609	  0.145	  0.566	 -0.093	 -0.112	 -9.539	  0.002	 -0.002	  0.020	 30.000	 99.391	 -99999.000
6050	 -0.608	  0.141	  0.577	 -0.183	 -0.042	 -9.514	  0.002	 -0.001	  0.020	 30.000	 99.395	 -99999.000
6101	 -0.607	  0.159	  0.567	 -0.097	 -0.091	 -9.484	  0.002	 -0.001	  0.018	 30.000	 99.403	 -99999.000
6151	 -0.610	  0.141	  0.570	 -0.161	 -0.119	 -9.493	  0.001	 -0.001	  0.020	 30.000	 99.391	 -99999.000
6201	 -0.609	  0.137	  0.578	 -0.138	 -0.062	 -9.487	  0.003	 -0.001	  0.021	 30.000	 99.391	 -99999.000
6251	 -0.610	  0.142	  0.576	 -0.128	 -0.115	 -9.537	  0.002	 -0.003	  0.019	 30.000	 99.403	 -99999.000
6301	 -0.608	  0.140	  0.575	 -0.170	 -0.063	 -9.534	  0.002	 -0.001	  0.020	 30.000	 99.378	 -99999.000
6351	 -0.608	  0.162	  0.570	 -0.095	 -0.084	 -9.483	  0.004	 -0.002	  0.019	 30.000	 99.391	 -99999.000
6401	 -0.607	  0.142	  0.578	 -0.193	 -0.071	 -9.481	  0.001	 -0.002	  0.019	 30.000	 99.403	 -99999.000
6451	 -0.606	  0.139	  0.572	 -0.101	 -0.096	 -9.514	  0.003	 -0.001	  0.019	 30.000	 99.403	 -99999.000
6501	 -0.609	  0.137	  0.573	 -0.174	 -0.064	 -9.525	  0.001	 -0.001	  0.020	 30.000	 99.391	 -99999.000
6551	 -0.609	  0.142	  0.577	 -0.090	 -0.111	 -9.501	  0.001	 -0.003	  0.019	 30.000	 99.378	 -99999.000
6601	 -0.614	  0.144	  0.577	 -0.165	 -0.074	 -9.461	  0.002	  0.000	  0.020	 29.900	 99.386	 -99999.000
6651	 -0.610	  0.137	  0.576	 -0.135	 -0.072	 -9.511	  0.003	  0.000	  0.019	 30.000	 99.403	 -99999.000
6701	 -0.610	  0.142	  0.578	 -0.137	 -0.068	 -9.514	  0.002	 -0.001	  0.019	 30.000	 99.378	 -99999.000
6751	 -0.612	  0.141	  0.570	 -0.136	 -0.061	 -9.514	  0.002	 -0.001	  0.019	 30.000	 99.391	 -99999.000
6801	 -0.609	  0.142	  0.570	 -0.116	 -0.085	 -9.497	  0.003	 -0.001	  0.020	 30.000	 99.403	 -99999.000
6851	 -0.608	  0.142	  0.581	 -0.204	 -0.081	 -9.477	  0.003	 -0.001	  0.019	 30.000	 99.391	 -99999.000
6901	 -0.610	  0.140	  0.574	 -0.099	 -0.092	 -9.491	  0.002	 -0.001	  0.020	 30.000	 99.391	 -99999.000
6951	 -0.608	  0.142	  0.580	 -0.220	 -0.063	 -9.505	  0.003	 -0.001	  0.019	 30.000	 99.415	 -99999.000
7001	 -0.609	  0.141	  0.565	 -0.081	 -0.068	 -9.503	  0.001	 -0.000	  0.019	 30.000	 99.391	 -99999.000
7051	 -0.609	  0.141	  0.576	 -0.195	 -0.101	 -9.499	  0.000	 -0.001	  0.020	 30.000	 99.395	 -99999.000
7101	 -0.608	  0.160	  0.571	 -0.081	 -0.070	 -9.480	  0.002	  0.001	  0.020	 30.000	 99.391	 -99999.000
7151	 -0.609	  0.140	  0.561	 -0.168	 -0.066	 -9.450	  0.003	 -0.000	  0.019	 30.000	 99.403	 -99999.000
7201	 -0.607	  0.142	  0.576	 -0.128	 -0.055	 -9.502	  0.003	 -0.001	  0.020	 30.000	 99.391	 -99999.000
7251	 -0.609	  0.141	  0.576	 -0.135	 -0.095	 -9.467	  0.003	 -0.002	  0.019	 30.000	 99.391	 -99999.000
7301	 -0.609	  0.141	  0.574	 -0.143	 -0.072	 -9.515	  0.003	 -0.000	  0.019	 30.000	 99.391	 -99999.000
7351	 -0.613	  0.140	  0.577	 -0.118	 -0.127	 -9.494	  0.001	 -0.000	  0.020	 30.000	 99.378	 -99999.000
7401	 -0.607	  0.139	  0.575	 -0.165	 -0.065	 -9.508	  0.002	 -0.002	  0.020	 30.000	 99.391	 -99999.000
7451	 -0.607	  0.145	  0.574	 -0.098	 -0.111	 -9.498	  0.002	 -0.001	  0.019	 30.000	 99.391	 -99999.000
7501	 -0.604	  0.144	  0.579	 -0.202	 -0.061	 -9.493	  0.002	 -0.001	  0.020	 30.000	 99.415	 -99999.000
7551	 -0.613	  0.145	  0.572	 -0.098	 -0.119	 -9.529	  0.003	 -0.001	  0.020	 30.000	 99.378	 -99999.000
7601	 -0.609	  0.164	  0.571	 -0.181	 -0.068	 -9.465	  0.001	 -0.001	  0.019	 30.000	 99.391	 -99999.000
7651	 -0.608	  0.142	  0.574	 -0.108	 -0.076	 -9.511	  0.003	 -0.001	  0.020	 30.000	 99.403	 -99999.000
7701	 -0.610	  0.140	  0.566	 -0.154	 -0.094	 -9.474	  0.002	 -0.002	  0.020	 30.000	 99.403	 -99999.000
7751	 -0.607	  0.141	  0.576	 -0.142	 -0.069	 -9.515	  0.001	 -0.002	  0.018	 30.000	 99.386	 -99999.000
7801	 -0.612	  0.139	  0.573	 -0.132	 -0.079	 -9.536	  0.002	 -0.000	  0.018	 30.000	 99.391	 -99999.000
7851	 -0.608	  0.151	  0.573	 -0.169	 -0.067	 -9.510	  0.003	 -0.001	  0.019	 30.000	 99.378	 -99999.000
7901	 -0.609	  0.144	  0.569	 -0.121	 -0.107	 -9.454	  0.002	 -0.002	  0.020	 30.000	 99.391	 -99999.000
7951	 -0.610	  0.141	  0.572	 -0.175	 -0.063	 -9.496	  0.003	 -0.001	  0.019	 30.000	 99.391	 -99999.000
8000	 -0.610	  0.144	  0.576	 -0.087	 -0.088	 -9.488	  0.002	 -0.001	  0.019	 30.000	 99.391	 -99999.000
8050	 -0.609	  0.139	  0.576	 -0.205	 -0.075	 -9.536	  0.002	 -0.002	  0.020	 30.000	 99.403	 -99999.000
8100	 -0.612	  0.146	  0.572	 -0.106	 -0.083	 -9.511	  0.002	 -0.001	  0.019	 30.000	 99.403	 -99999.000
8150	 -0.608	  0.137	  0.576	 -0.175	 -0.108	 -9.527	  0.003	 -0.000	  0.020	 30.000	 99.391	 -99999.000
8201	 -0.609	  0.142	  0.573	 -0.132	 -0.071	 -9.489	  0.001	 -0.000	  0.019	 30.000	 99.403	 -99999.000
58101	 -0.609	  0.140	  0.573	 -0.159	 -0.075	 -9.476	  0.003	 -0.001	  0.018	 30.000	 99.386	  0.715
58151	 -0.609	  0.142	  0.574	 -0.139	 -0.064	 -9.518	  0.003	 -0.001	  0.019	 30.000	 99.391	  0.254
58201	 -0.607	  0.146	  0.577	 -0.143	 -0.074	 -9.495	  0.003	 -0.001	  0.020	 29.900	 99.386	  0.715
58251	 -0.608	  0.142	  0.576	 -0.145	 -0.081	 -9.501	  0.002	 -0.001	  0.019	 30.000	 99.386	  0.715
58301	 -0.610	  0.150	  0.572	 -0.104	 -0.088	 -9.489	  0.002	 -0.002	  0.018	 29.900	 99.386	  0.715
58351	 -0.610	  0.144	  0.574	 -0.170	 -0.070	 -9.536	  0.003	 -0.002	  0.019	 30.000	 99.391	  0.254
58401	 -0.608	  0.144	  0.573	 -0.095	 -0.103	 -9.461	  0.003	 -0.002	  0.019	 30.000	 99.391	  0.254
58451	 -0.609	  0.142	  0.573	 -0.178	 -0.061	 -9.484	  0.002	 -0.000	  0.020	 30.000	 99.403	 -0.851
58501	 -0.609	  0.144	  0.572	 -0.085	 -0.082	 -9.500	  0.001	 -0.001	  0.020	 30.000	 99.391	  0.254
58551	 -0.608	  0.145	  0.574	 -0.164	 -0.074	 -9.468	  0.002	 -0.003	  0.019	 30.000	 99.391	  0.254
58601	 -0.610	  0.148	  0.577	 -0.105	 -0.073	 -9.500	  0.002	 -0.003	  0.019	 30.000	 99.403	 -0.851
58651	 -0.613	  0.141	  0.576	 -0.159	 -0.078	 -9.478	  0.002	 -0.001	  0.019	 30.000	 99.386	  0.715
58701	 -0.607	  0.140	  0.583	 -0.159	 -0.101	 -9.492	  0.003	 -0.001	  0.018	 29.900	 99.386	  0.715
58751	 -0.609	  0.145	  0.577	 -0.120	 -0.123	 -9.469	  0.002	 -0.001	  0.020	 30.000	 99.378	  1.452
58801	 -0.609	  0.141	  0.573	 -0.170	 -0.050	 -9.497	  0.002	 -0.002	  0.020	 30.000	 99.391	  0.254
58851	 -0.609	  0.149	  0.578	 -0.115	 -0.104	 -9.480	  0.002	 -0.001	  0.020	 30.000	 99.391	  0.254
58901	 -0.610	  0.137	  0.576	 -0.167	 -0.065	 -9.455	  0.002	 -0.001	  0.021	 30.000	 99.391	  0.254
58951	 -0.610	  0.142	  0.570	 -0.111	 -0.129	 -9.464	  0.003	 -0.002	  0.019	 30.000	 99.403	 -0.851
59001	 -0.609	  0.142	  0.573	 -0.173	 -0.064	 -9.493	  0.001	 -0.001	  0.020	 30.000	 99.391	  0.254
59051	 -0.610	  0.145	  0.577	 -0.104	 -0.108	 -9.481	  0.003	 -0.004	  0.021	 30.000	 99.399	 -0.482
59101	 -0.608	  0.144	  0.574	 -0.164	 -0.075	 -9.464	  0.003	 -0.001	  0.020	 29.900	 99.386	  0.715
59151	 -0.608	  0.139	  0.572	 -0.112	 -0.085	 -9.475	  0.004	 -0.001	  0.020	 30.000	 99.411	 -1.588
59201	 -0.608	  0.146	  0.580	 -0.164	 -0.078	 -9.508	  0.003	 -0.001	  0.019	 30.000	 99.391	  0.254
59251	 -0.612	  0.140	  0.574	 -0.169	 -0.086	 -9.500	  0.001	 -0.001	  0.019	 30.000	 99.391	  0.254
59301	 -0.612	  0.141	  0.577	 -0.109	 -0.087	 -9.486	  0.002	 -0.001	  0.018	 29.900	 99.399	 -0.482
59351	 -0.612	  0.136	  0.578	 -0.189	 -0.076	 -9.506	  0.002	 -0.001	  0.020	 30.000	 99.403	 -0.851
59401	 -0.607	  0.144	  0.578	 -0.100	 -0.090	 -9.510	  0.002	 -0.001	  0.019	 29.900	 99.386	  0.715
59450	 -0.608	  0.142	  0.562	 -0.197	 -0.044	 -9.483	  0.002	 -0.002	  0.020	 29.900	 99.399	 -0.482
59500	 -0.613	  0.144	  0.577	 -0.081	 -0.103	 -9.497	  0.003	 -0.001	  0.020	 30.000	 99.403	 -0.851
59551	 -0.610	  0.140	  0.576	 -0.199	 -0.063	 -9.477	  0.003	 -0.002	  0.019	 30.000	 99.391	  0.254
59600	 -0.608	  0.146	  0.578	 -0.107	 -0.082	 -9.507	  0.003	 -0.002	  0.019	 30.000	 99.391	  0.254
59650	 -0.610	  0.144	  0.576	 -0.154	 -0.087	 -9.492	  0.001	 -0.001	  0.019	 30.000	 99.391	  0.254
59700	 -0.609	  0.142	  0.576	 -0.106	 -0.072	 -9.549	  0.002	 -0.001	  0.019	 30.000	 99.391	  0.254
59750	 -0.607	  0.142	  0.573	 -0.136	 -0.114	 -9.477	  0.003	 -0.000	  0.019	 30.000	 99.391	  0.254
59801	 -0.609	  0.137	  0.568	 -0.169	 -0.072	 -9.544	  0.002	 -0.002	  0.020	 30.000	 99.378	  1.452
59850	 -0.609	  0.163	  0.570	 -0.114	 -0.075	 -9.482	  0.001	 -0.001	  0.019	 30.000	 99.391	  0.254
59900	 -0.610	  0.140	  0.578	 -0.190	 -0.071	 -9.498	  0.003	 -0.002	  0.019	 30.000	 99.403	 -0.851
59950	 -0.610	  0.140	  0.576	 -0.093	 -0.102	 -9.496	  0.002	 -0.002	  0.021	 30.000	 99.386	  0.715
60001	 -0.612	  0.159	  0.577	 -0.192	 -0.065	 -9.528	  0.003	 -0.001	  0.020	 29.900	 99.386	  0.715
60050	 -0.609	  0.150	  0.573	 -0.081	 -0.098	 -9.511	  0.003	 -0.002	  0.019	 30.000	 99.391	  0.254
60100	 -0.609	  0.142	  0.577	 -0.201	 -0.083	 -9.512	  0.004	 -0.002	  0.020	 29.900	 99.386	  0.715
60150	 -0.609	  0.141	  0.576	 -0.090	 -0.095	 -9.493	  0.001	 -0.001	  0.019	 30.000	 99.391	  0.254
60200	 -0.610	  0.141	  0.565	 -0.134	 -0.077	 -9.506	  0.003	 -0.001	  0.020	 30.000	 99.391	  0.254
60250	 -0.609	  0.144	  0.577	 -0.138	 -0.065	 -9.485	  0.002	 -0.002	  0.019	 30.000	 99.391	  0.254
60300	 -0.609	  0.145	  0.574	 -0.131	 -0.101	 -9.461	  0.002	 -0.002	  0.019	 29.900	 99.374	  1.820
60350	 -0.610	  0.146	  0.574	 -0.190	 -0.059	 -9.518	  0.002	 -0.001	  0.019	 30.000	 99.403	 -0.851
60400	 -0.608	  0.149	  0.572	 -0.094	 -0.103	 -9.466	  0.001	 -0.000	  0.019	 29.900	 99.386	  0.715
60450	 -0.612	  0.139	  0.574	 -0.201	 -0.072	 -9.534	  0.003	 -0.001	  0.020	 30.000	 99.378	  1.452
60500	 -0.607	  0.139	  0.575	 -0.098	 -0.105	 -9.471	  0.002	 -0.001	  0.019	 30.000	 99.403	 -0.851
60550	 -0.608	  0.142	  0.578	 -0.150	 -0.074	 -9.486	  0.002	 -0.001	  0.019	 30.000	 99.391	  0.254
60600	 -0.607	  0.142	  0.578	 -0.102	 -0.092	 -9.510	  0.001	 -0.001	  0.020	 30.000	 99.378	  1.452
60650	 -0.613	  0.141	  0.580	 -0.184	 -0.078	 -9.491	  0.001	 -0.001	  0.019	 30.000	 99.403	 -0.851
60700	 -0.612	  0.146	  0.574	 -0.134	 -0.079	 -9.486	  0.002	 -0.000	  0.019	 29.900	 99.386	  0.715
60750	 -0.607	  0.164	  0.571	 -0.146	 -0.103	 -9.506	  0.002	 -0.000	  0.019	 30.000	 99.391	  0.254
60800	 -0.612	  0.144	  0.580	 -0.143	 -0.067	 -9.521	  0.001	 -0.001	  0.019	 30.000	 99.403	 -0.851
60851	 -0.608	  0.142	  0.565	 -0.118	 -0.085	 -9.497	  0.003	  0.000	  0.020	 30.000	 99.386	  0.715
60900	 -0.610	  0.144	  0.578	 -0.178	 -0.053	 -9.530	  0.002	 -0.001	  0.020	 30.000	 99.391	  0.254
60950	 -0.607	  0.148	  0.577	 -0.107	 -0.112	 -9.476	  0.001	 -0.001	  0.019	 29.900	 99.386	  0.715
61000	 -0.608	  0.146	  0.581	 -0.184	 -0.057	 -9.496	  0.001	 -0.001	  0.019	 29.900	 99.386	  0.715
61050	 -0.609	  0.142	  0.577	 -0.110	 -0.098	 -9.483	  0.003	 -0.001	  0.019	 30.000	 99.386	  0.715
62101	 -0.609	  0.141	  0.573	 -0.191	 -0.066	 -9.533	  0.002	 -0.002	  0.019	 30.000	 99.391	  0.254
62151	 -0.609	  0.142	  0.574	 -0.088	 -0.100	 -9.493	  0.003	 -0.002	  0.020	 30.000	 99.391	  0.254
62201	 -0.608	  0.150	  0.577	 -0.169	 -0.078	 -9.507	  0.002	 -0.002	  0.020	 29.900	 99.386	  0.715
62251	 -0.610	  0.146	  0.573	 -0.126	 -0.077	 -9.508	  0.002	 -0.002	  0.019	 30.000	 99.391	  0.254
62301	 -0.608	  0.144	  0.582	 -0.131	 -0.079	 -9.536	  0.002	 -0.002	  0.019	 30.000	 99.403	 -0.851
62351	 -0.609	  0.142	  0.568	 -0.169	 -0.066	 -9.509	  0.001	 -0.001	  0.019	 29.900	 99.399	 -0.482
62401	 -0.610	  0.139	  0.576	 -0.093	 -0.081	 -9.538	  0.002	 -0.001	  0.019	 29.900	 99.386	  0.715
62451	 -0.610	  0.142	  0.578	 -0.185	 -0.063	 -9.530	  0.002	 -0.001	  0.020	 30.000	 99.403	 -0.851
62501	 -0.609	  0.141	  0.577	 -0.107	 -0.107	 -9.481	  0.002	 -0.001	  0.019	 29.900	 99.386	  0.715
62551	 -0.609	  0.141	  0.573	 -0.201	 -0.055	 -9.520	  0.001	 -0.001	  0.020	 30.000	 99.391	  0.254
62601	 -0.612	  0.141	  0.577	 -0.088	 -0.086	 -9.496	  0.000	 -0.002	  0.019	 29.900	 99.399	 -0.482
62651	 -0.608	  0.144	  0.564	 -0.195	 -0.076	 -9.496	  0.003	 -0.002	  0.019	 30.000	 99.403	 -0.851
62701	 -0.610	  0.141	  0.573	 -0.113	 -0.057	 -9.506	  0.003	 -0.000	  0.019	 30.000	 99.403	 -0.851
62751	 -0.610	  0.141	  0.577	 -0.169	 -0.081	 -9.476	  0.002	 -0.001	  0.020	 30.000	 99.403	 -0.851
62801	 -0.606	  0.145	  0.574	 -0.124	 -0.083	 -9.470	  0.003	 -0.001	  0.020	 30.000	 99.403	 -0.851
62851	 -0.610	  0.144	  0.573	 -0.135	 -0.088	 -9.537	  0.002	 -0.001	  0.019	 30.000	 99.391	  0.254
62901	 -0.610	  0.158	  0.570	 -0.150	 -0.062	 -9.495	  0.002	 -0.001	  0.019	 30.000	 99.403	 -0.851
62951	 -0.607	  0.142	  0.580	 -0.116	 -0.088	 -9.522	  0.003	 -0.001	  0.019	 30.000	 99.391	  0.254
63001	 -0.609	  0.142	  0.566	 -0.187	 -0.075	 -9.492	  0.002	 -0.001	  0.019	 30.000	 99.391	  0.254
63051	 -0.612	  0.139	  0.576	 -0.084	 -0.101	 -9.540	  0.002	 -0.001	  0.020	 29.900	 99.399	 -0.482
63101	 -0.612	  0.136	  0.574	 -0.203	 -0.072	 -9.498	  0.002	 -0.001	  0.019	 30.000	 99.391	  0.254
63151	 -0.614	  0.159	  0.572	 -0.102	 -0.077	 -9.496	  0.001	 -0.002	  0.019	 29.900	 99.386	  0.715
63201	 -0.607	  0.139	  0.577	 -0.181	 -0.073	 -9.489	  0.002	 -0.001	  0.019	 29.900	 99.386	  0.715
63250	 -0.613	  0.142	  0.580	 -0.118	 -0.063	 -9.502	  0.003	 -0.002	  0.020	 30.000	 99.386	  0.715
63301	 -0.607	  0.145	  0.574	 -0.140	 -0.069	 -9.516	  0.001	 -0.001	  0.020	 29.900	 99.399	 -0.482
63350	 -0.607	  0.145	  0.576	 -0.154	 -0.081	 -9.495	  0.001	 -0.002	  0.018	 30.000	 99.391	  0.254
63401	 -0.613	  0.144	  0.576	 -0.142	 -0.089	 -9.498	  0.000	 -0.001	  0.020	 30.000	 99.391	  0.254
63450	 -0.610	  0.140	  0.572	 -0.169	 -0.072	 -9.495	  0.003	 -0.001	  0.020	 30.000	 99.391	  0.254
63500	 -0.608	  0.139	  0.580	 -0.114	 -0.091	 -9.494	  0.002	 -0.000	  0.019	 29.900	 99.386	  0.715
63550	 -0.609	  0.145	  0.574	 -0.200	 -0.059	 -9.460	  0.004	 -0.001	  0.020	 30.000	 99.391	  0.254
63600	 -0.607	  0.139	  0.579	 -0.101	 -0.090	 -9.481	  0.002	 -0.001	  0.020	 29.900	 99.386	  0.715
63650	 -0.609	  0.142	  0.576	 -0.174	 -0.084	 -9.464	  0.003	 -0.001	  0.020	 29.900	 99.399	 -0.482
63700	 -0.610	  0.144	  0.576	 -0.092	 -0.083	 -9.504	  0.002	 -0.002	  0.020	 29.900	 99.386	  0.715
63750	 -0.610	  0.146	  0.574	 -0.188	 -0.078	 -9.513	  0.002	 -0.001	  0.019	 30.000	 99.403	 -0.851
63800	 -0.608	  0.142	  0.577	 -0.126	 -0.080	 -9.511	  0.002	 -0.002	  0.019	 30.000	 99.403	 -0.851
63850	 -0.608	  0.144	  0.572	 -0.155	 -0.077	 -9.469	  0.001	 -0.001	  0.019	 30.000	 99.391	  0.254
63900	 -0.609	  0.144	  0.576	 -0.160	 -0.092	 -9.503	  0.002	 -0.001	  0.019	 29.900	 99.386	  0.715
63950	 -0.613	  0.142	  0.574	 -0.161	 -0.100	 -9.511	  0.003	 -0.001	  0.019	 29.900	 99.399	 -0.482
64000	 -0.608	  0.142	  0.577	 -0.184	 -0.049	 -9.523	  0.003	 -0.002	  0.020	 29.900	 99.386	  0.715
64050	 -0.608	  0.165	  0.570	 -0.098	 -0.092	 -9.504	  0.002	 -0.002	  0.021	 30.000	 99.403	 -0.851
64100	 -0.608	  0.150	  0.574	 -0.182	 -0.075	 -9.507	  0.003	 -0.000	  0.019	 30.000	 99.403	 -0.851
64150	 -0.609	  0.139	  0.577	 -0.078	 -0.128	 -9.483	  0.002	 -0.002	  0.019	 30.000	 99.391	  0.254
64200	 -0.612	  0.142	  0.576	 -0.193	 -0.061	 -9.529	  0.002	 -0.001	  0.019	 30.000	 99.391	  0.254
64250	 -0.610	  0.142	  0.578	 -0.094	 -0.102	 -9.473	  0.000	 -0.002	  0.020	 30.000	 99.399	 -0.482
64300	 -0.607	  0.140	  0.576	 -0.186	 -0.081	 -9.498	  0.003	 -0.002	  0.020	 30.000	 99.403	 -0.851
64350	 -0.612	  0.140	  0.576	 -0.095	 -0.084	 -9.505	  0.003	 -0.002	  0.020	 30.000	 99.391	  0.254
64400	 -0.609	  0.149	  0.574	 -0.142	 -0.100	 -9.529	  0.001	 -0.001	  0.018	 29.900	 99.386	  0.715
64450	 -0.610	  0.144	  0.574	 -0.169	 -0.060	 -9.517	  0.003	 -0.001	  0.019	 30.000	 99.386	  0.715
64500	 -0.607	  0.155	  0.574	 -0.160	 -0.086	 -9.509	  0.003	 -0.002	  0.020	 30.000	 99.386	  0.715
64550	 -0.610	  0.141	  0.578	 -0.135	 -0.069	 -9.490	  0.003	 -0.002	  0.019	 30.000	 99.378	  1.452
64600	 -0.607	  0.144	  0.573	 -0.137	 -0.099	 -9.523	  0.002	 -0.002	  0.019	 29.900	 99.399	 -0.482
64650	 -0.610	  0.142	  0.574	 -0.179	 -0.062	 -9.523	  0.002	 -0.002	  0.020	 30.000	 99.403	 -0.851
64700	 -0.610	  0.140	  0.578	 -0.111	 -0.101	 -9.500	  0.002	 -0.001	  0.020	 30.000	 99.403	 -0.851
64750	 -0.608	  0.142	  0.573	 -0.177	 -0.076	 -9.523	  0.003	 -0.001	  0.020	 29.900	 99.386	  0.715
64800	 -0.610	  0.148	  0.577	 -0.090	 -0.106	 -9.488	  0.001	 -0.000	  0.019	 29.900	 99.386	  0.715
64850	 -0.612	  0.142	  0.574	 -0.187	 -0.085	 -9.495	  0.002	 -0.002	  0.019	 30.000	 99.399	 -0.482
64900	 -0.609	  0.158	  0.574	 -0.118	 -0.087	 -9.522	  0.003	 -0.001	  0.019	 30.000	 99.391	  0.254
64950	 -0.612	  0.142	  0.573	 -0.167	 -0.085	 -9.475	  0.002	 -0.001	  0.019	 30.000	 99.399	 -0.482
65000	 -0.612	  0.140	  0.574	 -0.114	 -0.072	 -9.500	  0.001	 -0.002	  0.019	 30.000	 99.391	  0.254
65050	 -0.610	  0.144	  0.573	 -0.151	 -0.087	 -9.517	  0.002	 -0.001	  0.020	 30.000	 99.391	  0.254
65101	 -0.612	  0.141	  0.574	 -0.137	 -0.082	 -9.518	  0.001	 -0.001	  0.018	 30.000	 99.391	  0.239
65150	 -0.610	  0.142	  0.573	 -0.081	 -0.089	 -9.494	  0.003	 -0.001	  0.018	 30.000	 99.391	  0.239
65200	 -0.613	  0.140	  0.578	 -0.178	 -0.071	 -9.479	  0.001	 -0.003	  0.020	 30.000	 99.399	 -0.498
65250	 -0.608	  0.140	  0.577	 -0.106	 -0.087	 -9.495	  0.003	 -0.002	  0.020	 30.000	 99.403	 -0.865
65300	 -0.610	  0.145	  0.574	 -0.193	 -0.065	 -9.503	  0.002	  0.000	  0.019	 30.000	 99.399	 -0.498
65350	 -0.609	  0.141	  0.577	 -0.114	 -0.079	 -9.526	  0.003	 -0.003	  0.019	 29.900	 99.386	  0.700
65400	 -0.609	  0.140	  0.574	 -0.169	 -0.096	 -9.500	  0.002	 -0.001	  0.019	 30.000	 99.391	  0.239
65450	 -0.609	  0.139	  0.576	 -0.086	 -0.085	 -9.547	  0.002	 -0.001	  0.019	 30.000	 99.399	 -0.498
65500	 -0.610	  0.142	  0.577	 -0.190	 -0.085	 -9.517	  0.004	 -0.002	  0.019	 30.000	 99.391	  0.239
65550	 -0.608	  0.140	  0.580	 -0.107	 -0.088	 -9.494	  0.003	 -0.000	  0.018	 30.000	 99.391	  0.239
65600	 -0.610	  0.140	  0.577	 -0.139	 -0.089	 -9.491	  0.002	  0.000	  0.020	 30.000	 99.386	  0.700
65650	 -0.608	  0.140	  0.575	 -0.151	 -0.059	 -9.465	  0.002	 -0.001	  0.020	 29.900	 99.399	 -0.498
65700	 -0.612	  0.145	  0.574	 -0.097	 -0.093	 -9.487	  0.002	 -0.001	  0.018	 30.000	 99.403	 -0.865
65750	 -0.609	  0.144	  0.576	 -0.176	 -0.072	 -9.537	  0.002	 -0.002	  0.019	 30.000	 99.378	  1.437
65800	 -0.609	  0.140	  0.577	 -0.100	 -0.100	 -9.504	  0.003	 -0.002	  0.020	 30.000	 99.391	  0.239
65850	 -0.608	  0.142	  0.577	 -0.184	 -0.096	 -9.509	  0.001	 -0.002	  0.020	 30.000	 99.399	 -0.498
65900	 -0.608	  0.144	  0.581	 -0.105	 -0.103	 -9.536	  0.003	 -0.001	  0.019	 29.900	 99.386	  0.700
65950	 -0.609	  0.158	  0.575	 -0.182	 -0.080	 -9.495	  0.002	 -0.002	  0.019	 29.900	 99.399	 -0.498
66000	 -0.609	  0.141	  0.577	 -0.096	 -0.099	 -9.522	  0.003	 -0.001	  0.019	 30.000	 99.391	  0.239
66050	 -0.609	  0.148	  0.578	 -0.161	 -0.098	 -9.459	  0.001	 -0.001	  0.019	 30.000	 99.391	  0.239
66100	 -0.609	  0.145	  0.574	 -0.115	 -0.104	 -9.507	  0.002	 -0.001	  0.020	 29.900	 99.399	 -0.498
66150	 -0.612	  0.156	  0.571	 -0.133	 -0.111	 -9.507	  0.003	 -0.001	  0.020	 30.000	 99.391	  0.239
66200	 -0.610	  0.145	  0.576	 -0.173	 -0.061	 -9.504	  0.003	 -0.001	  0.021	 30.000	 99.403	 -0.865
66250	 -0.609	  0.150	  0.572	 -0.108	 -0.085	 -9.483	  0.003	 -0.001	  0.018	 29.900	 99.386	  0.700
66300	 -0.610	  0.137	  0.577	 -0.177	 -0.065	 -9.522	  0.003	 -0.002	  0.019	 30.000	 99.391	  0.239
66350	 -0.606	  0.140	  0.580	 -0.095	 -0.096	 -9.514	  0.001	 -0.001	  0.020	 30.000	 99.403	 -0.865
66400	 -0.608	  0.145	  0.576	 -0.166	 -0.057	 -9.527	  0.004	 -0.002	  0.021	 30.000	 99.391	  0.239
66450	 -0.609	  0.144	  0.577	 -0.089	 -0.089	 -9.486	  0.002	 -0.002	  0.020	 30.000	 99.403	 -0.865
66500	 -0.610	  0.141	  0.580	 -0.178	 -0.058	 -9.503	  0.002	 -0.001	  0.019	 30.000	 99.391	  0.239
66550	 -0.609	  0.142	  0.577	 -0.112	 -0.093	 -9.489	  0.003	 -0.003	  0.019	 30.000	 99.391	  0.239
66600	 -0.612	  0.141	  0.569	 -0.143	 -0.056	 -9.497	  0.002	 -0.000	  0.021	 30.000	 99.391	  0.239
66650	 -0.607	  0.140	  0.580	 -0.154	 -0.074	 -9.533	  0.002	  0.000	  0.020	 30.000	 99.403	 -0.865
66701	 -0.609	  0.139	  0.576	 -0.130	 -0.101	 -9.517	  0.002	 -0.001	  0.019	 30.000	 99.403	 -0.865
66750	 -0.609	  0.140	  0.581	 -0.188	 -0.061	 -9.485	  0.002	 -0.001	  0.019	 29.900	 99.386	  0.700
66801	 -0.609	  0.144	  0.577	 -0.103	 -0.096	 -9.491	  0.001	 -0.002	  0.019	 30.000	 99.391	  0.239
66850	 -0.610	  0.136	  0.575	 -0.167	 -0.068	 -9.471	  0.002	 -0.002	  0.020	 30.000	 99.386	  0.700
66900	 -0.606	  0.146	  0.572	 -0.109	 -0.119	 -9.485	  0.002	 -0.002	  0.020	 30.000	 99.403	 -0.865
66951	 -0.612	  0.139	  0.574	 -0.173	 -0.078	 -9.488	  0.004	 -0.001	  0.019	 30.000	 99.391	  0.239
67001	 -0.608	  0.139	  0.577	 -0.129	 -0.053	 -9.497	  0.002	  0.000	  0.019	 29.900	 99.386	  0.700
67051	 -0.609	  0.150	  0.576	 -0.120	 -0.094	 -9.517	  0.002	 -0.002	  0.020	 30.000	 99.391	  0.239
67101	 -0.608	  0.146	  0.577	 -0.165	 -0.074	 -9.537	  0.002	 -0.001	  0.020	 30.000	 99.391	  0.239
67150	 -0.612	  0.142	  0.577	 -0.112	 -0.093	 -9.485	  0.002	 -0.000	  0.019	 30.000	 99.391	  0.239
67201	 -0.609	  0.141	  0.576	 -0.144	 -0.072	 -9.500	  0.002	 -0.000	  0.020	 30.000	 99.403	 -0.865
67251	 -0.609	  0.144	  0.568	 -0.091	 -0.107	 -9.504	  0.002	 -0.001	  0.020	 30.000	 99.399	 -0.498
67301	 -0.607	  0.159	  0.571	 -0.175	 -0.045	 -9.505	  0.003	 -0.001	  0.020	 30.000	 99.391	  0.239
67351	 -0.611	  0.164	  0.574	 -0.097	 -0.089	 -9.557	  0.002	 -0.002	  0.019	 30.000	 99.391	  0.239
67401	 -0.609	  0.145	  0.576	 -0.193	 -0.081	 -9.493	  0.002	 -0.002	  0.020	 29.900	 99.386	  0.700
67451	 -0.609	  0.141	  0.573	 -0.094	 -0.089	 -9.517	  0.002	 -0.001	  0.020	 30.000	 99.386	  0.700
67501	 -0.610	  0.140	  0.578	 -0.163	 -0.079	 -9.453	  0.003	 -0.001	  0.020	 30.000	 99.403	 -0.865
67551	 -0.607	  0.140	  0.572	 -0.146	 -0.073	 -9.503	  0.002	 -0.003	  0.020	 29.900	 99.399	 -0.498
67601	 -0.610	  0.141	  0.577	 -0.108	 -0.097	 -9.476	  0.003	 -0.001	  0.019	 30.000	 99.391	  0.239
67651	 -0.610	  0.141	  0.577	 -0.159	 -0.049	 -9.470	  0.004	 -0.000	  0.020	 30.000	 99.399	 -0.498
67701	 -0.610	  0.137	  0.578	 -0.131	 -0.116	 -9.496	  0.002	 -0.002	  0.019	 30.000	 99.391	  0.239
67751	 -0.607	  0.141	  0.575	 -0.192	 -0.075	 -9.478	  0.002	 -0.003	  0.020	 30.000	 99.391	  0.239
67801	 -0.610	  0.140	  0.578	 -0.079	 -0.096	 -9.515	  0.002	 -0.001	  0.018	 30.000	 99.391	  0.239
67851	 -0.610	  0.144	  0.578	 -0.202	 -0.061	 -9.546	  0.002	 -0.003	  0.020	 30.000	 99.391	  0.239
67901	 -0.608	  0.145	  0.576	 -0.104	 -0.064	 -9.499	  0.001	 -0.002	  0.020	 30.000	 99.391	  0.239
67951	 -0.609	  0.142	  0.582	 -0.164	 -0.073	 -9.498	  0.002	 -0.001	  0.020	 29.900	 99.386	  0.700
68001	 -0.607	  0.137	  0.569	 -0.129	 -0.077	 -9.498	  0.003	 -0.000	  0.020	 29.900	 99.386	  0.700
68051	 -0.608	  0.145	  0.580	 -0.135	 -0.100	 -9.499	  0.002	 -0.002	  0.019	 30.000	 99.403	 -0.865
69101	 -0.609	  0.139	  0.578	 -0.144	 -0.074	 -9.508	  0.003	 -0.003	  0.020	 30.000	 99.391	  0.239
69151	 -0.609	  0.140	  0.564	 -0.123	 -0.098	 -9.495	  0.003	 -0.002	  0.020	 29.900	 99.386	  0.700
69201	 -0.608	  0.164	  0.573	 -0.185	 -0.070	 -9.494	  0.002	 -0.001	  0.019	 29.900	 99.386	  0.700
69251	 -0.612	  0.148	  0.577	 -0.115	 -0.096	 -9.522	  0.002	 -0.002	  0.020	 30.000	 99.399	 -0.498
69301	 -0.609	  0.144	  0.572	 -0.157	 -0.075	 -9.513	  0.002	 -0.001	  0.019	 29.900	 99.386	  0.700
69351	 -0.608	  0.142	  0.576	 -0.092	 -0.083	 -9.517	  0.002	 -0.000	  0.020	 30.000	 99.391	  0.239
69401	 -0.610	  0.144	  0.572	 -0.181	 -0.092	 -9.494	  0.002	 -0.001	  0.020	 29.900	 99.386	  0.700
69451	 -0.607	  0.145	  0.578	 -0.092	 -0.090	 -9.500	  0.002	 -0.002	  0.020	 30.000	 99.386	  0.700
69501	 -0.607	  0.145	  0.573	 -0.150	 -0.076	 -9.495	  0.002	 -0.000	  0.020	 30.000	 99.391	  0.239
69551	 -0.610	  0.139	  0.577	 -0.126	 -0.085	 -9.527	  0.002	 -0.002	  0.019	 29.900	 99.399	 -0.498
69601	 -0.608	  0.142	  0.576	 -0.158	 -0.093	 -9.478	  0.002	 -0.002	  0.020	 30.000	 99.391	  0.239
69651	 -0.608	  0.142	  0.577	 -0.144	 -0.057	 -9.478	  0.001	 -0.001	  0.019	 30.000	 99.386	  0.700
69701	 -0.606	  0.141	  0.579	 -0.145	 -0.107	 -9.485	  0.002	 -0.003	  0.019	 30.000	 99.403	 -0.865
69751	 -0.610	  0.140	  0.581	 -0.162	 -0.066	 -9.547	  0.003	 -0.002	  0.019	 30.000	 99.378	  1.437
69801	 -0.608	  0.149	  0.574	 -0.124	 -0.100	 -9.503	  0.001	 -0.001	  0.020	 30.000	 99.403	 -0.865
69851	 -0.610	  0.144	  0.573	 -0.182	 -0.090	 -9.486	  0.002	 -0.001	  0.020	 30.000	 99.391	  0.239
69901	 -0.610	  0.145	  0.577	 -0.095	 -0.121	 -9.490	  0.002	 -0.003	  0.020	 29.900	 99.386	  0.700
69951	 -0.610	  0.144	  0.576	 -0.184	 -0.071	 -9.525	  0.003	 -0.001	  0.020	 30.000	 99.391	  0.239
70001	 -0.609	  0.140	  0.578	 -0.118	 -0.096	 -9.489	  0.003	  0.000	  0.019	 29.900	 99.399	 -0.498
70050	 -0.609	  0.142	  0.573	 -0.167	 -0.082	 -9.519	  0.003	 -0.001	  0.019	 29.900	 99.386	  0.700
70101	 -0.609	  0.139	  0.578	 -0.151	 -0.089	 -9.472	  0.002	 -0.001	  0.019	 29.900	 99.386	  0.700
70151	 -0.607	  0.150	  0.570	 -0.144	 -0.112	 -9.468	  0.003	 -0.001	  0.020	 30.000	 99.391	  0.239
70201	 -0.612	  0.144	  0.577	 -0.152	 -0.046	 -9.506	  0.002	 -0.002	  0.020	 29.900	 99.386	  0.700
70251	 -0.608	  0.139	  0.573	 -0.094	 -0.093	 -9.477	  0.003	 -0.000	  0.019	 30.000	 99.391	  0.239
70301	 -0.608	  0.140	  0.576	 -0.217	 -0.057	 -9.529	  0.002	 -0.001	  0.020	 30.000	 99.391	  0.239
70351	 -0.608	  0.142	  0.577	 -0.098	 -0.091	 -9.472	  0.002	 -0.001	  0.020	 30.000	 99.386	  0.700
70401	 -0.607	  0.158	  0.577	 -0.193	 -0.072	 -9.509	  0.003	 -0.001	  0.020	 29.900	 99.399	 -0.498
70451	 -0.610	  0.153	  0.573	 -0.114	 -0.083	 -9.503	  0.000	 -0.003	  0.019	 29.900	 99.399	 -0.498
70500	 -0.608	  0.145	  0.573	 -0.191	 -0.075	 -9.522	  0.002	 -0.001	  0.020	 29.900	 99.386	  0.700
70550	 -0.608	  0.146	  0.580	 -0.119	 -0.101	 -9.506	  0.003	 -0.001	  0.019	 30.000	 99.391	  0.239
70601	 -0.609	  0.145	  0.576	 -0.172	 -0.090	 -9.483	  0.002	 -0.002	  0.019	 29.900	 99.399	 -0.498
70650	 -0.613	  0.145	  0.577	 -0.163	 -0.067	 -9.503	  0.002	 -0.001	  0.019	 30.000	 99.391	  0.239
70700	 -0.609	  0.141	  0.570	 -0.113	 -0.100	 -9.527	  0.002	 -0.001	  0.021	 30.000	 99.391	  0.239
70750	 -0.610	  0.141	  0.580	 -0.162	 -0.068	 -9.521	  0.002	 -0.002	  0.019	 30.000	 99.391	  0.239
70800	 -0.609	  0.140	  0.573	 -0.096	 -0.122	 -9.516	  0.003	 -0.002	  0.019	 29.900	 99.399	 -0.498
70850	 -0.612	  0.140	  0.573	 -0.221	 -0.055	 -9.476	  0.003	  0.000	  0.019	 30.000	 99.391	  0.239
70900	 -0.608	  0.141	  0.568	 -0.097	 -0.098	 -9.503	  0.002	 -0.002	  0.019	 29.900	 99.399	 -0.498
70950	 -0.608	  0.140	  0.577	 -0.182	 -0.065	 -9.493	  0.003	 -0.001	  0.018	 30.000	 99.391	  0.239
71000	 -0.606	  0.145	  0.576	 -0.073	 -0.094	 -9.513	  0.002	 -0.001	  0.019	 30.000	 99.391	  0.239
71050	 -0.610	  0.142	  0.581	 -0.160	 -0.090	 -9.476	  0.001	 -0.001	  0.019	 30.000	 99.399	 -0.498
71100	 -0.606	  0.144	  0.575	 -0.113	 -0.091	 -9.509	  0.003	  0.001	  0.019	 30.000	 99.403	 -0.865
71150	 -0.608	  0.145	  0.573	 -0.160	 -0.092	 -9.519	  0.003	 -0.003	  0.019	 30.000	 99.391	  0.239
71200	 -0.606	  0.139	  0.576	 -0.155	 -0.064	 -9.503	  0.002	 -0.000	  0.019	 30.000	 99.391	  0.239
71250	 -0.610	  0.142	  0.570	 -0.098	 -0.089	 -9.512	  0.004	 -0.002	  0.019	 30.000	 99.391	  0.239
71300	 -0.609	  0.142	  0.574	 -0.191	 -0.062	 -9.499	  0.003	 -0.001	  0.020	 30.000	 99.391	  0.239
71350	 -0.608	  0.147	  0.573	 -0.122	 -0.101	 -9.506	  0.003	  0.000	  0.019	 30.000	 99.399	 -0.498
71400	 -0.612	  0.144	  0.574	 -0.211	 -0.086	 -9.492	  0.002	 -0.000	  0.019	 30.000	 99.403	 -0.865
71450	 -0.607	  0.136	  0.575	 -0.096	 -0.094	 -9.507	  0.001	 -0.001	  0.019	 30.000	 99.391	  0.239
71500	 -0.610	  0.145	  0.576	 -0.201	 -0.077	 -9.484	  0.003	 -0.001	  0.020	 29.900	 99.399	 -0.498
71550	 -0.608	  0.140	  0.577	 -0.110	 -0.087	 -9.510	  0.002	 -0.000	  0.020	 30.000	 99.391	  0.239
71600	 -0.607	  0.153	  0.574	 -0.182	 -0.076	 -9.445	  0.002	 -0.001	  0.018	 29.900	 99.386	  0.700
71650	 -0.610	  0.148	  0.578	 -0.133	 -0.092	 -9.535	  0.002	 -0.001	  0.020	 30.000	 99.391	  0.239
71700	 -0.610	  0.136	  0.580	 -0.137	 -0.097	 -9.535	  0.002	  0.000	  0.019	 30.000	 99.391	  0.239
71750	 -0.609	  0.142	  0.576	 -0.139	 -0.067	 -9.515	  0.003	 -0.001	  0.020	 30.000	 99.403	 -0.865
71800	 -0.610	  0.146	  0.562	 -0.105	 -0.134	 -9.511	  0.002	 -0.002	  0.020	 29.900	 99.386	  0.700
71850	 -0.606	  0.141	  0.576	 -0.203	 -0.049	 -9.548	  0.001	 -0.002	  0.019	 30.000	 99.391	  0.239
71901	 -0.610	  0.147	  0.574	 -0.070	 -0.108	 -9.481	  0.002	 -0.001	  0.020	 29.900	 99.399	 -0.498
71950	 -0.607	  0.139	  0.576	 -0.189	 -0.082	 -9.484	  0.001	 -0.002	  0.020	 30.000	 99.386	  0.700
72000	 -0.609	  0.151	  0.573	 -0.082	 -0.083	 -9.494	  0.002	 -0.000	  0.020	 29.900	 99.386	  0.700
72050	 -0.609	  0.156	  0.578	 -0.166	 -0.086	 -9.512	  0.002	 -0.000	  0.019	 30.000	 99.399	 -0.498
72126	 -0.609	  0.145	  0.568	 -0.164	 -0.083	 -9.474	  0.003	 -0.001	  0.019	 30.000	 99.403	 -0.993
72176	 -0.613	  0.142	  0.580	 -0.088	 -0.093	 -9.445	  0.002	 -0.001	  0.019	 30.000	 99.391	  0.112
72226	 -0.612	  0.144	  0.576	 -0.207	 -0.062	 -9.530	  0.002	 -0.001	  0.019	 30.000	 99.391	  0.112
72276	 -0.609	  0.137	  0.578	 -0.093	 -0.091	 -9.510	  0.002	 -0.002	  0.020	 30.000	 99.391	  0.112
72326	 -0.613	  0.169	  0.574	 -0.191	 -0.092	 -9.506	  0.003	 -0.001	  0.020	 30.000	 99.391	  0.112
72376	 -0.613	  0.150	  0.574	 -0.102	 -0.066	 -9.490	  0.002	 -0.002	  0.018	 30.000	 99.386	  0.572
72426	 -0.610	  0.144	  0.569	 -0.132	 -0.115	 -9.498	  0.002	 -0.001	  0.019	 29.900	 99.386	  0.572
72476	 -0.612	  0.141	  0.574	 -0.154	 -0.079	 -9.483	  0.001	  0.000	  0.019	 30.000	 99.399	 -0.625
72526	 -0.610	  0.142	  0.578	 -0.143	 -0.098	 -9.491	  0.002	 -0.001	  0.020	 30.000	 99.403	 -0.993
72576	 -0.610	  0.144	  0.578	 -0.197	 -0.068	 -9.488	  0.003	 -0.003	  0.019	 30.000	 99.391	  0.112
72626	 -0.612	  0.144	  0.577	 -0.097	 -0.095	 -9.508	  0.003	  0.000	  0.020	 30.000	 99.391	  0.112
72676	 -0.612	  0.140	  0.578	 -0.176	 -0.083	 -9.519	  0.002	 -0.002	  0.019	 30.000	 99.378	  1.309
72726	 -0.607	  0.146	  0.566	 -0.092	 -0.084	 -9.520	  0.002	 -0.002	  0.020	 30.000	 99.391	  0.112
72776	 -0.607	  0.140	  0.580	 -0.195	 -0.065	 -9.456	  0.002	 -0.000	  0.019	 30.000	 99.403	 -0.993
72826	 -0.613	  0.146	  0.578	 -0.092	 -0.111	 -9.496	  0.002	 -0.000	  0.020	 30.000	 99.403	 -0.993
72876	 -0.612	  0.141	  0.578	 -0.180	 -0.084	 -9.526	  0.002	 -0.002	  0.019	 29.900	 99.386	  0.572
72926	 -0.612	  0.153	  0.574	 -0.127	 -0.096	 -9.507	  0.002	 -0.003	  0.020	 30.000	 99.386	  0.572
72976	 -0.607	  0.167	  0.567	 -0.152	 -0.098	 -9.473	  0.002	 -0.001	  0.020	 30.000	 99.391	  0.112
73026	 -0.610	  0.142	  0.577	 -0.179	 -0.064	 -9.513	  0.003	  0.000	  0.019	 30.000	 99.403	 -0.993
73076	 -0.608	  0.142	  0.578	 -0.121	 -0.091	 -9.514	  0.002	  0.000	  0.019	 30.000	 99.403	 -0.993
73126	 -0.608	  0.141	  0.578	 -0.196	 -0.064	 -9.492	  0.003	 -0.001	  0.020	 30.000	 99.378	  1.309
73176	 -0.612	  0.139	  0.574	 -0.096	 -0.089	 -9.507	  0.002	 -0.002	  0.019	 30.000	 99.403	 -0.993
73226	 -0.612	  0.141	  0.570	 -0.190	 -0.074	 -9.496	  0.001	 -0.003	  0.019	 30.000	 99.391	  0.112
73276	 -0.612	  0.158	  0.574	 -0.108	 -0.092	 -9.517	  0.002	 -0.001	  0.019	 30.000	 99.391	  0.112
73326	 -0.612	  0.142	  0.581	 -0.187	 -0.084	 -9.511	  0.002	 -0.001	  0.018	 30.000	 99.391	  0.112
73376	 -0.612	  0.144	  0.576	 -0.109	 -0.102	 -9.535	  0.001	 -0.001	  0.019	 29.900	 99.386	  0.572
73426	 -0.608	  0.145	  0.577	 -0.166	 -0.092	 -9.499	  0.003	 -0.002	  0.019	 29.900	 99.386	  0.572
73476	 -0.610	  0.142	  0.585	 -0.136	 -0.076	 -9.523	  0.003	 -0.002	  0.019	 29.900	 99.399	 -0.625
73526	 -0.612	  0.137	  0.576	 -0.118	 -0.077	 -9.488	  0.003	 -0.001	  0.019	 30.000	 99.391	  0.112
73576	 -0.614	  0.140	  0.578	 -0.164	 -0.071	 -9.475	  0.002	 -0.001	  0.020	 30.000	 99.391	  0.112
73627	 -0.612	  0.141	  0.574	 -0.101	 -0.109	 -9.500	  0.003	 -0.001	  0.019	 30.000	 99.386	  0.572
73676	 -0.612	  0.141	  0.568	 -0.187	 -0.055	 -9.512	  0.002	  0.000	  0.020	 30.000	 99.391	  0.112
73726	 -0.610	  0.149	  0.577	 -0.073	 -0.109	 -9.502	  0.002	 -0.001	  0.020	 30.000	 99.391	  0.112
73776	 -0.612	  0.142	  0.570	 -0.203	 -0.067	 -9.504	  0.002	 -0.001	  0.019	 30.000	 99.391	  0.112
73826	 -0.610	  0.144	  0.576	 -0.104	 -0.083	 -9.463	  0.002	  0.000	  0.019	 30.000	 99.386	  0.572
73876	 -0.610	  0.146	  0.578	 -0.195	 -0.088	 -9.510	  0.003	 -0.001	  0.019	 30.000	 99.403	 -0.993
73926	 -0.609	  0.146	  0.578	 -0.118	 -0.100	 -9.513	  0.001	 -0.001	  0.019	 30.000	 99.391	  0.112
73976	 -0.609	  0.144	  0.574	 -0.145	 -0.070	 -9.534	  0.001	 -0.000	  0.019	 30.000	 99.391	  0.112
74026	 -0.609	  0.142	  0.574	 -0.159	 -0.048	 -9.509	  0.003	 -0.001	  0.020	 30.000	 99.403	 -0.993
74076	 -0.608	  0.145	  0.569	 -0.100	 -0.102	 -9.494	  0.002	 -0.001	  0.019	 30.000	 99.391	  0.112
74126	 -0.613	  0.141	  0.578	 -0.170	 -0.035	 -9.521	  0.002	 -0.001	  0.020	 30.000	 99.403	 -0.993
74176	 -0.610	  0.139	  0.577	 -0.076	 -0.119	 -9.473	  0.002	 -0.001	  0.019	 30.000	 99.391	  0.112
74225	 -0.610	  0.137	  0.577	 -0.185	 -0.073	 -9.457	  0.001	 -0.002	  0.020	 30.000	 99.391	  0.112
74276	 -0.613	  0.161	  0.570	 -0.118	 -0.097	 -9.483	  0.003	 -0.001	  0.019	 30.000	 99.391	  0.112
74325	 -0.610	  0.139	  0.576	 -0.164	 -0.086	 -9.529	  0.003	 -0.001	  0.020	 30.000	 99.386	  0.572
74375	 -0.612	  0.144	  0.578	 -0.111	 -0.082	 -9.491	  0.002	 -0.002	  0.020	 30.000	 99.403	 -0.993
74425	 -0.613	  0.141	  0.572	 -0.159	 -0.119	 -9.475	  0.002	 -0.002	  0.020	 30.000	 99.386	  0.572
74475	 -0.608	  0.144	  0.569	 -0.142	 -0.080	 -9.545	  0.004	 -0.001	  0.019	 30.000	 99.391	  0.112
74525	 -0.612	  0.144	  0.576	 -0.141	 -0.081	 -9.487	  0.002	 -0.002	  0.020	 29.900	 99.386	  0.572
74575	 -0.612	  0.145	  0.574	 -0.173	 -0.047	 -9.527	  0.003	 -0.002	  0.020	 29.900	 99.386	  0.572
74625	 -0.613	  0.146	  0.574	 -0.100	 -0.098	 -9.500	  0.002	 -0.002	  0.019	 30.000	 99.391	  0.112
74675	 -0.608	  0.149	  0.574	 -0.170	 -0.090	 -9.441	  0.003	 -0.001	  0.019	 29.900	 99.399	 -0.625
74725	 -0.609	  0.144	  0.577	 -0.088	 -0.108	 -9.522	  0.002	 -0.001	  0.019	 30.000	 99.386	  0.572
74775	 -0.610	  0.140	  0.580	 -0.200	 -0.068	 -9.507	  0.002	 -0.001	  0.020	 30.000	 99.391	  0.112
74825	 -0.612	  0.149	  0.573	 -0.079	 -0.081	 -9.461	  0.002	 -0.001	  0.019	 30.000	 99.391	  0.112
74875	 -0.614	  0.149	  0.575	 -0.166	 -0.084	 -9.464	  0.002	 -0.001	  0.018	 30.000	 99.386	  0.572
74925	 -0.608	  0.144	  0.573	 -0.127	 -0.085	 -9.487	  0.003	 -0.001	  0.020	 30.000	 99.403	 -0.993
74975	 -0.612	  0.144	  0.577	 -0.174	 -0.097	 -9.489	  0.002	 -0.001	  0.021	 30.000	 99.391	  0.112
75025	 -0.610	  0.148	  0.577	 -0.143	 -0.066	 -9.496	  0.003	 -0.001	  0.020	 30.000	 99.403	 -0.993
75075	 -0.610	  0.139	  0.573	 -0.131	 -0.082	 -9.462	  0.003	 -0.002	  0.020	 30.000	 99.391	  0.112
76125	 -0.610	  0.144	  0.573	 -0.169	 -0.073	 -9.494	  0.002	 -0.002	  0.020	 30.000	 99.391	  0.112
76175	 -0.608	  0.141	  0.580	 -0.150	 -0.090	 -9.510	  0.002	 -0.001	  0.020	 30.000	 99.403	 -0.993
76225	 -0.610	  0.145	  0.576	 -0.140	 -0.065	 -9.526	  0.003	 -0.002	  0.021	 30.000	 99.391	  0.112
76275	 -0.610	  0.144	  0.568	 -0.115	 -0.091	 -9.538	  0.002	 -0.002	  0.019	 30.000	 99.391	  0.112
76325	 -0.608	  0.140	  0.577	 -0.164	 -0.101	 -9.509	  0.002	 -0.002	  0.018	 30.000	 99.386	  0.572
76375	 -0.612	  0.145	  0.573	 -0.114	 -0.117	 -9.513	  0.003	 -0.002	  0.019	 30.000	 99.403	 -0.993
76425	 -0.610	  0.140	  0.576	 -0.185	 -0.063	 -9.476	  0.002	 -0.000	  0.020	 29.900	 99.399	 -0.625
76475	 -0.612	  0.135	  0.576	 -0.099	 -0.101	 -9.496	  0.002	 -0.003	  0.020	 30.000	 99.391	  0.112
76525	 -0.609	  0.150	  0.572	 -0.223	 -0.060	 -9.508	  0.002	 -0.001	  0.020	 30.000	 99.378	  1.309
76575	 -0.615	  0.150	  0.575	 -0.111	 -0.059	 -9.495	  0.002	 -0.001	  0.020	 30.000	 99.391	  0.112
76625	 -0.610	  0.141	  0.576	 -0.190	 -0.087	 -9.493	  0.002	 -0.000	  0.019	 30.000	 99.386	  0.572
76675	 -0.612	  0.140	  0.574	 -0.113	 -0.094	 -9.470	  0.002	 -0.000	  0.019	 30.000	 99.391	  0.112
76725	 -0.609	  0.142	  0.577	 -0.158	 -0.076	 -9.518	  0.002	 -0.001	  0.019	 30.000	 99.391	  0.112
76776	 -0.610	  0.142	  0.572	 -0.137	 -0.065	 -9.509	  0.002	 -0.001	  0.021	 30.000	 99.391	  0.112
76825	 -0.610	  0.142	  0.577	 -0.109	 -0.110	 -9.521	  0.002	 -0.001	  0.019	 30.000	 99.391	  0.112
76875	 -0.613	  0.144	  0.574	 -0.180	 -0.072	 -9.502	  0.002	 -0.000	  0.020	 29.900	 99.386	  0.572
76925	 -0.613	  0.153	  0.577	 -0.088	 -0.108	 -9.519	  0.002	 -0.002	  0.019	 30.000	 99.403	 -0.993
76975	 -0.610	  0.145	  0.576	 -0.213	 -0.077	 -9.469	  0.002	 -0.002	  0.019	 30.000	 99.378	  1.309
77025	 -0.609	  0.137	  0.573	 -0.056	 -0.089	 -9.499	  0.003	 -0.001	  0.020	 30.000	 99.403	 -0.993
77075	 -0.612	  0.142	  0.574	 -0.194	 -0.078	 -9.483	  0.002	 -0.001	  0.018	 30.000	 99.391	  0.112
77125	 -0.610	  0.153	  0.574	 -0.101	 -0.089	 -9.518	  0.003	 -0.001	  0.018	 30.000	 99.399	 -0.625
77176	 -0.609	  0.142	  0.578	 -0.179	 -0.074	 -9.510	  0.002	 -0.001	  0.019	 30.000	 99.386	  0.572
77225	 -0.612	  0.155	  0.574	 -0.171	 -0.059	 -9.486	  0.001	 -0.000	  0.019	 30.000	 99.391	  0.112
77276	 -0.610	  0.159	  0.570	 -0.142	 -0.092	 -9.489	  0.003	 -0.002	  0.019	 30.000	 99.399	 -0.625
77326	 -0.607	  0.137	  0.575	 -0.189	 -0.059	 -9.517	  0.002	 -0.002	  0.020	 30.000	 99.391	  0.112
77376	 -0.610	  0.148	  0.581	 -0.099	 -0.091	 -9.499	  0.003	 -0.001	  0.020	 30.000	 99.403	 -0.993
77426	 -0.610	  0.142	  0.573	 -0.197	 -0.087	 -9.511	  0.003	 -0.000	  0.019	 30.000	 99.403	 -0.993
77475	 -0.608	  0.144	  0.578	 -0.096	 -0.086	 -9.496	  0.002	 -0.002	  0.019	 30.000	 99.386	  0.572
77526	 -0.610	  0.149	  0.573	 -0.203	 -0.080	 -9.495	  0.003	 -0.000	  0.020	 30.000	 99.391	  0.112
77576	 -0.610	  0.158	  0.571	 -0.134	 -0.072	 -9.515	  0.003	 -0.002	  0.021	 30.000	 99.399	 -0.625
77626	 -0.609	  0.142	  0.566	 -0.148	 -0.077	 -9.484	  0.002	 -0.001	  0.019	 30.000	 99.386	  0.572
77676	 -0.613	  0.140	  0.576	 -0.164	 -0.064	 -9.530	  0.000	 -0.001	  0.019	 30.000	 99.403	 -0.993
77726	 -0.614	  0.146	  0.574	 -0.112	 -0.099	 -9.496	  0.002	 -0.001	  0.018	 30.000	 99.386	  0.572
77776	 -0.609	  0.168	  0.571	 -0.181	 -0.050	 -9.552	  0.002	 -0.002	  0.019	 30.000	 99.403	 -0.993
77826	 -0.613	  0.142	  0.578	 -0.108	 -0.083	 -9.493	  0.002	 -0.001	  0.019	 29.900	 99.399	 -0.625
77876	 -0.608	  0.165	  0.574	 -0.199	 -0.066	 -9.479	  0.002	 -0.001	  0.019	 30.000	 99.378	  1.309
77926	 -0.610	  0.144	  0.568	 -0.121	 -0.100	 -9.512	  0.002	 -0.003	  0.019	 30.000	 99.399	 -0.625
77976	 -0.608	  0.144	  0.569	 -0.204	 -0.085	 -9.488	  0.003	 -0.004	  0.017	 29.900	 99.399	 -0.625
78026	 -0.612	  0.154	  0.574	 -0.110	 -0.088	 -9.487	  0.003	 -0.001	  0.020	 30.000	 99.403	 -0.993
78076	 -0.610	  0.140	  0.573	 -0.161	 -0.099	 -9.484	  0.000	 -0.001	  0.019	 30.000	 99.403	 -0.993
78126	 -0.609	  0.142	  0.577	 -0.150	 -0.073	 -9.531	  0.002	 -0.002	  0.020	 30.000	 99.391	  0.112
78176	 -0.609	  0.142	  0.574	 -0.121	 -0.103	 -9.500	  0.003	 -0.002	  0.020	 30.000	 99.403	 -0.993
78226	 -0.609	  0.141	  0.574	 -0.172	 -0.056	 -9.493	  0.002	 -0.001	  0.019	 30.000	 99.403	 -0.993
78276	 -0.609	  0.141	  0.573	 -0.103	 -0.111	 -9.490	  0.003	 -0.002	  0.020	 30.000	 99.391	  0.112
78326	 -0.608	  0.139	  0.572	 -0.185	 -0.076	 -9.486	  0.001	 -0.002	  0.020	 29.900	 99.386	  0.572
78376	 -0.610	  0.141	  0.580	 -0.092	 -0.089	 -9.528	  0.002	 -0.001	  0.020	 29.900	 99.386	  0.572
78426	 -0.609	  0.144	  0.580	 -0.169	 -0.073	 -9.518	  0.003	 -0.002	  0.019	 30.000	 99.391	  0.112
78476	 -0.610	  0.159	  0.571	 -0.120	 -0.099	 -9.514	  0.004	 -0.002	  0.020	 30.000	 99.391	  0.112
78526	 -0.609	  0.141	  0.577	 -0.168	 -0.094	 -9.510	  0.002	 -0.000	  0.020	 30.000	 99.391	  0.112
78576	 -0.610	  0.144	  0.577	 -0.127	 -0.089	 -9.502	  0.002	 -0.001	  0.020	 30.000	 99.391	  0.112
78626	 -0.607	  0.144	  0.573	 -0.151	 -0.074	 -9.508	  0.003	 -0.002	  0.019	 30.000	 99.391	  0.112
78676	 -0.609	  0.164	  0.575	 -0.153	 -0.071	 -9.522	  0.003	 -0.002	  0.020	 30.000	 99.391	  0.112
78726	 -0.607	  0.140	  0.578	 -0.113	 -0.088	 -9.517	  0.001	 -0.001	  0.019	 29.900	 99.386	  0.572
78776	 -0.607	  0.141	  0.580	 -0.162	 -0.070	 -9.507	  0.002	 -0.000	  0.021	 29.900	 99.386	  0.572
78826	 -0.609	  0.142	  0.574	 -0.096	 -0.071	 -9.496	  0.003	 -0.001	  0.019	 30.000	 99.391	  0.112
78876	 -0.609	  0.146	  0.577	 -0.168	 -0.089	 -9.503	  0.002	 -0.002	  0.020	 30.000	 99.403	 -0.993
78926	 -0.609	  0.145	  0.577	 -0.102	 -0.112	 -9.509	  0.001	 -0.001	  0.019	 30.000	 99.391	  0.112
78976	 -0.613	  0.141	  0.574	 -0.180	 -0.046	 -9.547	  0.003	 -0.001	  0.020	 30.000	 99.403	 -0.993
79026	 -0.608	  0.144	  0.578	 -0.105	 -0.082	 -9.521	  0.002	 -0.002	  0.020	 30.000	 99.386	  0.572
79076	 -0.608	  0.140	  0.581	 -0.149	 -0.065	 -9.492	  0.002	 -0.001	  0.020	 30.000	 99.399	 -0.625
79151	 -0.612	  0.145	  0.574	 -0.117	 -0.107	 -9.500	  0.003	 -0.000	  0.019	 30.000	 99.391	  0.207
79201	 -0.607	  0.155	  0.577	 -0.075	 -0.095	 -9.507	  0.002	 -0.001	  0.019	 30.000	 99.391	  0.207
79251	 -0.609	  0.145	  0.576	 -0.174	 -0.064	 -9.501	  0.002	  0.001	  0.019	 30.000	 99.386	  0.667
79301	 -0.610	  0.139	  0.572	 -0.100	 -0.064	 -9.500	  0.002	 -0.001	  0.020	 30.000	 99.391	  0.207
79351	 -0.609	  0.137	  0.576	 -0.165	 -0.076	 -9.509	  0.002	  0.001	  0.020	 30.000	 99.391	  0.207
79401	 -0.609	  0.146	  0.576	 -0.145	 -0.086	 -9.494	  0.003	 -0.001	  0.020	 29.900	 99.399	 -0.530
79451	 -0.610	  0.142	  0.577	 -0.163	 -0.086	 -9.490	  0.002	 -0.001	  0.020	 30.000	 99.403	 -0.899
79501	 -0.609	  0.139	  0.578	 -0.183	 -0.098	 -9.541	  0.002	 -0.001	  0.019	 30.000	 99.378	  1.404
79551	 -0.608	  0.142	  0.568	 -0.108	 -0.123	 -9.495	  0.002	 -0.001	  0.020	 30.000	 99.386	  0.667
79601	 -0.612	  0.144	  0.573	 -0.188	 -0.051	 -9.523	  0.003	 -0.002	  0.020	 29.900	 99.399	 -0.530
79651	 -0.613	  0.150	  0.573	 -0.098	 -0.112	 -9.507	  0.003	 -0.003	  0.020	 30.000	 99.391	  0.207
79701	 -0.612	  0.137	  0.574	 -0.185	 -0.055	 -9.499	  0.002	 -0.001	  0.018	 30.000	 99.391	  0.207
79751	 -0.608	  0.142	  0.578	 -0.091	 -0.082	 -9.534	  0.003	 -0.002	  0.019	 30.000	 99.403	 -0.899
79801	 -0.610	  0.144	  0.573	 -0.180	 -0.075	 -9.502	  0.003	 -0.003	  0.019	 30.000	 99.403	 -0.899
79851	 -0.608	  0.146	  0.578	 -0.094	 -0.071	 -9.522	  0.003	 -0.001	  0.019	 30.000	 99.391	  0.207
79901	 -0.609	  0.147	  0.569	 -0.138	 -0.092	 -9.525	  0.002	 -0.001	  0.020	 29.900	 99.386	  0.667
79951	 -0.607	  0.142	  0.572	 -0.125	 -0.064	 -9.499	  0.002	 -0.002	  0.019	 29.900	 99.399	 -0.530
80001	 -0.609	  0.137	  0.573	 -0.121	 -0.085	 -9.507	  0.002	 -0.001	  0.020	 30.000	 99.391	  0.207
80051	 -0.608	  0.144	  0.576	 -0.170	 -0.062	 -9.508	  0.003	 -0.001	  0.020	 30.000	 99.386	  0.667
80101	 -0.612	  0.139	  0.574	 -0.097	 -0.103	 -9.519	  0.002	 -0.000	  0.020	 30.000	 99.391	  0.207
80151	 -0.610	  0.139	  0.578	 -0.204	 -0.070	 -9.524	  0.002	 -0.002	  0.020	 30.000	 99.391	  0.207
80201	 -0.613	  0.140	  0.569	 -0.102	 -0.081	 -9.531	  0.002	 -0.001	  0.020	 30.000	 99.403	 -0.899
80251	 -0.612	  0.141	  0.574	 -0.173	 -0.074	 -9.511	  0.002	 -0.000	  0.019	 30.000	 99.391	  0.207
80301	 -0.609	  0.144	  0.576	 -0.114	 -0.085	 -9.533	  0.002	 -0.002	  0.020	 30.000	 99.391	  0.207
80351	 -0.610	  0.140	  0.577	 -0.182	 -0.095	 -9.525	  0.002	 -0.002	  0.019	 29.900	 99.386	  0.667
80401	 -0.608	  0.135	  0.579	 -0.124	 -0.071	 -9.543	  0.001	 -0.002	  0.019	 30.000	 99.391	  0.207
80451	 -0.612	  0.144	  0.573	 -0.114	 -0.093	 -9.491	  0.002	 -0.003	  0.020	 30.000	 99.386	  0.667
80501	 -0.609	  0.141	  0.573	 -0.198	 -0.052	 -9.525	  0.003	 -0.002	  0.020	 30.000	 99.391	  0.207
80551	 -0.609	  0.146	  0.572	 -0.116	 -0.093	 -9.510	  0.002	 -0.002	  0.019	 29.900	 99.399	 -0.530
80601	 -0.609	  0.137	  0.576	 -0.189	 -0.059	 -9.473	  0.003	 -0.002	  0.020	 30.000	 99.403	 -0.899
80651	 -0.608	  0.144	  0.576	 -0.074	 -0.104	 -9.460	  0.003	 -0.002	  0.020	 30.000	 99.399	 -0.530
80701	 -0.606	  0.141	  0.577	 -0.228	 -0.064	 -9.483	  0.002	 -0.001	  0.021	 29.900	 99.399	 -0.530
80751	 -0.610	  0.150	  0.573	 -0.095	 -0.083	 -9.547	  0.003	 -0.002	  0.020	 30.000	 99.391	  0.207
80801	 -0.608	  0.139	  0.578	 -0.182	 -0.065	 -9.444	  0.001	 -0.002	  0.020	 30.000	 99.391	  0.207
80851	 -0.609	  0.141	  0.576	 -0.152	 -0.036	 -9.363	  0.002	 -0.001	  0.019	 30.000	 99.403	 -0.899
80901	 -0.610	  0.145	  0.577	 -0.129	 -0.135	 -9.467	  0.003	 -0.001	  0.018	 30.000	 99.391	  0.207
80951	 -0.609	  0.142	  0.578	 -0.151	 -0.082	 -9.484	  0.002	 -0.000	  0.020	 30.000	 99.391	  0.207
81001	 -0.609	  0.147	  0.573	 -0.130	 -0.068	 -9.481	  0.001	 -0.002	  0.021	 29.900	 99.386	  0.667
81051	 -0.610	  0.142	  0.577	 -0.183	 -0.091	 -9.516	  0.003	 -0.001	  0.020	 29.900	 99.386	  0.667
81101	 -0.612	  0.144	  0.561	 -0.108	 -0.087	 -9.464	  0.002	 -0.002	  0.020	 30.000	 99.391	  0.207
81151	 -0.609	  0.135	  0.577	 -0.187	 -0.064	 -9.513	  0.003	 -0.002	  0.020	 30.000	 99.403	 -0.899
81201	 -0.612	  0.144	  0.576	 -0.086	 -0.085	 -9.490	  0.002	 -0.000	  0.019	 30.000	 99.378	  1.404
81251	 -0.609	  0.164	  0.575	 -0.191	 -0.080	 -9.509	  0.002	 -0.001	  0.019	 30.000	 99.403	 -0.899
81300	 -0.610	  0.142	  0.577	 -0.096	 -0.101	 -9.515	  0.003	 -0.001	  0.020	 29.900	 99.386	  0.667
81350	 -0.613	  0.144	  0.577	 -0.165	 -0.066	 -9.514	  0.003	 -0.001	  0.019	 29.900	 99.386	  0.667
81400	 -0.609	  0.142	  0.573	 -0.116	 -0.099	 -9.502	  0.003	 -0.001	  0.019	 30.000	 99.391	  0.207
81450	 -0.608	  0.141	  0.577	 -0.133	 -0.087	 -9.520	  0.003	  0.001	  0.019	 30.000	 99.391	  0.207
81500	 -0.608	  0.142	  0.574	 -0.158	 -0.052	 -9.524	  0.003	 -0.002	  0.019	 29.900	 99.386	  0.667
81551	 -0.610	  0.144	  0.573	 -0.108	 -0.118	 -9.495	  0.003	 -0.000	  0.019	 29.900	 99.399	 -0.530
81600	 -0.610	  0.141	  0.574	 -0.200	 -0.063	 -9.518	  0.002	 -0.002	  0.019	 30.000	 99.391	  0.207
81650	 -0.612	  0.142	  0.562	 -0.081	 -0.098	 -9.505	  0.002	 -0.002	  0.019	 30.000	 99.391	  0.207
81700	 -0.610	  0.141	  0.577	 -0.219	 -0.077	 -9.497	  0.002	 -0.002	  0.020	 30.000	 99.391	  0.207
81750	 -0.609	  0.156	  0.566	 -0.089	 -0.089	 -9.500	  0.001	 -0.001	  0.019	 30.000	 99.399	 -0.530
81800	 -0.609	  0.144	  0.577	 -0.193	 -0.053	 -9.544	  0.004	 -0.002	  0.020	 30.000	 99.378	  1.404
81850	 -0.610	  0.141	  0.572	 -0.072	 -0.100	 -9.502	  0.003	 -0.002	  0.020	 30.000	 99.386	  0.667
81900	 -0.609	  0.154	  0.573	 -0.193	 -0.066	 -9.497	  0.002	 -0.002	  0.019	 30.000	 99.391	  0.207
81950	 -0.608	  0.146	  0.573	 -0.132	 -0.073	 -9.517	  0.001	 -0.001	  0.018	 30.000	 99.391	  0.207
82000	 -0.609	  0.142	  0.574	 -0.149	 -0.086	 -9.509	  0.001	 -0.001	  0.019	 30.000	 99.391	  0.207
82050	 -0.613	  0.146	  0.573	 -0.120	 -0.062	 -9.530	  0.002	 -0.001	  0.020	 30.000	 99.391	  0.207
82100	 -0.609	  0.140	  0.574	 -0.150	 -0.094	 -9.532	  0.004	 -0.001	  0.019	 30.000	 99.391	  0.207
83150	 -0.610	  0.141	  0.574	 -0.154	 -0.076	 -9.512	  0.002	 -0.002	  0.020	 29.900	 99.386	  0.667
83200	 -0.607	  0.151	  0.570	 -0.068	 -0.082	 -9.512	  0.002	 -0.001	  0.020	 29.900	 99.386	  0.667
83250	 -0.609	  0.145	  0.577	 -0.176	 -0.042	 -9.512	  0.003	  0.000	  0.019	 30.000	 99.386	  0.667
83300	 -0.610	  0.140	  0.578	 -0.099	 -0.086	 -9.491	  0.001	 -0.002	  0.019	 30.000	 99.386	  0.667
83350	 -0.610	  0.144	  0.573	 -0.188	 -0.068	 -9.469	  0.003	 -0.001	  0.019	 30.000	 99.391	  0.207
83400	 -0.612	  0.142	  0.576	 -0.096	 -0.082	 -9.487	  0.002	 -0.001	  0.019	 30.000	 99.391	  0.207
83450	 -0.609	  0.151	  0.572	 -0.185	 -0.080	 -9.500	  0.002	  0.000	  0.020	 30.000	 99.386	  0.667
83500	 -0.609	  0.140	  0.576	 -0.097	 -0.089	 -9.485	  0.001	 -0.001	  0.019	 29.900	 99.399	 -0.530
83550	 -0.612	  0.142	  0.580	 -0.164	 -0.087	 -9.519	  0.002	 -0.003	  0.019	 29.900	 99.399	 -0.530
83601	 -0.612	  0.139	  0.576	 -0.113	 -0.073	 -9.468	  0.002	 -0.000	  0.019	 30.000	 99.403	 -0.899
83650	 -0.609	  0.142	  0.576	 -0.106	 -0.108	 -9.486	  0.003	 -0.001	  0.019	 30.000	 99.386	  0.667
83701	 -0.608	  0.140	  0.575	 -0.163	 -0.072	 -9.518	  0.002	 -0.001	  0.020	 30.000	 99.403	 -0.899
83751	 -0.610	  0.145	  0.578	 -0.079	 -0.093	 -9.494	  0.003	 -0.000	  0.019	 30.000	 99.391	  0.207
83801	 -0.609	  0.141	  0.572	 -0.193	 -0.056	 -9.523	  0.002	 -0.001	  0.020	 30.000	 99.391	  0.207
83851	 -0.609	  0.141	  0.574	 -0.086	 -0.079	 -9.468	  0.003	 -0.000	  0.020	 30.000	 99.399	 -0.530
83901	 -0.612	  0.142	  0.581	 -0.196	 -0.072	 -9.490	  0.003	 -0.002	  0.019	 29.900	 99.399	 -0.530
83951	 -0.608	  0.144	  0.578	 -0.104	 -0.079	 -9.495	  0.002	 -0.001	  0.019	 30.000	 99.386	  0.667
84001	 -0.612	  0.142	  0.573	 -0.111	 -0.086	 -9.552	  0.003	 -0.002	  0.020	 30.000	 99.403	 -0.899
84051	 -0.609	  0.139	  0.580	 -0.146	 -0.068	 -9.516	  0.001	 -0.002	  0.019	 30.000	 99.403	 -0.899
84101	 -0.612	  0.151	  0.575	 -0.137	 -0.091	 -9.539	  0.002	  0.000	  0.019	 30.000	 99.403	 -0.899
84151	 -0.613	  0.140	  0.569	 -0.178	 -0.055	 -9.474	  0.003	 -0.001	  0.020	 30.000	 99.403	 -0.899
84201	 -0.612	  0.142	  0.578	 -0.093	 -0.083	 -9.505	  0.003	 -0.001	  0.019	 30.000	 99.403	 -0.899
84251	 -0.612	  0.151	  0.573	 -0.197	 -0.066	 -9.458	  0.003	 -0.001	  0.019	 30.000	 99.391	  0.207
84301	 -0.610	  0.142	  0.578	 -0.096	 -0.089	 -9.499	  0.002	 -0.001	  0.020	 29.900	 99.386	  0.667
84351	 -0.613	  0.145	  0.572	 -0.179	 -0.074	 -9.515	  0.002	 -0.002	  0.019	 30.000	 99.386	  0.667
84401	 -0.612	  0.144	  0.574	 -0.107	 -0.105	 -9.444	  0.001	 -0.001	  0.019	 30.000	 99.391	  0.207
84451	 -0.612	  0.142	  0.572	 -0.186	 -0.087	 -9.509	  0.003	 -0.002	  0.019	 29.900	 99.399	 -0.530
84501	 -0.607	  0.140	  0.572	 -0.137	 -0.080	 -9.478	  0.003	 -0.001	  0.020	 29.900	 99.386	  0.667
84551	 -0.610	  0.144	  0.577	 -0.162	 -0.115	 -9.479	  0.001	 -0.002	  0.018	 30.000	 99.399	 -0.530
84601	 -0.610	  0.142	  0.577	 -0.171	 -0.086	 -9.493	  0.002	 -0.001	  0.019	 29.900	 99.386	  0.667
84651	 -0.610	  0.145	  0.566	 -0.085	 -0.087	 -9.490	  0.002	 -0.001	  0.020	 30.000	 99.391	  0.207
84701	 -0.609	  0.139	  0.576	 -0.183	 -0.052	 -9.500	  0.002	 -0.001	  0.019	 30.000	 99.378	  1.404
84751	 -0.608	  0.142	  0.574	 -0.079	 -0.114	 -9.489	  0.001	 -0.002	  0.020	 30.000	 99.391	  0.207
84801	 -0.609	  0.146	  0.570	 -0.202	 -0.055	 -9.501	  0.002	 -0.000	  0.019	 29.900	 99.399	 -0.530
84851	 -0.608	  0.142	  0.573	 -0.090	 -0.094	 -9.481	  0.002	  0.000	  0.018	 30.000	 99.391	  0.207
84901	 -0.612	  0.142	  0.573	 -0.177	 -0.072	 -9.497	  0.002	 -0.002	  0.020	 29.900	 99.399	 -0.530
84951	 -0.609	  0.145	  0.569	 -0.124	 -0.099	 -9.481	  0.002	 -0.001	  0.020	 30.000	 99.403	 -0.899
85001	 -0.612	  0.140	  0.573	 -0.146	 -0.067	 -9.520	  0.003	 -0.001	  0.019	 30.000	 99.403	 -0.899
85051	 -0.609	  0.141	  0.576	 -0.126	 -0.087	 -9.497	  0.001	 -0.002	  0.020	 30.000	 99.391	  0.207
85101	 -0.609	  0.144	  0.573	 -0.146	 -0.095	 -9.495	  0.002	 -0.002	  0.018	 29.900	 99.386	  0.667
85151	 -0.608	  0.139	  0.577	 -0.154	 -0.074	 -9.506	  0.002	 -0.001	  0.019	 30.000	 99.399	 -0.530
85201	 -0.613	  0.139	  0.566	 -0.102	 -0.107	 -9.465	  0.002	 -0.002	  0.020	 30.000	 99.391	  0.207
85251	 -0.609	  0.141	  0.577	 -0.199	 -0.064	 -9.527	  0.002	 -0.001	  0.021	 30.000	 99.378	  1.404
