Time	 MagX	 MagY	 MagZ	 AccelX	 AccelY	 AccelZ	 Yaw	 Pitch	 Roll	 Temperature	 Pressure	 Altitude
14248	  0.077	  0.686	  0.481	  0.117	 -0.149	 -9.875	 -0.005	  0.002	 -0.000	 30.000	 99.540	 -99999.000
14297	  0.077	  0.680	  0.481	  0.116	 -0.106	 -9.797	 -0.003	  0.003	  0.002	 30.000	 99.540	 -99999.000
14347	  0.077	  0.681	  0.475	  0.132	 -0.118	 -9.836	 -0.003	  0.001	  0.004	 30.000	 99.556	 -99999.000
14397	  0.079	  0.683	  0.483	  0.122	 -0.115	 -9.847	 -0.004	  0.001	  0.003	 30.000	 99.556	 -99999.000
14447	  0.078	  0.684	  0.481	  0.116	 -0.123	 -9.855	 -0.003	  0.001	  0.001	 30.000	 99.545	 -99999.000
14497	  0.080	  0.679	  0.486	  0.132	 -0.137	 -9.845	 -0.003	  0.002	  0.001	 30.000	 99.545	 -99999.000
14547	  0.078	  0.688	  0.483	  0.121	 -0.151	 -9.845	 -0.004	 -0.000	 -0.000	 30.000	 99.545	 -99999.000
14597	  0.078	  0.681	  0.483	  0.124	 -0.112	 -9.859	 -0.002	  0.000	  0.000	 30.000	 99.545	 -99999.000
14647	  0.079	  0.683	  0.483	  0.138	 -0.130	 -9.821	 -0.002	  0.001	 -0.004	 30.000	 99.545	 -99999.000
14697	  0.079	  0.684	  0.475	  0.110	 -0.159	 -9.837	 -0.003	  0.001	  0.002	 30.000	 99.556	 -99999.000
14747	  0.078	  0.680	  0.482	  0.119	 -0.131	 -9.829	 -0.002	  0.002	  0.004	 30.000	 99.540	 -99999.000
14797	  0.077	  0.684	  0.481	  0.125	 -0.138	 -9.829	 -0.004	  0.002	 -0.002	 30.000	 99.552	 -99999.000
14847	  0.083	  0.687	  0.481	  0.117	 -0.136	 -9.826	 -0.004	  0.002	  0.001	 30.000	 99.545	 -99999.000
14897	  0.077	  0.683	  0.481	  0.132	 -0.128	 -9.823	 -0.003	 -0.001	 -0.001	 30.000	 99.540	 -99999.000
14947	  0.075	  0.683	  0.478	  0.131	 -0.127	 -9.836	 -0.002	  0.001	 -0.003	 30.000	 99.545	 -99999.000
14997	  0.079	  0.685	  0.477	  0.129	 -0.157	 -9.872	 -0.004	  0.002	  0.003	 30.000	 99.567	 -99999.000
15047	  0.079	  0.682	  0.481	  0.122	 -0.125	 -9.836	 -0.003	  0.002	  0.003	 30.000	 99.545	 -99999.000
15097	  0.079	  0.686	  0.479	  0.117	 -0.132	 -9.845	 -0.003	  0.002	  0.003	 30.000	 99.545	 -99999.000
15147	  0.077	  0.688	  0.479	  0.127	 -0.106	 -9.852	 -0.004	  0.001	  0.003	 30.000	 99.545	 -99999.000
15197	  0.082	  0.690	  0.477	  0.108	 -0.111	 -9.828	 -0.003	  0.000	  0.001	 30.000	 99.545	 -99999.000
15247	  0.080	  0.683	  0.483	  0.131	 -0.140	 -9.844	 -0.004	  0.001	 -0.001	 30.000	 99.545	 -99999.000
15297	  0.076	  0.683	  0.481	  0.113	 -0.110	 -9.847	 -0.004	  0.003	  0.000	 30.000	 99.545	 -99999.000
15347	  0.077	  0.694	  0.477	  0.116	 -0.116	 -9.821	 -0.003	 -0.000	  0.003	 30.000	 99.556	 -99999.000
15397	  0.079	  0.684	  0.484	  0.122	 -0.134	 -9.823	 -0.003	  0.001	 -0.003	 30.000	 99.545	 -99999.000
15447	  0.079	  0.683	  0.481	  0.126	 -0.120	 -9.823	 -0.003	  0.001	 -0.002	 30.000	 99.545	 -99999.000
15497	  0.076	  0.682	  0.483	  0.125	 -0.148	 -9.867	 -0.003	  0.000	  0.001	 30.000	 99.533	 -99999.000
15547	  0.079	  0.692	  0.481	  0.117	 -0.138	 -9.848	 -0.004	  0.001	  0.003	 30.000	 99.556	 -99999.000
15597	  0.077	  0.684	  0.483	  0.119	 -0.133	 -9.835	 -0.005	  0.001	  0.002	 30.000	 99.540	 -99999.000
15647	  0.079	  0.683	  0.484	  0.115	 -0.115	 -9.840	 -0.004	  0.002	  0.002	 30.000	 99.556	 -99999.000
15697	  0.080	  0.683	  0.481	  0.122	 -0.129	 -9.842	 -0.003	  0.001	  0.002	 30.000	 99.545	 -99999.000
15747	  0.076	  0.680	  0.481	  0.142	 -0.127	 -9.843	 -0.004	  0.001	 -0.001	 30.000	 99.545	 -99999.000
15797	  0.079	  0.686	  0.481	  0.124	 -0.134	 -9.852	 -0.004	  0.002	  0.003	 30.000	 99.545	 -99999.000
15847	  0.079	  0.680	  0.482	  0.116	 -0.131	 -9.857	 -0.003	  0.002	 -0.003	 30.000	 99.556	 -99999.000
15897	  0.077	  0.692	  0.479	  0.130	 -0.133	 -9.847	 -0.003	  0.002	  0.001	 30.000	 99.545	 -99999.000
15947	  0.079	  0.685	  0.478	  0.118	 -0.134	 -9.862	 -0.004	  0.001	  0.003	 30.000	 99.545	 -99999.000
15997	  0.078	  0.682	  0.482	  0.142	 -0.137	 -9.868	 -0.003	  0.003	  0.002	 30.000	 99.545	 -99999.000
16047	  0.081	  0.687	  0.480	  0.143	 -0.121	 -9.849	 -0.004	  0.001	 -0.000	 30.000	 99.556	 -99999.000
16097	  0.081	  0.686	  0.476	  0.115	 -0.136	 -9.844	 -0.003	  0.001	 -0.000	 30.000	 99.556	 -99999.000
16147	  0.082	  0.682	  0.474	  0.134	 -0.122	 -9.851	 -0.004	  0.001	  0.001	 30.000	 99.545	 -99999.000
16197	  0.082	  0.685	  0.480	  0.111	 -0.139	 -9.872	 -0.002	  0.001	 -0.000	 30.000	 99.556	 -99999.000
16247	  0.079	  0.686	  0.484	  0.135	 -0.130	 -9.861	 -0.004	  0.001	  0.000	 30.000	 99.545	 -99999.000
16297	  0.080	  0.682	  0.482	  0.103	 -0.143	 -9.854	 -0.003	  0.001	  0.002	 30.000	 99.552	 -99999.000
16347	  0.079	  0.681	  0.481	  0.118	 -0.131	 -9.853	 -0.003	  0.001	  0.002	 30.000	 99.556	 -99999.000
16397	  0.078	  0.684	  0.482	  0.121	 -0.129	 -9.861	 -0.003	  0.001	 -0.003	 30.000	 99.545	 -99999.000
16447	  0.080	  0.685	  0.480	  0.124	 -0.105	 -9.836	 -0.002	  0.002	 -0.004	 30.000	 99.556	 -99999.000
16497	  0.080	  0.682	  0.481	  0.117	 -0.137	 -9.854	 -0.003	  0.001	  0.005	 30.000	 99.533	 -99999.000
16547	  0.080	  0.682	  0.484	  0.109	 -0.134	 -9.820	 -0.003	  0.000	  0.004	 30.000	 99.556	 -99999.000
16597	  0.078	  0.684	  0.481	  0.134	 -0.139	 -9.849	 -0.003	  0.001	 -0.002	 30.000	 99.545	 -99999.000
16647	  0.080	  0.684	  0.484	  0.129	 -0.126	 -9.815	 -0.003	  0.001	 -0.001	 30.000	 99.556	 -99999.000
16697	  0.082	  0.685	  0.485	  0.128	 -0.125	 -9.861	 -0.003	  0.001	  0.001	 30.000	 99.556	 -99999.000
16747	  0.079	  0.686	  0.481	  0.129	 -0.133	 -9.855	 -0.004	 -0.000	  0.000	 30.000	 99.556	 -99999.000
16797	  0.080	  0.686	  0.482	  0.096	 -0.141	 -9.854	 -0.003	  0.002	  0.000	 30.000	 99.556	 -99999.000
16847	  0.080	  0.688	  0.483	  0.126	 -0.150	 -9.817	 -0.004	  0.001	 -0.000	 30.000	 99.533	 -99999.000
16897	  0.077	  0.686	  0.478	  0.110	 -0.142	 -9.836	 -0.002	  0.001	  0.001	 30.000	 99.545	 -99999.000
16947	  0.079	  0.689	  0.482	  0.127	 -0.129	 -9.833	 -0.003	  0.001	 -0.001	 30.000	 99.545	 -99999.000
16997	  0.078	  0.678	  0.483	  0.128	 -0.137	 -9.850	 -0.002	  0.000	 -0.002	 30.000	 99.545	 -99999.000
17047	  0.078	  0.681	  0.476	  0.125	 -0.140	 -9.842	 -0.003	  0.001	 -0.003	 30.000	 99.545	 -99999.000
17097	  0.077	  0.688	  0.478	  0.104	 -0.132	 -9.849	 -0.002	  0.001	 -0.003	 30.000	 99.545	 -99999.000
17147	  0.080	  0.681	  0.479	  0.120	 -0.126	 -9.807	 -0.005	  0.001	 -0.001	 30.000	 99.545	 -99999.000
17197	  0.080	  0.684	  0.480	  0.131	 -0.151	 -9.836	 -0.002	  0.001	  0.001	 30.000	 99.556	 -99999.000
18247	  0.080	  0.680	  0.480	  0.130	 -0.136	 -9.825	 -0.004	  0.001	  0.001	 30.000	 99.545	 -99999.000
18297	  0.077	  0.686	  0.481	  0.122	 -0.123	 -9.852	 -0.003	  0.001	  0.003	 30.000	 99.533	 -99999.000
18347	  0.077	  0.693	  0.484	  0.110	 -0.127	 -9.844	 -0.004	  0.001	 -0.003	 30.000	 99.545	 -99999.000
18397	  0.079	  0.685	  0.478	  0.131	 -0.116	 -9.846	 -0.002	  0.002	 -0.000	 30.000	 99.545	 -99999.000
18447	  0.079	  0.683	  0.483	  0.126	 -0.113	 -9.850	 -0.004	  0.001	 -0.003	 30.000	 99.545	 -99999.000
18497	  0.080	  0.685	  0.481	  0.120	 -0.132	 -9.849	 -0.003	  0.001	 -0.001	 30.000	 99.549	 -99999.000
18547	  0.079	  0.681	  0.485	  0.096	 -0.117	 -9.850	 -0.003	  0.001	 -0.001	 30.000	 99.545	 -99999.000
18597	  0.078	  0.682	  0.482	  0.131	 -0.139	 -9.841	 -0.004	  0.001	  0.001	 30.000	 99.549	 -99999.000
18647	  0.080	  0.686	  0.479	  0.129	 -0.139	 -9.863	 -0.003	 -0.000	 -0.002	 30.000	 99.549	 -99999.000
18697	  0.077	  0.682	  0.477	  0.124	 -0.102	 -9.847	 -0.002	  0.002	 -0.001	 30.000	 99.556	 -99999.000
18747	  0.077	  0.684	  0.477	  0.137	 -0.156	 -9.802	 -0.003	  0.001	  0.000	 30.000	 99.549	 -99999.000
18797	  0.079	  0.686	  0.481	  0.118	 -0.144	 -9.847	 -0.004	  0.001	 -0.003	 30.000	 99.545	 -99999.000
18847	  0.080	  0.685	  0.479	  0.125	 -0.135	 -9.849	 -0.003	  0.001	  0.002	 30.000	 99.545	 -99999.000
18897	  0.080	  0.682	  0.479	  0.118	 -0.137	 -9.866	 -0.004	  0.000	 -0.000	 30.000	 99.560	 -99999.000
18947	  0.080	  0.684	  0.482	  0.105	 -0.109	 -9.841	 -0.003	  0.002	  0.001	 30.000	 99.545	 -99999.000
18997	  0.079	  0.681	  0.485	  0.123	 -0.122	 -9.838	 -0.004	  0.001	  0.003	 30.000	 99.545	 -99999.000
19047	  0.078	  0.680	  0.478	  0.106	 -0.142	 -9.824	 -0.003	  0.001	  0.003	 30.000	 99.533	 -99999.000
19098	  0.081	  0.687	  0.482	  0.130	 -0.121	 -9.819	 -0.003	  0.002	 -0.000	 30.000	 99.545	 -99999.000
19147	  0.078	  0.682	  0.477	  0.128	 -0.154	 -9.818	 -0.004	  0.001	  0.002	 30.000	 99.549	 -99999.000
19197	  0.081	  0.684	  0.480	  0.129	 -0.153	 -9.843	 -0.004	 -0.000	  0.002	 30.000	 99.545	 -99999.000
19247	  0.079	  0.688	  0.479	  0.131	 -0.133	 -9.882	 -0.004	  0.002	  0.001	 30.000	 99.545	 -99999.000
19297	  0.078	  0.687	  0.484	  0.119	 -0.122	 -9.852	 -0.003	  0.001	 -0.000	 30.000	 99.549	 -99999.000
19347	  0.078	  0.689	  0.482	  0.125	 -0.131	 -9.833	 -0.003	  0.001	 -0.001	 30.000	 99.549	 -99999.000
19397	  0.081	  0.684	  0.480	  0.140	 -0.110	 -9.840	 -0.003	  0.001	 -0.004	 30.000	 99.545	 -99999.000
19447	  0.078	  0.684	  0.479	  0.117	 -0.152	 -9.846	 -0.003	  0.001	  0.001	 30.000	 99.549	 -99999.000
19497	  0.079	  0.684	  0.483	  0.114	 -0.126	 -9.828	 -0.002	  0.002	  0.003	 30.000	 99.549	 -99999.000
19547	  0.078	  0.682	  0.478	  0.135	 -0.113	 -9.855	 -0.003	  0.001	  0.001	 30.000	 99.549	 -99999.000
19597	  0.079	  0.683	  0.482	  0.131	 -0.100	 -9.819	 -0.004	  0.002	 -0.002	 30.000	 99.549	 -99999.000
19647	  0.078	  0.683	  0.475	  0.141	 -0.128	 -9.873	 -0.004	  0.003	 -0.001	 30.000	 99.545	 -99999.000
19697	  0.079	  0.680	  0.480	  0.128	 -0.120	 -9.828	 -0.003	  0.002	 -0.003	 30.000	 99.556	 -99999.000
19747	  0.078	  0.688	  0.483	  0.109	 -0.118	 -9.839	 -0.003	  0.002	 -0.002	 30.000	 99.549	 -99999.000
19797	  0.080	  0.682	  0.481	  0.118	 -0.129	 -9.821	 -0.003	  0.002	  0.001	 30.000	 99.538	 -99999.000
19847	  0.077	  0.683	  0.481	  0.133	 -0.118	 -9.838	 -0.003	  0.003	 -0.004	 30.000	 99.549	 -99999.000
19897	  0.077	  0.684	  0.476	  0.120	 -0.131	 -9.846	 -0.003	  0.000	  0.001	 30.000	 99.545	 -99999.000
19947	  0.078	  0.693	  0.483	  0.142	 -0.131	 -9.831	 -0.004	  0.002	  0.003	 30.000	 99.545	 -99999.000
19997	  0.080	  0.691	  0.481	  0.116	 -0.134	 -9.830	 -0.004	  0.002	 -0.002	 30.000	 99.545	 -99999.000
20047	  0.078	  0.682	  0.485	  0.120	 -0.122	 -9.834	 -0.003	  0.000	  0.000	 30.000	 99.545	 -99999.000
20097	  0.078	  0.687	  0.478	  0.139	 -0.126	 -9.844	 -0.004	  0.001	  0.001	 30.000	 99.545	 -99999.000
20147	  0.078	  0.691	  0.482	  0.098	 -0.139	 -9.882	 -0.002	  0.002	  0.003	 30.000	 99.545	 -99999.000
20197	  0.076	  0.684	  0.481	  0.131	 -0.137	 -9.823	 -0.004	  0.001	 -0.001	 30.000	 99.538	 -99999.000
20247	  0.077	  0.682	  0.481	  0.130	 -0.151	 -9.860	 -0.003	  0.002	 -0.001	 30.000	 99.549	 -99999.000
20297	  0.077	  0.686	  0.475	  0.129	 -0.107	 -9.818	 -0.004	  0.001	  0.002	 30.000	 99.549	 -99999.000
20347	  0.079	  0.682	  0.483	  0.112	 -0.114	 -9.871	 -0.003	  0.003	  0.003	 30.000	 99.549	 -99999.000
20397	  0.080	  0.680	  0.475	  0.129	 -0.123	 -9.823	 -0.004	  0.002	 -0.004	 30.000	 99.538	 -99999.000
20447	  0.077	  0.684	  0.477	  0.124	 -0.135	 -9.856	 -0.004	  0.001	  0.002	 30.000	 99.560	 -99999.000
20497	  0.078	  0.683	  0.484	  0.110	 -0.151	 -9.854	 -0.003	 -0.000	 -0.003	 30.000	 99.549	 -99999.000
20547	  0.079	  0.685	  0.478	  0.125	 -0.135	 -9.848	 -0.003	  0.001	  0.005	 30.000	 99.549	 -99999.000
20597	  0.078	  0.680	  0.482	  0.117	 -0.132	 -9.833	 -0.003	  0.000	 -0.003	 30.000	 99.560	 -99999.000
20647	  0.077	  0.684	  0.479	  0.112	 -0.138	 -9.827	 -0.004	  0.002	  0.003	 30.000	 99.542	 -99999.000
20697	  0.079	  0.681	  0.483	  0.101	 -0.111	 -9.833	 -0.004	  0.001	  0.004	 30.000	 99.549	 -99999.000
20747	  0.082	  0.684	  0.481	  0.130	 -0.137	 -9.868	 -0.002	  0.001	 -0.001	 30.000	 99.533	 -99999.000
20797	  0.078	  0.683	  0.483	  0.128	 -0.125	 -9.864	 -0.003	  0.000	  0.001	 30.000	 99.545	 -99999.000
20847	  0.079	  0.682	  0.483	  0.091	 -0.141	 -9.852	 -0.003	  0.001	  0.001	 30.000	 99.560	 -99999.000
20897	  0.079	  0.683	  0.482	  0.112	 -0.131	 -9.829	 -0.004	  0.002	 -0.001	 30.000	 99.549	 -99999.000
20947	  0.077	  0.688	  0.479	  0.132	 -0.127	 -9.827	 -0.005	  0.001	 -0.001	 30.000	 99.549	 -99999.000
20997	  0.081	  0.683	  0.485	  0.109	 -0.141	 -9.841	 -0.003	  0.002	  0.002	 30.000	 99.549	 -99999.000
21047	  0.080	  0.684	  0.480	  0.110	 -0.137	 -9.837	 -0.004	  0.002	 -0.000	 30.000	 99.533	 -99999.000
21097	  0.078	  0.691	  0.481	  0.115	 -0.138	 -9.849	 -0.004	  0.002	  0.000	 30.000	 99.549	 -99999.000
21147	  0.079	  0.689	  0.476	  0.123	 -0.147	 -9.801	 -0.003	  0.002	  0.000	 30.000	 99.549	 -99999.000
21197	  0.076	  0.678	  0.482	  0.124	 -0.120	 -9.823	 -0.002	  0.002	  0.001	 30.000	 99.549	 -99999.000
25623	  0.078	  0.680	  0.485	  0.118	 -0.145	 -9.884	 -0.003	  0.001	  0.000	 30.000	 99.553	 -0.549
25673	  0.080	  0.687	  0.481	  0.140	 -0.136	 -9.862	 -0.002	  0.001	 -0.000	 30.000	 99.538	  0.783
25723	  0.078	  0.683	  0.480	  0.098	 -0.109	 -9.858	 -0.004	  0.001	 -0.002	 30.000	 99.542	  0.428
25773	  0.079	  0.686	  0.475	  0.121	 -0.127	 -9.818	 -0.004	  0.002	 -0.000	 30.000	 99.553	 -0.549
25823	  0.080	  0.693	  0.485	  0.121	 -0.116	 -9.866	 -0.004	  0.001	 -0.002	 30.000	 99.553	 -0.549
25873	  0.081	  0.684	  0.476	  0.122	 -0.117	 -9.847	 -0.003	  0.001	  0.002	 30.000	 99.553	 -0.549
25923	  0.079	  0.683	  0.485	  0.121	 -0.135	 -9.874	 -0.004	  0.000	  0.002	 30.000	 99.531	  1.405
25973	  0.076	  0.684	  0.484	  0.110	 -0.129	 -9.848	 -0.004	  0.002	 -0.001	 30.000	 99.542	  0.428
26022	  0.081	  0.692	  0.476	  0.100	 -0.141	 -9.906	 -0.003	  0.001	 -0.002	 30.000	 99.553	 -0.549
26073	  0.079	  0.683	  0.479	  0.124	 -0.139	 -9.835	 -0.004	  0.001	 -0.001	 30.000	 99.542	  0.428
26123	  0.078	  0.683	  0.482	  0.114	 -0.134	 -9.866	 -0.004	  0.001	  0.002	 30.000	 99.542	  0.428
26173	  0.079	  0.681	  0.480	  0.109	 -0.111	 -9.863	 -0.003	  0.001	 -0.001	 30.000	 99.542	  0.428
26222	  0.081	  0.682	  0.476	  0.109	 -0.125	 -9.810	 -0.003	  0.001	  0.001	 30.000	 99.553	 -0.549
26272	  0.078	  0.680	  0.479	  0.112	 -0.133	 -9.847	 -0.003	  0.001	 -0.000	 30.000	 99.546	  0.073
26322	  0.076	  0.679	  0.479	  0.126	 -0.139	 -9.865	 -0.003	  0.002	 -0.000	 30.000	 99.553	 -0.549
26372	  0.080	  0.683	  0.483	  0.133	 -0.142	 -9.821	 -0.003	  0.001	 -0.000	 30.000	 99.553	 -0.549
26422	  0.078	  0.683	  0.482	  0.108	 -0.146	 -9.860	 -0.004	  0.001	  0.001	 30.000	 99.542	  0.428
26472	  0.078	  0.683	  0.475	  0.131	 -0.124	 -9.837	 -0.004	  0.001	 -0.001	 30.000	 99.553	 -0.549
26522	  0.077	  0.678	  0.484	  0.132	 -0.146	 -9.849	 -0.002	  0.001	  0.000	 30.000	 99.557	 -0.904
26572	  0.078	  0.692	  0.476	  0.133	 -0.134	 -9.846	 -0.002	  0.001	  0.000	 30.000	 99.553	 -0.549
26622	  0.079	  0.684	  0.482	  0.130	 -0.134	 -9.847	 -0.003	  0.000	  0.001	 30.000	 99.542	  0.428
26672	  0.080	  0.683	  0.482	  0.132	 -0.117	 -9.816	 -0.004	  0.001	  0.000	 30.000	 99.553	 -0.549
26722	  0.078	  0.680	  0.475	  0.137	 -0.130	 -9.863	 -0.004	  0.002	 -0.000	 30.000	 99.542	  0.428
26772	  0.078	  0.677	  0.482	  0.115	 -0.139	 -9.860	 -0.003	  0.001	  0.002	 30.000	 99.553	 -0.549
26822	  0.077	  0.686	  0.482	  0.117	 -0.139	 -9.875	 -0.002	  0.000	  0.000	 30.000	 99.553	 -0.549
26872	  0.078	  0.679	  0.480	  0.140	 -0.136	 -9.813	 -0.003	  0.001	 -0.000	 30.000	 99.553	 -0.549
26922	  0.078	  0.680	  0.479	  0.146	 -0.117	 -9.844	 -0.003	  0.002	 -0.001	 30.000	 99.549	 -0.194
26972	  0.077	  0.692	  0.479	  0.123	 -0.104	 -9.816	 -0.005	  0.001	  0.001	 30.000	 99.557	 -0.904
27022	  0.080	  0.683	  0.482	  0.096	 -0.131	 -9.850	 -0.003	  0.000	  0.001	 30.000	 99.542	  0.428
27072	  0.078	  0.680	  0.481	  0.122	 -0.116	 -9.854	 -0.003	  0.003	  0.002	 30.000	 99.542	  0.428
27122	  0.078	  0.680	  0.476	  0.135	 -0.128	 -9.854	 -0.003	  0.001	 -0.001	 30.000	 99.542	  0.428
27172	  0.079	  0.684	  0.481	  0.123	 -0.122	 -9.872	 -0.004	  0.003	  0.000	 30.000	 99.553	 -0.549
27222	  0.079	  0.684	  0.485	  0.123	 -0.139	 -9.831	 -0.004	  0.000	 -0.000	 30.000	 99.553	 -0.549
27272	  0.080	  0.681	  0.482	  0.125	 -0.128	 -9.834	 -0.002	  0.001	  0.001	 30.000	 99.553	 -0.549
27322	  0.077	  0.680	  0.483	  0.118	 -0.133	 -9.821	 -0.003	  0.001	 -0.002	 30.000	 99.553	 -0.549
27372	  0.078	  0.683	  0.475	  0.122	 -0.116	 -9.852	 -0.004	  0.000	 -0.002	 30.000	 99.531	  1.405
27422	  0.079	  0.683	  0.483	  0.131	 -0.114	 -9.859	 -0.003	 -0.000	  0.001	 30.000	 99.557	 -0.904
27472	  0.080	  0.687	  0.481	  0.137	 -0.122	 -9.852	 -0.004	 -0.000	  0.002	 30.000	 99.553	 -0.549
27522	  0.078	  0.680	  0.476	  0.110	 -0.194	 -9.817	 -0.001	  0.001	  0.000	 30.000	 99.557	 -0.904
27572	  0.078	  0.686	  0.478	  0.098	 -0.059	 -9.863	 -0.002	  0.002	  0.002	 30.000	 99.542	  0.428
27622	  0.081	  0.681	  0.480	  0.127	 -0.120	 -9.800	 -0.003	  0.002	 -0.002	 30.000	 99.542	  0.428
27672	  0.079	  0.680	  0.483	  0.138	 -0.137	 -9.853	 -0.003	  0.002	 -0.001	 30.000	 99.553	 -0.549
27723	  0.081	  0.684	  0.480	  0.117	 -0.128	 -9.833	 -0.004	  0.002	  0.000	 30.000	 99.557	 -0.904
27772	  0.081	  0.686	  0.484	  0.134	 -0.121	 -9.819	 -0.003	  0.000	  0.000	 30.000	 99.553	 -0.549
27822	  0.081	  0.691	  0.477	  0.124	 -0.146	 -9.840	 -0.004	  0.001	  0.001	 30.000	 99.542	  0.428
27872	  0.081	  0.688	  0.480	  0.102	 -0.123	 -9.832	 -0.003	  0.002	 -0.000	 30.000	 99.542	  0.428
27922	  0.081	  0.686	  0.480	  0.142	 -0.141	 -9.850	 -0.004	  0.000	  0.001	 30.000	 99.553	 -0.549
27972	  0.082	  0.682	  0.482	  0.135	 -0.141	 -9.821	 -0.004	  0.001	 -0.001	 30.000	 99.546	  0.073
28022	  0.081	  0.682	  0.481	  0.137	 -0.118	 -9.837	 -0.002	  0.001	  0.001	 30.000	 99.557	 -0.904
28073	  0.081	  0.687	  0.481	  0.139	 -0.129	 -9.853	 -0.003	  0.002	  0.000	 30.000	 99.546	  0.073
28123	  0.078	  0.684	  0.482	  0.118	 -0.115	 -9.811	 -0.003	  0.002	  0.001	 30.000	 99.542	  0.428
28173	  0.078	  0.683	  0.479	  0.120	 -0.128	 -9.888	 -0.003	  0.001	  0.001	 30.000	 99.557	 -0.904
28223	  0.078	  0.677	  0.480	  0.146	 -0.124	 -9.831	 -0.004	  0.001	  0.001	 30.000	 99.553	 -0.549
28273	  0.081	  0.683	  0.476	  0.147	 -0.136	 -9.832	 -0.004	  0.001	  0.001	 30.000	 99.546	  0.073
28323	  0.082	  0.688	  0.475	  0.130	 -0.135	 -9.861	 -0.003	  0.001	  0.000	 30.000	 99.553	 -0.549
28373	  0.079	  0.683	  0.481	  0.123	 -0.139	 -9.815	 -0.003	  0.001	  0.000	 30.000	 99.553	 -0.549
28423	  0.081	  0.694	  0.477	  0.118	 -0.125	 -9.845	 -0.004	 -0.001	  0.001	 30.000	 99.546	  0.073
28472	  0.079	  0.686	  0.480	  0.121	 -0.146	 -9.840	 -0.004	  0.000	 -0.000	 30.000	 99.546	  0.073
28523	  0.081	  0.686	  0.481	  0.098	 -0.171	 -9.836	 -0.003	  0.001	 -0.000	 30.000	 99.546	  0.073
28573	  0.082	  0.686	  0.482	  0.100	 -0.143	 -9.855	 -0.003	  0.001	 -0.000	 30.000	 99.546	  0.073
28623	  0.080	  0.686	  0.477	  0.102	 -0.167	 -9.830	 -0.002	  0.002	  0.000	 30.000	 99.557	 -0.904
28673	  0.080	  0.683	  0.479	  0.151	 -0.089	 -9.843	 -0.004	  0.002	 -0.000	 30.000	 99.542	  0.428
28723	  0.079	  0.686	  0.481	  0.123	 -0.123	 -9.816	 -0.003	  0.002	 -0.000	 30.000	 99.546	  0.073
28773	  0.078	  0.689	  0.485	  0.106	 -0.122	 -9.840	 -0.002	  0.002	  0.001	 30.000	 99.546	  0.073
28823	  0.080	  0.687	  0.483	  0.114	 -0.150	 -9.819	 -0.004	  0.001	  0.000	 30.000	 99.546	  0.073
28873	  0.081	  0.688	  0.482	  0.118	 -0.139	 -9.802	 -0.003	  0.000	  0.000	 30.000	 99.557	 -0.904
28923	  0.080	  0.688	  0.473	  0.125	 -0.110	 -9.873	 -0.004	  0.002	 -0.001	 30.000	 99.557	 -0.904
28973	  0.082	  0.688	  0.482	  0.128	 -0.145	 -9.870	 -0.002	  0.003	  0.001	 30.000	 99.546	  0.073
29023	  0.081	  0.687	  0.483	  0.135	 -0.104	 -9.857	 -0.003	  0.001	 -0.001	 30.000	 99.546	  0.073
29073	  0.081	  0.688	  0.481	  0.137	 -0.143	 -9.846	 -0.003	  0.001	  0.000	 30.000	 99.542	  0.428
29123	  0.081	  0.686	  0.483	  0.122	 -0.111	 -9.879	 -0.003	  0.001	  0.000	 30.000	 99.546	  0.073
29173	  0.080	  0.696	  0.482	  0.122	 -0.121	 -9.853	 -0.003	  0.002	  0.001	 30.000	 99.557	 -0.904
29223	  0.081	  0.691	  0.480	  0.116	 -0.108	 -9.837	 -0.003	  0.001	  0.002	 30.000	 99.546	  0.073
29273	  0.078	  0.678	  0.483	  0.132	 -0.129	 -9.887	 -0.004	  0.002	 -0.001	 30.000	 99.546	  0.073
29323	  0.080	  0.687	  0.480	  0.109	 -0.138	 -9.857	 -0.002	 -0.001	 -0.002	 30.000	 99.546	  0.073
29373	  0.081	  0.693	  0.479	  0.115	 -0.124	 -9.822	 -0.003	  0.001	 -0.001	 30.000	 99.546	  0.073
29423	  0.078	  0.683	  0.484	  0.128	 -0.129	 -9.858	 -0.003	  0.002	  0.001	 30.000	 99.535	  1.050
29473	  0.079	  0.680	  0.482	  0.144	 -0.117	 -9.821	 -0.003	  0.001	  0.000	 30.000	 99.542	  0.428
29523	  0.080	  0.692	  0.481	  0.118	 -0.132	 -9.829	 -0.004	  0.002	  0.000	 30.000	 99.546	  0.073
29573	  0.080	  0.684	  0.481	  0.120	  0.020	 -9.700	 -0.003	  0.015	 -0.001	 30.000	 99.546	  0.073
29623	  0.079	  0.683	  0.484	  0.128	 -0.126	 -9.849	 -0.004	  0.000	  0.001	 30.000	 99.546	  0.073
29673	  0.079	  0.694	  0.482	  0.120	 -0.099	 -9.758	 -0.009	  0.006	  0.002	 30.000	 99.546	  0.073
29723	  0.079	  0.684	  0.483	  0.154	 -0.219	 -9.728	  0.002	 -0.010	 -0.000	 30.000	 99.557	 -0.904
29773	  0.080	  0.686	  0.476	  0.039	 -0.198	 -9.839	 -0.000	 -0.013	 -0.002	 30.000	 99.553	 -0.549
29823	  0.078	  0.687	  0.478	  0.060	 -0.316	 -9.966	 -0.005	 -0.002	  0.002	 30.000	 99.546	  0.073
29873	  0.079	  0.686	  0.483	  0.077	 -0.114	 -9.846	 -0.002	 -0.000	  0.001	 30.000	 99.546	  0.073
29922	  0.082	  0.684	  0.481	  0.057	  0.104	 -9.700	  0.095	 -0.308	  0.022	 30.000	 99.546	  0.073
29973	  0.092	  0.692	  0.469	 -0.920	  0.053	 -9.843	  0.257	 -0.153	 -0.021	 30.000	 99.546	  0.073
30022	  0.096	  0.708	  0.470	 -0.388	 -0.786	 -9.956	  0.207	 -0.117	 -0.000	 30.000	 99.546	  0.073
30072	  0.094	  0.703	  0.468	 -0.252	 -0.314	 -9.883	  0.012	 -0.006	 -0.002	 30.000	 99.564	 -1.526
30122	  0.093	  0.701	  0.464	 -0.028	 -0.604	 -9.649	  0.046	 -0.028	 -0.011	 30.000	 99.546	  0.073
30172	  0.097	  0.713	  0.463	 -0.063	 -0.493	 -9.905	  0.077	 -0.048	 -0.026	 30.000	 99.546	  0.073
30222	  0.096	  0.702	  0.460	 -0.317	 -0.528	 -9.757	  0.024	 -0.032	  0.076	 30.000	 99.546	  0.073
30273	  0.101	  0.702	  0.463	 -0.799	 -1.366	 -9.260	  0.071	  0.087	  0.182	 30.000	 99.557	 -0.904
30322	  0.102	  0.704	  0.465	 -0.221	 -0.542	 -9.780	  0.001	 -0.001	  0.001	 30.000	 99.546	  0.073
30372	  0.102	  0.707	  0.461	 -0.229	 -0.515	 -9.827	  0.026	 -0.004	 -0.000	 30.000	 99.546	  0.073
30422	  0.101	  0.704	  0.459	 -0.168	 -0.765	 -9.927	  0.036	 -0.015	  0.019	 30.000	 99.546	  0.073
30472	  0.103	  0.708	  0.458	 -0.086	 -0.175	 -9.910	  0.100	 -0.053	  0.052	 30.000	 99.557	 -0.904
30522	  0.109	  0.712	  0.455	 -0.294	 -0.361	 -9.897	  0.254	 -0.223	 -0.039	 30.000	 99.557	 -0.904
30572	  0.108	  0.724	  0.446	 -0.381	 -1.382	 -9.720	  0.252	 -0.318	 -0.113	 30.000	 99.546	  0.073
30622	  0.110	  0.724	  0.444	 -1.062	 -1.333	 -9.713	  0.215	 -0.246	 -0.148	 30.100	 99.557	 -0.904
30672	  0.112	  0.728	  0.433	 -0.909	 -1.126	 -9.394	 -0.049	 -0.258	 -0.134	 30.000	 99.546	  0.073
30722	  0.117	  0.724	  0.437	 -0.772	 -1.096	 -10.634	 -0.397	 -0.209	 -0.053	 30.000	 99.546	  0.073
30772	  0.117	  0.704	  0.445	 -1.154	 -0.589	 -9.798	 -0.443	 -0.212	 -0.130	 30.000	 99.542	  0.428
30822	  0.122	  0.691	  0.451	 -1.690	  0.035	 -9.059	 -0.445	  0.153	  0.188	 30.000	 99.546	  0.073
30872	  0.119	  0.676	  0.456	 -0.106	 -0.260	 -9.580	 -0.220	  0.267	  0.043	 30.000	 99.546	  0.073
30922	  0.116	  0.669	  0.459	 -0.076	 -0.215	 -8.686	 -0.142	  0.041	 -0.077	 30.000	 99.557	 -0.904
30972	  0.116	  0.672	  0.458	 -1.155	 -0.427	 -8.823	  0.174	 -0.001	 -0.066	 30.000	 99.542	  0.428
31022	  0.111	  0.679	  0.456	 -0.362	 -0.135	 -10.437	  0.196	  0.315	 -0.088	 30.000	 99.557	 -0.904
31072	  0.097	  0.692	  0.457	 -0.731	  0.117	 -10.588	  0.164	  0.338	 -0.196	 30.000	 99.546	  0.073
31122	  0.090	  0.685	  0.455	 -0.366	 -0.693	 -10.130	  0.034	  0.192	 -0.177	 30.000	 99.546	  0.073
31172	  0.082	  0.690	  0.452	 -0.582	 -0.384	 -9.627	 -0.030	  0.207	 -0.106	 30.000	 99.557	 -0.904
31222	  0.078	  0.686	  0.456	 -0.307	 -0.693	 -9.884	 -0.059	  0.139	  0.048	 30.000	 99.557	 -0.904
31272	  0.078	  0.684	  0.455	 -0.562	 -0.387	 -10.085	 -0.154	  0.131	  0.133	 30.000	 99.546	  0.073
31322	  0.077	  0.676	  0.457	 -0.064	 -0.593	 -10.660	 -0.175	  0.121	  0.078	 30.000	 99.535	  1.050
31372	  0.078	  0.674	  0.456	  0.389	 -0.278	 -11.186	 -0.074	  0.034	 -0.007	 30.000	 99.557	 -0.904
31422	  0.079	  0.661	  0.460	 -0.198	 -0.415	 -11.608	 -0.223	 -0.204	  0.032	 30.000	 99.535	  1.050
31472	  0.085	  0.645	  0.453	 -0.182	  0.645	 -10.744	 -0.147	 -0.153	 -0.067	 30.000	 99.546	  0.073
31522	  0.086	  0.626	  0.442	 -0.228	 -0.052	 -8.422	 -0.360	  0.055	 -0.075	 30.000	 99.546	  0.073
31572	  0.089	  0.620	  0.440	 -1.232	  0.503	 -5.273	  0.059	 -0.115	 -0.179	 30.000	 99.557	 -0.904
31622	  0.086	  0.624	  0.434	 -0.852	  0.391	 -6.601	 -0.164	  0.287	 -0.044	 30.000	 99.542	  0.428
31672	  0.079	  0.628	  0.450	  0.683	 -0.131	 -12.894	 -0.131	  0.651	  0.080	 30.000	 99.546	  0.073
31722	  0.075	  0.632	  0.453	  0.921	 -0.076	 -15.668	 -0.192	 -0.043	  0.065	 30.100	 99.550	 -0.282
31772	  0.081	  0.605	  0.451	  0.821	  0.546	 -11.052	 -0.295	 -0.481	  0.010	 30.000	 99.546	  0.073
31822	  0.086	  0.592	  0.438	 -1.099	  0.542	 -5.036	  0.138	 -0.327	 -0.044	 30.000	 99.546	  0.073
31872	  0.090	  0.599	  0.433	 -1.051	  0.130	 -4.619	  0.080	  0.149	  0.169	 30.100	 99.550	 -0.282
31922	  0.091	  0.601	  0.437	 -0.207	  0.295	 -6.819	  0.072	  0.711	  0.006	 30.000	 99.557	 -0.904
31972	  0.066	  0.626	  0.449	  2.793	 -0.355	 -19.444	 -0.084	  0.688	 -0.185	 30.000	 99.546	  0.073
32022	  0.071	  0.608	  0.452	  1.700	  0.959	 -12.137	 -0.277	 -0.855	 -0.008	 30.000	 99.546	  0.073
32072	  0.081	  0.599	  0.444	 -2.463	  0.293	  0.194	 -0.041	 -0.090	 -0.037	 30.000	 99.546	  0.073
32122	  0.067	  0.606	  0.453	 -0.597	  0.431	 -7.467	  0.251	  0.921	 -0.050	 30.000	 99.546	  0.073
32172	  0.048	  0.620	  0.460	  2.410	  0.106	 -20.309	  0.049	  0.194	 -0.044	 30.000	 99.557	 -0.904
32222	  0.064	  0.613	  0.447	  0.593	  0.513	 -10.341	  0.093	 -1.022	  0.129	 30.100	 99.546	  0.073
32272	  0.077	  0.600	  0.442	 -2.755	  0.178	  0.004	 -0.149	  0.015	  0.118	 30.000	 99.546	  0.073
32322	  0.068	  0.609	  0.451	  0.222	  0.162	 -14.553	 -0.031	  0.756	 -0.210	 30.100	 99.550	 -0.282
32372	  0.052	  0.603	  0.467	  2.407	  1.266	 -17.118	 -0.257	 -0.464	 -0.262	 30.000	 99.546	  0.073
32422	  0.064	  0.599	  0.449	 -0.708	  0.482	 -5.657	  0.233	 -0.735	 -0.133	 30.000	 99.546	  0.073
32472	  0.067	  0.599	  0.451	 -1.941	 -0.019	 -3.592	 -0.020	  0.503	  0.107	 30.100	 99.550	 -0.282
32522	  0.050	  0.606	  0.459	  2.998	  0.003	 -19.269	 -0.469	  0.722	  0.022	 30.100	 99.550	 -0.282
32572	  0.058	  0.582	  0.458	  2.063	  2.077	 -8.032	 -0.091	 -0.978	 -0.085	 30.000	 99.546	  0.073
32622	  0.065	  0.582	  0.456	 -3.120	  0.981	 -0.140	  0.257	  0.221	 -0.099	 30.100	 99.550	 -0.282
32672	  0.047	  0.597	  0.461	  2.792	 -0.104	 -21.270	 -0.249	  1.142	  0.076	 30.000	 99.546	  0.073
32722	  0.060	  0.584	  0.457	  1.051	  0.411	 -8.928	  0.168	 -1.759	  0.051	 30.000	 99.546	  0.073
32772	  0.070	  0.592	  0.452	 -2.100	  0.526	  1.879	 -0.166	  0.641	 -0.081	 30.100	 99.550	 -0.282
32822	  0.040	  0.587	  0.457	  3.427	  0.307	 -23.519	 -0.167	  1.212	 -0.000	 30.100	 99.557	 -0.904
32872	  0.060	  0.586	  0.453	  0.341	  0.665	 -6.046	  0.267	 -1.644	 -0.049	 30.000	 99.546	  0.073
32922	  0.067	  0.592	  0.446	 -1.669	  0.428	 -0.683	  0.449	  0.664	 -0.164	 30.100	 99.550	 -0.282
32972	  0.043	  0.605	  0.456	  2.576	 -0.489	 -22.231	 -0.227	  0.231	  0.109	 30.100	 99.550	 -0.282
33022	  0.066	  0.587	  0.447	 -0.291	  0.541	 -3.400	 -0.151	 -1.018	  0.138	 30.000	 99.546	  0.073
33072	  0.066	  0.593	  0.446	 -0.657	  1.206	 -7.723	  0.415	  0.749	 -0.112	 30.100	 99.546	  0.073
33122	  0.047	  0.605	  0.454	  2.517	  0.671	 -19.831	 -0.466	 -0.398	  0.123	 30.100	 99.557	 -0.904
33172	  0.074	  0.592	  0.451	 -1.193	  0.357	 -0.644	  0.073	 -0.545	 -0.250	 30.100	 99.546	  0.073
33223	  0.064	  0.600	  0.449	  0.575	  0.614	 -12.161	 -0.009	  1.133	  0.058	 30.100	 99.550	 -0.282
33272	  0.057	  0.591	  0.458	  1.984	  1.230	 -14.850	 -0.283	 -0.924	  0.260	 30.100	 99.557	 -0.904
33323	  0.081	  0.581	  0.444	 -1.871	  0.719	  0.320	  0.078	 -0.179	 -0.252	 30.100	 99.550	 -0.282
33372	  0.059	  0.592	  0.454	  1.386	  0.275	 -19.441	 -0.183	  1.309	 -0.097	 30.100	 99.546	  0.073
33423	  0.066	  0.575	  0.452	  0.286	  0.961	 -9.686	  0.024	 -1.636	 -0.021	 30.100	 99.550	 -0.282
33472	  0.086	  0.581	  0.443	 -3.147	  1.452	  4.655	  0.635	  0.180	 -0.219	 30.100	 99.550	 -0.282
33522	  0.051	  0.597	  0.454	  1.602	 -1.228	 -30.025	 -0.512	  0.978	 -0.009	 30.100	 99.550	 -0.282
33573	  0.076	  0.556	  0.451	  1.048	  0.715	 -0.277	 -0.352	 -1.946	 -0.222	 30.100	 99.546	  0.073
33623	  0.080	  0.566	  0.445	 -0.744	  1.942	 -1.591	  0.627	  1.293	 -0.242	 30.100	 99.546	  0.073
33673	  0.053	  0.580	  0.452	  3.695	  0.304	 -23.716	 -0.125	 -0.121	  0.414	 30.000	 99.557	 -0.904
33722	  0.081	  0.571	  0.440	 -0.658	 -0.980	  0.701	  0.004	 -0.849	 -0.025	 30.000	 99.546	  0.073
33774	  0.074	  0.580	  0.440	  0.587	  0.865	 -10.932	 -0.274	  1.592	 -0.104	 30.100	 99.550	 -0.282
33823	  0.062	  0.570	  0.453	  3.210	  2.539	 -17.149	 -0.116	 -0.937	  0.326	 30.100	 99.550	 -0.282
33873	  0.086	  0.567	  0.440	 -2.273	 -0.540	  4.134	  0.424	 -0.478	 -0.222	 30.100	 99.550	 -0.282
33923	  0.068	  0.582	  0.445	  1.787	  0.358	 -18.618	 -0.349	  1.996	 -0.066	 30.100	 99.539	  0.694
33973	  0.058	  0.559	  0.451	  5.960	  3.962	 -17.178	 -0.993	 -1.293	  0.173	 30.100	 99.550	 -0.282
34023	  0.091	  0.564	  0.436	 -9.453	 -0.311	  6.558	  0.752	 -0.572	 -0.524	 30.100	 99.550	 -0.282
34073	  0.068	  0.581	  0.442	 -0.252	  1.829	 -21.648	  0.210	  1.667	 -0.038	 30.000	 99.557	 -0.904
34123	  0.066	  0.573	  0.442	  6.179	  1.805	 -13.377	 -0.731	 -0.834	  0.085	 30.100	 99.539	  0.694
34173	  0.091	  0.560	  0.430	 -4.382	  0.293	  5.918	  0.104	  0.180	 -0.216	 30.100	 99.550	 -0.282
34223	  0.065	  0.582	  0.452	  1.850	  1.648	 -23.993	 -0.461	  0.809	  0.183	 30.100	 99.546	  0.073
34273	  0.069	  0.562	  0.451	  1.141	  3.330	 -23.230	  0.272	 -0.403	  0.134	 30.100	 99.554	 -0.637
34323	  0.091	  0.564	  0.438	 -9.629	  1.824	  1.498	  0.237	 -0.112	 -0.551	 30.100	 99.546	  0.073
34373	  0.086	  0.580	  0.446	  1.240	  0.594	 -12.933	 -0.162	  0.368	  0.155	 30.100	 99.539	  0.694
34423	  0.083	  0.571	  0.453	  0.557	  1.025	 -13.083	 -0.105	  0.017	 -0.194	 30.100	 99.546	  0.073
34473	  0.078	  0.568	  0.448	 -0.498	  0.928	 -8.988	  0.097	 -0.146	 -0.263	 30.100	 99.550	 -0.282
34523	  0.082	  0.569	  0.444	 -0.666	  1.013	 -9.381	  0.049	 -0.024	  0.133	 30.100	 99.550	 -0.282
34573	  0.084	  0.576	  0.447	 -0.146	  0.619	 -9.363	  0.054	 -0.016	  0.100	 30.100	 99.550	 -0.282
34623	  0.085	  0.586	  0.446	 -0.036	  0.740	 -8.781	  0.226	 -0.014	 -0.041	 30.100	 99.550	 -0.282
34673	  0.085	  0.588	  0.447	 -0.531	  0.818	 -10.034	 -0.004	  0.025	 -0.051	 30.100	 99.550	 -0.282
34723	  0.087	  0.587	  0.454	  0.105	  0.719	 -9.270	 -0.016	 -0.032	 -0.149	 30.100	 99.550	 -0.282
34773	  0.084	  0.597	  0.457	 -0.390	  0.734	 -10.163	  0.139	  0.204	 -0.126	 30.100	 99.550	 -0.282
34823	  0.080	  0.600	  0.464	 -0.478	  0.976	 -9.708	 -0.137	  0.075	  0.038	 30.100	 99.546	  0.073
34873	  0.078	  0.606	  0.470	 -0.359	  0.428	 -10.366	 -0.099	  0.077	  0.061	 30.100	 99.550	 -0.282
34923	  0.077	  0.620	  0.476	 -0.092	  0.829	 -9.881	 -0.048	  0.129	  0.127	 30.100	 99.550	 -0.282
34973	  0.074	  0.611	  0.480	 -0.321	  0.833	 -9.982	  0.093	  0.147	 -0.012	 30.100	 99.539	  0.694
35023	  0.067	  0.618	  0.482	 -0.119	  0.712	 -10.262	 -0.063	  0.144	  0.049	 30.100	 99.550	 -0.282
35073	  0.058	  0.622	  0.483	 -0.737	  0.159	 -10.880	  0.277	  0.090	 -0.099	 30.100	 99.550	 -0.282
35123	  0.058	  0.629	  0.484	 -0.282	  0.457	 -9.758	  0.065	  0.056	 -0.071	 30.100	 99.550	 -0.282
35173	  0.051	  0.627	  0.481	  0.268	  0.157	 -9.800	  0.054	 -0.088	 -0.064	 30.100	 99.561	 -1.259
35223	  0.055	  0.629	  0.482	 -0.045	  0.399	 -9.786	 -0.054	  0.015	  0.041	 30.100	 99.550	 -0.282
35273	  0.054	  0.629	  0.482	 -0.337	  1.058	 -10.009	  0.059	 -0.020	  0.058	 30.100	 99.550	 -0.282
35323	  0.057	  0.631	  0.482	 -0.055	  0.371	 -9.901	  0.140	 -0.072	  0.052	 30.100	 99.550	 -0.282
35373	  0.061	  0.636	  0.483	 -0.074	  0.320	 -9.746	  0.029	 -0.081	  0.054	 30.100	 99.550	 -0.282
35423	  0.065	  0.644	  0.481	  0.078	  0.642	 -9.784	  0.197	 -0.051	 -0.016	 30.100	 99.550	 -0.282
35473	  0.065	  0.648	  0.479	  0.011	 -0.001	 -9.850	  0.145	 -0.027	 -0.083	 30.100	 99.539	  0.694
35523	  0.061	  0.650	  0.478	 -0.125	  0.158	 -9.946	  0.060	 -0.017	 -0.087	 30.100	 99.550	 -0.282
35573	  0.061	  0.662	  0.472	 -0.082	  0.359	 -9.845	  0.135	 -0.006	 -0.142	 30.100	 99.561	 -1.259
35623	  0.056	  0.658	  0.483	 -0.235	  0.076	 -9.748	 -0.061	 -0.036	  0.113	 30.100	 99.550	 -0.282
35673	  0.059	  0.658	  0.477	 -0.589	  0.653	 -9.844	  0.010	  0.043	  0.128	 30.100	 99.539	  0.694
35723	  0.061	  0.656	  0.478	 -0.139	  0.239	 -9.750	 -0.006	 -0.029	  0.036	 30.100	 99.550	 -0.282
35773	  0.062	  0.650	  0.475	 -0.181	  0.413	 -9.801	 -0.008	  0.012	  0.022	 30.100	 99.550	 -0.282
35823	  0.061	  0.655	  0.481	 -0.255	  0.117	 -9.677	 -0.051	  0.025	 -0.018	 30.100	 99.550	 -0.282
35873	  0.065	  0.652	  0.481	 -0.160	  0.349	 -10.064	  0.004	 -0.002	 -0.004	 30.100	 99.550	 -0.282
35923	  0.062	  0.654	  0.484	 -0.058	  0.021	 -9.943	 -0.038	 -0.073	  0.040	 30.100	 99.550	 -0.282
35973	  0.063	  0.655	  0.485	 -0.190	  0.590	 -9.860	 -0.035	 -0.004	 -0.002	 30.100	 99.539	  0.694
36023	  0.061	  0.652	  0.484	 -0.201	 -0.066	 -9.452	 -0.204	 -0.101	  0.001	 30.100	 99.561	 -1.259
36073	  0.070	  0.644	  0.480	 -4.080	  3.028	 -19.185	 -0.540	 -0.137	 -0.161	 30.100	 99.539	  0.694
36123	  0.069	  0.642	  0.486	 -0.365	  0.592	 -9.670	  0.017	 -0.063	 -0.002	 30.100	 99.550	 -0.282
36173	  0.074	  0.657	  0.486	 -0.658	  0.282	 -9.865	  0.005	 -0.054	 -0.036	 30.100	 99.550	 -0.282
36223	  0.073	  0.644	  0.488	 -0.206	  0.591	 -9.634	  0.006	  0.046	  0.020	 30.100	 99.550	 -0.282
36273	  0.073	  0.643	  0.488	 -0.577	  0.455	 -9.651	  0.101	  0.037	  0.060	 30.100	 99.550	 -0.282
36323	  0.074	  0.651	  0.484	 -0.092	  0.451	 -9.670	  0.159	  0.009	  0.057	 30.100	 99.550	 -0.282
36373	  0.074	  0.656	  0.484	 -0.496	  0.023	 -10.147	 -0.031	  0.046	 -0.018	 30.100	 99.539	  0.694
36423	  0.073	  0.653	  0.489	 -0.473	  0.302	 -9.908	 -0.131	  0.038	 -0.009	 30.100	 99.535	  1.050
36473	  0.074	  0.659	  0.488	 -0.340	  1.238	 -8.835	  0.255	  0.012	  0.047	 30.100	 99.566	 -1.703
36523	  0.074	  0.668	  0.484	 -0.293	 -0.561	 -10.782	  0.323	  0.080	  0.028	 30.100	 99.550	 -0.282
36573	  0.070	  0.683	  0.478	 -0.170	  0.015	 -9.864	  0.072	  0.018	 -0.029	 30.100	 99.550	 -0.282
36623	  0.072	  0.681	  0.478	 -0.550	  0.770	 -9.211	  0.054	 -0.023	 -0.009	 30.100	 99.539	  0.694
36673	  0.068	  0.696	  0.478	  1.076	 -3.109	 -9.562	  0.304	  0.187	  0.022	 30.100	 99.539	  0.694
36723	  0.065	  0.698	  0.479	 -0.206	 -0.424	 -10.264	 -0.064	  0.188	 -0.005	 30.100	 99.543	  0.339
36773	  0.056	  0.691	  0.480	 -0.219	 -0.140	 -9.699	 -0.110	  0.294	  0.018	 30.100	 99.550	 -0.282
36823	  0.054	  0.691	  0.479	  0.464	  0.163	 -9.526	  0.124	  0.077	  0.046	 30.100	 99.554	 -0.637
36873	  0.054	  0.688	  0.474	  0.036	 -0.090	 -9.793	  0.006	  0.000	  0.001	 30.100	 99.539	  0.694
36923	  0.053	  0.695	  0.476	  0.149	 -0.084	 -9.846	  0.000	  0.001	  0.000	 30.100	 99.550	 -0.282
36973	  0.050	  0.703	  0.479	 -0.029	 -0.166	 -10.006	  0.012	 -0.009	 -0.001	 30.100	 99.550	 -0.282
37023	  0.053	  0.692	  0.477	  0.140	 -0.001	 -9.763	 -0.002	  0.006	  0.000	 30.100	 99.550	 -0.282
37073	  0.052	  0.692	  0.477	  0.137	 -0.138	 -9.836	 -0.001	 -0.000	 -0.000	 30.100	 99.539	  0.694
37123	  0.051	  0.693	  0.476	  0.126	 -0.143	 -9.877	 -0.002	  0.000	  0.002	 30.100	 99.561	 -1.259
37173	  0.050	  0.689	  0.480	  0.127	 -0.140	 -9.878	 -0.003	  0.002	 -0.001	 30.100	 99.550	 -0.282
37223	  0.053	  0.690	  0.479	  0.123	 -0.098	 -9.824	 -0.003	  0.001	 -0.000	 30.100	 99.550	 -0.282
37273	  0.053	  0.695	  0.478	  0.133	 -0.111	 -9.821	 -0.002	  0.001	  0.000	 30.100	 99.550	 -0.282
37323	  0.053	  0.688	  0.475	  0.125	 -0.128	 -9.841	 -0.004	  0.001	  0.001	 30.100	 99.550	 -0.282
37373	  0.050	  0.694	  0.477	  0.137	 -0.147	 -9.810	 -0.003	  0.001	 -0.001	 30.100	 99.539	  0.694
37423	  0.054	  0.694	  0.477	  0.100	 -0.148	 -9.813	 -0.003	  0.001	  0.001	 30.100	 99.550	 -0.282
37473	  0.051	  0.694	  0.481	  0.138	 -0.136	 -9.822	 -0.004	  0.000	  0.001	 30.100	 99.550	 -0.282
37523	  0.052	  0.691	  0.477	  0.118	 -0.104	 -9.853	 -0.004	  0.002	 -0.001	 30.100	 99.550	 -0.282
37573	  0.052	  0.689	  0.478	  0.158	 -0.140	 -9.840	 -0.002	  0.001	 -0.001	 30.100	 99.550	 -0.282
37623	  0.051	  0.689	  0.478	  0.087	 -0.022	 -9.947	 -0.005	 -0.000	  0.000	 30.100	 99.554	 -0.637
37673	  0.052	  0.695	  0.478	  0.146	 -0.222	 -9.891	 -0.003	  0.002	  0.000	 30.100	 99.550	 -0.282
37723	  0.054	  0.695	  0.475	  0.203	  0.058	 -9.904	 -0.008	  0.008	  0.000	 30.100	 99.550	 -0.282
37773	  0.052	  0.695	  0.478	  0.046	  0.149	 -9.853	 -0.002	  0.005	  0.001	 30.100	 99.539	  0.694
37823	  0.054	  0.693	  0.478	  0.110	 -0.117	 -9.950	 -0.002	  0.003	 -0.000	 30.100	 99.550	 -0.282
37873	  0.051	  0.692	  0.480	  0.224	 -0.076	 -9.873	 -0.002	 -0.000	  0.002	 30.100	 99.543	  0.339
37923	  0.051	  0.694	  0.481	  0.081	 -0.172	 -9.869	 -0.004	  0.000	 -0.001	 30.100	 99.539	  0.694
37973	  0.051	  0.693	  0.479	  0.152	 -0.078	 -9.854	 -0.002	  0.001	  0.003	 30.100	 99.554	 -0.637
38023	  0.052	  0.696	  0.480	  0.110	 -0.174	 -9.843	 -0.004	  0.001	  0.001	 30.100	 99.539	  0.694
38073	  0.051	  0.695	  0.476	  0.100	 -0.073	 -9.846	 -0.004	  0.001	 -0.001	 30.100	 99.550	 -0.282
38123	  0.049	  0.691	  0.478	  0.139	 -0.184	 -9.799	 -0.002	  0.002	  0.002	 30.100	 99.539	  0.694
38173	  0.053	  0.691	  0.478	  0.131	 -0.056	 -9.851	 -0.005	  0.002	 -0.001	 30.100	 99.554	 -0.637
38222	  0.052	  0.689	  0.479	  0.126	 -0.164	 -9.792	 -0.003	 -0.000	  0.001	 30.100	 99.539	  0.694
38273	  0.053	  0.690	  0.482	  0.139	 -0.098	 -9.879	 -0.004	  0.004	 -0.001	 30.100	 99.566	 -1.703
38322	  0.054	  0.693	  0.478	  0.143	 -0.114	 -9.841	 -0.003	  0.002	  0.001	 30.100	 99.554	 -0.637
38372	  0.053	  0.688	  0.481	  0.121	 -0.100	 -9.842	 -0.003	  0.001	 -0.001	 30.100	 99.550	 -0.282
38422	  0.049	  0.697	  0.477	  0.129	 -0.136	 -9.815	 -0.004	  0.000	 -0.000	 30.100	 99.539	  0.694
38472	  0.054	  0.694	  0.479	  0.137	 -0.144	 -9.810	 -0.002	 -0.000	 -0.001	 30.100	 99.554	 -0.637
38522	  0.052	  0.691	  0.475	  0.113	 -0.111	 -9.817	 -0.003	  0.002	 -0.000	 30.100	 99.550	 -0.282
38572	  0.050	  0.691	  0.479	  0.123	 -0.166	 -9.818	 -0.004	  0.001	 -0.000	 30.100	 99.554	 -0.637
38622	  0.053	  0.694	  0.478	  0.118	 -0.081	 -9.872	 -0.004	  0.002	  0.000	 30.100	 99.554	 -0.637
38672	  0.051	  0.691	  0.478	  0.143	 -0.142	 -9.810	 -0.003	  0.002	  0.001	 30.100	 99.543	  0.339
38722	  0.050	  0.690	  0.477	  0.122	 -0.104	 -9.829	 -0.003	  0.001	  0.001	 30.100	 99.550	 -0.282
38772	  0.054	  0.692	  0.477	  0.156	 -0.129	 -9.833	 -0.004	 -0.001	  0.000	 30.100	 99.539	  0.694
38822	  0.055	  0.690	  0.479	  0.128	 -0.127	 -9.860	 -0.004	  0.001	 -0.000	 30.100	 99.543	  0.339
38873	  0.053	  0.702	  0.479	  0.135	 -0.123	 -9.801	 -0.003	  0.002	  0.002	 30.100	 99.550	 -0.282
38922	  0.052	  0.701	  0.479	  0.108	 -0.118	 -9.892	 -0.004	  0.001	 -0.000	 30.100	 99.539	  0.694
38972	  0.053	  0.696	  0.475	  0.118	 -0.150	 -9.865	 -0.005	  0.002	 -0.001	 30.100	 99.543	  0.339
39022	  0.052	  0.696	  0.480	  0.120	 -0.121	 -9.839	 -0.004	  0.001	  0.001	 30.100	 99.554	 -0.637
39073	  0.053	  0.693	  0.476	  0.138	 -0.121	 -9.859	 -0.004	  0.000	 -0.001	 30.100	 99.543	  0.339
39123	  0.051	  0.694	  0.481	  0.103	 -0.122	 -9.855	 -0.003	  0.000	 -0.001	 30.100	 99.554	 -0.637
39172	  0.054	  0.698	  0.483	  0.122	 -0.132	 -9.871	 -0.003	  0.001	  0.001	 30.100	 99.554	 -0.637
39223	  0.053	  0.701	  0.482	  0.141	 -0.116	 -9.857	 -0.003	  0.001	  0.000	 30.100	 99.543	  0.339
39272	  0.052	  0.694	  0.484	  0.120	 -0.131	 -9.860	 -0.004	  0.002	 -0.000	 30.100	 99.554	 -0.637
39323	  0.055	  0.701	  0.478	  0.133	 -0.153	 -9.868	 -0.003	  0.000	  0.000	 30.100	 99.554	 -0.637
39374	  0.050	  0.702	  0.480	  0.127	 -0.121	 -9.854	 -0.003	  0.001	  0.000	 30.100	 99.550	 -0.282
39423	  0.055	  0.703	  0.484	  0.129	 -0.146	 -9.812	 -0.004	  0.001	 -0.000	 30.100	 99.554	 -0.637
39473	  0.054	  0.699	  0.484	  0.128	 -0.126	 -9.867	 -0.004	  0.003	  0.000	 30.100	 99.543	  0.339
39523	  0.054	  0.700	  0.481	  0.129	 -0.145	 -9.820	 -0.003	  0.001	 -0.000	 30.100	 99.528	  1.671
39573	  0.055	  0.705	  0.485	  0.131	 -0.093	 -9.849	 -0.002	  0.001	 -0.000	 30.100	 99.539	  0.694
39623	  0.055	  0.702	  0.483	  0.118	 -0.133	 -9.880	 -0.004	  0.002	 -0.001	 30.100	 99.554	 -0.637
39673	  0.055	  0.715	  0.484	  0.141	 -0.136	 -9.865	 -0.004	  0.001	  0.000	 30.100	 99.543	  0.339
39723	  0.051	  0.704	  0.489	  0.141	 -0.123	 -9.818	 -0.004	  0.001	 -0.000	 30.100	 99.543	  0.339
39773	  0.052	  0.701	  0.486	  0.136	 -0.118	 -9.807	 -0.004	  0.001	  0.001	 30.100	 99.543	  0.339
39823	  0.051	  0.710	  0.491	  0.108	 -0.143	 -9.897	  0.018	 -0.051	 -0.003	 30.100	 99.543	  0.339
39873	  0.050	  0.703	  0.490	  0.143	 -0.490	 -9.847	 -0.034	 -0.031	  0.016	 30.100	 99.554	 -0.637
39923	  0.051	  0.701	  0.491	  0.657	  0.220	 -9.351	 -0.009	  0.011	  0.001	 30.100	 99.543	  0.339
39973	  0.050	  0.698	  0.489	  0.003	 -0.220	 -9.927	 -0.006	  0.011	  0.001	 30.100	 99.554	 -0.637
40023	  0.050	  0.702	  0.488	  0.154	 -0.034	 -9.820	 -0.003	  0.002	  0.000	 30.100	 99.554	 -0.637
40073	  0.048	  0.708	  0.491	  0.133	 -0.167	 -9.883	 -0.004	  0.001	  0.001	 30.100	 99.554	 -0.637
40123	  0.050	  0.705	  0.490	  0.142	 -0.010	 -9.885	 -0.003	 -0.015	 -0.003	 30.100	 99.543	  0.339
40173	  0.050	  0.703	  0.495	 -0.087	  0.495	 -9.884	 -0.028	  0.039	  0.002	 30.100	 99.543	  0.339
40223	  0.051	  0.704	  0.495	 -0.240	 -0.285	 -10.119	  0.034	 -0.069	  0.004	 30.100	 99.543	  0.339
40273	  0.049	  0.702	  0.495	  0.231	 -1.690	 -9.975	  0.011	 -0.056	  0.035	 30.100	 99.543	  0.339
40323	  0.051	  0.702	  0.496	  4.001	 -0.209	 -5.214	 -0.089	  0.001	 -0.096	 30.100	 99.543	  0.339
40373	  0.048	  0.704	  0.495	  0.147	  0.071	 -9.707	 -0.005	 -0.000	  0.008	 30.100	 99.543	  0.339
40423	  0.047	  0.699	  0.498	  0.177	 -0.106	 -9.820	 -0.000	  0.001	  0.005	 30.100	 99.543	  0.339
40473	  0.046	  0.703	  0.499	  0.091	  0.015	 -9.818	  0.000	 -0.002	 -0.007	 30.100	 99.550	 -0.282
40523	  0.047	  0.698	  0.494	  0.278	  0.125	 -9.541	  0.158	 -0.257	 -0.042	 30.100	 99.554	 -0.637
40573	  0.050	  0.703	  0.489	  0.017	  0.147	 -9.893	 -0.000	 -0.015	 -0.005	 30.100	 99.543	  0.339
40623	  0.048	  0.707	  0.494	  0.111	 -0.323	 -9.889	 -0.006	  0.010	 -0.000	 30.100	 99.539	  0.694
40673	  0.046	  0.707	  0.496	  0.186	 -0.195	 -10.732	 -0.098	  0.156	  0.007	 30.100	 99.554	 -0.637
40723	  0.047	  0.700	  0.497	  0.274	 -0.010	 -9.645	  0.057	 -0.087	  0.007	 30.100	 99.554	 -0.637
40773	  0.046	  0.708	  0.495	  0.070	 -0.198	 -9.907	  0.002	 -0.002	  0.001	 30.100	 99.543	  0.339
40823	  0.051	  0.703	  0.496	  0.079	 -0.210	 -9.922	 -0.006	  0.008	  0.000	 30.100	 99.554	 -0.637
40873	  0.049	  0.702	  0.497	  0.190	 -0.086	 -9.812	 -0.003	 -0.002	  0.000	 30.100	 99.554	 -0.637
40923	  0.048	  0.705	  0.497	  0.156	 -0.170	 -9.777	 -0.003	  0.002	  0.000	 30.100	 99.543	  0.339
40973	  0.045	  0.702	  0.500	  0.178	 -0.232	 -9.834	 -0.002	 -0.003	 -0.001	 30.100	 99.543	  0.339
41023	  0.049	  0.699	  0.489	  0.175	 -0.120	 -9.802	 -0.004	  0.004	  0.000	 30.100	 99.543	  0.339
41073	  0.049	  0.697	  0.496	  0.115	 -0.159	 -9.863	 -0.003	  0.002	  0.001	 30.100	 99.554	 -0.637
41123	  0.046	  0.702	  0.498	  0.104	 -0.178	 -9.897	 -0.021	  0.030	  0.001	 30.100	 99.539	  0.694
41173	  0.045	  0.698	  0.497	  0.147	 -0.265	 -9.971	 -0.011	  0.014	 -0.002	 30.100	 99.543	  0.339
41223	  0.048	  0.701	  0.497	  0.068	 -0.065	 -9.949	 -0.004	  0.010	  0.000	 30.100	 99.543	  0.339
41273	  0.046	  0.699	  0.498	  0.228	 -0.223	 -9.752	  0.002	 -0.009	 -0.001	 30.100	 99.554	 -0.637
41323	  0.048	  0.702	  0.496	  0.198	 -0.147	 -9.791	  0.003	 -0.009	  0.008	 30.100	 99.543	  0.339
41373	  0.046	  0.706	  0.499	  0.009	 -0.090	 -10.041	  0.013	 -0.025	  0.002	 30.100	 99.543	  0.339
41423	  0.044	  0.701	  0.499	  0.147	 -0.096	 -9.870	 -0.009	  0.009	  0.004	 30.100	 99.543	  0.339
41473	  0.049	  0.705	  0.494	 -0.018	 -0.110	 -9.920	 -0.042	  0.050	  0.003	 30.100	 99.543	  0.339
41523	  0.043	  0.696	  0.500	  0.168	 -0.082	 -9.701	 -0.027	  0.039	  0.005	 30.100	 99.559	 -1.081
41573	  0.047	  0.700	  0.501	  0.171	 -0.123	 -9.796	  0.004	 -0.008	  0.003	 30.100	 99.554	 -0.637
41623	  0.045	  0.696	  0.499	  0.135	 -0.198	 -9.948	 -0.028	  0.041	 -0.003	 30.100	 99.543	  0.339
41673	  0.046	  0.702	  0.503	  0.169	 -0.123	 -9.852	 -0.002	 -0.000	  0.009	 30.100	 99.554	 -0.637
41723	  0.046	  0.697	  0.507	  0.330	 -0.208	 -9.871	 -0.038	  0.017	 -0.009	 30.100	 99.554	 -0.637
41773	  0.043	  0.692	  0.504	  0.184	  0.171	 -9.368	 -0.109	  0.034	 -0.007	 30.100	 99.566	 -1.703
41823	  0.046	  0.695	  0.499	 -0.030	  0.114	 -10.159	 -0.003	  0.003	  0.009	 30.100	 99.543	  0.339
41873	  0.044	  0.696	  0.505	  0.262	 -0.181	 -9.866	 -0.001	 -0.001	 -0.002	 30.100	 99.543	  0.339
41923	  0.044	  0.698	  0.504	  0.356	 -0.098	 -9.761	  0.064	 -0.012	 -0.041	 30.100	 99.547	 -0.016
41973	  0.044	  0.695	  0.502	  0.394	  0.201	 -9.503	  0.028	 -0.044	 -0.002	 30.100	 99.554	 -0.637
42022	  0.049	  0.699	  0.502	  0.232	 -0.081	 -9.715	  0.020	 -0.033	 -0.002	 30.100	 99.543	  0.339
42072	  0.045	  0.697	  0.497	  0.172	 -0.040	 -9.858	 -0.001	 -0.010	  0.001	 30.100	 99.543	  0.339
42122	  0.043	  0.700	  0.502	 -0.250	 -0.230	 -10.034	 -0.002	  0.002	  0.001	 30.100	 99.554	 -0.637
42172	  0.044	  0.698	  0.505	  0.137	 -0.149	 -9.863	 -0.014	  0.025	 -0.012	 30.100	 99.543	  0.339
42222	  0.048	  0.699	  0.499	 -0.051	 -0.441	 -10.201	 -0.004	  0.002	 -0.007	 30.100	 99.554	 -0.637
42272	  0.045	  0.701	  0.502	  0.099	 -0.284	 -9.971	 -0.002	  0.002	 -0.003	 30.100	 99.543	  0.339
42322	  0.048	  0.696	  0.503	  0.176	 -0.129	 -9.805	  0.003	 -0.013	 -0.000	 30.100	 99.554	 -0.637
42372	  0.046	  0.700	  0.500	  0.074	 -0.159	 -9.827	 -0.004	  0.001	 -0.001	 30.100	 99.554	 -0.637
42422	  0.046	  0.699	  0.504	  0.114	 -0.125	 -9.829	 -0.007	  0.023	 -0.002	 30.100	 99.543	  0.339
42472	  0.048	  0.700	  0.504	  0.139	 -0.140	 -9.853	 -0.005	  0.002	 -0.000	 30.100	 99.554	 -0.637
42522	  0.046	  0.698	  0.502	  0.063	 -0.125	 -9.881	 -0.011	  0.030	  0.001	 30.100	 99.550	 -0.282
42572	  0.047	  0.698	  0.499	  0.122	 -0.108	 -9.857	  0.002	 -0.007	 -0.003	 30.100	 99.559	 -1.081
42622	  0.045	  0.698	  0.504	  0.202	 -0.291	 -9.788	 -0.011	 -0.010	 -0.010	 30.100	 99.543	  0.339
42672	  0.047	  0.697	  0.502	 -0.072	 -0.204	 -10.010	  0.006	  0.005	 -0.001	 30.100	 99.547	 -0.016
42722	  0.066	  0.699	  0.493	  0.051	 -1.669	 -13.850	 -0.683	 -0.269	 -0.100	 30.100	 99.543	  0.339
42772	  0.057	  0.701	  0.496	  0.348	  0.343	 -10.203	 -0.003	  0.217	  0.008	 30.100	 99.554	 -0.637
42822	  0.053	  0.702	  0.494	 -0.205	  0.444	 -9.590	 -0.010	  0.038	 -0.001	 30.100	 99.543	  0.339
42872	  0.053	  0.705	  0.496	 -0.301	  0.026	 -9.974	 -0.007	 -0.007	  0.001	 30.100	 99.547	 -0.016
42922	  0.056	  0.713	  0.495	 -0.190	  0.427	 -9.756	  0.001	  0.028	 -0.011	 30.100	 99.543	  0.339
42972	  0.048	  0.703	  0.491	 -0.053	  0.205	 -9.718	 -0.032	  0.103	 -0.011	 30.100	 99.554	 -0.637
43022	  0.045	  0.703	  0.494	  0.191	 -0.212	 -9.877	 -0.034	  0.102	 -0.025	 30.100	 99.543	  0.339
43072	  0.041	  0.700	  0.498	  0.150	 -0.015	 -9.603	 -0.012	  0.030	  0.002	 30.100	 99.570	 -2.058
43122	  0.044	  0.699	  0.496	 -0.149	 -0.157	 -10.078	 -0.004	 -0.008	  0.011	 30.100	 99.532	  1.316
43172	  0.043	  0.705	  0.495	  0.170	 -0.070	 -9.824	 -0.008	  0.002	  0.003	 30.100	 99.547	 -0.016
43222	  0.043	  0.701	  0.493	  0.063	  0.035	 -9.837	 -0.004	  0.003	 -0.003	 30.100	 99.547	 -0.016
43272	  0.045	  0.698	  0.497	  0.126	 -0.163	 -9.800	 -0.004	 -0.001	  0.002	 30.100	 99.543	  0.339
43322	  0.045	  0.698	  0.498	  0.113	 -0.100	 -9.865	 -0.003	  0.006	  0.003	 30.100	 99.554	 -0.637
43372	  0.043	  0.708	  0.495	  0.216	 -0.290	 -9.825	 -0.005	 -0.005	 -0.009	 30.100	 99.543	  0.339
43422	  0.045	  0.698	  0.497	  0.131	 -0.151	 -9.872	 -0.003	  0.001	 -0.003	 30.100	 99.559	 -1.081
43472	  0.046	  0.700	  0.497	  0.130	 -0.088	 -9.865	 -0.004	  0.006	 -0.009	 30.100	 99.543	  0.339
43522	  0.043	  0.697	  0.497	  0.173	 -0.165	 -9.808	 -0.006	  0.005	 -0.000	 30.100	 99.547	 -0.016
43572	  0.044	  0.705	  0.498	  0.156	  0.036	 -9.845	  0.006	 -0.015	 -0.001	 30.100	 99.543	  0.339
43622	  0.044	  0.702	  0.496	  0.085	 -0.086	 -9.865	 -0.005	  0.002	  0.001	 30.100	 99.547	 -0.016
43672	  0.041	  0.699	  0.501	  0.128	 -0.137	 -9.816	 -0.016	  0.022	 -0.012	 30.100	 99.547	 -0.016
43722	  0.041	  0.702	  0.493	  0.158	 -0.086	 -9.773	  0.017	 -0.031	  0.002	 30.100	 99.554	 -0.637
43772	  0.043	  0.699	  0.492	  0.170	 -0.178	 -9.809	  0.001	 -0.006	 -0.001	 30.100	 99.554	 -0.637
43822	  0.046	  0.702	  0.494	  0.229	 -0.197	 -9.827	  0.001	 -0.016	 -0.001	 30.100	 99.543	  0.339
43872	  0.045	  0.707	  0.494	  0.308	 -0.078	 -9.743	 -0.005	  0.011	 -0.001	 30.100	 99.547	 -0.016
43922	  0.043	  0.701	  0.491	  0.065	  0.077	 -9.752	  0.020	  0.005	  0.002	 30.100	 99.559	 -1.081
43972	  0.045	  0.701	  0.494	  0.439	 -0.525	 -9.837	 -0.002	 -0.001	  0.009	 30.100	 99.543	  0.339
44022	  0.044	  0.700	  0.490	  0.174	 -0.179	 -9.836	 -0.004	  0.001	  0.001	 30.100	 99.554	 -0.637
44072	  0.043	  0.701	  0.495	  0.070	  0.740	 -10.129	  0.002	  0.005	 -0.001	 30.100	 99.559	 -1.081
44122	  0.046	  0.699	  0.496	  0.111	 -0.022	 -9.897	 -0.004	  0.006	  0.002	 30.100	 99.543	  0.339
44173	  0.044	  0.700	  0.494	 -0.064	 -0.138	 -9.972	 -0.000	 -0.001	  0.004	 30.100	 99.554	 -0.637
44222	  0.044	  0.704	  0.500	  0.205	 -0.211	 -9.842	  0.003	 -0.009	  0.002	 30.100	 99.543	  0.339
44273	  0.044	  0.700	  0.498	  0.160	  0.015	 -9.811	  0.001	 -0.007	 -0.007	 30.100	 99.547	 -0.016
44322	  0.044	  0.697	  0.499	  0.096	 -0.144	 -9.871	  0.002	 -0.021	  0.001	 30.100	 99.543	  0.339
44372	  0.047	  0.699	  0.497	 -0.134	  0.153	 -9.774	  0.037	 -0.004	 -0.003	 30.100	 99.547	 -0.016
44422	  0.045	  0.700	  0.493	  0.031	 -0.116	 -9.922	 -0.006	  0.015	  0.000	 30.100	 99.547	 -0.016
44472	  0.046	  0.693	  0.497	  0.291	  0.932	 -8.946	  0.073	 -0.012	 -0.006	 30.100	 99.543	  0.339
44523	  0.051	  0.692	  0.494	 -0.215	 -0.333	 -10.057	  0.043	 -0.146	 -0.011	 30.100	 99.543	  0.339
44573	  0.048	  0.693	  0.500	  0.011	  0.126	 -9.888	  0.005	  0.130	  0.007	 30.100	 99.536	  0.961
44623	  0.044	  0.694	  0.489	  0.080	 -0.168	 -9.860	 -0.007	  0.006	 -0.004	 30.100	 99.543	  0.339
44674	  0.047	  0.692	  0.497	 -0.058	  0.374	 -10.045	  0.009	 -0.016	 -0.014	 30.100	 99.543	  0.339
44724	  0.051	  0.692	  0.497	  0.167	  0.036	 -9.846	 -0.002	  0.001	 -0.003	 30.100	 99.559	 -1.081
44773	  0.050	  0.688	  0.497	  0.032	 -0.130	 -9.975	 -0.001	 -0.000	 -0.005	 30.100	 99.547	 -0.016
44823	  0.055	  0.690	  0.496	  0.127	 -0.026	 -9.774	 -0.005	  0.010	  0.003	 30.100	 99.543	  0.339
44873	  0.054	  0.683	  0.496	  0.199	 -0.180	 -9.742	 -0.003	  0.001	 -0.001	 30.100	 99.547	 -0.016
44923	  0.055	  0.684	  0.498	  0.315	 -0.083	 -9.695	 -0.007	 -0.000	  0.007	 30.100	 99.543	  0.339
44973	  0.053	  0.687	  0.491	  0.155	 -0.181	 -9.878	 -0.005	  0.000	 -0.002	 30.100	 99.547	 -0.016
45023	  0.047	  0.689	  0.494	  0.126	 -0.053	 -9.857	 -0.002	 -0.000	  0.000	 30.100	 99.559	 -1.081
45073	  0.051	  0.692	  0.494	  0.115	 -0.115	 -9.817	 -0.000	 -0.003	  0.002	 30.100	 99.559	 -1.081
45123	  0.047	  0.686	  0.491	  0.139	 -0.069	 -9.842	 -0.002	  0.000	 -0.001	 30.100	 99.547	 -0.016
45173	  0.051	  0.688	  0.492	  0.098	 -0.112	 -9.869	 -0.003	  0.001	  0.000	 30.100	 99.543	  0.339
45223	  0.052	  0.697	  0.493	  0.137	 -0.092	 -9.890	 -0.005	  0.002	 -0.000	 30.100	 99.554	 -0.637
45273	  0.053	  0.688	  0.498	  0.131	 -0.141	 -9.792	 -0.005	  0.000	  0.004	 30.100	 99.547	 -0.016
45323	  0.054	  0.691	  0.492	  0.132	 -0.154	 -9.844	 -0.003	  0.001	 -0.000	 30.100	 99.547	 -0.016
45373	  0.052	  0.688	  0.501	  0.120	 -0.134	 -9.797	 -0.003	 -0.000	  0.000	 30.100	 99.532	  1.316
45423	  0.051	  0.691	  0.498	 -0.060	  0.126	 -10.542	  0.000	  0.005	  0.010	 30.100	 99.559	 -1.081
45473	  0.051	  0.692	  0.494	  0.294	 -0.223	 -9.720	 -0.007	 -0.001	  0.007	 30.100	 99.547	 -0.016
45523	  0.050	  0.692	  0.493	  0.238	 -0.127	 -9.625	 -0.006	  0.002	  0.003	 30.100	 99.547	 -0.016
45573	  0.051	  0.692	  0.497	  0.132	 -0.066	 -9.817	 -0.006	 -0.001	 -0.001	 30.100	 99.552	 -0.460
45623	  0.051	  0.685	  0.496	  0.240	 -0.315	 -9.803	  0.002	 -0.002	 -0.003	 30.100	 99.532	  1.316
45673	  0.050	  0.688	  0.494	  0.134	 -0.177	 -9.886	 -0.003	  0.000	  0.000	 30.100	 99.547	 -0.016
45723	  0.051	  0.688	  0.487	  0.105	 -0.105	 -9.899	  0.000	  0.006	  0.010	 30.100	 99.547	 -0.016
45773	  0.050	  0.692	  0.493	  0.051	 -0.006	 -9.929	 -0.003	  0.011	  0.001	 30.100	 99.554	 -0.637
45823	  0.050	  0.689	  0.497	 -0.120	  0.378	 -9.640	  0.028	 -0.031	 -0.002	 30.100	 99.543	  0.339
45873	  0.054	  0.698	  0.494	  0.204	 -0.116	 -9.743	  0.052	 -0.080	 -0.020	 30.100	 99.547	 -0.016
45923	  0.053	  0.692	  0.500	  0.210	 -0.256	 -9.806	 -0.001	 -0.044	  0.001	 30.100	 99.547	 -0.016
45973	  0.053	  0.691	  0.494	  0.124	 -0.149	 -9.892	 -0.007	  0.001	  0.002	 30.100	 99.547	 -0.016
46023	  0.052	  0.691	  0.500	  0.395	 -0.274	 -9.868	 -0.003	 -0.000	  0.020	 30.100	 99.559	 -1.081
46073	  0.052	  0.688	  0.493	  0.624	 -0.480	 -9.870	 -0.005	 -0.003	  0.100	 30.100	 99.543	  0.339
46123	  0.055	  0.691	  0.486	  0.774	 -0.348	 -9.869	  0.006	 -0.032	  0.239	 30.100	 99.547	 -0.016
46173	  0.056	  0.683	  0.490	  0.639	 -0.294	 -9.957	 -0.005	 -0.010	  0.201	 30.100	 99.559	 -1.081
46223	  0.055	  0.685	  0.489	  0.097	 -0.317	 -9.951	 -0.005	  0.008	  0.274	 30.100	 99.536	  0.961
46273	  0.057	  0.671	  0.490	 -0.022	 -0.278	 -9.889	 -0.015	  0.013	  0.418	 30.100	 99.547	 -0.016
46323	  0.064	  0.672	  0.486	  0.165	 -0.145	 -9.788	 -0.005	  0.009	  0.468	 30.100	 99.543	  0.339
46373	  0.062	  0.666	  0.484	  0.289	  0.022	 -9.687	 -0.006	  0.010	  0.327	 30.100	 99.547	 -0.016
46423	  0.062	  0.652	  0.480	 -0.028	  0.113	 -9.380	  0.000	  0.010	  0.189	 30.100	 99.547	 -0.016
46473	  0.059	  0.650	  0.481	 -0.291	  0.017	 -9.857	 -0.004	  0.005	  0.085	 30.100	 99.547	 -0.016
46523	  0.060	  0.648	  0.478	 -0.359	  0.422	 -9.745	 -0.001	  0.000	  0.239	 30.100	 99.559	 -1.081
46573	  0.063	  0.643	  0.476	  0.681	 -0.121	 -9.840	 -0.006	  0.007	  0.190	 30.100	 99.547	 -0.016
46623	  0.061	  0.650	  0.479	  0.595	 -0.143	 -9.880	 -0.010	  0.007	  0.177	 30.100	 99.536	  0.961
46673	  0.069	  0.645	  0.474	  0.579	 -0.124	 -9.783	 -0.011	  0.003	  0.377	 30.100	 99.547	 -0.016
46723	  0.062	  0.634	  0.481	  0.644	 -0.235	 -9.856	 -0.010	  0.006	  0.391	 30.100	 99.547	 -0.016
46773	  0.060	  0.632	  0.470	  0.810	 -0.721	 -9.865	 -0.022	  0.009	  0.353	 30.100	 99.547	 -0.016
46823	  0.051	  0.624	  0.469	 -0.020	 -0.836	 -10.793	 -0.017	  0.063	 -0.026	 30.100	 99.547	 -0.016
46873	  0.039	  0.623	  0.465	 -0.270	 -0.384	 -9.775	  0.003	 -0.003	 -0.371	 30.100	 99.547	 -0.016
46923	  0.026	  0.616	  0.460	 -0.348	 -0.007	 -9.830	 -0.000	  0.011	 -0.353	 30.100	 99.559	 -1.081
46973	  0.015	  0.609	  0.448	 -0.666	  0.105	 -9.922	  0.000	  0.001	 -0.230	 30.100	 99.536	  0.961
47023	  0.009	  0.608	  0.452	  0.586	 -0.373	 -10.002	 -0.004	  0.009	 -0.287	 30.100	 99.547	 -0.016
47073	 -0.003	  0.605	  0.443	  0.189	 -0.168	 -9.323	 -0.066	  0.067	 -0.440	 30.100	 99.547	 -0.016
47123	 -0.012	  0.604	  0.448	 -1.893	 -0.426	 -9.450	  0.005	 -0.037	 -0.305	 30.100	 99.547	 -0.016
47173	 -0.017	  0.601	  0.442	  0.154	  0.049	 -9.708	  0.026	 -0.217	  0.083	 30.100	 99.547	 -0.016
47223	 -0.010	  0.601	  0.439	  0.315	 -0.039	 -10.133	  0.013	 -0.176	  0.170	 30.100	 99.570	 -2.058
47273	 -0.008	  0.594	  0.439	 -0.040	 -0.659	 -10.080	  0.056	 -0.040	 -0.016	 30.100	 99.547	 -0.016
47323	 -0.013	  0.600	  0.428	  1.962	 -0.717	 -9.808	 -0.054	  0.221	 -0.321	 30.100	 99.554	 -0.637
47373	 -0.019	  0.588	  0.430	  0.012	  0.016	 -9.658	 -0.035	 -0.334	 -0.084	 30.100	 99.543	  0.339
47423	 -0.016	  0.585	  0.424	 -0.572	 -0.022	 -9.764	  0.158	  0.136	 -0.065	 30.100	 99.536	  0.961
47473	 -0.021	  0.594	  0.414	  0.052	 -0.211	 -9.770	  0.449	  0.258	 -0.161	 30.100	 99.559	 -1.081
47523	 -0.026	  0.606	  0.401	  0.450	 -0.880	 -10.127	  0.571	  0.082	 -0.094	 30.100	 99.552	 -0.460
47573	 -0.024	  0.620	  0.386	  0.988	 -1.674	 -10.806	  0.391	 -0.219	  0.012	 30.100	 99.559	 -1.081
47623	 -0.022	  0.610	  0.374	  0.181	 -2.145	 -10.725	 -0.369	 -0.276	 -0.094	 30.100	 99.547	 -0.016
47673	 -0.009	  0.593	  0.374	 -0.281	 -1.157	 -10.234	 -0.883	 -0.198	 -0.049	 30.100	 99.547	 -0.016
47723	 -0.002	  0.573	  0.379	 -0.890	  0.446	 -9.297	 -0.586	 -0.060	  0.251	 30.100	 99.547	 -0.016
47773	  0.015	  0.564	  0.375	 -0.281	 -0.198	 -9.871	 -0.012	 -0.129	  0.493	 30.100	 99.559	 -1.081
47823	  0.029	  0.558	  0.354	  0.092	 -0.915	 -10.540	  0.025	 -0.156	  0.519	 30.100	 99.547	 -0.016
47873	  0.045	  0.550	  0.358	 -0.314	 -0.839	 -10.514	 -0.442	 -0.072	  0.322	 30.100	 99.559	 -1.081
47923	  0.057	  0.535	  0.350	 -0.010	 -0.155	 -9.850	 -0.292	 -0.123	  0.495	 30.100	 99.547	 -0.016
47972	  0.071	  0.522	  0.335	 -0.733	 -0.338	 -9.900	  0.010	 -0.043	  0.473	 30.100	 99.540	  0.606
48023	  0.091	  0.527	  0.321	 -0.477	 -0.684	 -10.032	  0.095	  0.032	  0.446	 30.100	 99.552	 -0.460
48072	  0.088	  0.510	  0.310	 -0.427	 -0.415	 -9.012	  0.343	  0.433	  0.297	 30.100	 99.552	 -0.460
48122	  0.091	  0.516	  0.289	  0.611	 -1.166	 -9.201	  0.328	  0.274	  0.274	 30.100	 99.536	  0.961
48172	  0.090	  0.506	  0.284	 -0.478	 -0.530	 -8.218	  0.211	  0.226	  0.025	 30.100	 99.552	 -0.460
48222	  0.100	  0.504	  0.259	 -0.292	 -1.286	 -9.214	  0.363	 -0.268	  0.122	 30.100	 99.559	 -1.081
48273	  0.106	  0.495	  0.235	 -0.244	 -1.419	 -9.432	  0.019	 -0.256	  0.085	 30.100	 99.547	 -0.016
48322	  0.120	  0.480	  0.233	 -0.765	 -0.890	 -9.567	 -0.177	 -0.046	  0.072	 30.100	 99.547	 -0.016
48372	  0.125	  0.460	  0.228	  0.091	 -0.819	 -9.673	 -0.132	 -0.195	 -0.031	 30.100	 99.547	 -0.016
48422	  0.130	  0.452	  0.221	 -0.484	 -0.560	 -10.059	 -0.232	 -0.263	 -0.229	 30.100	 99.552	 -0.460
48472	  0.136	  0.426	  0.223	 -0.964	 -0.240	 -10.307	 -0.351	 -0.174	 -0.274	 30.100	 99.547	 -0.016
48522	  0.135	  0.415	  0.222	 -0.492	  0.171	 -9.757	 -0.244	 -0.064	 -0.445	 30.100	 99.570	 -2.058
48572	  0.130	  0.394	  0.221	 -1.672	  0.115	 -10.497	 -0.012	  0.120	 -0.348	 30.100	 99.547	 -0.016
48622	  0.122	  0.382	  0.231	 -1.153	  0.194	 -10.814	 -0.081	  0.259	 -0.284	 30.100	 99.552	 -0.460
