Time	 MagX	 MagY	 MagZ	 AccelX	 AccelY	 AccelZ	 Yaw	 Pitch	 Roll	 Temperature	 Pressure	 Altitude
15252	  0.190	 -0.118	  0.171	  0.069	  0.190	 -9.462	  0.002	  0.000	  0.012	 29.600	 99.473	 -99999.000
15302	  0.192	 -0.128	  0.174	  0.056	  0.203	 -9.483	  0.002	 -0.001	  0.011	 29.600	 99.469	 -99999.000
15352	  0.190	 -0.112	  0.168	  0.035	  0.173	 -9.511	  0.002	 -0.002	  0.011	 29.600	 99.457	 -99999.000
15402	  0.191	 -0.126	  0.170	  0.067	  0.220	 -9.484	  0.003	 -0.001	  0.012	 29.600	 99.461	 -99999.000
15452	  0.196	 -0.130	  0.173	  0.058	  0.197	 -9.490	  0.003	 -0.000	  0.011	 29.600	 99.473	 -99999.000
15502	  0.190	 -0.127	  0.161	  0.028	  0.217	 -9.519	  0.002	 -0.002	  0.012	 29.600	 99.457	 -99999.000
15552	  0.191	 -0.128	  0.165	  0.057	  0.200	 -9.516	  0.003	 -0.001	  0.012	 29.600	 99.461	 -99999.000
15602	  0.192	 -0.122	  0.164	  0.043	  0.204	 -9.517	  0.002	 -0.000	  0.012	 29.600	 99.461	 -99999.000
15652	  0.194	 -0.130	  0.169	  0.072	  0.182	 -9.495	  0.002	  0.000	  0.011	 29.600	 99.449	 -99999.000
15702	  0.190	 -0.126	  0.164	  0.057	  0.150	 -9.455	  0.003	 -0.002	  0.012	 29.600	 99.473	 -99999.000
15752	  0.194	 -0.126	  0.173	  0.062	  0.190	 -9.463	  0.002	 -0.000	  0.011	 29.600	 99.461	 -99999.000
15802	  0.192	 -0.130	  0.173	  0.021	  0.215	 -9.494	  0.003	 -0.000	  0.012	 29.600	 99.473	 -99999.000
15852	  0.192	 -0.130	  0.163	  0.080	  0.210	 -9.477	  0.001	 -0.001	  0.012	 29.600	 99.469	 -99999.000
15902	  0.195	 -0.128	  0.173	 -0.004	  0.209	 -9.482	  0.002	  0.000	  0.011	 29.600	 99.461	 -99999.000
15952	  0.192	 -0.128	  0.171	  0.091	  0.184	 -9.490	  0.003	 -0.000	  0.011	 29.600	 99.461	 -99999.000
16002	  0.195	 -0.130	  0.171	  0.017	  0.232	 -9.495	  0.001	  0.001	  0.010	 29.600	 99.461	 -99999.000
16052	  0.192	 -0.126	  0.166	  0.072	  0.175	 -9.468	  0.001	 -0.001	  0.011	 29.600	 99.461	 -99999.000
16102	  0.190	 -0.135	  0.169	  0.020	  0.197	 -9.476	  0.002	 -0.000	  0.011	 29.600	 99.457	 -99999.000
16152	  0.190	 -0.127	  0.166	  0.095	  0.202	 -9.497	  0.002	 -0.000	  0.012	 29.600	 99.473	 -99999.000
16202	  0.191	 -0.121	  0.170	  0.005	  0.230	 -9.480	  0.003	 -0.001	  0.012	 29.600	 99.473	 -99999.000
16252	  0.192	 -0.131	  0.165	  0.094	  0.180	 -9.495	  0.003	 -0.001	  0.012	 29.600	 99.461	 -99999.000
16302	  0.192	 -0.130	  0.162	  0.006	  0.225	 -9.479	  0.002	 -0.002	  0.012	 29.600	 99.473	 -99999.000
16352	  0.191	 -0.126	  0.169	  0.095	  0.196	 -9.501	  0.003	 -0.001	  0.012	 29.600	 99.461	 -99999.000
16402	  0.194	 -0.131	  0.166	 -0.004	  0.211	 -9.485	  0.002	 -0.001	  0.011	 29.600	 99.469	 -99999.000
16452	  0.194	 -0.128	  0.166	  0.093	  0.166	 -9.475	  0.003	 -0.001	  0.012	 29.600	 99.461	 -99999.000
19205	  0.195	 -0.128	  0.163	 -0.041	  0.231	 -9.507	  0.003	 -0.002	  0.010	 29.600	 99.473	 -0.797
19252	  0.191	 -0.127	  0.169	  0.153	  0.156	 -9.477	  0.001	 -0.001	  0.011	 29.600	 99.449	  1.413
19301	  0.192	 -0.126	  0.170	 -0.033	  0.203	 -9.494	  0.001	  0.002	  0.011	 29.600	 99.473	 -0.797
19351	  0.191	 -0.127	  0.171	  0.040	  0.176	 -9.470	  0.002	 -0.004	  0.013	 29.700	 99.477	 -1.165
19402	  0.192	 -0.128	  0.170	  0.073	  0.176	 -9.478	  0.002	  0.001	  0.011	 29.600	 99.473	 -0.797
19451	  0.191	 -0.135	  0.171	  0.041	  0.194	 -9.455	  0.002	 -0.001	  0.012	 29.600	 99.461	  0.308
19502	  0.196	 -0.124	  0.169	  0.109	  0.171	 -9.493	  0.003	 -0.001	  0.012	 29.600	 99.457	  0.676
19551	  0.195	 -0.130	  0.173	  0.038	  0.205	 -9.529	  0.003	 -0.002	  0.012	 29.600	 99.444	  1.873
19601	  0.196	 -0.130	  0.171	  0.080	  0.187	 -9.480	  0.002	 -0.001	  0.011	 29.600	 99.473	 -0.797
19651	  0.192	 -0.121	  0.175	  0.016	  0.202	 -9.506	  0.002	 -0.002	  0.012	 29.600	 99.473	 -0.797
19701	  0.196	 -0.128	  0.170	  0.090	  0.214	 -9.469	  0.003	  0.000	  0.012	 29.600	 99.473	 -0.797
19751	  0.191	 -0.127	  0.170	  0.006	  0.196	 -9.498	  0.003	 -0.001	  0.010	 29.600	 99.461	  0.308
19802	  0.196	 -0.119	  0.171	  0.094	  0.218	 -9.481	  0.002	 -0.001	  0.011	 29.600	 99.473	 -0.797
19852	  0.194	 -0.132	  0.174	  0.117	  0.173	 -9.475	  0.001	 -0.001	  0.011	 29.600	 99.461	  0.308
19902	  0.196	 -0.124	  0.171	  0.002	  0.233	 -9.501	  0.002	 -0.000	  0.011	 29.600	 99.473	 -0.797
19952	  0.192	 -0.126	  0.167	  0.087	  0.183	 -9.475	  0.002	 -0.002	  0.011	 29.600	 99.469	 -0.429
20002	  0.194	 -0.130	  0.165	  0.010	  0.243	 -9.490	  0.002	 -0.001	  0.011	 29.600	 99.473	 -0.797
20052	  0.192	 -0.130	  0.166	  0.128	  0.167	 -9.476	  0.002	 -0.000	  0.011	 29.600	 99.449	  1.413
20102	  0.192	 -0.122	  0.174	  0.007	  0.183	 -9.517	  0.002	  0.000	  0.011	 29.600	 99.461	  0.308
20152	  0.192	 -0.118	  0.169	  0.086	  0.176	 -9.503	  0.003	  0.000	  0.012	 29.600	 99.461	  0.308
20202	  0.191	 -0.127	  0.173	 -0.004	  0.231	 -9.435	  0.002	 -0.000	  0.012	 29.600	 99.461	  0.308
20252	  0.194	 -0.123	  0.161	  0.096	  0.190	 -9.467	  0.002	 -0.000	  0.012	 29.600	 99.473	 -0.797
20302	  0.192	 -0.130	  0.173	 -0.003	  0.223	 -9.445	  0.002	  0.000	  0.012	 29.600	 99.461	  0.308
20352	  0.194	 -0.128	  0.174	  0.083	  0.205	 -9.492	  0.002	  0.001	  0.011	 29.600	 99.473	 -0.797
20402	  0.196	 -0.122	  0.169	  0.004	  0.250	 -9.557	  0.003	 -0.005	  0.011	 29.600	 99.449	  1.413
20452	  0.192	 -0.124	  0.171	  0.243	  0.227	 -9.437	  0.002	 -0.001	  0.013	 29.600	 99.461	  0.308
20502	  0.195	 -0.131	  0.169	 -0.097	  0.225	 -9.484	  0.002	  0.003	  0.011	 29.600	 99.473	 -0.797
20552	  0.192	 -0.121	  0.171	  0.093	  0.171	 -9.501	  0.002	 -0.003	  0.013	 29.600	 99.461	  0.308
20602	  0.194	 -0.126	  0.170	  0.078	  0.215	 -9.409	  0.003	  0.001	  0.011	 29.600	 99.473	 -0.797
20652	  0.194	 -0.123	  0.174	  0.046	  0.212	 -9.499	  0.002	  0.001	  0.011	 29.600	 99.473	 -0.797
20702	  0.195	 -0.119	  0.171	 -0.013	  0.218	 -9.460	  0.002	 -0.002	  0.011	 29.700	 99.461	  0.308
20752	  0.190	 -0.131	  0.175	  0.098	  0.187	 -9.427	  0.003	 -0.002	  0.011	 29.600	 99.449	  1.413
20802	  0.194	 -0.123	  0.163	  0.007	  0.199	 -9.493	  0.002	 -0.000	  0.011	 29.600	 99.461	  0.308
20852	  0.191	 -0.117	  0.175	  0.080	  0.215	 -9.463	  0.002	  0.000	  0.011	 29.600	 99.473	 -0.797
20902	  0.195	 -0.124	  0.167	  0.007	  0.210	 -9.496	  0.003	 -0.002	  0.012	 29.600	 99.473	 -0.797
20952	  0.194	 -0.124	  0.173	  0.111	  0.207	 -9.472	  0.002	 -0.001	  0.012	 29.600	 99.457	  0.676
21002	  0.195	 -0.124	  0.166	  0.020	  0.214	 -9.491	  0.001	 -0.000	  0.011	 29.600	 99.449	  1.413
21052	  0.192	 -0.126	  0.175	  0.081	  0.197	 -9.530	  0.003	 -0.001	  0.012	 29.600	 99.473	 -0.797
21102	  0.196	 -0.116	  0.174	  0.042	  0.211	 -9.482	  0.002	 -0.002	  0.011	 29.600	 99.461	  0.308
21152	  0.196	 -0.131	  0.165	  0.079	  0.218	 -9.480	  0.002	 -0.001	  0.011	 29.600	 99.461	  0.308
21202	  0.195	 -0.130	  0.174	  0.034	  0.184	 -9.417	  0.001	 -0.001	  0.011	 29.600	 99.473	 -0.797
21252	  0.194	 -0.130	  0.167	  0.046	  0.195	 -9.507	  0.002	 -0.001	  0.011	 29.600	 99.461	  0.308
21302	  0.194	 -0.124	  0.175	  0.021	  0.210	 -9.475	  0.003	 -0.001	  0.010	 29.600	 99.461	  0.308
21352	  0.195	 -0.131	  0.171	  0.085	  0.193	 -9.472	  0.003	 -0.001	  0.010	 29.600	 99.461	  0.308
21402	  0.197	 -0.133	  0.178	  0.024	  0.186	 -9.512	  0.002	  0.001	  0.011	 29.600	 99.469	 -0.429
21452	  0.192	 -0.122	  0.173	  0.050	  0.226	 -9.458	  0.004	 -0.001	  0.011	 29.600	 99.473	 -0.797
21502	  0.194	 -0.133	  0.173	  0.027	  0.219	 -9.527	  0.001	 -0.001	  0.011	 29.700	 99.461	  0.308
21552	  0.196	 -0.126	  0.171	  0.043	  0.192	 -9.481	  0.001	  0.000	  0.012	 29.600	 99.461	  0.308
21602	  0.195	 -0.119	  0.174	  0.035	  0.170	 -9.477	  0.002	  0.000	  0.012	 29.600	 99.461	  0.308
21652	  0.196	 -0.127	  0.178	  0.025	  0.220	 -9.472	  0.002	 -0.002	  0.011	 29.600	 99.461	  0.308
21702	  0.192	 -0.131	  0.179	  0.069	  0.184	 -9.467	  0.002	  0.000	  0.011	 29.600	 99.461	  0.308
21752	  0.197	 -0.133	  0.174	  0.015	  0.235	 -9.475	  0.003	  0.000	  0.011	 29.600	 99.473	 -0.797
21802	  0.195	 -0.140	  0.174	  0.045	  0.205	 -9.495	  0.003	 -0.001	  0.010	 29.600	 99.461	  0.308
21852	  0.198	 -0.124	  0.176	  0.035	  0.268	 -9.458	  0.004	 -0.000	  0.012	 29.600	 99.449	  1.413
21902	  0.195	 -0.128	  0.177	 -0.001	  0.182	 -9.522	  0.003	  0.000	  0.011	 29.600	 99.473	 -0.797
21952	  0.196	 -0.137	  0.176	 -0.011	  0.198	 -9.507	  0.002	 -0.003	  0.012	 29.600	 99.461	  0.308
22002	  0.194	 -0.133	  0.177	  0.121	  0.185	 -9.480	  0.002	 -0.002	  0.012	 29.600	 99.461	  0.308
22052	  0.194	 -0.131	  0.181	  0.036	  0.211	 -9.517	  0.004	 -0.001	  0.011	 29.600	 99.473	 -0.797
22102	  0.195	 -0.130	  0.167	  0.096	  0.208	 -9.478	  0.002	 -0.001	  0.011	 29.600	 99.461	  0.308
22152	  0.196	 -0.127	  0.177	 -0.011	  0.224	 -9.476	  0.002	 -0.001	  0.012	 29.600	 99.473	 -0.797
22201	  0.194	 -0.130	  0.177	  0.093	  0.199	 -9.476	  0.002	 -0.001	  0.011	 29.700	 99.461	  0.308
22251	  0.195	 -0.138	  0.177	 -0.026	  0.221	 -9.490	  0.002	 -0.001	  0.010	 29.600	 99.473	 -0.797
22301	  0.196	 -0.133	  0.177	  0.068	  0.176	 -9.521	  0.001	 -0.001	  0.012	 29.600	 99.461	  0.308
22351	  0.192	 -0.136	  0.170	 -0.015	  0.224	 -9.461	  0.002	  0.000	  0.011	 29.600	 99.461	  0.308
22401	  0.192	 -0.136	  0.178	  0.117	  0.170	 -9.500	  0.003	 -0.001	  0.012	 29.600	 99.461	  0.308
22451	  0.195	 -0.138	  0.177	  0.029	  0.214	 -9.485	  0.002	 -0.001	  0.011	 29.600	 99.473	 -0.797
22501	  0.197	 -0.128	  0.178	  0.102	  0.166	 -9.491	  0.003	 -0.001	  0.011	 29.700	 99.473	 -0.797
22551	  0.194	 -0.131	  0.167	 -0.007	  0.229	 -9.500	  0.001	  0.000	  0.011	 29.600	 99.449	  1.413
22601	  0.195	 -0.138	  0.176	  0.000	  0.122	 -9.507	  0.002	  0.003	  0.012	 29.600	 99.461	  0.308
22651	  0.192	 -0.132	  0.167	 -0.073	  0.147	 -9.490	  0.004	  0.001	 -0.034	 29.600	 99.461	  0.308
22701	  0.195	 -0.119	  0.179	  0.198	  0.216	 -9.465	  0.001	  0.001	 -0.043	 29.600	 99.461	  0.308
22751	  0.197	 -0.128	  0.173	 -0.031	  0.350	 -9.467	  0.006	 -0.009	 -0.001	 29.700	 99.477	 -1.165
22801	  0.197	 -0.132	  0.176	  0.252	  0.280	 -9.375	  0.002	 -0.037	  0.001	 29.600	 99.461	  0.308
22851	  0.198	 -0.122	  0.167	  0.424	 -0.128	 -9.435	  0.000	  0.086	  0.039	 29.700	 99.465	 -0.060
22901	  0.197	 -0.132	  0.176	 -0.015	  0.476	 -9.438	  0.004	 -0.002	  0.090	 29.700	 99.461	  0.308
22951	  0.194	 -0.133	  0.173	 -0.099	  0.252	 -9.556	  0.003	 -0.009	  0.172	 29.700	 99.465	 -0.060
23001	  0.194	 -0.140	  0.177	  0.203	 -0.013	 -9.533	  0.004	 -0.006	  0.228	 29.600	 99.473	 -0.797
23051	  0.195	 -0.141	  0.180	  0.146	  0.347	 -9.478	 -0.000	  0.001	  0.002	 29.700	 99.477	 -1.165
23101	  0.194	 -0.147	  0.175	  0.032	 -0.189	 -9.454	  0.003	 -0.003	  0.090	 29.700	 99.465	 -0.060
23151	  0.190	 -0.141	  0.173	  0.028	  0.235	 -9.497	  0.004	 -0.001	  0.014	 29.600	 99.473	 -0.797
23201	  0.190	 -0.142	  0.173	  0.025	  0.294	 -9.493	  0.004	  0.000	  0.011	 29.600	 99.449	  1.413
23251	  0.191	 -0.142	  0.180	  0.030	  0.226	 -9.470	  0.000	 -0.002	  0.010	 29.600	 99.461	  0.308
23301	  0.188	 -0.141	  0.173	  0.063	  0.190	 -9.495	  0.001	 -0.004	  0.011	 29.600	 99.461	  0.308
23352	  0.189	 -0.148	  0.178	 -0.232	  0.686	 -9.398	  0.019	  0.004	  0.016	 29.600	 99.473	 -0.797
23401	  0.190	 -0.131	  0.167	 -0.750	 -0.230	 -9.499	  0.013	  0.010	  0.016	 29.600	 99.449	  1.413
23451	  0.192	 -0.142	  0.178	 -0.056	  0.350	 -9.586	  0.006	  0.003	 -0.020	 29.600	 99.449	  1.413
23501	  0.195	 -0.146	  0.173	  0.105	  0.333	 -9.445	  0.004	 -0.005	  0.011	 29.600	 99.465	 -0.060
23551	  0.196	 -0.156	  0.177	  0.058	  0.176	 -9.477	  0.002	 -0.001	  0.010	 29.600	 99.461	  0.308
23601	  0.194	 -0.150	  0.172	  0.077	  0.228	 -9.508	  0.002	  0.001	  0.011	 29.600	 99.461	  0.308
23651	  0.199	 -0.146	  0.180	  0.081	  0.181	 -9.511	  0.001	 -0.003	  0.013	 29.600	 99.469	 -0.429
23701	  0.195	 -0.145	  0.176	  0.103	  0.133	 -9.517	  0.000	 -0.004	  0.014	 29.700	 99.461	  0.308
23751	  0.196	 -0.142	  0.175	 -0.119	  0.568	 -9.311	  0.007	 -0.006	  0.015	 29.700	 99.465	 -0.060
23801	  0.195	 -0.144	  0.169	  0.171	  0.250	 -9.447	  0.004	 -0.004	  0.013	 29.600	 99.473	 -0.797
23851	  0.194	 -0.143	  0.174	 -0.414	  0.301	 -9.643	 -0.013	  0.064	  0.117	 29.600	 99.473	 -0.797
23901	  0.188	 -0.155	  0.170	 -0.417	  0.565	 -9.666	 -0.058	  0.231	  0.353	 29.600	 99.461	  0.308
23951	  0.183	 -0.171	  0.176	  0.791	  0.915	 -8.615	 -0.002	 -0.179	  0.570	 29.700	 99.453	  1.045
24001	  0.182	 -0.178	  0.172	  0.095	  0.613	 -9.316	  0.004	 -0.049	  0.713	 29.700	 99.465	 -0.060
24051	  0.177	 -0.207	  0.162	  0.439	  0.261	 -9.281	  0.052	 -0.222	  0.690	 29.600	 99.461	  0.308
24101	  0.174	 -0.222	  0.156	  0.749	 -0.144	 -9.042	  0.009	 -0.001	  0.624	 29.600	 99.461	  0.308
24151	  0.173	 -0.231	  0.153	  0.598	 -0.409	 -9.441	  0.006	 -0.015	  0.289	 29.700	 99.477	 -1.165
24201	  0.167	 -0.240	  0.151	 -0.375	  0.419	 -9.620	 -0.010	  0.047	  0.218	 29.600	 99.461	  0.308
24251	  0.163	 -0.242	  0.151	 -0.512	  0.611	 -9.648	 -0.045	  0.181	  0.392	 29.600	 99.461	  0.308
24301	  0.153	 -0.265	  0.155	  0.324	  0.987	 -9.261	 -0.016	  0.126	  0.788	 29.600	 99.461	  0.308
24351	  0.146	 -0.285	  0.139	 -0.015	 -0.123	 -9.620	  0.012	 -0.153	  1.096	 29.700	 99.461	  0.308
24401	  0.136	 -0.310	  0.139	  1.396	 -1.264	 -9.304	  0.063	 -0.275	  0.567	 29.600	 99.461	  0.308
24451	  0.136	 -0.308	  0.127	  0.279	  0.148	 -9.449	 -0.016	  0.052	  0.011	 29.600	 99.461	  0.308
24501	  0.139	 -0.310	  0.134	 -1.865	  0.552	 -9.495	  0.006	  0.015	  0.000	 29.700	 99.477	 -1.165
24551	  0.141	 -0.308	  0.137	  0.300	  0.160	 -9.472	  0.001	  0.019	  0.008	 29.600	 99.461	  0.308
24601	  0.141	 -0.312	  0.134	 -0.056	  0.192	 -9.476	  0.004	 -0.009	  0.008	 29.600	 99.477	 -1.165
24651	  0.134	 -0.307	  0.139	  0.316	 -0.086	 -9.553	  0.001	 -0.016	  0.013	 29.600	 99.473	 -0.797
24701	  0.135	 -0.307	  0.131	 -0.116	  0.212	 -9.503	  0.002	 -0.001	  0.011	 29.600	 99.473	 -0.797
24751	  0.141	 -0.297	  0.137	 -0.713	  0.171	 -9.431	  0.001	  0.101	 -0.100	 29.700	 99.465	 -0.060
24801	  0.139	 -0.306	  0.127	 -0.504	  0.314	 -9.560	  0.003	 -0.028	  0.212	 29.700	 99.465	 -0.060
24851	  0.131	 -0.321	  0.135	 -0.667	  0.356	 -9.580	  0.009	 -0.003	  0.376	 29.700	 99.465	 -0.060
24901	  0.124	 -0.321	  0.128	 -0.029	  0.285	 -9.443	  0.007	 -0.004	  0.227	 29.700	 99.461	  0.308
24951	  0.124	 -0.329	  0.133	  0.162	  0.216	 -9.465	  0.005	 -0.005	  0.260	 29.700	 99.477	 -1.165
25001	  0.119	 -0.336	  0.135	  0.034	 -0.132	 -9.480	  0.004	 -0.001	  0.067	 29.600	 99.461	  0.308
25051	  0.142	 -0.333	  0.143	  2.284	 -1.758	 -9.400	 -0.015	  0.133	 -0.495	 29.600	 99.473	 -0.797
25101	  0.139	 -0.329	  0.125	  1.004	 -0.137	 -9.515	 -0.005	  0.046	 -1.240	 29.600	 99.461	  0.308
25153	  0.146	 -0.294	  0.137	 -0.681	  1.343	 -9.036	 -0.004	  0.028	 -0.860	 29.700	 99.477	 -1.165
25202	  0.144	 -0.290	  0.142	 -1.614	  1.166	 -9.482	  0.003	 -0.007	 -0.126	 29.600	 99.477	 -1.165
25252	  0.144	 -0.284	  0.143	 -0.094	  0.193	 -9.591	  0.002	 -0.001	  0.012	 29.700	 99.465	 -0.060
25302	  0.146	 -0.288	  0.142	 -0.031	  0.202	 -9.458	  0.004	 -0.001	  0.014	 29.700	 99.461	  0.308
25352	  0.144	 -0.283	  0.134	  0.146	  0.247	 -9.619	  0.003	 -0.004	  0.086	 29.600	 99.461	  0.308
25402	  0.143	 -0.275	  0.140	 -0.015	  0.158	 -9.512	  0.003	 -0.000	  0.080	 29.600	 99.473	 -0.797
25451	  0.147	 -0.284	  0.131	  0.053	  0.201	 -9.497	  0.003	 -0.001	  0.011	 29.700	 99.465	 -0.060
25502	  0.144	 -0.285	  0.135	  0.047	  0.175	 -9.528	  0.003	 -0.002	  0.010	 29.600	 99.465	 -0.060
25552	  0.144	 -0.282	  0.130	  0.069	  0.177	 -9.472	  0.003	 -0.000	  0.011	 29.700	 99.465	 -0.060
25602	  0.144	 -0.285	  0.137	 -0.103	 -0.018	 -9.618	  0.002	  0.001	  0.015	 29.600	 99.461	  0.308
25652	  0.144	 -0.269	  0.139	  0.093	  0.174	 -9.503	  0.003	 -0.006	  0.012	 29.700	 99.453	  1.045
25702	  0.142	 -0.285	  0.138	  0.053	  0.132	 -9.463	  0.002	 -0.005	  0.020	 29.600	 99.465	 -0.060
25752	  0.146	 -0.287	  0.134	 -0.157	  0.172	 -9.539	  0.002	  0.007	  0.009	 29.700	 99.465	 -0.060
25802	  0.144	 -0.283	  0.135	  0.168	  0.153	 -9.477	  0.002	  0.004	  0.011	 29.600	 99.473	 -0.797
25852	  0.144	 -0.288	  0.138	  0.061	  0.202	 -9.476	  0.002	 -0.010	  0.010	 29.600	 99.461	  0.308
25902	  0.143	 -0.282	  0.136	 -0.731	  0.349	 -9.535	  0.005	 -0.038	 -0.113	 29.700	 99.461	  0.308
25952	  0.146	 -0.284	  0.141	  0.679	  0.474	 -9.097	 -0.001	 -0.007	 -0.052	 29.600	 99.461	  0.308
26002	  0.142	 -0.277	  0.132	 -1.286	  1.250	 -9.614	 -0.002	  0.015	  0.231	 29.600	 99.461	  0.308
26052	  0.137	 -0.290	  0.140	 -0.053	  0.273	 -13.291	 -0.030	  0.796	  0.241	 29.700	 99.465	 -0.060
26102	  0.111	 -0.278	  0.157	  3.375	 -0.280	 -17.733	 -0.260	  1.142	 -0.155	 29.700	 99.461	  0.308
26152	  0.069	 -0.280	  0.162	  2.419	  0.548	 -13.655	 -1.091	  0.494	 -0.138	 29.600	 99.461	  0.308
26202	  0.037	 -0.286	  0.138	  1.143	  0.965	 -5.786	 -1.681	 -0.757	  0.176	 29.600	 99.465	 -0.060
26252	  0.022	 -0.292	  0.093	 -1.956	  1.261	  1.472	 -0.961	 -1.756	  1.049	 29.700	 99.465	 -0.060
26302	  0.025	 -0.308	  0.060	 -0.865	 -0.519	  1.490	  0.541	 -1.603	  0.996	 29.600	 99.449	  1.413
26352	  0.046	 -0.320	  0.049	 -0.080	  0.559	 -4.360	  1.428	 -0.344	 -0.241	 29.600	 99.461	  0.308
26402	  0.073	 -0.301	  0.086	  0.221	  0.570	 -11.926	  2.025	  0.929	 -0.653	 29.700	 99.449	  1.413
26452	  0.093	 -0.279	  0.147	 -0.319	 -0.096	 -17.050	  1.886	  1.302	 -0.098	 29.600	 99.449	  1.413
26502	  0.085	 -0.263	  0.174	  1.580	 -1.668	 -18.649	  0.274	  0.235	  0.192	 29.700	 99.465	 -0.060
26552	  0.075	 -0.267	  0.150	  1.549	 -1.760	 -15.051	 -1.424	 -0.625	  0.109	 29.700	 99.465	 -0.060
26602	  0.059	 -0.286	  0.124	  1.199	 -0.129	 -9.772	 -1.669	 -0.482	  0.023	 29.700	 99.465	 -0.060
26652	  0.042	 -0.287	  0.093	  0.336	  0.511	 -4.932	 -0.718	 -0.310	  0.061	 29.700	 99.453	  1.045
26702	  0.030	 -0.283	  0.097	 -1.011	  0.310	  0.123	  0.104	 -0.214	  0.121	 29.700	 99.465	 -0.060
26752	  0.036	 -0.276	  0.100	 -1.695	 -0.195	 -0.237	  0.812	 -0.128	  0.055	 29.700	 99.453	  1.045
26802	  0.055	 -0.273	  0.117	  0.069	 -0.619	 -6.773	  0.875	  0.463	 -0.192	 29.600	 99.465	 -0.060
26852	  0.071	 -0.278	  0.147	 -0.095	 -0.423	 -14.467	  0.913	  1.137	 -0.205	 29.600	 99.473	 -0.797
26902	  0.065	 -0.279	  0.195	  1.121	 -0.337	 -19.786	  0.720	  1.568	  0.223	 29.700	 99.465	 -0.060
26952	  0.034	 -0.272	  0.216	  2.519	 -1.090	 -20.279	 -0.408	  0.702	  0.045	 29.600	 99.473	 -0.797
27002	  0.014	 -0.281	  0.194	  2.777	 -0.624	 -13.370	 -1.458	 -1.083	  0.108	 29.600	 99.461	  0.308
27052	  0.014	 -0.289	  0.125	  1.516	 -0.232	 -7.458	 -1.702	 -2.117	  0.202	 29.700	 99.465	 -0.060
27102	  0.019	 -0.291	  0.072	  0.511	  0.231	 -1.801	 -0.930	 -1.926	 -0.029	 29.600	 99.461	  0.308
27152	  0.030	 -0.291	  0.059	 -0.632	  0.345	  1.480	  0.266	 -0.994	 -0.164	 29.600	 99.461	  0.308
27202	  0.042	 -0.276	  0.060	 -0.957	  0.102	  0.428	  1.146	  0.570	 -0.280	 29.600	 99.465	 -0.060
27252	  0.049	 -0.266	  0.099	 -0.335	 -0.966	 -6.241	  1.083	  1.940	 -0.396	 29.600	 99.461	  0.308
27302	  0.053	 -0.271	  0.156	  0.271	  0.543	 -13.514	  1.310	  2.043	 -0.143	 29.600	 99.453	  1.045
27352	  0.045	 -0.269	  0.217	  1.876	  0.112	 -20.872	  0.966	  1.507	 -0.004	 29.600	 99.473	 -0.797
27402	  0.030	 -0.255	  0.238	  3.812	 -0.949	 -21.675	 -0.283	  0.019	 -0.052	 29.700	 99.473	 -0.797
27452	  0.028	 -0.269	  0.190	  2.385	 -0.805	 -16.314	 -1.755	 -1.422	  0.158	 29.600	 99.461	  0.308
27502	  0.018	 -0.289	  0.131	  1.711	 -0.655	 -8.805	 -2.183	 -1.850	  0.217	 29.600	 99.465	 -0.060
27552	  0.013	 -0.298	  0.081	  0.385	 -0.178	 -3.717	 -1.574	 -1.184	  0.028	 29.700	 99.465	 -0.060
27602	  0.005	 -0.293	  0.058	 -0.243	  0.248	  0.377	 -0.574	 -0.142	 -0.187	 29.700	 99.461	  0.308
27652	  0.005	 -0.286	  0.068	 -1.220	  0.521	  1.439	  0.234	  0.645	 -0.160	 29.700	 99.453	  1.045
27702	  0.004	 -0.285	  0.090	 -1.300	  1.292	 -1.545	  1.055	  1.114	  0.168	 29.700	 99.465	 -0.060
27752	  0.009	 -0.285	  0.129	  0.688	  1.457	 -9.523	  2.109	  1.253	  0.410	 29.600	 99.461	  0.308
27802	  0.017	 -0.277	  0.186	  3.116	 -0.269	 -18.217	  2.532	  0.961	 -0.018	 29.700	 99.473	 -0.797
27852	  0.024	 -0.236	  0.220	  3.637	 -2.500	 -23.455	  1.041	 -0.106	 -0.727	 29.700	 99.465	 -0.060
27902	  0.033	 -0.219	  0.208	  1.425	 -2.042	 -18.604	 -1.022	 -0.842	 -0.425	 29.600	 99.465	 -0.060
27952	  0.025	 -0.213	  0.156	  1.189	 -0.659	 -11.856	 -2.387	 -1.241	 -0.202	 29.600	 99.461	  0.308
28002	  0.014	 -0.249	  0.114	  0.953	 -0.276	 -6.684	 -2.363	 -0.902	  0.085	 29.600	 99.461	  0.308
28052	  0.001	 -0.258	  0.082	  0.259	 -0.026	 -1.794	 -1.467	 -0.596	  0.067	 29.700	 99.465	 -0.060
28101	 -0.004	 -0.270	  0.070	 -1.881	  0.304	  2.249	 -0.446	  0.056	 -0.268	 29.600	 99.461	  0.308
28151	  0.003	 -0.251	  0.080	 -2.509	  1.236	  1.715	  0.851	  0.710	  0.060	 29.700	 99.465	 -0.060
28201	  0.007	 -0.259	  0.111	 -1.055	  0.143	 -3.789	  1.590	  1.438	  0.220	 29.600	 99.465	 -0.060
28251	  0.014	 -0.254	  0.155	  2.003	  0.996	 -11.279	  2.058	  1.290	  0.312	 29.700	 99.465	 -0.060
28301	  0.026	 -0.229	  0.213	  2.784	 -0.425	 -19.845	  2.126	  0.535	  0.173	 29.600	 99.465	 -0.060
28351	  0.043	 -0.217	  0.235	  3.097	 -2.195	 -24.328	  0.675	 -0.325	 -0.057	 29.600	 99.473	 -0.797
28401	  0.040	 -0.210	  0.208	  2.069	 -1.372	 -18.468	 -1.584	 -0.943	 -0.103	 29.700	 99.477	 -1.165
28451	  0.033	 -0.240	  0.156	  2.383	 -0.650	 -8.880	 -2.424	 -1.394	 -0.168	 29.700	 99.465	 -0.060
28501	  0.036	 -0.257	  0.094	  0.780	  0.358	 -1.006	 -1.565	 -1.586	 -0.329	 29.700	 99.477	 -1.165
28552	  0.048	 -0.253	  0.073	 -0.156	  0.524	  1.628	  0.291	 -1.396	 -0.154	 29.700	 99.477	 -1.165
28601	  0.066	 -0.239	  0.063	 -0.438	 -0.205	 -2.506	  1.280	 -0.357	  0.077	 29.600	 99.465	 -0.060
28651	  0.073	 -0.233	  0.084	 -0.195	  0.460	 -9.034	  1.407	  1.366	 -0.256	 29.700	 99.477	 -1.165
28701	  0.067	 -0.204	  0.156	 -1.443	  0.615	 -13.604	  1.044	  2.326	 -0.625	 29.600	 99.453	  1.045
28751	  0.054	 -0.194	  0.207	 -1.153	  0.960	 -13.967	  0.672	  0.950	  0.005	 29.600	 99.461	  0.308
28801	  0.051	 -0.197	  0.211	 -2.239	  0.179	 -14.553	  0.049	 -0.164	  0.770	 29.700	 99.465	 -0.060
28851	  0.051	 -0.216	  0.194	 -0.615	 -0.912	 -12.788	 -0.564	 -0.461	  0.811	 29.700	 99.453	  1.045
28901	  0.055	 -0.239	  0.165	  2.750	 -1.940	 -11.691	 -0.827	 -0.875	 -0.119	 29.600	 99.453	  1.045
28951	  0.065	 -0.243	  0.119	  7.126	 -2.691	 -7.457	 -0.965	 -2.080	 -0.370	 29.700	 99.453	  1.045
29001	  0.099	 -0.228	  0.054	  4.794	 -1.771	 -5.383	 -0.502	 -2.399	 -0.787	 29.700	 99.465	 -0.060
29051	  0.118	 -0.211	  0.052	 -4.107	  0.729	 -4.667	  0.669	  0.717	 -0.562	 29.700	 99.465	 -0.060
29101	  0.083	 -0.190	  0.155	 -12.992	  3.088	 -8.928	  2.309	  5.002	  0.338	 29.700	 99.473	 -0.797
29151	 -0.006	 -0.148	  0.264	 -5.910	  0.702	 -15.232	  0.591	  3.722	 -0.385	 29.700	 99.453	  1.045
29201	 -0.003	 -0.183	  0.258	  2.221	  1.990	 -9.220	 -2.284	 -2.279	  0.691	 29.700	 99.461	  0.308
29251	  0.053	 -0.243	  0.145	  4.979	 -2.727	 -6.425	 -1.160	 -3.668	  0.928	 29.700	 99.465	 -0.060
29301	  0.091	 -0.268	  0.066	  5.857	 -5.347	 -10.868	  0.211	 -2.277	  0.012	 29.700	 99.465	 -0.060
29351	  0.107	 -0.252	  0.050	  0.623	 -1.266	 -9.193	  0.741	  0.613	 -0.691	 29.600	 99.465	 -0.060
29401	  0.086	 -0.225	  0.131	 -5.182	  3.158	 -9.713	  2.024	  3.026	 -0.338	 29.700	 99.477	 -1.165
29451	  0.040	 -0.182	  0.217	 -4.438	  3.767	 -11.847	  0.852	  1.634	 -0.214	 29.700	 99.465	 -0.060
29501	  0.049	 -0.199	  0.212	 -2.437	  1.744	 -10.771	 -1.103	 -1.357	  0.531	 29.700	 99.465	 -0.060
29551	  0.083	 -0.239	  0.129	  4.572	 -3.615	 -10.575	 -1.730	 -2.018	  0.532	 29.700	 99.453	  1.045
29601	  0.095	 -0.259	  0.071	  3.754	 -3.995	 -9.520	 -1.451	 -0.632	 -0.179	 29.700	 99.465	 -0.060
29651	  0.094	 -0.269	  0.075	 -1.235	 -0.071	 -5.589	  0.536	  1.125	 -0.172	 29.600	 99.449	  1.413
29701	  0.077	 -0.255	  0.127	 -1.399	  0.770	 -8.820	  1.588	  2.023	 -0.459	 29.700	 99.453	  1.045
29751	  0.057	 -0.211	  0.188	  0.316	 -0.492	 -11.680	  0.916	  0.870	 -0.252	 29.600	 99.465	 -0.060
29801	  0.058	 -0.222	  0.187	  0.508	 -1.240	 -11.130	 -0.654	 -0.569	  0.053	 29.700	 99.465	 -0.060
29851	  0.068	 -0.243	  0.171	  0.242	 -0.007	 -9.447	 -0.815	 -0.807	 -0.122	 29.600	 99.461	  0.308
29901	  0.078	 -0.235	  0.151	  0.118	  0.624	 -8.862	  0.123	 -0.370	 -0.523	 29.600	 99.449	  1.413
29951	  0.085	 -0.225	  0.151	 -0.621	  0.900	 -9.227	  0.500	 -0.356	 -0.078	 29.600	 99.465	 -0.060
30001	  0.098	 -0.215	  0.147	 -0.190	 -0.326	 -8.788	  1.213	 -0.412	 -0.072	 29.600	 99.461	  0.308
30051	  0.104	 -0.192	  0.156	 -0.159	 -0.587	 -9.901	  1.232	 -0.074	  0.038	 29.600	 99.461	  0.308
30101	  0.100	 -0.177	  0.169	 -0.177	 -1.641	 -9.760	  0.424	  0.565	  0.171	 29.700	 99.465	 -0.060
30151	  0.082	 -0.178	  0.190	 -0.256	 -1.307	 -9.183	  0.185	  0.581	  0.535	 29.600	 99.461	  0.308
30201	  0.070	 -0.183	  0.199	 -0.476	 -2.265	 -9.556	  0.418	  0.344	  0.867	 29.600	 99.461	  0.308
30251	  0.055	 -0.202	  0.208	  0.762	 -2.872	 -8.902	  0.127	  0.417	  0.719	 29.600	 99.461	  0.308
30301	  0.043	 -0.207	  0.217	  1.737	 -2.137	 -9.089	 -0.006	  0.142	  0.186	 29.700	 99.477	 -1.165
30351	  0.048	 -0.208	  0.213	  0.720	 -1.234	 -8.389	 -0.160	 -0.292	 -0.143	 29.700	 99.477	 -1.165
30401	  0.052	 -0.213	  0.216	 -0.286	 -1.501	 -9.539	  0.170	 -0.464	  0.020	 29.700	 99.465	 -0.060
30451	  0.058	 -0.203	  0.208	 -2.427	 -0.884	 -10.731	  0.023	  0.313	 -0.344	 29.700	 99.465	 -0.060
30501	  0.051	 -0.205	  0.216	 -1.364	 -2.204	 -12.432	 -0.306	  0.827	 -0.274	 29.600	 99.461	  0.308
30551	  0.039	 -0.203	  0.212	  0.932	 -2.876	 -13.123	 -0.979	 -0.078	  0.006	 29.700	 99.461	  0.308
30601	  0.041	 -0.236	  0.167	  1.822	 -2.183	 -11.604	 -1.399	 -1.023	  0.141	 29.700	 99.465	 -0.060
30651	  0.039	 -0.229	  0.136	  2.412	 -0.889	 -10.110	 -0.928	 -0.985	 -0.180	 29.700	 99.465	 -0.060
30701	  0.043	 -0.230	  0.112	  1.838	  0.271	 -8.374	  0.389	 -0.679	 -0.783	 29.700	 99.465	 -0.060
30751	  0.049	 -0.190	  0.114	  2.321	 -0.914	 -4.198	  0.714	 -1.321	  0.000	 29.700	 99.453	  1.045
30801	  0.067	 -0.182	  0.087	 -1.080	  0.081	  1.710	 -0.092	 -2.043	  0.064	 29.700	 99.465	 -0.060
30851	  0.097	 -0.186	  0.070	 -4.155	 -0.032	  0.753	 -0.086	 -0.113	 -0.232	 29.600	 99.461	  0.308
30901	  0.110	 -0.181	  0.095	 -5.307	  0.246	 -5.347	  2.029	  2.357	 -0.792	 29.700	 99.461	  0.308
30951	  0.107	 -0.098	  0.189	 -3.448	 -7.343	 -24.225	  3.689	  2.460	 -1.257	 29.700	 99.477	 -1.165
31002	  0.105	 -0.074	  0.186	  0.481	 -9.602	 -29.048	 -1.134	 -1.874	  0.817	 29.700	 99.477	 -1.165
31051	  0.112	 -0.147	  0.102	  1.827	 -4.784	 -10.047	 -3.843	 -2.822	  1.804	 29.700	 99.453	  1.045
31102	  0.098	 -0.208	  0.020	  3.446	 -1.379	  6.320	 -2.268	 -1.964	  1.033	 29.700	 99.461	  0.308
31152	  0.103	 -0.219	  0.005	  1.401	  0.750	  7.967	  0.982	 -0.548	 -0.495	 29.700	 99.465	 -0.060
31202	  0.122	 -0.200	  0.020	 -2.962	  0.548	 -3.411	  1.586	  2.050	 -0.895	 29.700	 99.465	 -0.060
31252	  0.117	 -0.173	  0.112	 -3.318	 -3.169	 -19.241	  1.404	  4.747	 -1.112	 29.600	 99.461	  0.308
31302	  0.071	 -0.145	  0.213	 -0.943	 -5.050	 -31.525	 -0.236	  2.106	 -0.291	 29.700	 99.477	 -1.165
31352	  0.063	 -0.191	  0.165	  2.160	 -3.335	 -14.640	 -2.789	 -3.153	  1.178	 29.700	 99.465	 -0.060
31401	  0.079	 -0.224	  0.066	  1.374	 -1.211	  2.289	 -1.398	 -3.463	  0.737	 29.700	 99.465	 -0.060
31452	  0.087	 -0.229	  0.034	 -0.800	  0.572	  0.399	  0.495	  0.202	 -0.459	 29.700	 99.449	  1.413
31502	  0.082	 -0.214	  0.059	 -2.693	  0.825	 -5.399	  0.367	  1.686	 -0.506	 29.700	 99.453	  1.045
31552	  0.074	 -0.205	  0.103	 -0.765	 -0.334	 -9.392	  0.166	  1.757	  0.140	 29.700	 99.465	 -0.060
31602	  0.064	 -0.221	  0.134	  0.163	 -0.624	 -12.955	  0.267	  0.827	 -0.033	 29.700	 99.477	 -1.165
31652	  0.061	 -0.220	  0.142	 -0.236	 -0.576	 -12.210	  0.033	 -0.224	 -0.059	 29.700	 99.465	 -0.060
31702	  0.072	 -0.222	  0.137	 -0.984	 -0.770	 -10.824	 -0.204	 -0.398	 -0.093	 29.700	 99.465	 -0.060
31752	  0.073	 -0.219	  0.123	 -0.776	 -0.693	 -9.439	 -0.171	 -0.058	 -0.046	 29.600	 99.461	  0.308
31802	  0.069	 -0.220	  0.128	 -0.904	 -0.502	 -9.249	 -0.224	 -0.016	 -0.008	 29.600	 99.465	 -0.060
31852	  0.069	 -0.220	  0.119	 -0.561	 -0.317	 -9.080	 -0.160	  0.026	  0.062	 29.600	 99.473	 -0.797
31902	  0.067	 -0.230	  0.126	 -0.584	 -0.053	 -8.983	 -0.056	  0.113	 -0.007	 29.700	 99.465	 -0.060
31952	  0.068	 -0.225	  0.130	 -0.655	 -0.017	 -9.317	 -0.050	  0.098	 -0.024	 29.700	 99.465	 -0.060
32002	  0.068	 -0.231	  0.118	 -0.840	  0.062	 -9.354	 -0.033	  0.091	 -0.006	 29.600	 99.477	 -1.165
32052	  0.068	 -0.230	  0.131	 -0.420	 -0.171	 -9.593	  0.005	  0.116	  0.012	 29.700	 99.465	 -0.060
32102	  0.067	 -0.230	  0.133	 -0.328	 -0.274	 -9.728	  0.000	  0.069	 -0.013	 29.600	 99.449	  1.413
32152	  0.063	 -0.228	  0.135	 -0.604	 -0.055	 -9.235	  0.001	  0.040	 -0.019	 29.700	 99.465	 -0.060
32202	  0.067	 -0.230	  0.129	 -0.727	 -0.167	 -9.371	  0.079	  0.066	 -0.018	 29.700	 99.465	 -0.060
32252	  0.063	 -0.216	  0.139	 -0.749	 -0.334	 -9.536	  0.059	  0.134	 -0.039	 29.700	 99.465	 -0.060
32302	  0.068	 -0.224	  0.145	 -0.482	 -0.337	 -9.589	 -0.035	  0.145	 -0.040	 29.700	 99.453	  1.045
32352	  0.063	 -0.220	  0.144	 -0.354	 -0.220	 -9.465	 -0.039	  0.069	  0.010	 29.600	 99.461	  0.308
32402	  0.062	 -0.220	  0.142	 -0.374	 -0.159	 -9.363	 -0.013	  0.025	  0.046	 29.700	 99.453	  1.045
32452	  0.060	 -0.229	  0.147	 -0.240	 -0.247	 -9.426	 -0.006	  0.076	  0.041	 29.600	 99.461	  0.308
32502	  0.061	 -0.229	  0.140	 -0.220	 -0.218	 -9.517	 -0.025	  0.104	  0.031	 29.700	 99.465	 -0.060
32552	  0.062	 -0.219	  0.147	 -0.169	 -0.146	 -9.496	 -0.045	  0.093	  0.017	 29.700	 99.465	 -0.060
32602	  0.062	 -0.236	  0.150	 -0.146	 -0.139	 -9.464	  0.002	  0.050	  0.024	 29.700	 99.449	  1.413
32652	  0.061	 -0.228	  0.151	 -0.069	 -0.163	 -9.575	  0.019	 -0.018	  0.017	 29.700	 99.465	 -0.060
32702	  0.062	 -0.221	  0.152	 -0.152	 -0.172	 -9.618	  0.029	 -0.033	  0.034	 29.700	 99.465	 -0.060
32752	  0.062	 -0.235	  0.146	 -0.182	 -0.212	 -9.585	 -0.012	  0.003	  0.018	 29.700	 99.465	 -0.060
32802	  0.064	 -0.239	  0.147	 -0.206	 -0.244	 -9.487	 -0.040	  0.026	  0.011	 29.700	 99.465	 -0.060
32852	  0.062	 -0.240	  0.150	 -0.161	 -0.127	 -9.469	 -0.020	  0.041	  0.010	 29.700	 99.453	  1.045
32902	  0.065	 -0.233	  0.149	 -0.132	 -0.145	 -9.471	 -0.026	  0.005	  0.018	 29.700	 99.465	 -0.060
32952	  0.066	 -0.238	  0.144	 -0.159	 -0.190	 -9.311	 -0.013	  0.000	  0.034	 29.700	 99.465	 -0.060
33002	  0.061	 -0.243	  0.149	 -0.135	 -0.191	 -9.098	  0.005	 -0.030	  0.054	 29.700	 99.477	 -1.165
33052	  0.062	 -0.236	  0.145	 -0.157	 -0.090	 -8.885	 -0.040	 -0.085	  0.069	 29.700	 99.465	 -0.060
33102	  0.067	 -0.245	  0.142	 -0.079	  0.039	 -8.674	 -0.090	 -0.105	  0.107	 29.700	 99.465	 -0.060
33152	  0.071	 -0.249	  0.140	 -0.268	  0.162	 -8.885	 -0.076	  0.004	  0.100	 29.700	 99.465	 -0.060
33202	  0.078	 -0.262	  0.146	 -0.024	  0.072	 -9.204	 -0.074	 -0.042	  0.149	 29.700	 99.461	  0.308
33252	  0.076	 -0.276	  0.138	 -0.216	  0.009	 -9.503	 -0.224	 -0.017	  0.147	 29.700	 99.465	 -0.060
33302	  0.082	 -0.284	  0.130	 -0.159	  0.161	 -9.301	 -0.245	 -0.080	  0.203	 29.700	 99.465	 -0.060
33352	  0.087	 -0.296	  0.137	 -0.284	  0.123	 -9.489	 -0.035	 -0.073	  0.229	 29.700	 99.453	  1.045
33402	  0.092	 -0.301	  0.134	 -0.538	  0.243	 -10.064	  0.086	 -0.096	  0.159	 29.700	 99.465	 -0.060
33452	  0.093	 -0.306	  0.138	 -0.529	  0.204	 -9.761	  0.061	 -0.062	  0.148	 29.700	 99.465	 -0.060
33502	  0.098	 -0.308	  0.139	 -0.292	  0.175	 -9.874	 -0.014	 -0.143	  0.134	 29.700	 99.465	 -0.060
33552	  0.102	 -0.315	  0.133	 -0.605	  0.302	 -9.772	 -0.019	 -0.116	  0.100	 29.700	 99.453	  1.045
33602	  0.109	 -0.322	  0.132	 -0.562	  0.175	 -9.872	  0.022	  0.031	  0.099	 29.700	 99.461	  0.308
33652	  0.106	 -0.326	  0.136	 -0.526	  0.188	 -9.717	  0.011	  0.129	  0.036	 29.700	 99.465	 -0.060
33702	  0.106	 -0.320	  0.144	 -0.321	  0.299	 -9.553	  0.014	  0.080	  0.022	 29.700	 99.453	  1.045
33752	  0.110	 -0.330	  0.146	 -0.304	  0.292	 -9.481	  0.039	  0.037	  0.002	 29.700	 99.465	 -0.060
33802	  0.108	 -0.311	  0.147	 -0.297	  0.226	 -9.356	  0.073	 -0.044	 -0.005	 29.700	 99.477	 -1.165
33852	  0.111	 -0.320	  0.147	 -2.422	  2.167	 -10.339	  0.342	  0.191	 -0.037	 29.700	 99.465	 -0.060
33902	  0.109	 -0.323	  0.155	 -0.617	  0.164	 -9.920	  0.116	  0.157	 -0.060	 29.700	 99.465	 -0.060
33952	  0.110	 -0.313	  0.160	 -0.368	  0.112	 -9.412	  0.016	  0.053	 -0.054	 29.700	 99.465	 -0.060
34002	  0.107	 -0.317	  0.160	 -0.258	  0.135	 -9.050	  0.137	  0.168	 -0.006	 29.700	 99.465	 -0.060
34052	  0.104	 -0.317	  0.169	  0.009	 -0.022	 -11.022	 -0.127	  0.322	  0.063	 29.700	 99.465	 -0.060
34102	  0.101	 -0.301	  0.172	 -0.251	 -0.083	 -9.544	  0.004	  0.009	  0.064	 29.700	 99.465	 -0.060
34152	  0.103	 -0.320	  0.169	 -0.075	 -0.030	 -9.555	  0.002	 -0.039	  0.064	 29.600	 99.449	  1.413
34202	  0.101	 -0.315	  0.172	 -0.031	 -0.072	 -9.470	  0.004	 -0.007	  0.009	 29.700	 99.465	 -0.060
34252	  0.101	 -0.316	  0.169	 -0.326	 -0.010	 -9.502	  0.009	  0.081	  0.008	 29.700	 99.477	 -1.165
34302	  0.103	 -0.319	  0.173	  0.208	 -0.078	 -9.483	  0.005	  0.012	  0.011	 29.700	 99.465	 -0.060
34352	  0.104	 -0.320	  0.160	 -0.274	 -0.054	 -9.499	  0.004	  0.000	  0.012	 29.700	 99.465	 -0.060
34402	  0.097	 -0.323	  0.173	 -0.017	 -0.034	 -9.502	  0.003	 -0.003	  0.012	 29.700	 99.453	  1.045
34452	  0.101	 -0.316	  0.171	 -0.010	 -0.014	 -9.455	  0.002	 -0.013	  0.009	 29.700	 99.465	 -0.060
34502	  0.105	 -0.320	  0.171	  0.003	 -0.080	 -9.495	  0.003	  0.002	  0.010	 29.700	 99.465	 -0.060
34552	  0.102	 -0.317	  0.164	 -0.097	 -0.034	 -9.510	  0.003	 -0.004	  0.011	 29.700	 99.465	 -0.060
34601	  0.103	 -0.321	  0.169	 -0.072	 -0.047	 -9.476	  0.001	  0.002	  0.012	 29.700	 99.465	 -0.060
34651	  0.105	 -0.318	  0.168	  0.000	 -0.060	 -9.445	  0.001	 -0.000	  0.011	 29.700	 99.477	 -1.165
34701	  0.103	 -0.320	  0.168	 -0.014	 -0.079	 -9.490	  0.002	  0.001	  0.011	 29.700	 99.461	  0.308
34751	  0.102	 -0.318	  0.172	 -0.008	 -0.056	 -9.483	  0.003	  0.000	  0.011	 29.700	 99.465	 -0.060
34801	  0.104	 -0.318	  0.172	 -0.034	 -0.046	 -9.490	  0.002	 -0.001	  0.011	 29.700	 99.465	 -0.060
34851	  0.104	 -0.302	  0.172	 -0.017	 -0.075	 -9.459	  0.001	 -0.001	  0.011	 29.700	 99.477	 -1.165
34901	  0.102	 -0.317	  0.171	 -0.065	 -0.034	 -9.498	  0.003	 -0.001	  0.011	 29.700	 99.465	 -0.060
34951	  0.100	 -0.322	  0.171	  0.036	 -0.062	 -9.477	  0.002	 -0.028	  0.012	 29.700	 99.465	 -0.060
35001	  0.104	 -0.315	  0.167	 -0.263	 -0.022	 -9.492	  0.005	  0.035	  0.011	 29.600	 99.453	  1.045
35051	  0.101	 -0.323	  0.172	  0.674	 -0.174	 -9.420	  0.002	 -0.019	 -0.018	 29.700	 99.465	 -0.060
35101	  0.101	 -0.311	  0.165	 -0.109	  0.017	 -9.517	 -0.001	  0.001	 -0.128	 29.700	 99.453	  1.045
35151	  0.105	 -0.297	  0.173	  0.069	 -0.065	 -9.404	  0.001	 -0.003	  0.009	 29.700	 99.453	  1.045
35201	  0.106	 -0.309	  0.172	  0.135	 -0.212	 -9.511	 -0.001	  0.003	 -0.022	 29.700	 99.469	 -0.429
35251	  0.105	 -0.311	  0.169	 -0.103	 -0.062	 -9.511	 -0.006	  0.001	 -0.311	 29.700	 99.465	 -0.060
35301	  0.111	 -0.307	  0.172	 -0.129	 -0.188	 -9.480	 -0.002	  0.004	 -0.297	 29.700	 99.465	 -0.060
35351	  0.110	 -0.297	  0.173	  0.054	  0.031	 -9.474	 -0.003	  0.005	 -0.155	 29.700	 99.465	 -0.060
35401	  0.114	 -0.297	  0.173	 -0.055	 -0.051	 -9.495	 -0.004	  0.017	 -0.099	 29.600	 99.453	  1.045
35451	  0.116	 -0.289	  0.172	 -0.749	 -0.091	 -9.842	  0.004	 -0.027	 -0.025	 29.700	 99.477	 -1.165
35501	  0.114	 -0.289	  0.176	 -0.077	 -0.029	 -9.511	  0.003	 -0.000	  0.006	 29.600	 99.461	  0.308
35551	  0.116	 -0.278	  0.174	  0.027	 -0.104	 -9.495	  0.002	 -0.002	 -0.012	 29.700	 99.477	 -1.165
35601	  0.114	 -0.292	  0.176	 -0.057	 -0.023	 -9.495	  0.002	 -0.002	  0.011	 29.700	 99.465	 -0.060
35651	  0.114	 -0.287	  0.172	  0.032	 -0.035	 -9.511	  0.002	 -0.001	  0.007	 29.700	 99.465	 -0.060
35701	  0.118	 -0.295	  0.176	  0.071	  0.013	 -9.460	  0.005	  0.000	  0.010	 29.600	 99.453	  1.045
35751	  0.114	 -0.284	  0.174	  0.072	 -0.186	 -9.479	  0.000	 -0.001	 -0.075	 29.700	 99.477	 -1.165
35801	  0.118	 -0.274	  0.177	 -0.087	  0.018	 -9.445	  0.003	 -0.004	 -0.056	 29.700	 99.477	 -1.165
35851	  0.118	 -0.292	  0.175	  0.004	 -0.050	 -9.490	  0.001	  0.001	 -0.042	 29.700	 99.465	 -0.060
35901	  0.117	 -0.280	  0.172	 -0.053	 -0.014	 -9.460	  0.004	 -0.003	 -0.008	 29.700	 99.465	 -0.060
35951	  0.119	 -0.274	  0.173	  0.040	 -0.115	 -9.472	  0.002	  0.003	 -0.052	 29.700	 99.477	 -1.165
36001	  0.119	 -0.288	  0.175	 -0.063	 -0.021	 -9.468	  0.003	 -0.000	 -0.033	 29.700	 99.453	  1.045
36051	  0.118	 -0.284	  0.176	 -0.107	 -0.004	 -9.516	 -0.006	  0.034	  0.013	 29.700	 99.465	 -0.060
36102	  0.122	 -0.288	  0.176	  0.133	  0.018	 -9.430	 -0.000	  0.005	  0.010	 29.600	 99.465	 -0.060
36152	  0.120	 -0.269	  0.174	 -0.143	 -0.077	 -9.580	  0.011	 -0.037	  0.012	 29.700	 99.465	 -0.060
36202	  0.120	 -0.284	  0.175	  0.010	 -0.073	 -9.468	 -0.014	  0.060	  0.011	 29.700	 99.465	 -0.060
36252	  0.120	 -0.288	  0.177	 -0.003	 -0.066	 -9.462	  0.006	 -0.018	  0.010	 29.700	 99.465	 -0.060
36301	  0.120	 -0.288	  0.173	  0.323	 -0.073	 -9.409	  0.028	 -0.101	 -0.011	 29.700	 99.465	 -0.060
36351	  0.117	 -0.285	  0.172	  0.066	  0.012	 -9.457	  0.003	 -0.002	  0.008	 29.700	 99.465	 -0.060
36402	  0.118	 -0.282	  0.170	 -0.052	 -0.030	 -9.506	  0.002	 -0.001	  0.011	 29.700	 99.465	 -0.060
36451	  0.120	 -0.270	  0.174	  0.107	 -0.146	 -9.625	 -0.000	 -0.019	  0.012	 29.700	 99.477	 -1.165
36501	  0.120	 -0.283	  0.172	 -0.001	 -0.054	 -9.499	  0.000	 -0.008	  0.013	 29.600	 99.465	 -0.060
36551	  0.120	 -0.279	  0.170	 -0.186	 -0.029	 -9.506	 -0.001	 -0.036	  0.016	 29.700	 99.453	  1.045
36601	  0.118	 -0.285	  0.171	  0.074	 -0.052	 -9.502	  0.004	  0.031	  0.017	 29.700	 99.465	 -0.060
36651	  0.119	 -0.284	  0.173	 -0.068	 -0.015	 -9.506	  0.003	 -0.005	  0.010	 29.700	 99.465	 -0.060
36701	  0.120	 -0.283	  0.172	 -0.071	 -0.027	 -9.452	  0.001	 -0.003	  0.009	 29.700	 99.465	 -0.060
36751	  0.119	 -0.271	  0.173	  0.098	 -0.025	 -9.455	  0.003	 -0.001	  0.001	 29.700	 99.477	 -1.165
36802	  0.118	 -0.285	  0.169	  0.006	 -0.114	 -9.487	  0.001	 -0.001	 -0.036	 29.600	 99.465	 -0.060
36852	  0.123	 -0.263	  0.174	 -0.082	 -0.004	 -9.495	  0.000	 -0.002	 -0.158	 29.700	 99.453	  1.045
36901	  0.125	 -0.265	  0.172	 -0.060	 -0.067	 -9.485	 -0.001	  0.006	 -0.272	 29.700	 99.477	 -1.165
36952	  0.126	 -0.269	  0.168	 -0.309	 -0.058	 -9.483	 -0.004	  0.007	 -0.281	 29.700	 99.465	 -0.060
37001	  0.130	 -0.273	  0.173	  0.241	 -0.289	 -9.492	  0.004	 -0.011	  0.067	 29.700	 99.469	 -0.429
37052	  0.131	 -0.254	  0.168	 -0.298	  0.091	 -9.513	  0.010	 -0.029	  0.070	 29.700	 99.465	 -0.060
37101	  0.126	 -0.271	  0.167	  0.069	 -0.115	 -9.465	  0.005	 -0.012	  0.044	 29.700	 99.465	 -0.060
37152	  0.127	 -0.265	  0.169	 -0.068	  0.010	 -9.504	  0.001	  0.005	  0.011	 29.700	 99.477	 -1.165
37202	  0.130	 -0.274	  0.168	 -0.140	 -0.076	 -9.497	  0.003	 -0.013	  0.045	 29.700	 99.465	 -0.060
37252	  0.126	 -0.271	  0.161	 -0.561	 -0.056	 -9.479	 -0.002	 -0.018	  0.158	 29.700	 99.465	 -0.060
37302	  0.127	 -0.265	  0.170	  0.386	  0.059	 -9.469	  0.012	 -0.040	  0.181	 29.700	 99.465	 -0.060
37352	  0.127	 -0.278	  0.159	 -0.165	 -0.036	 -9.496	  0.008	 -0.014	  0.011	 29.700	 99.465	 -0.060
37402	  0.126	 -0.284	  0.169	  0.002	 -0.024	 -9.500	  0.005	 -0.007	  0.011	 29.700	 99.465	 -0.060
37452	  0.129	 -0.275	  0.165	 -0.149	  0.013	 -9.502	  0.005	 -0.010	  0.017	 29.700	 99.465	 -0.060
37502	  0.127	 -0.278	  0.163	 -0.815	 -1.010	 -9.652	  0.042	 -0.036	  0.351	 29.600	 99.453	  1.045
37552	  0.119	 -0.294	  0.164	  1.278	  0.318	 -9.025	  0.058	 -0.058	  0.430	 29.600	 99.461	  0.308
37602	  0.116	 -0.293	  0.167	 -0.336	  0.131	 -9.299	 -0.017	  0.032	 -0.013	 29.700	 99.465	 -0.060
37652	  0.118	 -0.299	  0.168	 -0.945	 -0.307	 -9.580	 -0.012	  0.059	  0.011	 29.700	 99.465	 -0.060
37702	  0.112	 -0.302	  0.169	  1.511	  1.483	 -9.139	 -0.026	  0.430	 -0.004	 29.600	 99.453	  1.045
37752	  0.112	 -0.296	  0.171	 -0.688	  0.383	 -9.409	 -0.016	  0.172	  0.007	 29.700	 99.465	 -0.060
37802	  0.114	 -0.298	  0.172	 -1.276	 -0.068	 -9.479	  0.010	 -0.017	  0.011	 29.600	 99.465	 -0.060
37852	  0.110	 -0.301	  0.169	 -0.031	 -0.122	 -9.617	 -0.002	 -0.061	  0.005	 29.600	 99.449	  1.413
37902	  0.110	 -0.294	  0.168	 -0.174	 -0.096	 -9.585	  0.001	  0.019	  0.010	 29.700	 99.465	 -0.060
37952	  0.112	 -0.298	  0.176	 -0.180	 -0.159	 -9.555	 -0.006	 -0.048	  0.008	 29.700	 99.477	 -1.165
38002	  0.113	 -0.297	  0.173	 -0.137	 -0.129	 -9.503	  0.001	  0.020	  0.011	 29.700	 99.477	 -1.165
38052	  0.114	 -0.298	  0.175	 -0.176	 -0.109	 -9.524	  0.001	 -0.033	  0.011	 29.700	 99.465	 -0.060
38102	  0.113	 -0.298	  0.175	 -0.090	 -0.073	 -9.517	  0.005	  0.028	  0.010	 29.700	 99.453	  1.045
38152	  0.111	 -0.297	  0.172	 -0.181	 -0.106	 -9.496	  0.000	 -0.013	  0.010	 29.700	 99.465	 -0.060
38202	  0.112	 -0.297	  0.172	  0.737	 -0.143	 -9.406	  0.001	  0.008	  0.008	 29.700	 99.477	 -1.165
38252	  0.117	 -0.294	  0.168	 -0.159	 -0.111	 -9.508	  0.002	  0.011	  0.011	 29.700	 99.465	 -0.060
38302	  0.112	 -0.301	  0.172	 -0.112	  0.022	 -9.493	  0.003	 -0.011	  0.011	 29.700	 99.465	 -0.060
38352	  0.111	 -0.290	  0.166	  0.201	 -0.053	 -9.492	  0.003	 -0.022	  0.013	 29.700	 99.465	 -0.060
38402	  0.116	 -0.289	  0.172	 -0.073	 -0.008	 -9.475	  0.004	  0.021	  0.012	 29.700	 99.465	 -0.060
38452	  0.114	 -0.287	  0.170	 -0.204	  0.003	 -9.515	  0.004	  0.024	  0.010	 29.700	 99.465	 -0.060
38502	  0.112	 -0.298	  0.169	 -0.290	 -0.047	 -9.534	  0.000	 -0.006	  0.010	 29.700	 99.465	 -0.060
38552	  0.111	 -0.296	  0.165	  0.266	 -0.088	 -9.476	  0.003	  0.007	  0.010	 29.700	 99.453	  1.045
38602	  0.114	 -0.294	  0.167	 -0.056	 -0.049	 -9.502	  0.001	 -0.011	  0.011	 29.700	 99.465	 -0.060
38652	  0.114	 -0.292	  0.164	  0.266	 -0.031	 -9.404	  0.003	 -0.018	  0.012	 29.700	 99.465	 -0.060
38702	  0.114	 -0.297	  0.161	 -0.105	 -0.003	 -9.481	  0.002	  0.007	  0.011	 29.700	 99.465	 -0.060
38752	  0.113	 -0.293	  0.161	 -0.158	 -0.018	 -9.517	  0.001	  0.003	  0.009	 29.700	 99.453	  1.045
38802	  0.113	 -0.290	  0.158	 -0.117	  0.027	 -9.500	  0.015	 -0.118	 -0.126	 29.700	 99.477	 -1.165
38852	  0.118	 -0.289	  0.163	  0.031	 -1.085	 -10.531	  0.176	 -0.212	  0.001	 29.700	 99.477	 -1.165
38902	  0.113	 -0.282	  0.162	  0.003	 -1.339	 -11.544	  0.425	 -0.272	  0.203	 29.600	 99.465	 -0.060
38952	  0.105	 -0.284	  0.165	 -0.675	 -1.890	 -11.280	  0.161	 -0.091	  0.476	 29.700	 99.453	  1.045
39002	  0.077	 -0.291	  0.158	 -0.507	 -2.134	 -10.915	 -0.328	  0.207	  0.455	 29.600	 99.453	  1.045
39052	  0.053	 -0.300	  0.162	 -0.878	 -1.500	 -10.311	 -0.540	  0.373	  0.485	 29.700	 99.465	 -0.060
39102	  0.022	 -0.314	  0.161	 -0.658	 -0.982	 -9.811	 -0.485	  0.078	  0.835	 29.700	 99.453	  1.045
39152	 -0.009	 -0.330	  0.159	 -0.576	 -0.879	 -9.221	 -0.346	 -0.272	  1.190	 29.700	 99.453	  1.045
39202	 -0.037	 -0.348	  0.152	 -1.021	 -1.131	 -9.817	 -0.354	 -0.500	  1.395	 29.700	 99.465	 -0.060
39252	 -0.063	 -0.349	  0.163	 -0.884	 -0.863	 -9.043	 -0.302	 -0.352	  1.198	 29.700	 99.453	  1.045
39302	 -0.091	 -0.367	  0.162	 -0.784	 -0.779	 -9.207	 -0.231	 -0.318	  1.267	 29.700	 99.465	 -0.060
39352	 -0.116	 -0.381	  0.174	 -0.526	 -0.501	 -9.463	 -0.276	 -0.193	  1.131	 29.700	 99.465	 -0.060
39402	 -0.141	 -0.380	  0.174	 -0.213	  0.295	 -9.138	 -0.106	 -0.237	  1.212	 29.700	 99.469	 -0.429
39452	 -0.166	 -0.371	  0.188	 -1.052	  0.056	 -9.690	  0.013	  0.061	  1.308	 29.700	 99.465	 -0.060
39502	 -0.196	 -0.375	  0.201	 -1.093	 -0.458	 -9.896	  0.146	  0.246	  1.531	 29.700	 99.453	  1.045
39552	 -0.234	 -0.378	  0.206	 -0.544	 -0.155	 -9.827	 -0.136	  0.674	  1.603	 29.700	 99.453	  1.045
39602	 -0.272	 -0.364	  0.221	 -0.106	  0.211	 -8.955	  0.325	  0.269	  1.395	 29.700	 99.449	  1.413
39652	 -0.299	 -0.351	  0.227	  0.139	  0.272	 -9.855	  0.216	  0.012	  1.638	 29.700	 99.465	 -0.060
39702	 -0.319	 -0.335	  0.246	  0.585	 -0.027	 -8.989	  0.524	 -0.505	  1.704	 29.700	 99.465	 -0.060
39752	 -0.329	 -0.315	  0.257	 -0.420	  0.289	 -9.207	  0.283	 -0.332	  1.654	 29.700	 99.465	 -0.060
39802	 -0.348	 -0.296	  0.270	  0.238	  0.411	 -9.107	  0.394	 -0.042	  1.625	 29.700	 99.453	  1.045
39852	 -0.366	 -0.277	  0.287	  0.567	  0.264	 -9.123	  0.728	  0.123	  1.210	 29.700	 99.465	 -0.060
39902	 -0.375	 -0.240	  0.297	  0.968	  0.630	 -9.401	  0.821	  0.066	  1.112	 29.700	 99.469	 -0.429
39952	 -0.384	 -0.213	  0.310	  1.169	  0.162	 -10.210	  0.717	 -0.136	  1.090	 29.700	 99.465	 -0.060
40002	 -0.385	 -0.197	  0.319	  0.428	  0.072	 -9.219	  0.379	 -0.145	  0.911	 29.700	 99.453	  1.045
40052	 -0.386	 -0.178	  0.321	  0.495	 -0.152	 -9.247	  0.031	 -0.078	  0.753	 29.700	 99.465	 -0.060
40102	 -0.390	 -0.178	  0.315	  0.219	  0.057	 -8.487	 -0.285	  0.122	  0.687	 29.700	 99.453	  1.045
40152	 -0.397	 -0.185	  0.318	  0.277	  0.212	 -7.863	 -0.331	  0.137	  0.676	 29.700	 99.465	 -0.060
40202	 -0.406	 -0.178	  0.315	 -0.230	  0.315	 -7.942	 -0.090	  0.011	  0.650	 29.700	 99.453	  1.045
40252	 -0.410	 -0.181	  0.315	 -0.361	  0.064	 -8.095	 -0.089	  0.067	  0.603	 29.700	 99.465	 -0.060
40302	 -0.410	 -0.181	  0.309	 -0.633	  0.471	 -8.104	  0.158	 -0.095	  0.571	 29.700	 99.453	  1.045
40352	 -0.411	 -0.164	  0.313	 -0.876	  0.259	 -8.509	  0.387	 -0.201	  0.437	 29.700	 99.465	 -0.060
40402	 -0.405	 -0.141	  0.311	 -1.011	  0.147	 -9.188	  0.376	 -0.255	  0.367	 29.700	 99.453	  1.045
40452	 -0.401	 -0.140	  0.312	 -1.083	  0.283	 -9.811	  0.248	 -0.216	  0.486	 29.700	 99.469	 -0.429
40502	 -0.395	 -0.125	  0.313	  0.019	 -1.050	 -11.136	  0.075	 -0.346	  0.644	 29.700	 99.453	  1.045
40552	 -0.392	 -0.124	  0.312	 -0.645	 -1.288	 -11.232	 -0.243	 -0.331	  0.531	 29.700	 99.469	 -0.429
40602	 -0.386	 -0.124	  0.305	 -1.092	  0.142	 -9.871	  0.048	  0.172	  0.300	 29.700	 99.453	  1.045
40652	 -0.394	 -0.107	  0.302	 -0.204	 -0.974	 -10.525	  0.625	  0.040	  0.513	 29.700	 99.453	  1.045
40702	 -0.392	 -0.091	  0.287	 -0.157	 -2.163	 -12.385	 -0.066	  0.091	  0.274	 29.700	 99.453	  1.045
40752	 -0.395	 -0.101	  0.283	  0.510	 -0.545	 -10.033	 -0.896	  0.283	 -0.234	 29.700	 99.465	 -0.060
40802	 -0.403	 -0.126	  0.279	  0.258	  0.355	 -9.192	 -0.868	  0.047	 -0.149	 29.700	 99.449	  1.413
40852	 -0.406	 -0.135	  0.264	  0.011	  0.656	 -7.925	 -0.597	  0.158	 -0.280	 29.700	 99.477	 -1.165
40902	 -0.405	 -0.138	  0.264	 -0.234	  0.889	 -7.933	 -0.184	  0.125	 -0.282	 29.700	 99.482	 -1.625
40952	 -0.408	 -0.144	  0.256	 -0.266	  0.718	 -7.533	 -0.094	  0.073	 -0.370	 29.700	 99.465	 -0.060
41002	 -0.410	 -0.143	  0.252	 -0.695	  0.771	 -8.134	 -0.024	 -0.013	 -0.368	 29.700	 99.469	 -0.429
41052	 -0.406	 -0.144	  0.246	 -0.614	  0.489	 -8.769	 -0.074	 -0.077	 -0.427	 29.700	 99.457	  0.676
41102	 -0.401	 -0.148	  0.243	 -0.366	  0.517	 -8.973	 -0.275	 -0.046	 -0.772	 29.700	 99.453	  1.045
41152	 -0.398	 -0.154	  0.235	 -0.191	  0.861	 -9.092	 -0.255	 -0.132	 -1.048	 29.700	 99.453	  1.045
41202	 -0.388	 -0.147	  0.233	 -0.013	  1.367	 -10.175	  0.005	 -0.289	 -1.053	 29.700	 99.453	  1.045
41252	 -0.376	 -0.161	  0.224	  0.622	  0.995	 -11.995	  0.131	 -0.202	 -0.988	 29.700	 99.457	  0.676
41302	 -0.365	 -0.162	  0.222	  0.967	 -0.149	 -11.870	  0.066	 -0.202	 -1.038	 29.700	 99.453	  1.045
41352	 -0.358	 -0.152	  0.231	  0.882	 -0.074	 -10.994	  0.156	 -0.064	 -1.168	 29.700	 99.453	  1.045
41402	 -0.349	 -0.150	  0.228	  0.121	  0.279	 -9.397	  0.264	  0.113	 -1.302	 29.700	 99.469	 -0.429
41452	 -0.353	 -0.152	  0.234	 -0.118	  0.625	 -8.448	  0.239	  0.347	 -1.115	 29.700	 99.465	 -0.060
41502	 -0.351	 -0.144	  0.222	 -0.304	  0.287	 -7.451	  0.281	  0.336	 -0.950	 29.700	 99.465	 -0.060
41552	 -0.353	 -0.143	  0.230	 -0.776	  0.273	 -7.487	  0.294	  0.243	 -0.720	 29.700	 99.465	 -0.060
41602	 -0.353	 -0.126	  0.221	 -0.519	 -0.286	 -8.500	  0.206	  0.048	 -0.576	 29.700	 99.469	 -0.429
41652	 -0.346	 -0.130	  0.213	 -0.858	 -0.056	 -9.034	  0.214	 -0.241	 -0.413	 29.700	 99.453	  1.045
41702	 -0.341	 -0.126	  0.221	 -1.481	 -0.127	 -9.746	  0.250	 -0.316	 -0.222	 29.700	 99.453	  1.045
41752	 -0.336	 -0.121	  0.215	 -1.374	 -0.278	 -9.938	  0.280	 -0.315	  0.030	 29.700	 99.453	  1.045
41802	 -0.332	 -0.117	  0.206	 -1.096	 -1.035	 -10.597	  0.071	 -0.198	  0.128	 29.700	 99.465	 -0.060
41852	 -0.329	 -0.128	  0.213	 -0.638	 -0.626	 -10.537	 -0.223	 -0.067	  0.039	 29.700	 99.453	  1.045
41902	 -0.332	 -0.130	  0.204	 -0.721	 -0.433	 -10.653	 -0.149	 -0.026	  0.056	 29.700	 99.453	  1.045
41951	 -0.335	 -0.134	  0.202	  0.540	 -0.985	 -10.512	 -0.006	 -0.186	  0.093	 29.700	 99.465	 -0.060
42002	 -0.334	 -0.120	  0.195	  0.027	 -1.576	 -11.093	  0.048	 -0.246	 -0.136	 29.700	 99.465	 -0.060
42052	 -0.335	 -0.130	  0.183	 -0.120	 -1.116	 -10.090	 -0.194	 -0.104	 -0.307	 29.700	 99.465	 -0.060
42102	 -0.341	 -0.128	  0.183	 -0.010	 -0.746	 -8.994	 -0.370	  0.093	 -0.562	 29.700	 99.453	  1.045
42152	 -0.351	 -0.152	  0.167	 -0.226	 -0.195	 -7.777	 -0.434	  0.184	 -0.769	 29.700	 99.465	 -0.060
42202	 -0.361	 -0.162	  0.163	 -0.414	  0.443	 -7.253	 -0.252	  0.211	 -0.898	 29.700	 99.453	  1.045
42253	 -0.369	 -0.163	  0.146	 -0.480	  0.514	 -7.990	 -0.155	  0.173	 -0.953	 29.700	 99.453	  1.045
42302	 -0.383	 -0.174	  0.150	 -0.518	  0.530	 -8.712	 -0.162	  0.154	 -0.983	 29.700	 99.465	 -0.060
42351	 -0.389	 -0.189	  0.144	 -0.497	  0.320	 -9.333	 -0.090	  0.066	 -0.905	 29.700	 99.453	  1.045
42401	 -0.397	 -0.212	  0.140	 -0.503	  0.140	 -9.483	 -0.105	  0.008	 -0.872	 29.700	 99.465	 -0.060
42451	 -0.401	 -0.224	  0.133	 -0.563	  0.061	 -9.879	 -0.211	 -0.008	 -0.898	 29.700	 99.457	  0.676
42501	 -0.400	 -0.237	  0.132	 -0.069	 -0.147	 -10.193	 -0.177	 -0.113	 -0.850	 29.700	 99.465	 -0.060
42551	 -0.386	 -0.269	  0.114	 -0.150	  0.695	 -10.441	 -0.092	 -0.144	 -0.924	 29.700	 99.453	  1.045
42601	 -0.371	 -0.289	  0.117	 -0.237	  0.510	 -11.319	 -0.059	  0.059	 -1.021	 29.700	 99.465	 -0.060
42651	 -0.341	 -0.310	  0.119	  2.112	 -0.280	 -11.899	 -0.003	 -0.092	 -1.418	 29.700	 99.453	  1.045
42703	 -0.299	 -0.323	  0.124	  1.416	 -0.169	 -10.498	  0.050	 -0.455	 -1.691	 29.700	 99.465	 -0.060
42752	 -0.251	 -0.327	  0.122	 -0.725	  0.869	 -8.814	 -0.140	 -0.057	 -1.446	 29.700	 99.453	  1.045
42803	 -0.218	 -0.327	  0.122	 -0.352	  0.805	 -8.028	 -0.168	  0.403	 -0.890	 29.700	 99.457	  0.676
42853	 -0.197	 -0.325	  0.133	 -0.314	  0.657	 -7.079	 -0.145	  0.500	 -0.743	 29.700	 99.441	  2.149
42902	 -0.175	 -0.302	  0.140	 -0.657	  0.649	 -7.193	  0.241	  0.210	 -0.495	 29.700	 99.453	  1.045
42952	 -0.162	 -0.273	  0.155	 -0.601	 -0.266	 -8.726	  0.204	 -0.086	 -0.237	 29.700	 99.457	  0.676
43002	 -0.142	 -0.268	  0.160	 -0.701	 -0.153	 -9.523	 -0.290	 -0.176	 -0.219	 29.700	 99.465	 -0.060
43052	 -0.131	 -0.260	  0.150	 -0.704	  0.381	 -9.786	 -0.357	 -0.204	 -0.082	 29.700	 99.469	 -0.429
43102	 -0.124	 -0.251	  0.160	 -0.698	  0.371	 -10.141	 -0.139	 -0.192	 -0.005	 29.700	 99.453	  1.045
43152	 -0.118	 -0.236	  0.166	 -0.456	  0.013	 -10.508	  0.114	 -0.095	  0.161	 29.700	 99.465	 -0.060
43202	 -0.123	 -0.215	  0.183	 -1.034	  0.254	 -10.719	  0.304	  0.242	  0.099	 29.700	 99.469	 -0.429
43252	 -0.128	 -0.191	  0.203	 -0.368	 -0.217	 -10.740	  0.792	  0.314	  0.231	 29.700	 99.465	 -0.060
43302	 -0.133	 -0.170	  0.217	  0.401	 -1.874	 -11.828	  0.485	  0.009	  0.432	 29.700	 99.453	  1.045
43352	 -0.137	 -0.169	  0.214	  0.668	 -1.507	 -10.706	 -0.495	 -0.127	  0.162	 29.700	 99.457	  0.676
43402	 -0.135	 -0.174	  0.222	 -0.131	 -0.173	 -8.300	 -0.684	 -0.219	  0.101	 29.700	 99.465	 -0.060
43452	 -0.134	 -0.189	  0.217	 -0.504	  0.162	 -7.257	 -0.579	  0.016	 -0.011	 29.700	 99.453	  1.045
43502	 -0.141	 -0.190	  0.221	 -0.699	  0.813	 -7.119	 -0.341	  0.242	 -0.146	 29.700	 99.465	 -0.060
43552	 -0.145	 -0.186	  0.226	 -0.512	  0.912	 -8.090	 -0.047	  0.278	 -0.187	 29.700	 99.465	 -0.060
43602	 -0.151	 -0.180	  0.231	  0.000	  0.952	 -8.639	  0.032	  0.089	 -0.325	 29.700	 99.453	  1.045
43652	 -0.145	 -0.170	  0.245	 -0.115	  0.894	 -9.308	  0.162	 -0.272	 -0.536	 29.700	 99.453	  1.045
43702	 -0.134	 -0.158	  0.246	 -0.336	  0.719	 -9.816	  0.241	 -0.459	 -0.607	 29.700	 99.465	 -0.060
43752	 -0.119	 -0.134	  0.250	  0.079	  0.108	 -10.859	  0.322	 -0.541	 -0.595	 29.700	 99.469	 -0.429
43802	 -0.103	 -0.129	  0.251	 -0.597	  0.442	 -11.757	  0.095	 -0.180	 -0.788	 29.700	 99.453	  1.045
43852	 -0.098	 -0.119	  0.256	 -0.508	  0.372	 -11.701	  0.020	  0.344	 -0.742	 29.700	 99.453	  1.045
43902	 -0.100	 -0.106	  0.261	  1.293	 -0.336	 -11.074	 -0.073	  0.271	 -0.714	 29.700	 99.453	  1.045
43952	 -0.094	 -0.110	  0.264	  0.873	  0.134	 -9.477	 -0.281	 -0.134	 -0.880	 29.700	 99.457	  0.676
44002	 -0.086	 -0.115	  0.255	  0.022	  0.756	 -7.991	 -0.317	  0.054	 -0.850	 29.700	 99.453	  1.045
44052	 -0.080	 -0.114	  0.269	  0.332	  0.765	 -7.346	 -0.156	 -0.015	 -0.622	 29.700	 99.453	  1.045
44102	 -0.073	 -0.116	  0.258	 -0.655	  0.784	 -7.807	 -0.142	 -0.023	 -0.422	 29.700	 99.453	  1.045
44152	 -0.068	 -0.120	  0.267	 -0.768	  1.081	 -7.401	 -0.024	 -0.082	 -0.309	 29.700	 99.453	  1.045
44202	 -0.062	 -0.111	  0.256	 -1.005	  0.846	 -8.340	  0.144	 -0.101	 -0.107	 29.700	 99.453	  1.045
44252	 -0.054	 -0.104	  0.260	 -0.351	  0.487	 -9.335	  0.118	 -0.219	 -0.163	 29.700	 99.465	 -0.060
44302	 -0.046	 -0.112	  0.250	 -0.322	  0.489	 -9.842	  0.172	 -0.427	 -0.271	 29.700	 99.453	  1.045
44352	 -0.037	 -0.111	  0.241	 -0.777	  0.061	 -11.080	  0.247	 -0.302	 -0.192	 29.700	 99.465	 -0.060
44402	 -0.037	 -0.112	  0.235	  0.130	 -1.156	 -11.587	  0.088	 -0.316	 -0.085	 29.700	 99.465	 -0.060
44452	 -0.031	 -0.114	  0.220	 -0.619	 -0.611	 -11.035	 -0.152	 -0.178	 -0.246	 29.700	 99.453	  1.045
44502	 -0.034	 -0.115	  0.209	 -0.939	 -0.305	 -10.763	 -0.260	  0.074	 -0.343	 29.700	 99.469	 -0.429
44552	 -0.043	 -0.134	  0.213	 -0.254	  0.137	 -9.242	 -0.432	  0.294	 -0.598	 29.700	 99.465	 -0.060
44602	 -0.053	 -0.113	  0.209	 -0.329	  0.679	 -7.967	 -0.148	  0.275	 -0.719	 29.700	 99.465	 -0.060
44652	 -0.061	 -0.118	  0.208	 -0.971	  0.869	 -7.511	  0.071	  0.399	 -0.697	 29.700	 99.457	  0.676
44702	 -0.080	 -0.113	  0.204	 -0.440	  0.828	 -7.708	  0.038	  0.496	 -0.666	 29.700	 99.469	 -0.429
44752	 -0.100	 -0.098	  0.205	 -0.252	  0.652	 -8.106	 -0.012	  0.223	 -0.662	 29.700	 99.453	  1.045
44802	 -0.112	 -0.095	  0.205	 -0.027	  0.388	 -9.320	 -0.097	 -0.091	 -0.751	 29.700	 99.477	 -1.165
44852	 -0.114	 -0.081	  0.189	  0.136	  0.507	 -9.771	 -0.174	 -0.394	 -0.964	 29.700	 99.453	  1.045
44902	 -0.112	 -0.070	  0.197	 -0.525	  0.811	 -10.206	  0.028	 -0.579	 -0.977	 29.700	 99.465	 -0.060
44952	 -0.112	 -0.054	  0.197	 -1.052	  0.479	 -11.927	  0.066	 -0.258	 -0.698	 29.700	 99.465	 -0.060
45002	 -0.114	 -0.031	  0.203	  0.442	  0.078	 -11.339	 -0.248	  0.090	 -0.928	 29.700	 99.453	  1.045
45052	 -0.126	 -0.017	  0.215	  0.347	  0.801	 -9.842	  0.236	  0.125	 -1.070	 29.700	 99.453	  1.045
45102	 -0.130	  0.003	  0.223	  0.230	  0.184	 -9.467	  0.511	  0.156	 -1.214	 29.700	 99.453	  1.045
45152	 -0.139	  0.040	  0.233	  0.012	  0.612	 -8.478	  0.373	  0.155	 -1.108	 29.700	 99.469	 -0.429
45202	 -0.145	  0.044	  0.242	 -0.806	  0.535	 -7.877	  0.328	  0.174	 -0.840	 29.700	 99.465	 -0.060
45252	 -0.156	  0.070	  0.242	 -1.091	  0.555	 -8.073	  0.335	  0.256	 -0.634	 29.700	 99.465	 -0.060
45302	 -0.167	  0.086	  0.255	 -0.789	 -0.109	 -9.392	 -0.027	  0.354	 -0.527	 29.700	 99.465	 -0.060
45352	 -0.175	  0.079	  0.261	 -0.104	  0.469	 -9.844	 -0.294	 -0.021	 -0.429	 29.700	 99.453	  1.045
45402	 -0.172	  0.081	  0.263	 -0.071	 -0.244	 -10.685	 -0.526	 -0.454	 -0.201	 29.700	 99.465	 -0.060
45452	 -0.162	  0.069	  0.273	 -0.513	  0.203	 -10.619	 -0.379	 -0.864	 -0.073	 29.700	 99.482	 -1.625
45502	 -0.142	  0.083	  0.265	 -1.052	 -0.654	 -10.900	 -0.013	 -0.353	 -0.003	 29.700	 99.441	  2.149
45552	 -0.147	  0.092	  0.269	 -0.197	 -1.308	 -10.546	  0.202	  0.347	 -0.270	 29.700	 99.457	  0.676
45602	 -0.159	  0.102	  0.274	 -0.215	 -0.939	 -10.266	  0.397	  0.671	 -0.397	 29.700	 99.453	  1.045
45652	 -0.175	  0.106	  0.270	 -0.023	 -1.136	 -10.277	  0.315	  0.700	 -0.288	 29.700	 99.457	  0.676
45702	 -0.192	  0.117	  0.275	  0.735	 -0.888	 -9.255	 -0.117	  0.440	 -0.228	 29.700	 99.465	 -0.060
45752	 -0.198	  0.122	  0.273	  0.273	 -0.517	 -8.085	 -0.368	  0.197	 -0.320	 29.700	 99.453	  1.045
45802	 -0.208	  0.121	  0.275	  0.145	  0.173	 -7.709	 -0.587	  0.230	 -0.460	 29.700	 99.453	  1.045
45852	 -0.214	  0.111	  0.288	  0.434	  0.805	 -7.908	 -0.410	  0.147	 -0.297	 29.700	 99.465	 -0.060
45902	 -0.218	  0.129	  0.292	  0.533	  0.289	 -8.654	 -0.218	  0.006	 -0.247	 29.700	 99.453	  1.045
45952	 -0.214	  0.122	  0.287	  0.273	  0.248	 -9.716	 -0.176	 -0.374	 -0.435	 29.700	 99.453	  1.045
46002	 -0.205	  0.136	  0.296	  0.617	 -0.300	 -10.400	 -0.374	 -0.770	 -0.430	 29.700	 99.453	  1.045
46052	 -0.183	  0.117	  0.291	  0.002	  0.137	 -10.850	 -0.403	 -0.846	 -0.544	 29.700	 99.453	  1.045
46102	 -0.172	  0.124	  0.300	 -0.208	 -0.054	 -10.864	 -0.396	 -0.379	 -0.626	 29.700	 99.453	  1.045
46152	 -0.171	  0.124	  0.305	 -0.338	  0.252	 -10.466	 -0.465	  0.506	 -0.595	 29.700	 99.465	 -0.060
46202	 -0.186	  0.125	  0.312	  0.108	  1.542	 -9.056	 -0.066	  0.841	 -0.483	 29.700	 99.465	 -0.060
46252	 -0.206	  0.144	  0.329	  0.098	  0.957	 -8.495	  0.291	  0.931	 -0.144	 29.700	 99.453	  1.045
46302	 -0.222	  0.140	  0.330	 -0.022	  0.624	 -7.278	  0.179	  0.693	  0.162	 29.700	 99.465	 -0.060
46352	 -0.223	  0.141	  0.339	 -0.253	  0.673	 -6.994	  0.221	  0.345	  0.369	 29.700	 99.453	  1.045
46402	 -0.226	  0.152	  0.339	  0.290	  0.228	 -8.170	  0.178	  0.029	  0.326	 29.700	 99.465	 -0.060
46451	 -0.216	  0.149	  0.336	  0.012	  0.405	 -9.019	  0.123	 -0.269	  0.309	 29.700	 99.465	 -0.060
46501	 -0.195	  0.148	  0.336	  0.243	  0.381	 -10.097	  0.239	 -0.402	  0.491	 29.700	 99.465	 -0.060
46551	 -0.174	  0.148	  0.326	  0.702	 -0.630	 -11.744	 -0.070	 -0.524	  0.683	 29.700	 99.469	 -0.429
46601	 -0.154	  0.129	  0.319	  0.394	 -0.493	 -11.996	 -0.915	 -0.449	  0.680	 29.700	 99.465	 -0.060
46651	 -0.140	  0.092	  0.332	 -0.058	  0.346	 -11.326	 -0.771	 -0.297	  0.692	 29.700	 99.465	 -0.060
46701	 -0.136	  0.068	  0.319	 -0.243	  0.344	 -11.397	 -0.288	  0.117	  0.553	 29.700	 99.465	 -0.060
46751	 -0.141	  0.058	  0.321	 -0.067	 -0.115	 -11.121	  0.222	  0.133	  0.860	 29.700	 99.453	  1.045
46801	 -0.144	  0.058	  0.313	  0.219	 -0.633	 -9.932	  0.182	  0.097	  0.696	 29.700	 99.453	  1.045
46851	 -0.145	  0.048	  0.316	  0.124	 -0.348	 -8.124	 -0.043	  0.018	  0.460	 29.600	 99.449	  1.413
46901	 -0.147	  0.045	  0.313	 -0.653	  0.092	 -7.535	  0.002	 -0.191	  0.314	 29.700	 99.453	  1.045
46951	 -0.144	  0.047	  0.303	 -1.425	  0.385	 -7.634	  0.201	 -0.253	  0.313	 29.700	 99.453	  1.045
47001	 -0.135	  0.052	  0.297	 -1.400	  0.004	 -8.925	  0.292	 -0.282	  0.409	 29.700	 99.465	 -0.060
47051	 -0.133	  0.048	  0.292	 -1.168	 -0.162	 -9.887	  0.037	 -0.133	  0.319	 29.700	 99.465	 -0.060
47101	 -0.137	  0.051	  0.294	 -0.957	  0.145	 -10.226	 -0.195	  0.140	 -0.008	 29.600	 99.477	 -1.165
47151	 -0.143	  0.058	  0.302	 -0.512	  0.883	 -9.718	 -0.024	  0.447	 -0.237	 29.700	 99.465	 -0.060
