Time	 MagX	 MagY	 MagZ	 AccelX	 AccelY	 AccelZ	 Yaw	 Pitch	 Roll	 Temperature	 Pressure	 Altitude
16323	 -0.005	  0.013	  0.361	  0.049	 -0.113	 -9.894	 -0.000	  0.001	  0.000	 29.500	 99.454	 -99999.000
16373	 -0.008	  0.010	  0.361	  0.027	 -0.088	 -9.813	 -0.004	  0.001	  0.002	 29.500	 99.443	 -99999.000
16423	 -0.005	  0.007	  0.360	  0.017	 -0.122	 -9.813	  0.005	 -0.003	  0.001	 29.500	 99.454	 -99999.000
16473	 -0.007	  0.014	  0.356	  0.027	 -0.088	 -9.825	 -0.011	  0.007	  0.001	 29.500	 99.458	 -99999.000
16523	 -0.004	  0.010	  0.363	  0.042	 -0.113	 -9.880	  0.004	 -0.003	 -0.000	 29.500	 99.454	 -99999.000
16573	 -0.006	  0.010	  0.356	 -0.006	 -0.137	 -9.834	 -0.002	  0.001	  0.002	 29.500	 99.454	 -99999.000
16623	 -0.008	  0.012	  0.362	  0.027	 -0.094	 -9.824	 -0.007	  0.004	  0.002	 29.500	 99.443	 -99999.000
16673	 -0.007	  0.011	  0.359	  0.164	  0.050	 -9.788	 -0.004	  0.001	  0.002	 29.500	 99.443	 -99999.000
16723	 -0.005	  0.011	  0.362	  0.000	 -0.094	 -9.854	  0.003	 -0.000	  0.001	 29.500	 99.465	 -99999.000
16773	 -0.007	  0.011	  0.360	  0.073	 -0.127	 -9.850	 -0.007	  0.006	 -0.000	 29.500	 99.443	 -99999.000
16823	 -0.005	  0.008	  0.361	  0.083	  0.021	 -9.776	 -0.005	  0.003	  0.000	 29.500	 99.458	 -99999.000
16873	 -0.004	  0.010	  0.360	  0.018	 -0.102	 -9.836	  0.000	 -0.000	  0.002	 29.500	 99.431	 -99999.000
16923	 -0.005	  0.018	  0.359	  0.027	 -0.126	 -9.819	 -0.003	  0.001	  0.001	 29.500	 99.443	 -99999.000
16973	 -0.008	  0.013	  0.362	  0.043	 -0.112	 -9.842	 -0.005	  0.003	  0.001	 29.500	 99.443	 -99999.000
17023	 -0.005	  0.010	  0.357	  0.049	 -0.112	 -9.822	 -0.005	  0.003	  0.001	 29.500	 99.436	 -99999.000
17073	 -0.008	  0.009	  0.360	  0.058	 -0.080	 -9.824	 -0.001	  0.002	  0.001	 29.500	 99.443	 -99999.000
17123	 -0.004	  0.011	  0.360	  0.028	 -0.125	 -9.856	 -0.002	 -0.001	  0.001	 29.500	 99.454	 -99999.000
17173	 -0.007	  0.008	  0.359	  0.043	 -0.098	 -9.841	 -0.005	  0.001	  0.001	 29.500	 99.454	 -99999.000
17223	 -0.007	  0.012	  0.359	  0.026	 -0.067	 -9.840	 -0.005	  0.003	  0.001	 29.500	 99.443	 -99999.000
17273	 -0.004	  0.008	  0.360	  0.070	 -0.108	 -9.821	  0.002	 -0.001	  0.001	 29.500	 99.447	 -99999.000
17323	 -0.005	  0.010	  0.360	  0.065	 -0.133	 -9.859	 -0.007	  0.002	  0.001	 29.500	 99.443	 -99999.000
17373	 -0.004	  0.007	  0.360	  0.063	 -0.056	 -9.853	 -0.004	  0.001	  0.001	 29.500	 99.447	 -99999.000
17423	 -0.005	  0.008	  0.361	  0.018	 -0.121	 -9.831	  0.003	 -0.002	  0.002	 29.500	 99.443	 -99999.000
17473	 -0.005	  0.008	  0.358	  0.015	 -0.120	 -9.861	 -0.011	  0.006	  0.001	 29.500	 99.443	 -99999.000
17523	 -0.007	  0.015	  0.363	  0.047	 -0.090	 -9.832	  0.005	 -0.003	  0.001	 29.500	 99.443	 -99999.000
17573	 -0.006	  0.009	  0.360	  0.004	 -0.102	 -9.830	 -0.009	  0.005	 -0.000	 29.500	 99.443	 -99999.000
17623	 -0.006	  0.013	  0.361	  0.106	  0.043	 -9.790	 -0.002	  0.000	  0.001	 29.500	 99.431	 -99999.000
17673	 -0.009	  0.012	  0.359	  0.016	 -0.114	 -9.851	 -0.003	  0.002	  0.002	 29.500	 99.447	 -99999.000
17723	 -0.006	  0.010	  0.358	 -0.006	 -0.079	 -9.827	  0.001	 -0.000	  0.001	 29.500	 99.443	 -99999.000
17773	 -0.007	  0.010	  0.358	  0.013	 -0.146	 -9.856	 -0.006	  0.003	  0.001	 29.500	 99.443	 -99999.000
17823	 -0.005	  0.016	  0.361	  0.073	 -0.102	 -9.837	 -0.006	  0.004	  0.000	 29.500	 99.447	 -99999.000
17873	 -0.007	  0.020	  0.357	  0.044	 -0.081	 -9.799	 -0.000	  0.000	  0.002	 29.500	 99.447	 -99999.000
17923	 -0.010	  0.008	  0.360	  0.015	 -0.140	 -9.813	  0.002	 -0.002	  0.001	 29.500	 99.443	 -99999.000
17973	 -0.008	  0.012	  0.362	  0.071	 -0.137	 -9.839	 -0.009	  0.004	  0.000	 29.500	 99.458	 -99999.000
18023	 -0.006	  0.011	  0.359	  0.034	 -0.076	 -9.814	  0.002	  0.000	  0.001	 29.500	 99.447	 -99999.000
18073	 -0.007	  0.007	  0.360	  0.006	 -0.150	 -9.818	 -0.002	 -0.000	  0.001	 29.500	 99.443	 -99999.000
18123	 -0.007	  0.012	  0.361	  0.050	 -0.097	 -9.819	 -0.005	  0.004	  0.001	 29.500	 99.447	 -99999.000
18173	 -0.005	  0.011	  0.358	  0.043	 -0.082	 -9.819	 -0.002	  0.001	  0.002	 29.500	 99.443	 -99999.000
18223	 -0.005	  0.011	  0.356	  0.060	 -0.105	 -9.859	 -0.001	 -0.000	  0.001	 29.500	 99.447	 -99999.000
18273	 -0.007	  0.011	  0.363	  0.015	 -0.060	 -9.834	 -0.006	  0.002	  0.001	 29.500	 99.447	 -99999.000
18323	 -0.010	  0.009	  0.365	  0.010	 -0.093	 -9.834	  0.001	 -0.001	  0.002	 29.500	 99.447	 -99999.000
18373	 -0.008	  0.008	  0.360	  0.032	 -0.140	 -9.831	 -0.006	  0.003	  0.001	 29.500	 99.447	 -99999.000
18423	 -0.007	  0.013	  0.360	  0.033	 -0.066	 -9.854	 -0.007	  0.004	  0.001	 29.500	 99.454	 -99999.000
18473	 -0.005	  0.020	  0.360	  0.050	 -0.142	 -9.796	  0.003	 -0.002	  0.001	 29.500	 99.447	 -99999.000
18523	 -0.007	  0.009	  0.353	  0.012	 -0.111	 -9.813	 -0.008	  0.004	 -0.000	 29.500	 99.447	 -99999.000
18573	 -0.008	  0.010	  0.355	  0.041	 -0.074	 -9.859	  0.002	 -0.001	  0.002	 29.500	 99.443	 -99999.000
18623	 -0.007	  0.006	  0.363	  0.015	 -0.154	 -9.864	  0.001	 -0.002	  0.002	 29.500	 99.447	 -99999.000
18673	 -0.008	  0.017	  0.359	  0.035	 -0.114	 -9.859	 -0.009	  0.004	  0.001	 29.500	 99.436	 -99999.000
18723	 -0.008	  0.010	  0.361	  0.006	 -0.082	 -9.832	  0.003	 -0.002	  0.002	 29.500	 99.447	 -99999.000
18773	 -0.006	  0.009	  0.360	  0.013	 -0.129	 -9.827	  0.001	 -0.000	  0.001	 29.500	 99.447	 -99999.000
18823	 -0.005	  0.010	  0.358	  0.049	 -0.108	 -9.818	 -0.008	  0.004	  0.001	 29.500	 99.447	 -99999.000
18873	 -0.006	  0.011	  0.360	  0.103	 -0.002	 -9.812	 -0.003	  0.003	  0.000	 29.500	 99.447	 -99999.000
18923	 -0.004	  0.011	  0.356	  0.023	 -0.109	 -9.828	  0.001	 -0.002	  0.001	 29.500	 99.447	 -99999.000
18973	 -0.007	  0.012	  0.356	  0.005	 -0.121	 -9.838	 -0.004	  0.001	 -0.000	 29.500	 99.447	 -99999.000
19023	 -0.006	  0.009	  0.362	  0.051	 -0.084	 -9.830	 -0.007	  0.005	  0.002	 29.500	 99.447	 -99999.000
19073	 -0.008	  0.014	  0.360	  0.039	 -0.071	 -9.849	  0.002	 -0.001	  0.001	 29.500	 99.447	 -99999.000
19123	 -0.006	  0.011	  0.361	 -0.045	 -0.191	 -9.874	 -0.002	  0.000	  0.000	 29.600	 99.447	 -99999.000
19173	 -0.008	  0.008	  0.360	  0.043	 -0.104	 -9.832	 -0.007	  0.004	  0.000	 29.500	 99.436	 -99999.000
19223	 -0.007	  0.008	  0.355	  0.026	 -0.068	 -9.875	 -0.002	  0.001	  0.001	 29.600	 99.440	 -99999.000
19273	 -0.009	  0.011	  0.359	  0.038	 -0.100	 -9.808	 -0.002	  0.002	  0.002	 29.500	 99.447	 -99999.000
19323	 -0.009	  0.012	  0.361	  0.022	 -0.120	 -9.847	 -0.002	  0.002	  0.002	 29.500	 99.447	 -99999.000
19373	 -0.010	  0.010	  0.360	  0.028	 -0.116	 -9.838	 -0.003	  0.001	  0.001	 29.600	 99.447	 -99999.000
19423	 -0.006	  0.008	  0.363	  0.031	 -0.089	 -9.831	 -0.005	  0.002	  0.001	 29.500	 99.447	 -99999.000
19473	 -0.007	  0.011	  0.361	  0.035	 -0.104	 -9.785	 -0.003	  0.000	  0.001	 29.500	 99.447	 -99999.000
19523	 -0.008	  0.008	  0.366	  0.034	 -0.085	 -9.846	 -0.001	  0.001	  0.002	 29.600	 99.436	 -99999.000
19573	 -0.005	  0.008	  0.359	  0.030	 -0.085	 -9.841	 -0.001	  0.001	  0.002	 29.600	 99.447	 -99999.000
19623	 -0.007	  0.009	  0.360	  0.035	 -0.115	 -9.824	 -0.003	  0.002	  0.001	 29.600	 99.436	 -99999.000
19673	 -0.007	  0.011	  0.360	  0.039	 -0.082	 -9.849	 -0.006	  0.003	  0.000	 29.600	 99.440	 -99999.000
19723	 -0.006	  0.009	  0.362	  0.053	 -0.066	 -9.810	 -0.001	  0.001	  0.001	 29.500	 99.447	 -99999.000
19773	 -0.007	  0.012	  0.359	  0.001	 -0.107	 -9.830	 -0.000	 -0.001	  0.001	 29.600	 99.447	 -99999.000
19823	 -0.007	  0.020	  0.354	  0.025	 -0.111	 -9.821	 -0.004	  0.002	  0.001	 29.500	 99.447	 -99999.000
19873	 -0.009	  0.009	  0.357	  0.051	 -0.101	 -9.830	 -0.005	  0.004	  0.001	 29.600	 99.440	 -99999.000
19923	 -0.008	  0.014	  0.361	  0.036	 -0.088	 -9.855	 -0.000	 -0.002	  0.001	 29.600	 99.451	 -99999.000
19973	 -0.009	  0.008	  0.360	  0.008	 -0.128	 -9.822	  0.000	 -0.001	  0.001	 29.600	 99.447	 -99999.000
20023	 -0.005	  0.021	  0.361	  0.019	 -0.108	 -9.846	 -0.006	  0.002	  0.001	 29.500	 99.458	 -99999.000
20073	 -0.005	  0.008	  0.363	  0.061	 -0.082	 -9.832	 -0.005	  0.004	  0.001	 29.600	 99.447	 -99999.000
20123	 -0.007	  0.023	  0.357	  0.043	 -0.066	 -9.826	 -0.002	  0.000	  0.002	 29.600	 99.440	 -99999.000
20173	 -0.006	  0.007	  0.357	  0.017	 -0.103	 -9.816	  0.002	 -0.001	  0.001	 29.500	 99.447	 -99999.000
20223	 -0.009	  0.010	  0.363	  0.048	 -0.136	 -9.848	 -0.005	  0.003	  0.001	 29.600	 99.440	 -99999.000
20273	 -0.010	  0.015	  0.356	  0.098	  0.009	 -9.805	 -0.008	  0.004	  0.000	 29.500	 99.447	 -99999.000
20323	 -0.007	  0.028	  0.359	  0.021	 -0.138	 -9.826	  0.002	 -0.002	  0.000	 29.500	 99.458	 -99999.000
20373	 -0.008	  0.016	  0.360	  0.020	 -0.090	 -9.831	 -0.007	  0.003	  0.001	 29.500	 99.447	 -99999.000
20423	 -0.005	  0.010	  0.356	  0.053	 -0.056	 -9.825	 -0.004	  0.002	  0.001	 29.600	 99.451	 -99999.000
20473	 -0.008	  0.015	  0.356	  0.066	 -0.094	 -9.834	  0.001	  0.001	  0.001	 29.600	 99.451	 -99999.000
20523	 -0.007	  0.013	  0.360	 -0.045	 -0.144	 -9.819	 -0.000	  0.001	  0.001	 29.600	 99.440	 -99999.000
20573	 -0.006	  0.011	  0.362	  0.067	 -0.100	 -9.851	 -0.008	  0.004	  0.002	 29.500	 99.447	 -99999.000
20623	 -0.009	  0.008	  0.359	  0.067	 -0.075	 -9.851	 -0.002	  0.001	  0.001	 29.600	 99.451	 -99999.000
20673	 -0.007	  0.013	  0.362	  0.031	 -0.116	 -9.849	 -0.002	  0.001	  0.001	 29.600	 99.447	 -99999.000
20723	 -0.006	  0.007	  0.361	 -0.004	 -0.084	 -9.795	 -0.000	  0.000	  0.001	 29.600	 99.462	 -99999.000
20773	 -0.007	  0.013	  0.362	  0.025	 -0.125	 -9.857	 -0.004	  0.003	  0.000	 29.500	 99.447	 -99999.000
20823	 -0.007	  0.014	  0.362	  0.042	 -0.086	 -9.857	 -0.007	  0.003	  0.002	 29.600	 99.451	 -99999.000
20873	 -0.005	  0.008	  0.362	  0.054	 -0.087	 -9.806	  0.001	 -0.001	  0.002	 29.600	 99.436	 -99999.000
20923	 -0.008	  0.012	  0.361	 -0.026	 -0.164	 -9.842	  0.001	  0.000	  0.001	 29.600	 99.440	 -99999.000
20973	 -0.006	  0.018	  0.361	  0.046	 -0.113	 -9.873	 -0.010	  0.005	  0.002	 29.600	 99.447	 -99999.000
21023	 -0.008	  0.010	  0.356	  0.049	 -0.112	 -9.851	  0.001	 -0.002	  0.001	 29.600	 99.451	 -99999.000
21073	 -0.009	  0.013	  0.357	 -0.022	 -0.159	 -9.862	 -0.004	  0.002	  0.001	 29.600	 99.451	 -99999.000
21123	 -0.008	  0.010	  0.356	  0.061	 -0.088	 -9.842	 -0.007	  0.004	  0.001	 29.600	 99.447	 -99999.000
21173	 -0.006	  0.010	  0.358	  0.053	 -0.104	 -9.829	  0.001	 -0.001	  0.001	 29.600	 99.451	 -99999.000
21223	 -0.007	  0.011	  0.361	  0.025	 -0.161	 -9.864	  0.001	 -0.001	  0.002	 29.600	 99.440	 -99999.000
21273	 -0.005	  0.007	  0.364	  0.040	 -0.111	 -9.847	 -0.006	  0.003	 -0.000	 29.600	 99.440	 -99999.000
21324	 -0.007	  0.009	  0.362	  0.041	 -0.093	 -9.852	 -0.010	  0.007	  0.002	 29.600	 99.451	 -99999.000
21373	 -0.006	  0.010	  0.360	  0.022	 -0.115	 -9.823	  0.005	 -0.002	  0.002	 29.600	 99.447	 -99999.000
21424	 -0.007	  0.010	  0.367	  0.004	 -0.082	 -9.814	 -0.009	  0.005	  0.001	 29.600	 99.436	 -99999.000
21474	 -0.007	  0.011	  0.362	  0.136	 -0.010	 -9.772	 -0.002	  0.000	  0.000	 29.600	 99.451	 -99999.000
21524	 -0.007	  0.005	  0.358	  0.024	 -0.081	 -9.873	 -0.001	  0.002	  0.001	 29.600	 99.440	 -99999.000
21573	 -0.007	  0.013	  0.360	 -0.001	 -0.115	 -9.805	  0.000	  0.000	  0.002	 29.600	 99.451	 -99999.000
21624	 -0.006	  0.011	  0.367	  0.014	 -0.116	 -9.824	 -0.006	  0.001	  0.002	 29.600	 99.440	 -99999.000
21674	 -0.009	  0.013	  0.356	  0.104	  0.021	 -9.797	 -0.006	  0.005	  0.002	 29.600	 99.451	 -99999.000
21724	 -0.005	  0.017	  0.362	  0.042	 -0.143	 -9.847	  0.003	 -0.003	  0.002	 29.600	 99.440	 -99999.000
21774	 -0.006	  0.012	  0.361	  0.008	 -0.076	 -9.817	 -0.010	  0.005	  0.001	 29.500	 99.436	 -99999.000
21824	 -0.007	  0.011	  0.361	  0.047	 -0.070	 -9.809	  0.001	 -0.001	  0.001	 29.600	 99.440	 -99999.000
21874	 -0.006	  0.009	  0.360	  0.043	 -0.156	 -9.861	 -0.002	  0.001	 -0.000	 29.600	 99.440	 -99999.000
21924	 -0.006	  0.009	  0.362	  0.026	 -0.079	 -9.791	 -0.005	  0.003	  0.001	 29.600	 99.436	 -99999.000
21974	 -0.004	  0.008	  0.361	  0.029	 -0.083	 -9.853	 -0.002	  0.001	  0.001	 29.600	 99.440	 -99999.000
22024	 -0.009	  0.010	  0.361	  0.016	 -0.116	 -9.849	 -0.002	  0.000	  0.002	 29.600	 99.440	 -99999.000
22074	 -0.005	  0.014	  0.359	  0.040	 -0.104	 -9.800	 -0.006	  0.002	  0.001	 29.600	 99.451	 -99999.000
22124	 -0.007	  0.011	  0.359	  0.045	 -0.069	 -9.849	 -0.001	  0.001	  0.001	 29.600	 99.444	 -99999.000
22174	 -0.006	  0.010	  0.360	  0.028	 -0.148	 -9.839	  0.001	 -0.001	  0.001	 29.600	 99.440	 -99999.000
22224	 -0.006	  0.019	  0.354	  0.042	 -0.089	 -9.829	 -0.010	  0.005	  0.001	 29.600	 99.451	 -99999.000
22274	 -0.006	  0.017	  0.358	  0.047	 -0.099	 -9.840	  0.004	 -0.003	  0.002	 29.600	 99.440	 -99999.000
31801	 -0.008	  0.020	  0.362	  0.271	 -0.238	 -9.639	 -0.007	  0.006	  0.000	 29.600	 99.434	  1.014
31851	 -0.007	  0.011	  0.362	  0.129	 -0.148	 -9.848	  0.005	  0.003	  0.001	 29.600	 99.441	  0.392
31901	 -0.005	  0.005	  0.361	 -0.252	 -0.064	 -9.934	  0.003	  0.001	  0.001	 29.600	 99.445	  0.037
31951	 -0.006	  0.010	  0.351	  0.050	 -0.100	 -9.790	 -0.007	  0.005	  0.001	 29.600	 99.445	  0.037
32001	 -0.007	  0.007	  0.360	  0.050	 -0.074	 -9.815	  0.002	  0.000	  0.001	 29.600	 99.445	  0.037
32051	 -0.006	  0.011	  0.361	 -0.026	 -0.094	 -9.919	  0.001	 -0.000	  0.001	 29.600	 99.445	  0.037
32101	 -0.007	  0.014	  0.358	  0.048	 -0.141	 -9.824	 -0.008	  0.005	 -0.000	 29.600	 99.445	  0.037
32151	 -0.007	  0.015	  0.363	  0.215	  0.077	 -9.784	 -0.004	  0.002	 -0.000	 29.600	 99.445	  0.037
32201	 -0.007	  0.010	  0.359	 -0.023	 -0.088	 -9.791	 -0.000	  0.000	  0.003	 29.600	 99.452	 -0.586
32251	 -0.006	  0.010	  0.360	  0.002	 -0.160	 -9.866	 -0.004	  0.003	  0.001	 29.600	 99.445	  0.037
32301	 -0.005	  0.010	  0.350	  0.049	 -0.097	 -9.872	 -0.009	  0.004	 -0.001	 29.600	 99.445	  0.037
32351	 -0.009	  0.022	  0.362	  0.022	 -0.069	 -9.847	  0.001	 -0.003	  0.002	 29.600	 99.441	  0.392
32401	 -0.008	  0.010	  0.362	  0.007	 -0.217	 -9.860	 -0.001	 -0.001	  0.002	 29.600	 99.441	  0.392
32451	 -0.007	  0.011	  0.361	  0.041	 -0.112	 -9.809	 -0.006	  0.005	 -0.001	 29.600	 99.445	  0.037
32501	 -0.007	  0.009	  0.362	  0.073	 -0.062	 -9.826	  0.002	 -0.002	  0.002	 29.600	 99.445	  0.037
32551	 -0.008	  0.009	  0.360	  0.085	 -0.151	 -9.808	  0.002	 -0.002	  0.001	 29.600	 99.445	  0.037
32601	 -0.005	  0.008	  0.362	  0.031	 -0.125	 -9.851	 -0.008	  0.006	  0.000	 29.600	 99.449	 -0.318
32651	 -0.011	  0.012	  0.361	  0.129	  0.015	 -9.834	 -0.003	  0.000	  0.001	 29.600	 99.445	  0.037
32701	 -0.008	  0.007	  0.364	  0.065	 -0.091	 -9.843	 -0.001	 -0.001	  0.001	 29.600	 99.449	 -0.318
32751	 -0.006	  0.008	  0.360	 -0.021	 -0.154	 -9.904	 -0.006	  0.003	  0.001	 29.600	 99.445	  0.037
32801	 -0.010	  0.008	  0.366	  0.042	 -0.103	 -9.829	 -0.009	  0.007	  0.001	 29.600	 99.445	  0.037
32851	 -0.008	  0.008	  0.359	  0.052	 -0.099	 -9.820	  0.002	 -0.000	  0.001	 29.600	 99.445	  0.037
32901	 -0.008	  0.010	  0.358	 -0.025	 -0.155	 -9.846	 -0.000	  0.002	  0.002	 29.600	 99.445	  0.037
32951	 -0.006	  0.012	  0.363	  0.051	 -0.113	 -9.836	 -0.006	  0.003	  0.001	 29.600	 99.445	  0.037
33001	 -0.005	  0.008	  0.369	  0.117	  0.037	 -9.780	  0.000	 -0.001	  0.001	 29.600	 99.457	 -1.030
33051	 -0.007	  0.015	  0.364	 -0.009	 -0.100	 -9.871	  0.003	 -0.001	  0.002	 29.600	 99.445	  0.037
33101	 -0.008	  0.015	  0.359	  0.023	 -0.148	 -9.868	 -0.007	  0.005	  0.000	 29.600	 99.445	  0.037
33152	 -0.006	  0.009	  0.362	  0.096	 -0.021	 -9.778	 -0.008	  0.004	  0.002	 29.600	 99.445	  0.037
33201	 -0.007	  0.019	  0.361	  0.005	 -0.079	 -9.830	  0.001	 -0.000	  0.001	 29.600	 99.445	  0.037
33252	 -0.006	  0.006	  0.361	  0.011	 -0.177	 -9.860	 -0.003	  0.003	  0.001	 29.600	 99.449	 -0.318
33301	 -0.007	  0.008	  0.358	  0.024	 -0.075	 -9.865	 -0.007	  0.004	  0.000	 29.600	 99.445	  0.037
33351	 -0.007	  0.010	  0.362	  0.046	 -0.078	 -9.841	  0.001	 -0.000	  0.003	 29.600	 99.461	 -1.385
33401	 -0.007	  0.008	  0.360	 -0.008	 -0.129	 -9.885	  0.001	 -0.000	  0.002	 29.600	 99.445	  0.037
33452	 -0.006	  0.017	  0.362	  0.032	 -0.114	 -9.836	 -0.007	  0.003	  0.001	 29.600	 99.445	  0.037
33502	 -0.007	  0.008	  0.359	  0.072	 -0.005	 -9.818	 -0.003	  0.001	  0.001	 29.600	 99.445	  0.037
33552	 -0.008	  0.010	  0.362	  0.058	 -0.129	 -9.828	 -0.000	 -0.001	  0.001	 29.600	 99.445	  0.037
33603	 -0.006	  0.012	  0.361	 -0.026	 -0.149	 -9.876	 -0.005	  0.003	  0.001	 29.600	 99.445	  0.037
33652	 -0.008	  0.010	  0.359	  0.056	 -0.102	 -9.819	 -0.008	  0.005	  0.001	 29.600	 99.445	  0.037
33703	 -0.007	  0.012	  0.364	  0.033	 -0.097	 -9.787	  0.003	 -0.002	  0.000	 29.600	 99.445	  0.037
33753	 -0.007	  0.016	  0.360	  0.030	 -0.141	 -9.839	 -0.004	  0.003	  0.001	 29.600	 99.445	  0.037
33803	 -0.009	  0.008	  0.362	  0.055	 -0.117	 -9.838	 -0.007	  0.004	  0.000	 29.600	 99.445	  0.037
33853	 -0.007	  0.015	  0.360	  0.035	 -0.042	 -9.802	 -0.002	  0.001	  0.001	 29.600	 99.445	  0.037
33903	 -0.007	  0.011	  0.352	  0.037	 -0.118	 -9.828	  0.002	 -0.002	  0.002	 29.600	 99.434	  1.014
33953	 -0.008	  0.008	  0.361	  0.051	 -0.122	 -9.871	 -0.006	  0.004	  0.001	 29.600	 99.457	 -1.030
34003	 -0.009	  0.010	  0.364	  0.068	 -0.024	 -9.822	 -0.003	  0.002	  0.001	 29.600	 99.445	  0.037
34053	 -0.008	  0.011	  0.362	  0.034	 -0.111	 -9.819	 -0.000	  0.001	 -0.000	 29.600	 99.445	  0.037
34103	 -0.009	  0.009	  0.354	  0.024	 -0.136	 -9.867	 -0.003	 -0.000	  0.000	 29.600	 99.445	  0.037
34153	 -0.008	  0.008	  0.361	  0.036	 -0.085	 -9.810	 -0.006	  0.003	  0.001	 29.600	 99.445	  0.037
34203	 -0.007	  0.011	  0.358	  0.033	 -0.045	 -9.785	 -0.002	  0.000	  0.002	 29.600	 99.430	  1.369
34253	 -0.006	  0.018	  0.363	  0.001	 -0.105	 -9.838	  0.001	 -0.002	  0.002	 29.600	 99.434	  1.014
34303	 -0.010	  0.010	  0.361	  0.056	 -0.121	 -9.817	 -0.008	  0.003	  0.002	 29.600	 99.434	  1.014
34353	 -0.009	  0.012	  0.361	  0.082	 -0.036	 -9.829	 -0.003	  0.002	  0.001	 29.600	 99.445	  0.037
34404	 -0.009	  0.010	  0.360	  0.021	 -0.100	 -9.805	  0.002	 -0.000	  0.001	 29.600	 99.434	  1.014
34454	 -0.007	  0.019	  0.367	  0.013	 -0.135	 -9.859	 -0.007	  0.004	  0.000	 29.600	 99.434	  1.014
34504	 -0.008	  0.010	  0.360	  0.128	  0.040	 -9.785	 -0.003	  0.001	  0.002	 29.600	 99.445	  0.037
34554	 -0.008	  0.014	  0.362	  0.018	 -0.153	 -9.884	  0.003	 -0.002	  0.002	 29.600	 99.445	  0.037
34604	 -0.006	  0.009	  0.361	  0.013	 -0.102	 -9.830	 -0.009	  0.005	  0.001	 29.600	 99.445	  0.037
34654	 -0.007	  0.009	  0.360	  0.065	 -0.070	 -9.815	 -0.003	 -0.001	  0.002	 29.600	 99.445	  0.037
34704	 -0.007	  0.009	  0.364	  0.040	 -0.100	 -9.857	 -0.001	  0.001	  0.001	 29.600	 99.445	  0.037
34754	 -0.006	  0.018	  0.359	  0.007	 -0.120	 -9.817	  0.001	 -0.001	  0.000	 29.700	 99.438	  0.658
34804	 -0.007	  0.008	  0.357	  0.033	 -0.135	 -9.856	 -0.006	  0.003	  0.001	 29.600	 99.445	  0.037
34854	 -0.007	  0.010	  0.359	  0.046	 -0.042	 -9.817	 -0.008	  0.002	  0.000	 29.600	 99.445	  0.037
34904	 -0.006	  0.008	  0.358	  0.042	 -0.121	 -9.843	  0.003	 -0.002	  0.001	 29.600	 99.449	 -0.318
34954	 -0.005	  0.019	  0.363	  0.028	 -0.116	 -9.879	 -0.007	  0.004	  0.001	 29.600	 99.457	 -1.030
35005	 -0.006	  0.008	  0.360	  0.092	  0.011	 -9.770	 -0.003	  0.000	  0.000	 29.600	 99.438	  0.658
35055	 -0.005	  0.010	  0.360	  0.017	 -0.112	 -9.837	  0.001	 -0.001	  0.001	 29.700	 99.449	 -0.318
35105	 -0.006	  0.011	  0.358	 -0.007	 -0.127	 -9.827	 -0.005	  0.003	  0.001	 29.600	 99.449	 -0.318
35155	 -0.006	  0.009	  0.359	  0.050	 -0.091	 -9.866	 -0.007	  0.004	  0.001	 29.600	 99.438	  0.658
35205	 -0.005	  0.008	  0.362	  0.056	 -0.100	 -9.837	  0.000	 -0.002	  0.001	 29.600	 99.449	 -0.318
35255	 -0.006	  0.012	  0.363	  0.016	 -0.159	 -9.868	 -0.001	  0.001	  0.001	 29.700	 99.438	  0.658
35305	 -0.005	  0.009	  0.360	  0.020	 -0.094	 -9.790	 -0.005	  0.003	  0.000	 29.600	 99.457	 -1.030
35355	 -0.008	  0.009	  0.364	  0.056	 -0.107	 -9.832	 -0.006	  0.002	  0.000	 29.600	 99.438	  0.658
35405	 -0.007	  0.010	  0.358	  0.052	 -0.091	 -9.880	  0.001	 -0.002	  0.002	 29.600	 99.434	  1.014
35455	 -0.007	  0.010	  0.363	 -0.030	 -0.141	 -9.829	 -0.005	  0.003	  0.001	 29.700	 99.449	 -0.318
35505	 -0.007	  0.010	  0.359	  0.023	 -0.078	 -9.839	 -0.008	  0.004	  0.001	 29.600	 99.449	 -0.318
35555	 -0.005	  0.009	  0.356	  0.051	 -0.107	 -9.871	  0.003	 -0.002	  0.001	 29.600	 99.449	 -0.318
35605	 -0.005	  0.017	  0.360	  0.007	 -0.135	 -9.834	 -0.005	  0.003	  0.001	 29.600	 99.449	 -0.318
35655	 -0.006	  0.011	  0.361	  0.056	 -0.056	 -9.821	 -0.007	  0.003	  0.002	 29.600	 99.449	 -0.318
35705	 -0.006	  0.019	  0.360	  0.058	 -0.090	 -9.876	  0.001	 -0.001	  0.001	 29.600	 99.438	  0.658
35755	 -0.005	  0.012	  0.361	 -0.026	 -0.130	 -9.849	 -0.002	  0.000	  0.002	 29.600	 99.438	  0.658
35805	 -0.006	  0.005	  0.359	 -0.026	 -0.083	 -9.839	 -0.005	  0.004	  0.000	 29.600	 99.449	 -0.318
35855	 -0.006	  0.017	  0.361	  0.068	 -0.091	 -9.829	 -0.001	 -0.000	  0.001	 29.600	 99.445	  0.037
35905	 -0.008	  0.009	  0.364	  0.084	 -0.065	 -9.786	 -0.003	  0.002	  0.002	 29.600	 99.461	 -1.385
35955	 -0.005	  0.010	  0.360	 -0.002	 -0.105	 -9.869	  0.003	 -0.002	  0.000	 29.600	 99.434	  1.014
36005	 -0.007	  0.018	  0.362	  0.021	 -0.087	 -9.824	 -0.006	  0.003	  0.001	 29.600	 99.449	 -0.318
36056	 -0.004	  0.008	  0.360	  0.107	 -0.032	 -9.810	 -0.005	  0.003	  0.001	 29.600	 99.449	 -0.318
36106	 -0.006	  0.009	  0.366	  0.021	 -0.091	 -9.817	  0.003	 -0.002	  0.001	 29.600	 99.449	 -0.318
36156	 -0.006	  0.013	  0.363	  0.045	 -0.196	 -9.836	 -0.005	  0.002	  0.001	 29.600	 99.449	 -0.318
36206	 -0.006	  0.011	  0.359	  0.016	 -0.083	 -9.829	 -0.007	  0.003	  0.001	 29.600	 99.434	  1.014
36256	 -0.010	  0.013	  0.360	  0.035	 -0.071	 -9.807	 -0.001	  0.001	  0.001	 29.600	 99.438	  0.658
36306	 -0.005	  0.011	  0.361	  0.037	 -0.155	 -9.818	 -0.001	  0.000	  0.001	 29.600	 99.438	  0.658
36356	 -0.003	  0.012	  0.359	  0.042	 -0.111	 -9.825	 -0.006	  0.004	  0.002	 29.600	 99.438	  0.658
36406	 -0.005	  0.019	  0.362	 -0.007	 -0.099	 -9.861	  0.002	 -0.001	  0.001	 29.600	 99.438	  0.658
36456	 -0.006	  0.017	  0.362	  0.074	 -0.016	 -9.858	 -0.002	  0.000	  0.002	 29.600	 99.438	  0.658
36506	 -0.006	  0.012	  0.362	  0.027	 -0.124	 -9.832	 -0.003	  0.003	  0.001	 29.600	 99.438	  0.658
36556	 -0.007	  0.011	  0.360	  0.008	 -0.092	 -9.810	 -0.000	 -0.000	 -0.000	 29.600	 99.438	  0.658
36606	 -0.005	  0.016	  0.362	  0.038	 -0.119	 -9.836	 -0.002	  0.000	  0.001	 29.600	 99.438	  0.658
36656	 -0.006	  0.013	  0.362	  0.048	 -0.100	 -9.828	 -0.004	  0.002	  0.002	 29.600	 99.449	 -0.318
36706	 -0.005	  0.013	  0.356	  0.010	 -0.128	 -9.853	 -0.002	  0.000	  0.001	 29.600	 99.438	  0.658
36756	 -0.008	  0.012	  0.363	  0.028	 -0.101	 -9.863	 -0.006	  0.003	  0.001	 29.600	 99.461	 -1.385
36806	 -0.005	  0.010	  0.361	  0.033	 -0.065	 -9.852	 -0.001	 -0.002	  0.001	 29.600	 99.438	  0.658
36856	 -0.005	  0.010	  0.354	  0.050	 -0.123	 -9.877	  0.002	  0.001	  0.002	 29.600	 99.449	 -0.318
36906	 -0.003	  0.015	  0.360	 -0.012	 -0.166	 -9.838	 -0.009	  0.006	  0.001	 29.600	 99.449	 -0.318
36956	 -0.005	  0.010	  0.360	 -0.026	 -0.293	 -9.878	 -0.005	  0.001	  0.001	 29.600	 99.438	  0.658
37006	 -0.007	  0.009	  0.361	  0.124	  0.014	 -9.814	 -0.006	  0.003	  0.001	 29.600	 99.438	  0.658
37056	 -0.010	  0.010	  0.362	 -0.036	 -0.168	 -9.891	 -0.001	  0.003	 -0.002	 29.600	 99.449	 -0.318
37107	 -0.007	  0.008	  0.358	 -0.104	 -0.431	 -9.926	 -0.009	  0.011	 -0.109	 29.700	 99.442	  0.303
37157	 -0.009	  0.018	  0.361	  0.433	 -0.493	 -9.801	 -0.010	  0.014	 -0.199	 29.600	 99.449	 -0.318
37207	 -0.012	  0.018	  0.360	 -0.936	 -0.365	 -10.174	 -0.031	  0.134	 -0.282	 29.600	 99.449	 -0.318
37257	 -0.020	  0.008	  0.364	 -0.142	 -0.293	 -9.952	 -0.085	  0.320	 -0.233	 29.700	 99.438	  0.658
37307	 -0.030	  0.013	  0.363	 -0.090	  0.356	 -9.884	 -0.120	  0.422	 -0.077	 29.600	 99.438	  0.658
37357	 -0.037	  0.006	  0.361	  1.133	  0.097	 -9.617	 -0.100	  0.354	  0.016	 29.700	 99.442	  0.303
37407	 -0.045	  0.005	  0.359	  1.709	  0.372	 -9.382	 -0.037	  0.132	  0.001	 29.600	 99.438	  0.658
37457	 -0.045	  0.004	  0.364	  1.506	  0.232	 -9.451	  0.027	 -0.091	 -0.052	 29.600	 99.438	  0.658
37507	 -0.040	  0.003	  0.355	  0.389	  0.048	 -9.927	  0.039	 -0.140	  0.002	 29.600	 99.449	 -0.318
37557	 -0.041	  0.002	  0.357	  0.181	 -0.059	 -9.964	  0.012	 -0.044	 -0.005	 29.700	 99.438	  0.658
37607	 -0.040	  0.011	  0.362	  0.190	 -0.303	 -10.047	 -0.024	  0.092	 -0.076	 29.600	 99.438	  0.658
37657	 -0.045	 -0.000	  0.359	  0.344	  0.087	 -9.959	 -0.068	  0.243	 -0.074	 29.700	 99.454	 -0.764
37707	 -0.049	 -0.001	  0.364	  1.147	  0.188	 -9.523	 -0.030	  0.194	 -0.179	 29.700	 99.454	 -0.764
37757	 -0.056	  0.002	  0.359	  1.383	 -0.003	 -9.599	  0.020	  0.037	 -0.335	 29.700	 99.438	  0.658
37807	 -0.058	 -0.002	  0.360	  1.533	  0.261	 -9.530	  0.027	 -0.112	 -0.382	 29.700	 99.454	 -0.764
37857	 -0.055	 -0.002	  0.366	  0.232	  0.468	 -9.927	  0.041	 -0.102	 -0.197	 29.600	 99.461	 -1.385
37907	 -0.053	  0.005	  0.362	  0.472	 -0.103	 -9.906	  0.030	 -0.017	 -0.077	 29.700	 99.442	  0.303
37957	 -0.058	  0.001	  0.364	  0.554	 -0.026	 -9.855	  0.023	  0.051	 -0.132	 29.600	 99.449	 -0.318
38007	 -0.060	  0.008	  0.361	  0.860	  0.017	 -9.805	  0.017	  0.050	 -0.235	 29.700	 99.454	 -0.764
38057	 -0.064	  0.002	  0.364	  0.746	  0.015	 -9.804	  0.060	  0.063	 -0.386	 29.700	 99.438	  0.658
38107	 -0.069	  0.001	  0.354	  0.884	  0.195	 -9.768	  0.187	  0.074	 -0.626	 29.700	 99.442	  0.303
38157	 -0.076	  0.006	  0.359	  0.514	  0.113	 -9.924	  0.183	  0.157	 -0.576	 29.600	 99.438	  0.658
38207	 -0.086	  0.011	  0.349	  0.968	  0.270	 -9.758	  0.263	  0.203	 -0.567	 29.700	 99.438	  0.658
38258	 -0.092	  0.011	  0.356	  1.037	  0.117	 -9.735	  0.268	  0.193	 -0.288	 29.700	 99.454	 -0.764
38308	 -0.095	  0.019	  0.346	  1.732	 -0.099	 -9.510	  0.295	  0.155	 -0.153	 29.700	 99.454	 -0.764
38358	 -0.099	  0.026	  0.348	  1.334	 -0.765	 -9.653	  0.226	  0.131	 -0.042	 29.700	 99.442	  0.303
38408	 -0.104	  0.027	  0.346	  0.961	 -0.811	 -9.916	  0.151	  0.039	 -0.131	 29.700	 99.465	 -1.740
38458	 -0.104	  0.030	  0.346	  0.683	 -0.769	 -10.113	  0.015	  0.078	  0.037	 29.700	 99.442	  0.303
38508	 -0.111	  0.032	  0.344	  0.509	 -0.847	 -10.126	 -0.100	  0.351	  0.160	 29.700	 99.442	  0.303
38558	 -0.117	  0.028	  0.342	  2.056	 -0.480	 -9.403	 -0.064	  0.543	  0.131	 29.700	 99.442	  0.303
38609	 -0.123	  0.030	  0.343	  2.803	 -0.397	 -9.653	  0.068	  0.146	  0.048	 29.700	 99.449	 -0.318
38658	 -0.126	  0.030	  0.337	  2.462	 -0.795	 -10.362	 -0.029	  0.044	 -0.231	 29.700	 99.442	  0.303
38708	 -0.129	  0.022	  0.343	  2.006	 -0.518	 -10.039	 -0.206	 -0.051	 -0.397	 29.700	 99.442	  0.303
38758	 -0.131	  0.019	  0.341	  1.555	 -0.300	 -9.948	 -0.332	  0.027	 -0.469	 29.700	 99.449	 -0.318
38808	 -0.138	  0.008	  0.342	  2.272	  0.499	 -10.222	 -0.257	  0.125	 -0.370	 29.700	 99.454	 -0.764
38858	 -0.146	 -0.003	  0.346	  1.316	  0.148	 -10.625	 -0.268	  0.308	 -0.381	 29.700	 99.442	  0.303
38908	 -0.154	 -0.006	  0.339	  1.881	  0.685	 -10.068	 -0.241	  0.449	 -0.197	 29.700	 99.442	  0.303
38958	 -0.169	 -0.011	  0.337	  2.680	  0.187	 -9.843	 -0.410	  0.707	 -0.125	 29.700	 99.454	 -0.764
39008	 -0.187	 -0.024	  0.334	  2.884	  0.953	 -9.511	 -0.442	  0.793	 -0.010	 29.700	 99.442	  0.303
39059	 -0.204	 -0.031	  0.329	  3.816	  0.739	 -9.413	 -0.467	  0.855	  0.132	 29.700	 99.442	  0.303
39108	 -0.227	 -0.049	  0.316	  3.271	  0.401	 -9.912	 -0.743	  1.099	  0.008	 29.700	 99.442	  0.303
39158	 -0.252	 -0.072	  0.309	  4.507	  1.996	 -8.621	 -0.758	  1.163	  0.207	 29.700	 99.442	  0.303
39208	 -0.273	 -0.081	  0.288	  4.365	  1.117	 -9.251	 -0.789	  1.378	  0.228	 29.700	 99.442	  0.303
39258	 -0.302	 -0.096	  0.281	  6.018	  1.882	 -8.217	 -0.782	  1.388	  0.233	 29.700	 99.442	  0.303
39308	 -0.326	 -0.108	  0.257	  6.395	  2.135	 -7.737	 -0.798	  1.285	  0.059	 29.700	 99.431	  1.280
39358	 -0.350	 -0.125	  0.236	  6.261	  2.330	 -7.463	 -0.784	  1.268	 -0.034	 29.700	 99.442	  0.303
39410	 -0.371	 -0.134	  0.209	  6.598	  2.851	 -6.589	 -0.685	  1.239	 -0.055	 29.700	 99.447	 -0.141
39460	 -0.392	 -0.145	  0.188	  6.715	  3.131	 -6.199	 -0.407	  1.118	  0.149	 29.700	 99.442	  0.303
39510	 -0.408	 -0.143	  0.162	  8.022	  2.727	 -5.496	 -0.379	  1.061	  0.178	 29.700	 99.442	  0.303
39560	 -0.419	 -0.147	  0.143	  7.793	  2.550	 -5.210	 -0.437	  0.822	 -0.154	 29.700	 99.442	  0.303
39610	 -0.429	 -0.165	  0.131	  7.688	  2.713	 -4.356	 -0.455	  0.365	 -0.592	 29.700	 99.442	  0.303
39660	 -0.429	 -0.185	  0.125	  6.698	  3.330	 -4.600	 -0.229	  0.016	 -0.653	 29.700	 99.454	 -0.764
39710	 -0.426	 -0.202	  0.120	  6.237	  2.933	 -5.020	 -0.213	  0.099	 -0.396	 29.700	 99.442	  0.303
39760	 -0.427	 -0.209	  0.124	  6.603	  3.605	 -3.949	 -0.076	 -0.044	 -0.215	 29.700	 99.447	 -0.141
39810	 -0.424	 -0.209	  0.127	  6.693	  3.767	 -3.712	 -0.017	 -0.085	 -0.144	 29.700	 99.442	  0.303
39860	 -0.423	 -0.206	  0.123	  6.172	  3.109	 -4.541	  0.168	 -0.122	 -0.060	 29.700	 99.435	  0.925
39910	 -0.424	 -0.214	  0.124	  7.276	  3.593	 -4.260	  0.251	 -0.144	  0.042	 29.700	 99.442	  0.303
39960	 -0.420	 -0.208	  0.128	  7.722	  3.885	 -4.516	  0.297	 -0.242	  0.051	 29.700	 99.442	  0.303
40010	 -0.415	 -0.203	  0.144	  7.696	  3.311	 -4.854	  0.335	 -0.282	 -0.146	 29.700	 99.431	  1.280
40060	 -0.411	 -0.207	  0.150	  7.018	  3.959	 -4.834	  0.386	 -0.310	 -0.121	 29.700	 99.431	  1.280
40110	 -0.408	 -0.195	  0.157	  7.034	  3.635	 -5.348	  0.454	 -0.312	 -0.032	 29.700	 99.442	  0.303
40160	 -0.402	 -0.194	  0.164	  7.355	  3.301	 -5.732	  0.408	 -0.223	 -0.091	 29.700	 99.447	 -0.141
40210	 -0.399	 -0.188	  0.174	  7.474	  3.801	 -5.781	  0.406	 -0.343	 -0.071	 29.700	 99.454	 -0.764
40260	 -0.394	 -0.176	  0.183	  6.867	  3.133	 -6.400	  0.418	 -0.436	 -0.220	 29.700	 99.435	  0.925
40310	 -0.388	 -0.177	  0.187	  6.646	  3.447	 -6.302	  0.337	 -0.234	 -0.235	 29.700	 99.442	  0.303
40360	 -0.382	 -0.177	  0.193	  7.007	  3.588	 -6.182	  0.391	 -0.414	 -0.210	 29.700	 99.458	 -1.119
40410	 -0.374	 -0.176	  0.202	  6.482	  2.811	 -6.696	  0.358	 -0.359	 -0.236	 29.700	 99.442	  0.303
40460	 -0.368	 -0.176	  0.210	  6.334	  3.125	 -6.965	  0.332	 -0.383	 -0.250	 29.700	 99.447	 -0.141
40510	 -0.363	 -0.169	  0.212	  5.976	  2.866	 -7.104	  0.322	 -0.421	 -0.240	 29.700	 99.442	  0.303
40561	 -0.355	 -0.175	  0.226	  5.526	  2.938	 -7.189	  0.359	 -0.422	 -0.216	 29.700	 99.442	  0.303
40611	 -0.348	 -0.165	  0.235	  5.265	  3.286	 -7.582	  0.451	 -0.454	 -0.167	 29.700	 99.447	 -0.141
40661	 -0.343	 -0.160	  0.242	  5.285	  2.451	 -7.844	  0.436	 -0.390	 -0.317	 29.700	 99.442	  0.303
40711	 -0.335	 -0.155	  0.253	  4.945	  2.952	 -7.944	  0.365	 -0.431	 -0.413	 29.700	 99.454	 -0.764
40761	 -0.323	 -0.161	  0.256	  4.636	  2.772	 -7.845	  0.405	 -0.491	 -0.446	 29.700	 99.447	 -0.141
40811	 -0.315	 -0.153	  0.269	  3.978	  2.589	 -7.834	  0.447	 -0.599	 -0.366	 29.700	 99.442	  0.303
40861	 -0.302	 -0.150	  0.277	  3.390	  2.648	 -7.911	  0.484	 -0.638	 -0.168	 29.700	 99.447	 -0.141
40911	 -0.291	 -0.133	  0.284	  2.948	  2.325	 -8.855	  0.588	 -0.502	  0.050	 29.700	 99.447	 -0.141
40961	 -0.282	 -0.129	  0.291	  3.880	  1.886	 -8.999	  0.504	 -0.437	  0.053	 29.700	 99.458	 -1.119
41011	 -0.272	 -0.121	  0.296	  4.102	  2.173	 -9.346	  0.450	 -0.496	 -0.181	 29.700	 99.447	 -0.141
41061	 -0.261	 -0.109	  0.300	  4.323	  2.221	 -9.633	  0.375	 -0.617	 -0.297	 29.700	 99.447	 -0.141
41111	 -0.251	 -0.110	  0.316	  3.393	  2.177	 -9.928	  0.266	 -0.685	 -0.396	 29.700	 99.442	  0.303
41161	 -0.235	 -0.108	  0.319	  2.753	  2.290	 -10.207	  0.126	 -0.569	 -0.384	 29.700	 99.442	  0.303
41211	 -0.226	 -0.119	  0.321	  2.259	  2.399	 -10.224	 -0.064	 -0.283	 -0.365	 29.700	 99.447	 -0.141
41261	 -0.225	 -0.127	  0.325	  2.139	  2.432	 -10.353	 -0.239	  0.067	 -0.272	 29.700	 99.447	 -0.141
41311	 -0.229	 -0.131	  0.326	  2.924	  2.834	 -9.531	 -0.336	  0.218	 -0.189	 29.700	 99.442	  0.303
41361	 -0.236	 -0.143	  0.324	  2.700	  2.946	 -9.247	 -0.294	  0.199	  0.016	 29.700	 99.435	  0.925
41411	 -0.239	 -0.150	  0.320	  2.864	  2.415	 -9.431	 -0.395	  0.266	  0.203	 29.700	 99.447	 -0.141
41461	 -0.247	 -0.160	  0.320	  2.891	  2.409	 -9.044	 -0.490	  0.269	  0.159	 29.700	 99.447	 -0.141
41511	 -0.251	 -0.163	  0.301	  2.969	  2.772	 -8.676	 -0.482	  0.271	  0.194	 29.700	 99.435	  0.925
41561	 -0.257	 -0.174	  0.311	  3.035	  2.924	 -8.436	 -0.363	  0.174	  0.184	 29.700	 99.458	 -1.119
41611	 -0.260	 -0.173	  0.308	  2.757	  2.860	 -8.542	 -0.204	  0.127	  0.261	 29.700	 99.442	  0.303
41661	 -0.266	 -0.170	  0.304	  3.258	  2.700	 -8.328	 -0.138	  0.097	  0.126	 29.700	 99.435	  0.925
41711	 -0.265	 -0.176	  0.304	  3.168	  2.877	 -8.513	 -0.069	  0.033	 -0.016	 29.700	 99.435	  0.925
41761	 -0.266	 -0.178	  0.307	  2.720	  2.988	 -8.841	  0.034	  0.046	  0.044	 29.700	 99.431	  1.280
41811	 -0.267	 -0.180	  0.298	  3.327	  2.708	 -8.470	 -0.027	  0.163	 -0.028	 29.700	 99.431	  1.280
41861	 -0.271	 -0.178	  0.301	  3.452	  2.709	 -8.602	 -0.047	  0.176	 -0.030	 29.700	 99.447	 -0.141
41911	 -0.274	 -0.180	  0.299	  3.820	  2.857	 -8.640	 -0.025	  0.168	  0.032	 29.700	 99.447	 -0.141
41961	 -0.277	 -0.179	  0.298	  3.749	  2.965	 -8.547	  0.033	  0.058	  0.034	 29.700	 99.435	  0.925
42011	 -0.278	 -0.175	  0.291	  3.749	  2.959	 -8.786	 -0.028	  0.143	  0.059	 29.700	 99.447	 -0.141
42061	 -0.282	 -0.178	  0.286	  3.614	  3.051	 -8.755	 -0.116	  0.296	  0.113	 29.700	 99.447	 -0.141
42111	 -0.288	 -0.186	  0.288	  3.993	  3.134	 -8.713	 -0.235	  0.392	  0.166	 29.700	 99.435	  0.925
42161	 -0.299	 -0.181	  0.282	  4.108	  3.422	 -8.606	 -0.296	  0.476	  0.246	 29.700	 99.435	  0.925
42211	 -0.309	 -0.180	  0.278	  4.745	  3.533	 -8.216	 -0.290	  0.407	  0.293	 29.700	 99.447	 -0.141
42262	 -0.316	 -0.185	  0.265	  4.879	  3.448	 -8.104	 -0.385	  0.321	  0.189	 29.700	 99.447	 -0.141
42312	 -0.319	 -0.197	  0.262	  4.570	  3.625	 -7.972	 -0.369	  0.316	  0.134	 29.700	 99.447	 -0.141
42362	 -0.326	 -0.196	  0.256	  4.705	  3.954	 -7.763	 -0.362	  0.381	  0.258	 29.700	 99.435	  0.925
42412	 -0.337	 -0.194	  0.251	  5.153	  3.744	 -7.621	 -0.313	  0.407	  0.286	 29.700	 99.447	 -0.141
42462	 -0.345	 -0.200	  0.239	  5.398	  3.795	 -7.577	 -0.329	  0.465	  0.205	 29.700	 99.435	  0.925
42512	 -0.354	 -0.200	  0.230	  5.574	  3.623	 -7.430	 -0.417	  0.564	  0.153	 29.700	 99.447	 -0.141
42562	 -0.364	 -0.209	  0.215	  6.026	  4.307	 -6.893	 -0.438	  0.577	  0.216	 29.700	 99.447	 -0.141
42612	 -0.376	 -0.209	  0.199	  6.608	  4.285	 -6.823	 -0.440	  0.659	  0.255	 29.700	 99.447	 -0.141
42662	 -0.390	 -0.211	  0.187	  6.426	  4.008	 -6.572	 -0.515	  0.806	  0.187	 29.700	 99.435	  0.925
42712	 -0.399	 -0.216	  0.167	  6.808	  4.122	 -6.201	 -0.502	  0.853	  0.311	 29.700	 99.435	  0.925
42762	 -0.412	 -0.226	  0.148	  7.571	  4.265	 -6.081	 -0.618	  1.003	  0.075	 29.700	 99.447	 -0.141
42812	 -0.424	 -0.233	  0.121	  7.738	  4.503	 -5.272	 -0.895	  1.099	 -0.146	 29.700	 99.447	 -0.141
42862	 -0.438	 -0.248	  0.097	  7.685	  5.028	 -4.574	 -0.930	  1.065	 -0.022	 29.700	 99.447	 -0.141
42912	 -0.448	 -0.255	  0.064	  7.554	  5.245	 -4.210	 -0.836	  1.081	  0.138	 29.700	 99.435	  0.925
42962	 -0.462	 -0.267	  0.028	  8.082	  5.134	 -3.458	 -0.985	  1.197	  0.102	 29.700	 99.440	  0.481
43012	 -0.470	 -0.265	  0.001	  8.530	  5.267	 -2.508	 -0.971	  1.151	  0.179	 29.700	 99.435	  0.925
43062	 -0.477	 -0.270	 -0.032	  8.587	  5.244	 -1.972	 -0.950	  1.098	 -0.008	 29.700	 99.435	  0.925
43112	 -0.480	 -0.274	 -0.064	  8.496	  5.405	 -1.247	 -0.974	  1.168	 -0.130	 29.700	 99.451	 -0.496
43162	 -0.484	 -0.282	 -0.098	  8.391	  5.516	 -0.435	 -0.937	  1.179	 -0.151	 29.700	 99.435	  0.925
43212	 -0.485	 -0.290	 -0.128	  8.451	  5.211	  0.465	 -0.952	  1.085	 -0.250	 29.700	 99.435	  0.925
43262	 -0.483	 -0.293	 -0.167	  8.150	  5.449	  1.122	 -0.859	  1.003	 -0.206	 29.700	 99.424	  1.902
43312	 -0.479	 -0.295	 -0.193	  7.622	  5.485	  1.499	 -0.796	  1.034	 -0.253	 29.700	 99.435	  0.925
43362	 -0.471	 -0.300	 -0.236	  7.421	  5.151	  2.262	 -0.757	  0.941	 -0.357	 29.700	 99.451	 -0.496
43412	 -0.466	 -0.305	 -0.252	  7.151	  5.275	  2.693	 -0.737	  1.004	 -0.301	 29.700	 99.435	  0.925
43462	 -0.459	 -0.302	 -0.282	  7.186	  5.323	  3.787	 -0.736	  1.012	 -0.266	 29.700	 99.435	  0.925
43512	 -0.445	 -0.307	 -0.310	  6.618	  4.731	  3.809	 -0.602	  0.860	 -0.254	 29.700	 99.451	 -0.496
43562	 -0.440	 -0.309	 -0.331	  6.434	  5.104	  4.110	 -0.384	  0.810	 -0.079	 29.700	 99.424	  1.902
43613	 -0.427	 -0.308	 -0.351	  6.588	  4.907	  4.535	 -0.495	  0.755	 -0.245	 29.700	 99.435	  0.925
43663	 -0.420	 -0.299	 -0.369	  5.977	  4.909	  4.796	 -0.332	  0.585	 -0.152	 29.700	 99.435	  0.925
43713	 -0.414	 -0.301	 -0.383	  5.930	  4.879	  5.119	 -0.511	  0.618	 -0.202	 29.700	 99.428	  1.547
43763	 -0.405	 -0.285	 -0.399	  5.882	  4.791	  5.328	 -0.300	  0.571	 -0.081	 29.700	 99.440	  0.481
43813	 -0.396	 -0.296	 -0.413	  5.578	  4.983	  5.715	 -0.439	  0.647	 -0.267	 29.700	 99.447	 -0.141
43863	 -0.385	 -0.296	 -0.424	  5.495	  4.847	  6.007	 -0.180	  0.488	 -0.148	 29.700	 99.440	  0.481
43913	 -0.380	 -0.284	 -0.441	  4.939	  4.666	  6.107	 -0.226	  0.377	 -0.193	 29.700	 99.440	  0.481
43963	 -0.374	 -0.293	 -0.443	  4.587	  4.572	  6.119	 -0.215	  0.333	 -0.055	 29.700	 99.440	  0.481
44013	 -0.367	 -0.290	 -0.451	  4.589	  5.158	  6.770	 -0.228	  0.430	  0.029	 29.700	 99.440	  0.481
44063	 -0.362	 -0.288	 -0.462	  4.929	  4.591	  6.585	 -0.148	  0.296	  0.054	 29.700	 99.440	  0.481
44113	 -0.361	 -0.285	 -0.467	  4.509	  5.053	  6.784	 -0.198	  0.297	 -0.034	 29.700	 99.440	  0.481
44163	 -0.356	 -0.277	 -0.472	  4.458	  4.426	  6.312	 -0.306	  0.359	 -0.006	 29.700	 99.451	 -0.496
44213	 -0.348	 -0.275	 -0.479	  4.175	  4.771	  7.105	 -0.263	  0.409	  0.126	 29.700	 99.440	  0.481
44263	 -0.338	 -0.263	 -0.486	  4.447	  4.598	  7.337	 -0.251	  0.430	  0.123	 29.700	 99.428	  1.547
44313	 -0.334	 -0.263	 -0.499	  3.984	  4.349	  7.170	 -0.237	  0.509	  0.122	 29.700	 99.435	  0.925
44363	 -0.325	 -0.254	 -0.511	  4.212	  3.991	  7.411	 -0.249	  0.494	  0.110	 29.700	 99.440	  0.481
44413	 -0.317	 -0.241	 -0.520	  4.058	  4.119	  7.904	 -0.359	  0.435	  0.014	 29.700	 99.440	  0.481
44463	 -0.312	 -0.241	 -0.528	  3.708	  4.231	  8.298	 -0.332	  0.370	  0.134	 29.700	 99.440	  0.481
44513	 -0.303	 -0.233	 -0.534	  3.484	  3.952	  8.251	 -0.270	  0.392	  0.147	 29.700	 99.435	  0.925
44564	 -0.297	 -0.217	 -0.538	  3.502	  3.782	  8.306	 -0.270	  0.434	  0.077	 29.700	 99.428	  1.547
44613	 -0.288	 -0.208	 -0.550	  3.256	  3.825	  8.272	 -0.253	  0.463	  0.139	 29.700	 99.435	  0.925
44664	 -0.283	 -0.209	 -0.553	  3.100	  3.275	  8.250	 -0.322	  0.454	  0.198	 29.700	 99.428	  1.547
44713	 -0.273	 -0.200	 -0.563	  2.960	  3.414	  8.639	 -0.318	  0.402	  0.241	 29.700	 99.440	  0.481
44764	 -0.261	 -0.193	 -0.562	  2.750	  3.158	  8.587	 -0.290	  0.350	  0.252	 29.700	 99.440	  0.481
44813	 -0.259	 -0.184	 -0.578	  2.900	  2.837	  8.856	 -0.251	  0.274	  0.240	 29.700	 99.440	  0.481
44863	 -0.253	 -0.177	 -0.571	  2.700	  2.712	  8.910	 -0.238	  0.193	  0.252	 29.700	 99.424	  1.902
44913	 -0.248	 -0.168	 -0.574	  2.852	  2.707	  9.057	 -0.243	  0.211	  0.207	 29.700	 99.440	  0.481
44964	 -0.247	 -0.160	 -0.577	  2.632	  2.684	  9.024	 -0.210	  0.170	  0.157	 29.700	 99.428	  1.547
45014	 -0.242	 -0.153	 -0.579	  2.700	  2.233	  8.970	 -0.217	  0.149	  0.151	 29.700	 99.447	 -0.141
45064	 -0.238	 -0.147	 -0.583	  2.379	  2.455	  9.196	 -0.230	  0.216	  0.147	 29.700	 99.424	  1.902
45115	 -0.231	 -0.136	 -0.585	  2.739	  2.175	  9.167	 -0.199	  0.243	  0.188	 29.700	 99.428	  1.547
45164	 -0.229	 -0.127	 -0.592	  2.669	  2.038	  9.269	 -0.215	  0.183	  0.109	 29.700	 99.440	  0.481
45215	 -0.226	 -0.129	 -0.589	  2.471	  2.072	  9.330	 -0.246	  0.162	  0.093	 29.700	 99.440	  0.481
45265	 -0.222	 -0.112	 -0.596	  2.177	  1.875	  9.323	 -0.228	  0.240	  0.129	 29.700	 99.440	  0.481
45315	 -0.215	 -0.111	 -0.595	  2.210	  1.806	  9.443	 -0.219	  0.276	  0.133	 29.700	 99.440	  0.481
45365	 -0.210	 -0.104	 -0.600	  2.342	  1.564	  9.543	 -0.243	  0.290	  0.135	 29.700	 99.440	  0.481
45415	 -0.203	 -0.096	 -0.598	  2.024	  1.525	  9.369	 -0.220	  0.241	  0.060	 29.700	 99.455	 -0.852
45465	 -0.199	 -0.094	 -0.599	  1.551	  1.394	  9.456	 -0.249	  0.303	  0.015	 29.700	 99.428	  1.547
45515	 -0.189	 -0.088	 -0.605	  1.397	  1.313	  9.279	 -0.189	  0.329	  0.104	 29.700	 99.433	  1.103
45565	 -0.182	 -0.084	 -0.606	  1.555	  0.992	  9.353	 -0.239	  0.369	  0.114	 29.700	 99.440	  0.481
45615	 -0.173	 -0.077	 -0.606	  1.616	  1.188	  9.693	 -0.232	  0.261	  0.060	 29.700	 99.440	  0.481
45665	 -0.167	 -0.066	 -0.607	  1.288	  0.860	  9.433	 -0.160	  0.160	 -0.014	 29.700	 99.440	  0.481
45715	 -0.166	 -0.068	 -0.612	  0.867	  0.875	  9.560	 -0.141	  0.210	  0.008	 29.700	 99.440	  0.481
45765	 -0.159	 -0.054	 -0.606	  0.875	  0.889	  9.860	 -0.088	  0.229	  0.070	 29.700	 99.440	  0.481
45815	 -0.155	 -0.057	 -0.610	  0.800	  0.702	  9.771	 -0.012	  0.143	  0.097	 29.700	 99.428	  1.547
45865	 -0.155	 -0.058	 -0.611	  0.698	  0.687	  9.586	 -0.070	  0.033	  0.069	 29.700	 99.440	  0.481
45915	 -0.152	 -0.059	 -0.611	  0.653	  0.811	  9.711	 -0.048	  0.045	  0.134	 29.700	 99.428	  1.547
45965	 -0.150	 -0.063	 -0.617	  0.693	  0.787	  9.509	 -0.053	  0.024	  0.093	 29.700	 99.428	  1.547
46015	 -0.152	 -0.055	 -0.610	  0.915	  0.823	  9.800	 -0.017	 -0.032	  0.064	 29.700	 99.433	  1.103
46065	 -0.154	 -0.055	 -0.608	  0.988	  0.608	  9.872	  0.103	 -0.248	 -0.035	 29.700	 99.428	  1.547
46115	 -0.163	 -0.058	 -0.610	  0.707	  0.822	  9.722	  0.253	 -0.500	 -0.223	 29.700	 99.428	  1.547
46165	 -0.178	 -0.064	 -0.606	  0.671	  0.898	  9.545	  0.422	 -0.708	 -0.347	 29.700	 99.440	  0.481
46216	 -0.193	 -0.079	 -0.598	  0.562	  1.069	  9.068	  0.629	 -0.763	 -0.360	 29.700	 99.440	  0.481
46266	 -0.216	 -0.105	 -0.594	  1.427	  1.267	  8.947	  0.716	 -1.005	 -0.303	 29.700	 99.440	  0.481
46316	 -0.241	 -0.131	 -0.589	  2.051	  1.546	  8.757	  0.773	 -1.271	 -0.358	 29.700	 99.433	  1.103
46366	 -0.268	 -0.156	 -0.568	  2.500	  2.033	  8.397	  0.953	 -1.482	 -0.373	 29.700	 99.440	  0.481
46416	 -0.305	 -0.181	 -0.542	  3.228	  2.282	  7.870	  1.104	 -1.791	 -0.416	 29.700	 99.428	  1.547
46466	 -0.335	 -0.208	 -0.511	  4.095	  2.690	  7.227	  1.298	 -2.031	 -0.502	 29.700	 99.444	  0.125
46516	 -0.369	 -0.237	 -0.470	  4.448	  3.717	  6.280	  1.426	 -2.221	 -0.583	 29.700	 99.440	  0.481
46566	 -0.398	 -0.273	 -0.421	  5.150	  4.023	  5.304	  1.472	 -2.082	 -0.442	 29.700	 99.433	  1.103
46616	 -0.424	 -0.306	 -0.366	  5.664	  4.418	  4.116	  1.501	 -2.024	 -0.172	 29.700	 99.444	  0.125
46666	 -0.439	 -0.317	 -0.316	  6.090	  5.088	  3.185	  1.464	 -2.064	 -0.035	 29.700	 99.444	  0.125
46716	 -0.457	 -0.335	 -0.250	  7.213	  5.484	  2.239	  1.504	 -2.165	 -0.009	 29.700	 99.444	  0.125
46766	 -0.462	 -0.343	 -0.186	  7.062	  5.477	  0.553	  1.472	 -2.167	 -0.083	 29.700	 99.440	  0.481
46816	 -0.466	 -0.347	 -0.120	  6.873	  5.848	  0.120	  1.558	 -2.259	 -0.011	 29.700	 99.440	  0.481
46866	 -0.461	 -0.331	 -0.050	  6.764	  4.988	 -1.942	  1.644	 -2.285	  0.409	 29.700	 99.440	  0.481
46916	 -0.450	 -0.317	  0.023	  7.212	  5.641	 -2.639	  1.560	 -2.429	  0.412	 29.700	 99.428	  1.547
46966	 -0.432	 -0.290	  0.087	  6.890	  4.745	 -4.263	  1.510	 -2.343	  0.539	 29.700	 99.444	  0.125
47016	 -0.409	 -0.267	  0.141	  6.867	  4.997	 -6.037	  1.398	 -2.228	  0.324	 29.700	 99.433	  1.103
47067	 -0.374	 -0.238	  0.199	  7.341	  5.544	 -5.984	  1.453	 -2.365	  0.357	 29.700	 99.444	  0.125
47117	 -0.337	 -0.196	  0.243	  5.667	  3.849	 -8.108	  1.442	 -2.369	  0.238	 29.700	 99.455	 -0.852
47167	 -0.291	 -0.172	  0.286	  5.044	  4.123	 -9.220	  1.296	 -2.132	  0.368	 29.700	 99.444	  0.125
47217	 -0.254	 -0.145	  0.308	  3.310	  2.680	 -10.534	  0.974	 -1.664	  0.426	 29.700	 99.444	  0.125
47267	 -0.218	 -0.117	  0.331	  4.082	  3.233	 -9.715	  0.762	 -1.412	  0.482	 29.700	 99.444	  0.125
47317	 -0.190	 -0.096	  0.334	  3.428	  2.512	 -10.333	  0.595	 -1.107	  0.686	 29.700	 99.428	  1.547
47367	 -0.160	 -0.079	  0.345	  2.886	  1.933	 -10.180	  0.497	 -1.093	  0.579	 29.700	 99.455	 -0.852
47417	 -0.134	 -0.065	  0.356	  2.290	  1.492	 -10.244	  0.254	 -0.851	  0.410	 29.700	 99.444	  0.125
47467	 -0.118	 -0.058	  0.354	  1.703	  1.562	 -10.358	  0.194	 -0.604	  0.139	 29.700	 99.444	  0.125
47517	 -0.109	 -0.055	  0.363	  1.810	  1.270	 -10.271	  0.106	 -0.273	  0.087	 29.700	 99.444	  0.125
47567	 -0.103	 -0.045	  0.361	  1.428	  1.275	 -9.456	  0.137	 -0.093	  0.200	 29.700	 99.444	  0.125
47617	 -0.099	 -0.047	  0.359	  1.751	  1.463	 -9.796	  0.277	 -0.112	  0.554	 29.700	 99.455	 -0.852
47667	 -0.090	 -0.034	  0.361	  2.320	  0.476	 -9.521	  0.293	 -0.242	  0.582	 29.700	 99.440	  0.481
47717	 -0.082	 -0.031	  0.361	  1.808	  0.163	 -10.270	  0.093	 -0.314	  0.354	 29.700	 99.440	  0.481
47767	 -0.073	 -0.026	  0.366	  2.088	  0.430	 -9.499	 -0.020	 -0.321	 -0.047	 29.700	 99.444	  0.125
47817	 -0.063	 -0.031	  0.368	  1.333	  0.709	 -10.089	  0.012	 -0.500	 -0.224	 29.700	 99.444	  0.125
47867	 -0.054	 -0.025	  0.367	  0.202	  0.261	 -11.162	  0.064	 -0.390	 -0.287	 29.700	 99.444	  0.125
47917	 -0.054	 -0.029	  0.372	  0.436	  1.093	 -10.421	 -0.091	  0.285	 -0.054	 29.700	 99.455	 -0.852
47967	 -0.061	 -0.031	  0.367	  1.089	  0.381	 -9.714	 -0.034	  0.190	  0.040	 29.700	 99.444	  0.125
48017	 -0.064	 -0.028	  0.370	  0.757	  0.477	 -9.203	  0.064	  0.081	  0.161	 29.700	 99.455	 -0.852
48067	 -0.062	 -0.025	  0.366	  0.487	  0.486	 -9.637	  0.301	 -0.037	  0.345	 29.700	 99.455	 -0.852
48117	 -0.057	 -0.017	  0.363	  1.414	  0.696	 -9.866	  0.258	 -0.242	  0.326	 29.700	 99.444	  0.125
48167	 -0.049	 -0.011	  0.364	  0.537	  0.342	 -9.827	  0.208	 -0.279	  0.211	 29.700	 99.444	  0.125
48217	 -0.044	 -0.010	  0.360	 -0.254	  0.294	 -10.081	  0.233	 -0.175	  0.155	 29.700	 99.440	  0.481
48267	 -0.043	  0.007	  0.358	  0.895	 -0.937	 -9.372	  0.038	 -0.026	  0.043	 29.700	 99.455	 -0.852
48317	 -0.040	  0.002	  0.362	  0.273	  0.448	 -9.982	 -0.044	 -0.075	 -0.028	 29.700	 99.444	  0.125
48368	 -0.038	  0.001	  0.360	  0.324	 -0.285	 -9.867	  0.020	 -0.082	  0.011	 29.700	 99.444	  0.125
48417	 -0.040	  0.002	  0.360	 -0.321	 -0.231	 -10.082	 -0.033	  0.115	 -0.001	 29.700	 99.444	  0.125
48467	 -0.041	 -0.003	  0.359	  0.979	 -0.144	 -9.698	 -0.033	  0.110	 -0.082	 29.700	 99.444	  0.125
48518	 -0.043	  0.001	  0.363	  1.265	  0.327	 -9.477	  0.032	 -0.102	 -0.180	 29.700	 99.455	 -0.852
48568	 -0.041	  0.001	  0.365	 -0.264	 -0.084	 -10.204	  0.006	 -0.034	  0.031	 29.700	 99.459	 -1.207
48618	 -0.041	 -0.001	  0.360	  0.643	 -0.235	 -9.691	 -0.012	  0.048	 -0.019	 29.700	 99.444	  0.125
48668	 -0.036	 -0.002	  0.361	  2.186	  0.974	 -8.912	  0.103	 -0.393	  0.093	 29.700	 99.444	  0.125
48718	 -0.021	  0.009	  0.363	  1.423	  0.303	 -9.167	  0.238	 -0.851	  0.295	 29.700	 99.455	 -0.852
48768	 -0.013	  0.005	  0.361	 -3.562	 -1.328	 -11.641	 -0.089	  0.230	  0.231	 29.700	 99.444	  0.125
48818	 -0.015	  0.009	  0.364	  0.046	 -0.456	 -9.905	 -0.018	 -0.004	 -0.003	 29.700	 99.455	 -0.852
48868	 -0.014	  0.007	  0.359	  0.470	 -0.036	 -10.069	 -0.017	  0.007	  0.013	 29.700	 99.444	  0.125
48918	 -0.015	  0.009	  0.361	  0.118	  0.240	 -10.051	 -0.003	  0.009	  0.002	 29.700	 99.444	  0.125
48968	 -0.015	  0.006	  0.360	 -0.190	 -0.045	 -9.699	 -0.008	 -0.005	 -0.002	 29.700	 99.444	  0.125
49018	 -0.013	  0.007	  0.361	  0.145	  0.015	 -9.875	 -0.005	 -0.007	  0.003	 29.700	 99.459	 -1.207
49068	 -0.014	  0.008	  0.363	  0.181	  0.020	 -9.929	 -0.002	  0.008	  0.001	 29.700	 99.459	 -1.207
49118	 -0.013	  0.003	  0.358	 -0.414	  0.062	 -9.772	 -0.011	 -0.017	  0.004	 29.700	 99.448	 -0.230
49168	 -0.015	  0.005	  0.362	  0.032	 -0.097	 -9.800	 -0.003	  0.001	 -0.002	 29.700	 99.444	  0.125
49218	 -0.014	  0.007	  0.363	  0.061	  0.054	 -9.780	 -0.002	 -0.000	  0.002	 29.700	 99.437	  0.748
49268	 -0.013	  0.005	  0.358	  0.086	 -0.251	 -9.781	 -0.003	 -0.002	  0.002	 29.700	 99.444	  0.125
49318	 -0.014	  0.006	  0.363	  0.068	 -0.202	 -9.850	 -0.002	  0.005	 -0.000	 29.700	 99.433	  1.103
49368	 -0.012	  0.007	  0.361	  0.149	  0.013	 -9.870	 -0.003	  0.000	  0.001	 29.700	 99.448	 -0.230
49418	 -0.014	  0.009	  0.365	  0.099	 -0.141	 -9.803	 -0.001	  0.004	  0.004	 29.700	 99.455	 -0.852
49468	 -0.014	  0.012	  0.359	 -0.087	 -0.174	 -9.865	  0.000	  0.004	  0.000	 29.700	 99.455	 -0.852
49518	 -0.013	  0.010	  0.362	  0.106	 -0.115	 -9.801	 -0.002	  0.004	  0.001	 29.700	 99.448	 -0.230
49568	 -0.014	  0.008	  0.362	  0.062	 -0.070	 -9.836	 -0.002	 -0.000	  0.004	 29.700	 99.455	 -0.852
49618	 -0.014	  0.010	  0.363	 -0.109	 -0.097	 -9.847	 -0.002	  0.002	  0.000	 29.700	 99.459	 -1.207
49668	 -0.015	  0.006	  0.360	  0.073	 -0.082	 -9.865	 -0.004	  0.003	  0.001	 29.700	 99.455	 -0.852
49718	 -0.014	  0.006	  0.359	  0.105	 -0.015	 -9.854	 -0.001	  0.004	  0.001	 29.700	 99.444	  0.125
49768	 -0.012	  0.004	  0.355	 -0.239	 -0.055	 -9.829	 -0.004	 -0.002	  0.001	 29.700	 99.444	  0.125
49818	 -0.018	  0.010	  0.359	  0.040	 -0.095	 -9.824	 -0.002	  0.005	  0.000	 29.700	 99.444	  0.125
49868	 -0.013	  0.007	  0.362	  0.083	 -0.021	 -9.817	 -0.004	 -0.002	  0.002	 29.700	 99.444	  0.125
49918	 -0.012	  0.012	  0.358	 -0.019	 -0.105	 -9.848	 -0.005	 -0.004	  0.002	 29.700	 99.433	  1.103
49969	 -0.015	  0.005	  0.360	 -0.051	 -0.108	 -9.794	 -0.003	  0.002	 -0.000	 29.700	 99.448	 -0.230
50019	 -0.013	  0.009	  0.361	  0.106	 -0.030	 -9.859	 -0.002	  0.002	  0.001	 29.700	 99.444	  0.125
50069	 -0.014	  0.009	  0.361	  0.098	 -0.081	 -9.820	 -0.003	  0.001	  0.002	 29.700	 99.448	 -0.230
50120	 -0.015	  0.005	  0.363	 -0.047	 -0.132	 -9.795	 -0.003	  0.003	  0.001	 29.700	 99.459	 -1.207
50169	 -0.014	  0.010	  0.361	  0.091	 -0.081	 -9.868	 -0.002	  0.001	  0.001	 29.700	 99.444	  0.125
50219	 -0.015	  0.008	  0.354	  0.122	 -0.087	 -9.830	 -0.005	 -0.002	  0.002	 29.700	 99.444	  0.125
50269	 -0.009	  0.008	  0.359	 -0.088	 -0.068	 -9.824	 -0.002	  0.004	  0.001	 29.700	 99.437	  0.748
50319	 -0.015	  0.006	  0.355	  0.049	 -0.097	 -9.828	 -0.002	  0.003	  0.000	 29.700	 99.448	 -0.230
50369	 -0.010	  0.009	  0.360	  0.152	 -0.072	 -9.806	 -0.006	 -0.005	  0.001	 29.700	 99.455	 -0.852
50419	 -0.016	  0.005	  0.362	  0.009	 -0.139	 -9.814	 -0.001	  0.002	  0.002	 29.700	 99.444	  0.125
50469	 -0.014	  0.007	  0.360	  0.001	 -0.123	 -9.854	 -0.002	  0.002	  0.001	 29.700	 99.437	  0.748
50519	 -0.015	  0.008	  0.361	  0.067	 -0.030	 -9.873	 -0.002	  0.002	  0.000	 29.700	 99.448	 -0.230
50569	 -0.014	  0.006	  0.363	 -0.037	 -0.055	 -9.854	 -0.002	  0.003	  0.002	 29.700	 99.437	  0.748
50619	 -0.013	  0.007	  0.363	  0.000	 -0.144	 -9.840	  0.006	  0.017	 -0.001	 29.700	 99.444	  0.125
50670	 -0.013	  0.015	  0.360	  0.075	 -0.077	 -9.799	 -0.001	  0.002	  0.001	 29.700	 99.459	 -1.207
50719	 -0.014	  0.006	  0.356	  0.032	 -0.032	 -9.827	 -0.002	  0.002	 -0.006	 29.700	 99.448	 -0.230
50770	 -0.014	  0.013	  0.362	 -0.108	 -0.055	 -9.811	 -0.003	  0.002	 -0.011	 29.700	 99.444	  0.125
50819	 -0.014	  0.007	  0.363	  0.121	 -0.121	 -9.885	 -0.007	 -0.005	 -0.059	 29.700	 99.433	  1.103
50870	 -0.016	  0.006	  0.360	  0.104	 -0.086	 -9.844	 -0.003	  0.001	  0.002	 29.700	 99.444	  0.125
50919	 -0.014	  0.008	  0.360	  0.007	 -0.069	 -9.827	 -0.003	  0.003	  0.002	 29.700	 99.448	 -0.230
50970	 -0.014	  0.006	  0.357	  0.231	 -0.177	 -9.825	 -0.005	 -0.004	  0.001	 29.700	 99.448	 -0.230
51020	 -0.016	  0.015	  0.358	  0.083	 -0.112	 -9.822	 -0.008	 -0.000	  0.001	 29.700	 99.448	 -0.230
51070	 -0.015	  0.004	  0.354	 -0.167	  0.125	 -9.846	 -0.003	 -0.010	  0.003	 29.700	 99.448	 -0.230
