Time	 MagX	 MagY	 MagZ	 AccelX	 AccelY	 AccelZ	 Yaw	 Pitch	 Roll	 Temperature	 Pressure	 Altitude
13208	 -0.503	  0.000	 -0.430	  9.731	 -0.914	  0.140	 -0.002	  0.004	 -0.000	 38.700	 99.662	 -99999.000
13258	 -0.506	  0.002	 -0.428	  9.750	 -0.898	  0.115	 -0.003	  0.003	  0.001	 38.700	 99.662	 -99999.000
13308	 -0.504	  0.006	 -0.434	  9.755	 -0.921	  0.082	 -0.003	  0.003	  0.001	 38.700	 99.655	 -99999.000
13358	 -0.503	  0.009	 -0.430	  9.743	 -0.929	  0.133	 -0.002	  0.001	  0.000	 38.700	 99.655	 -99999.000
13408	 -0.505	  0.009	 -0.427	  9.738	 -0.894	  0.081	 -0.001	  0.002	  0.000	 38.700	 99.666	 -99999.000
13458	 -0.504	  0.011	 -0.426	  9.731	 -0.928	  0.091	 -0.003	  0.001	  0.000	 38.700	 99.651	 -99999.000
13508	 -0.505	  0.004	 -0.429	  9.724	 -0.908	  0.102	 -0.003	  0.002	 -0.001	 38.700	 99.674	 -99999.000
13558	 -0.508	  0.004	 -0.433	  9.732	 -0.901	  0.082	 -0.003	  0.002	 -0.000	 38.700	 99.655	 -99999.000
13608	 -0.504	  0.002	 -0.431	  9.729	 -0.898	  0.093	 -0.003	  0.001	  0.000	 38.700	 99.655	 -99999.000
13658	 -0.504	  0.005	 -0.429	  9.745	 -0.922	  0.120	 -0.002	  0.002	  0.000	 38.700	 99.655	 -99999.000
13709	 -0.505	  0.007	 -0.428	  9.745	 -0.905	  0.150	 -0.002	  0.002	  0.001	 38.700	 99.655	 -99999.000
13758	 -0.502	  0.001	 -0.426	  9.759	 -0.910	  0.141	 -0.002	  0.002	 -0.001	 38.700	 99.666	 -99999.000
13809	 -0.502	  0.002	 -0.427	  9.739	 -0.902	  0.138	 -0.002	  0.002	  0.000	 38.700	 99.655	 -99999.000
13859	 -0.505	  0.003	 -0.434	  9.779	 -0.921	  0.087	 -0.002	  0.003	  0.000	 38.700	 99.655	 -99999.000
13909	 -0.502	  0.003	 -0.435	  9.732	 -0.903	  0.088	 -0.003	  0.002	  0.000	 38.700	 99.666	 -99999.000
13959	 -0.503	  0.002	 -0.430	  9.737	 -0.899	  0.143	 -0.002	  0.002	  0.001	 38.700	 99.666	 -99999.000
14008	 -0.503	  0.002	 -0.428	  9.743	 -0.914	  0.108	 -0.002	  0.003	  0.001	 38.700	 99.666	 -99999.000
14059	 -0.502	  0.002	 -0.427	  9.740	 -0.910	  0.119	 -0.003	  0.002	  0.000	 38.700	 99.666	 -99999.000
14109	 -0.506	  0.004	 -0.429	  9.753	 -0.899	  0.121	 -0.003	  0.002	  0.000	 38.700	 99.666	 -99999.000
14159	 -0.505	  0.003	 -0.434	  9.757	 -0.901	  0.127	 -0.002	  0.001	 -0.001	 38.700	 99.651	 -99999.000
14209	 -0.504	  0.001	 -0.426	  9.750	 -0.903	  0.092	 -0.002	  0.002	 -0.000	 38.700	 99.662	 -99999.000
14259	 -0.506	  0.003	 -0.428	  9.725	 -0.908	  0.129	 -0.002	  0.002	  0.000	 38.700	 99.666	 -99999.000
14309	 -0.503	  0.004	 -0.430	  9.740	 -0.911	  0.102	 -0.004	  0.002	 -0.000	 38.700	 99.666	 -99999.000
14359	 -0.503	  0.004	 -0.427	  9.733	 -0.904	  0.119	 -0.002	  0.001	  0.000	 38.700	 99.666	 -99999.000
14409	 -0.506	  0.015	 -0.431	  9.749	 -0.912	  0.139	 -0.004	  0.002	 -0.000	 38.700	 99.655	 -99999.000
14460	 -0.505	  0.002	 -0.427	  9.740	 -0.892	  0.113	 -0.002	  0.003	  0.001	 38.700	 99.655	 -99999.000
14510	 -0.504	  0.005	 -0.429	  9.735	 -0.908	  0.121	 -0.003	  0.001	  0.000	 38.700	 99.655	 -99999.000
14560	 -0.500	  0.006	 -0.427	  9.729	 -0.905	  0.117	 -0.003	  0.003	  0.001	 38.700	 99.655	 -99999.000
14610	 -0.505	  0.002	 -0.428	  9.742	 -0.910	  0.136	 -0.003	  0.002	 -0.000	 38.700	 99.655	 -99999.000
14660	 -0.504	  0.003	 -0.431	  9.748	 -0.907	  0.144	 -0.003	  0.002	  0.001	 38.700	 99.662	 -99999.000
14710	 -0.504	  0.004	 -0.426	  9.740	 -0.902	  0.155	 -0.002	  0.001	  0.000	 38.700	 99.666	 -99999.000
14760	 -0.504	  0.005	 -0.430	  9.730	 -0.924	  0.100	 -0.002	  0.003	 -0.000	 38.700	 99.655	 -99999.000
14810	 -0.503	  0.003	 -0.427	  9.730	 -0.925	  0.097	 -0.003	  0.002	 -0.000	 38.700	 99.666	 -99999.000
14860	 -0.505	  0.007	 -0.428	  9.749	 -0.917	  0.118	 -0.003	  0.001	  0.000	 38.700	 99.655	 -99999.000
14910	 -0.505	  0.006	 -0.433	  9.748	 -0.888	  0.139	 -0.004	  0.002	  0.001	 38.700	 99.666	 -99999.000
14960	 -0.505	  0.007	 -0.426	  9.747	 -0.901	  0.103	 -0.003	  0.002	  0.000	 38.700	 99.666	 -99999.000
15010	 -0.505	  0.010	 -0.431	  9.732	 -0.896	  0.120	 -0.004	  0.002	  0.002	 38.700	 99.666	 -99999.000
15060	 -0.503	  0.004	 -0.427	  9.738	 -0.904	  0.091	 -0.003	  0.002	  0.001	 38.700	 99.655	 -99999.000
15110	 -0.504	  0.004	 -0.432	  9.746	 -0.892	  0.095	 -0.002	  0.002	 -0.001	 38.700	 99.666	 -99999.000
15160	 -0.506	  0.003	 -0.429	  9.749	 -0.914	  0.106	 -0.003	  0.003	  0.001	 38.700	 99.666	 -99999.000
15210	 -0.506	  0.002	 -0.432	  9.722	 -0.896	  0.125	 -0.003	  0.003	 -0.000	 38.700	 99.655	 -99999.000
15260	 -0.505	  0.005	 -0.431	  9.748	 -0.913	  0.130	 -0.003	  0.002	  0.001	 38.700	 99.655	 -99999.000
15310	 -0.505	  0.006	 -0.429	  9.743	 -0.921	  0.150	 -0.002	  0.002	  0.000	 38.700	 99.666	 -99999.000
15360	 -0.505	  0.014	 -0.427	  9.751	 -0.927	  0.094	 -0.003	  0.002	  0.002	 38.700	 99.655	 -99999.000
15410	 -0.503	  0.005	 -0.430	  9.746	 -0.928	  0.132	 -0.003	  0.002	  0.000	 38.700	 99.659	 -99999.000
15460	 -0.505	  0.005	 -0.431	  9.735	 -0.914	  0.139	 -0.002	  0.002	  0.001	 38.700	 99.659	 -99999.000
15510	 -0.506	  0.007	 -0.428	  9.742	 -0.890	  0.122	 -0.002	  0.002	 -0.000	 38.700	 99.666	 -99999.000
15560	 -0.505	  0.007	 -0.427	  9.738	 -0.938	  0.116	 -0.002	  0.001	 -0.001	 38.700	 99.655	 -99999.000
15610	 -0.502	  0.005	 -0.428	  9.744	 -0.917	  0.126	 -0.002	  0.003	  0.000	 38.700	 99.666	 -99999.000
15660	 -0.505	  0.007	 -0.428	  9.728	 -0.905	  0.085	 -0.002	  0.002	  0.001	 38.700	 99.655	 -99999.000
15710	 -0.505	  0.003	 -0.428	  9.731	 -0.909	  0.153	 -0.002	  0.003	  0.001	 38.700	 99.659	 -99999.000
15760	 -0.506	  0.004	 -0.429	  9.741	 -0.897	  0.101	 -0.003	  0.001	  0.002	 38.700	 99.659	 -99999.000
15810	 -0.505	  0.005	 -0.427	  9.747	 -0.906	  0.131	 -0.002	  0.002	  0.001	 38.700	 99.659	 -99999.000
15860	 -0.505	  0.005	 -0.428	  9.732	 -0.912	  0.121	 -0.003	  0.002	  0.000	 38.700	 99.659	 -99999.000
15910	 -0.505	  0.007	 -0.428	  9.751	 -0.901	  0.116	 -0.003	  0.003	  0.001	 38.700	 99.655	 -99999.000
15961	 -0.503	  0.005	 -0.433	  9.753	 -0.905	  0.116	 -0.002	  0.002	 -0.000	 38.700	 99.659	 -99999.000
16011	 -0.503	  0.009	 -0.428	  9.739	 -0.914	  0.130	 -0.003	  0.003	  0.001	 38.700	 99.655	 -99999.000
16061	 -0.505	  0.006	 -0.431	  9.716	 -0.909	  0.096	 -0.002	  0.002	 -0.000	 38.700	 99.666	 -99999.000
16111	 -0.503	  0.006	 -0.431	  9.751	 -0.896	  0.109	 -0.002	  0.002	 -0.001	 38.700	 99.659	 -99999.000
16161	 -0.505	  0.003	 -0.435	  9.733	 -0.906	  0.127	 -0.003	  0.002	  0.000	 38.700	 99.659	 -99999.000
16211	 -0.505	  0.007	 -0.428	  9.751	 -0.895	  0.138	 -0.002	  0.003	 -0.001	 38.700	 99.666	 -99999.000
16261	 -0.506	  0.003	 -0.427	  9.752	 -0.916	  0.128	 -0.003	  0.002	  0.001	 38.700	 99.655	 -99999.000
16311	 -0.501	  0.002	 -0.429	  9.757	 -0.900	  0.145	 -0.002	  0.002	  0.001	 38.700	 99.659	 -99999.000
16361	 -0.503	  0.012	 -0.428	  9.748	 -0.899	  0.095	 -0.003	  0.002	  0.000	 38.700	 99.655	 -99999.000
16411	 -0.504	  0.006	 -0.428	  9.755	 -0.912	  0.114	 -0.002	  0.002	 -0.000	 38.700	 99.655	 -99999.000
16461	 -0.504	  0.001	 -0.428	  9.740	 -0.918	  0.156	 -0.004	  0.002	  0.000	 38.700	 99.670	 -99999.000
16511	 -0.506	  0.005	 -0.428	  9.747	 -0.911	  0.129	 -0.004	  0.002	 -0.000	 38.700	 99.655	 -99999.000
16561	 -0.504	  0.006	 -0.428	  9.726	 -0.908	  0.101	 -0.003	  0.003	 -0.001	 38.700	 99.655	 -99999.000
16611	 -0.504	 -0.001	 -0.431	  9.719	 -0.921	  0.116	 -0.002	  0.003	 -0.000	 38.700	 99.670	 -99999.000
16661	 -0.505	  0.004	 -0.429	  9.748	 -0.912	  0.097	 -0.002	  0.003	  0.000	 38.700	 99.670	 -99999.000
16711	 -0.504	  0.014	 -0.426	  9.730	 -0.934	  0.135	 -0.002	  0.002	 -0.000	 38.700	 99.659	 -99999.000
16761	 -0.501	  0.003	 -0.428	  9.734	 -0.897	  0.126	 -0.003	  0.002	  0.001	 38.700	 99.659	 -99999.000
16811	 -0.504	  0.004	 -0.426	  9.735	 -0.901	  0.119	 -0.002	  0.003	  0.000	 38.700	 99.655	 -99999.000
16861	 -0.504	  0.007	 -0.428	  9.752	 -0.921	  0.150	 -0.002	  0.003	  0.001	 38.700	 99.655	 -99999.000
16911	 -0.504	  0.012	 -0.427	  9.749	 -0.904	  0.126	 -0.002	  0.001	  0.001	 38.700	 99.647	 -99999.000
16961	 -0.505	  0.012	 -0.425	  9.739	 -0.896	  0.108	 -0.002	  0.002	 -0.000	 38.700	 99.659	 -99999.000
17011	 -0.501	  0.004	 -0.428	  9.721	 -0.918	  0.128	 -0.003	  0.002	  0.000	 38.700	 99.655	 -99999.000
17062	 -0.504	  0.000	 -0.430	  9.716	 -0.926	  0.083	 -0.003	  0.003	  0.000	 38.700	 99.659	 -99999.000
17112	 -0.505	  0.002	 -0.429	  9.736	 -0.897	  0.105	 -0.002	  0.000	  0.001	 38.700	 99.659	 -99999.000
17162	 -0.504	  0.014	 -0.429	  9.738	 -0.880	  0.132	 -0.001	  0.002	  0.001	 38.700	 99.670	 -99999.000
17212	 -0.504	  0.009	 -0.428	  9.756	 -0.890	  0.147	 -0.003	  0.002	 -0.000	 38.700	 99.659	 -99999.000
17262	 -0.503	  0.003	 -0.427	  9.748	 -0.926	  0.112	 -0.002	  0.003	 -0.000	 38.700	 99.659	 -99999.000
17312	 -0.500	  0.006	 -0.427	  9.751	 -0.919	  0.132	 -0.003	  0.002	  0.001	 38.700	 99.659	 -99999.000
17362	 -0.503	  0.007	 -0.426	  9.730	 -0.900	  0.098	 -0.002	  0.001	  0.000	 38.700	 99.659	 -99999.000
17412	 -0.503	  0.003	 -0.428	  9.735	 -0.894	  0.136	 -0.004	  0.001	 -0.000	 38.700	 99.670	 -99999.000
17462	 -0.503	  0.004	 -0.428	  9.748	 -0.904	  0.143	 -0.002	  0.003	  0.001	 38.700	 99.670	 -99999.000
17512	 -0.504	  0.003	 -0.430	  9.723	 -0.909	  0.128	 -0.003	  0.002	  0.001	 38.700	 99.659	 -99999.000
17562	 -0.504	  0.002	 -0.430	  9.761	 -0.900	  0.094	 -0.003	  0.002	  0.002	 38.700	 99.647	 -99999.000
17612	 -0.504	  0.006	 -0.430	  9.766	 -0.893	  0.118	 -0.002	  0.001	  0.000	 38.700	 99.670	 -99999.000
17662	 -0.501	  0.006	 -0.430	  9.752	 -0.896	  0.097	 -0.002	  0.002	 -0.000	 38.700	 99.659	 -99999.000
17712	 -0.504	  0.003	 -0.430	  9.740	 -0.892	  0.117	 -0.003	  0.003	  0.000	 38.700	 99.659	 -99999.000
17762	 -0.505	  0.005	 -0.427	  9.748	 -0.920	  0.136	 -0.002	  0.002	  0.000	 38.700	 99.659	 -99999.000
17812	 -0.503	  0.001	 -0.433	  9.750	 -0.887	  0.073	 -0.003	  0.001	  0.000	 38.700	 99.659	 -99999.000
17862	 -0.504	  0.013	 -0.428	  9.736	 -0.895	  0.114	 -0.001	  0.002	  0.000	 38.700	 99.647	 -99999.000
17912	 -0.505	  0.000	 -0.436	  9.752	 -0.906	  0.114	 -0.003	  0.002	 -0.001	 38.700	 99.659	 -99999.000
17962	 -0.504	  0.004	 -0.427	  9.752	 -0.898	  0.123	 -0.003	  0.001	  0.000	 38.700	 99.659	 -99999.000
18012	 -0.503	  0.004	 -0.427	  9.757	 -0.910	  0.125	 -0.004	  0.003	 -0.000	 38.700	 99.670	 -99999.000
18062	 -0.502	  0.006	 -0.424	  9.749	 -0.902	  0.106	 -0.003	  0.003	  0.001	 38.700	 99.670	 -99999.000
18112	 -0.505	  0.003	 -0.427	  9.718	 -0.894	  0.114	 -0.002	  0.002	 -0.001	 38.700	 99.670	 -99999.000
18162	 -0.505	  0.005	 -0.429	  9.735	 -0.899	  0.113	 -0.002	  0.003	  0.000	 38.700	 99.670	 -99999.000
18212	 -0.503	  0.007	 -0.428	  9.745	 -0.896	  0.124	 -0.003	  0.002	  0.001	 38.700	 99.647	 -99999.000
18262	 -0.503	  0.005	 -0.428	  9.736	 -0.914	  0.131	 -0.003	  0.002	  0.001	 38.700	 99.647	 -99999.000
18312	 -0.503	  0.004	 -0.428	  9.726	 -0.897	  0.101	 -0.003	  0.002	  0.001	 38.700	 99.659	 -99999.000
18362	 -0.503	  0.009	 -0.428	  9.742	 -0.894	  0.107	 -0.003	  0.003	  0.001	 38.700	 99.659	 -99999.000
18412	 -0.502	  0.004	 -0.434	  9.738	 -0.900	  0.138	 -0.003	  0.002	  0.002	 38.700	 99.659	 -99999.000
18462	 -0.501	  0.004	 -0.426	  9.733	 -0.945	  0.105	 -0.003	  0.003	  0.000	 38.700	 99.670	 -99999.000
18512	 -0.500	  0.004	 -0.427	  9.736	 -0.878	  0.111	 -0.003	  0.002	 -0.000	 38.700	 99.670	 -99999.000
18562	 -0.508	  0.004	 -0.428	  9.755	 -0.908	  0.117	 -0.002	  0.003	  0.001	 38.700	 99.659	 -99999.000
18612	 -0.504	  0.013	 -0.426	  9.747	 -0.887	  0.118	 -0.003	  0.003	  0.001	 38.700	 99.663	 -99999.000
18662	 -0.504	  0.003	 -0.426	  9.730	 -0.895	  0.129	 -0.002	  0.001	  0.001	 38.700	 99.663	 -99999.000
18712	 -0.504	 -0.001	 -0.428	  9.744	 -0.919	  0.080	 -0.003	  0.001	  0.001	 38.700	 99.670	 -99999.000
18762	 -0.502	  0.005	 -0.430	  9.746	 -0.918	  0.112	 -0.003	  0.003	  0.000	 38.700	 99.659	 -99999.000
18812	 -0.506	  0.003	 -0.429	  9.730	 -0.899	  0.151	 -0.003	  0.002	  0.001	 38.700	 99.674	 -99999.000
18863	 -0.505	  0.007	 -0.427	  9.725	 -0.918	  0.107	 -0.002	  0.001	  0.000	 38.700	 99.659	 -99999.000
18913	 -0.504	  0.007	 -0.427	  9.735	 -0.924	  0.147	 -0.004	  0.003	  0.001	 38.700	 99.674	 -99999.000
18963	 -0.502	  0.015	 -0.428	  9.735	 -0.922	  0.113	 -0.002	  0.002	  0.001	 38.700	 99.659	 -99999.000
19013	 -0.506	  0.003	 -0.428	  9.740	 -0.908	  0.143	 -0.003	  0.001	  0.000	 38.700	 99.659	 -99999.000
19063	 -0.503	  0.000	 -0.424	  9.771	 -0.895	  0.101	 -0.002	  0.002	  0.002	 38.700	 99.659	 -99999.000
19113	 -0.501	  0.003	 -0.429	  9.742	 -0.910	  0.114	 -0.004	  0.002	 -0.000	 38.700	 99.659	 -99999.000
19163	 -0.504	  0.002	 -0.428	  9.737	 -0.931	  0.124	 -0.003	  0.001	  0.001	 38.700	 99.659	 -99999.000
23660	 -0.506	  0.012	 -0.430	  9.742	 -0.910	  0.116	 -0.003	  0.002	 -0.000	 38.800	 99.656	  0.440
23709	 -0.505	  0.010	 -0.429	  9.752	 -0.891	  0.135	 -0.002	  0.001	 -0.001	 38.700	 99.651	  0.899
23759	 -0.504	  0.005	 -0.433	  9.759	 -0.910	  0.088	 -0.001	  0.001	  0.000	 38.800	 99.667	 -0.570
23809	 -0.505	  0.006	 -0.431	  9.730	 -0.888	  0.138	 -0.003	  0.002	 -0.000	 38.800	 99.667	 -0.570
23859	 -0.504	  0.004	 -0.427	  9.751	 -0.918	  0.145	 -0.003	  0.003	  0.000	 38.800	 99.656	  0.440
23909	 -0.507	  0.000	 -0.438	  9.726	 -0.898	  0.112	 -0.002	  0.002	  0.001	 38.800	 99.651	  0.899
23959	 -0.504	  0.004	 -0.429	  9.748	 -0.906	  0.132	 -0.002	  0.000	  0.000	 38.800	 99.644	  1.542
24009	 -0.506	  0.011	 -0.430	  9.755	 -0.911	  0.122	 -0.002	  0.002	  0.001	 38.800	 99.667	 -0.570
24059	 -0.502	  0.002	 -0.430	  9.752	 -0.893	  0.091	 -0.003	  0.003	  0.001	 38.800	 99.671	 -0.937
24109	 -0.503	  0.006	 -0.428	  9.761	 -0.935	  0.097	 -0.002	  0.002	  0.000	 38.800	 99.667	 -0.570
24159	 -0.504	  0.006	 -0.428	  9.746	 -0.906	  0.112	 -0.002	  0.001	  0.000	 38.800	 99.667	 -0.570
24209	 -0.501	  0.010	 -0.428	  9.731	 -0.925	  0.115	 -0.003	  0.002	 -0.000	 38.800	 99.656	  0.440
24259	 -0.504	  0.003	 -0.433	  9.742	 -0.898	  0.104	 -0.004	  0.002	  0.001	 38.800	 99.667	 -0.570
24309	 -0.503	  0.004	 -0.430	  9.741	 -0.893	  0.140	 -0.003	  0.002	  0.000	 38.800	 99.656	  0.440
24359	 -0.505	  0.013	 -0.425	  9.749	 -0.904	  0.087	 -0.003	  0.002	 -0.000	 38.800	 99.667	 -0.570
24409	 -0.504	  0.003	 -0.429	  9.723	 -0.921	  0.138	 -0.002	  0.001	 -0.000	 38.700	 99.651	  0.899
24458	 -0.503	  0.005	 -0.430	  9.750	 -0.900	  0.171	 -0.003	  0.001	 -0.001	 38.800	 99.656	  0.440
24508	 -0.503	  0.006	 -0.427	  9.740	 -0.878	  0.119	 -0.003	  0.001	 -0.000	 38.800	 99.667	 -0.570
24558	 -0.504	  0.004	 -0.427	  9.746	 -0.895	  0.155	 -0.003	  0.001	  0.001	 38.800	 99.656	  0.440
24608	 -0.503	  0.013	 -0.428	  9.736	 -0.911	  0.129	 -0.002	  0.002	  0.000	 38.800	 99.656	  0.440
24658	 -0.503	  0.004	 -0.428	  9.736	 -0.936	  0.122	 -0.002	  0.001	  0.000	 38.800	 99.656	  0.440
24708	 -0.505	  0.016	 -0.424	  9.750	 -0.910	  0.123	 -0.003	  0.000	  0.001	 38.800	 99.656	  0.440
24758	 -0.507	  0.011	 -0.424	  9.744	 -0.914	  0.129	 -0.002	  0.002	  0.001	 38.800	 99.656	  0.440
24808	 -0.504	  0.005	 -0.431	  9.761	 -0.919	  0.154	 -0.002	  0.002	 -0.000	 38.800	 99.660	  0.072
24858	 -0.504	  0.002	 -0.428	  9.738	 -0.908	  0.103	 -0.003	  0.001	  0.001	 38.800	 99.656	  0.440
24908	 -0.504	  0.002	 -0.433	  9.735	 -0.904	  0.130	 -0.002	  0.002	  0.000	 38.800	 99.656	  0.440
24958	 -0.506	  0.005	 -0.431	  9.742	 -0.909	  0.127	 -0.003	  0.002	  0.001	 38.800	 99.667	 -0.570
25008	 -0.503	  0.004	 -0.433	  9.735	 -0.910	  0.115	 -0.002	  0.003	  0.001	 38.800	 99.671	 -0.937
25058	 -0.506	  0.007	 -0.431	  9.748	 -0.898	  0.135	 -0.003	  0.002	 -0.000	 38.800	 99.656	  0.440
25108	 -0.504	  0.004	 -0.434	  9.732	 -0.923	  0.122	 -0.002	  0.003	 -0.000	 38.800	 99.660	  0.072
25158	 -0.503	  0.009	 -0.427	  9.734	 -0.944	  0.134	 -0.002	  0.003	  0.001	 38.800	 99.656	  0.440
25208	 -0.506	  0.004	 -0.429	  9.776	 -0.914	  0.133	 -0.003	  0.002	  0.000	 38.800	 99.667	 -0.570
25258	 -0.503	  0.002	 -0.434	  9.751	 -0.899	  0.145	 -0.003	  0.003	 -0.001	 38.800	 99.660	  0.072
25308	 -0.502	  0.008	 -0.428	  9.734	 -0.918	  0.115	 -0.002	  0.003	  0.000	 38.800	 99.671	 -0.937
25358	 -0.503	  0.011	 -0.424	  9.729	 -0.909	  0.125	 -0.002	  0.001	  0.001	 38.800	 99.667	 -0.570
25408	 -0.504	  0.001	 -0.429	  9.745	 -0.910	  0.131	 -0.002	  0.001	  0.001	 38.800	 99.656	  0.440
25459	 -0.504	  0.002	 -0.427	  9.733	 -0.903	  0.094	 -0.002	  0.002	  0.000	 38.800	 99.660	  0.072
25508	 -0.502	  0.005	 -0.427	  9.760	 -0.925	  0.141	 -0.002	  0.002	  0.001	 38.800	 99.656	  0.440
25557	 -0.504	  0.005	 -0.431	  9.730	 -0.898	  0.112	 -0.003	  0.001	  0.000	 38.800	 99.644	  1.542
25607	 -0.505	  0.006	 -0.427	  9.729	 -0.897	  0.104	 -0.004	  0.003	  0.000	 38.800	 99.660	  0.072
25657	 -0.503	  0.004	 -0.428	  9.746	 -0.893	  0.114	 -0.002	  0.002	 -0.000	 38.800	 99.656	  0.440
25707	 -0.503	  0.000	 -0.430	  9.723	 -0.915	  0.099	 -0.002	  0.002	 -0.000	 38.800	 99.656	  0.440
25758	 -0.503	  0.009	 -0.428	  9.724	 -0.904	  0.132	 -0.004	  0.002	  0.000	 38.800	 99.648	  1.174
25808	 -0.508	  0.002	 -0.434	  9.735	 -0.892	  0.165	 -0.003	  0.003	  0.001	 38.800	 99.660	  0.072
25858	 -0.504	  0.005	 -0.427	  9.754	 -0.916	  0.131	 -0.003	  0.003	 -0.001	 38.800	 99.660	  0.072
25908	 -0.504	  0.004	 -0.432	  9.734	 -0.906	  0.113	 -0.003	  0.002	  0.000	 38.800	 99.656	  0.440
25958	 -0.504	  0.000	 -0.427	  9.757	 -0.913	  0.114	 -0.003	  0.002	 -0.000	 38.800	 99.671	 -0.937
26008	 -0.504	  0.012	 -0.427	  9.745	 -0.903	  0.137	 -0.002	  0.002	  0.001	 38.800	 99.660	  0.072
26058	 -0.503	  0.002	 -0.432	  9.742	 -0.892	  0.122	 -0.002	  0.002	  0.000	 38.800	 99.671	 -0.937
26108	 -0.506	  0.004	 -0.428	  9.742	 -0.904	  0.127	 -0.003	  0.001	  0.000	 38.800	 99.671	 -0.937
26158	 -0.504	  0.009	 -0.427	  9.734	 -0.891	  0.106	 -0.003	  0.003	  0.000	 38.800	 99.660	  0.072
26208	 -0.503	  0.004	 -0.430	  9.743	 -0.888	  0.125	 -0.002	  0.001	 -0.000	 38.800	 99.660	  0.072
26258	 -0.507	  0.003	 -0.428	  9.763	 -0.897	  0.120	 -0.003	  0.002	  0.001	 38.800	 99.660	  0.072
26308	 -0.504	  0.005	 -0.429	  9.735	 -0.895	  0.115	 -0.002	  0.002	  0.001	 38.800	 99.660	  0.072
26358	 -0.504	  0.007	 -0.429	  9.741	 -0.931	  0.126	 -0.003	  0.000	  0.000	 38.800	 99.660	  0.072
26408	 -0.506	  0.002	 -0.431	  9.749	 -0.899	  0.137	 -0.003	  0.001	  0.001	 38.800	 99.671	 -0.937
26458	 -0.506	  0.003	 -0.429	  9.724	 -0.894	  0.115	 -0.003	  0.002	  0.001	 38.800	 99.671	 -0.937
26507	 -0.506	  0.006	 -0.434	  9.731	 -0.906	  0.123	 -0.003	  0.001	 -0.000	 38.800	 99.671	 -0.937
26557	 -0.503	  0.003	 -0.433	  9.736	 -0.902	  0.136	 -0.002	  0.001	  0.001	 38.800	 99.671	 -0.937
26607	 -0.506	  0.007	 -0.429	  9.739	 -0.907	  0.114	 -0.003	  0.002	 -0.001	 38.800	 99.660	  0.072
26657	 -0.503	  0.005	 -0.428	  9.721	 -0.916	  0.149	 -0.002	  0.001	  0.000	 38.800	 99.671	 -0.937
26707	 -0.504	  0.009	 -0.428	  9.764	 -0.909	  0.123	 -0.003	  0.004	 -0.000	 38.800	 99.660	  0.072
26757	 -0.505	  0.013	 -0.427	  9.744	 -0.919	  0.096	 -0.003	  0.002	  0.000	 38.800	 99.660	  0.072
26807	 -0.502	  0.001	 -0.431	  9.757	 -0.913	  0.106	 -0.002	  0.001	  0.001	 38.800	 99.660	  0.072
26857	 -0.505	  0.009	 -0.431	  9.741	 -0.911	  0.119	 -0.004	  0.002	  0.000	 38.800	 99.671	 -0.937
26907	 -0.504	  0.003	 -0.434	  9.723	 -0.917	  0.115	 -0.003	  0.002	  0.001	 38.800	 99.664	 -0.294
26957	 -0.503	  0.011	 -0.429	  9.753	 -0.887	  0.100	 -0.002	  0.002	 -0.000	 38.800	 99.660	  0.072
27007	 -0.503	  0.003	 -0.430	  9.721	 -0.896	  0.096	 -0.002	  0.002	 -0.000	 38.800	 99.660	  0.072
27057	 -0.504	  0.005	 -0.431	  9.756	 -0.916	  0.121	 -0.002	  0.003	  0.001	 38.800	 99.660	  0.072
27107	 -0.504	  0.007	 -0.427	  9.734	 -0.881	  0.116	 -0.002	  0.001	  0.001	 38.800	 99.660	  0.072
27157	 -0.506	  0.001	 -0.428	  9.743	 -0.898	  0.125	 -0.002	  0.002	 -0.000	 38.800	 99.671	 -0.937
27207	 -0.504	  0.013	 -0.427	  9.742	 -0.915	  0.138	 -0.002	  0.003	 -0.000	 38.800	 99.660	  0.072
27257	 -0.502	  0.003	 -0.429	  9.744	 -0.906	  0.095	 -0.004	  0.001	  0.001	 38.800	 99.660	  0.072
27307	 -0.502	  0.002	 -0.431	  9.721	 -0.933	  0.094	 -0.003	  0.001	  0.001	 38.800	 99.648	  1.174
27357	 -0.504	  0.003	 -0.429	  9.738	 -0.911	  0.143	 -0.002	  0.002	  0.000	 38.800	 99.660	  0.072
27407	 -0.503	  0.009	 -0.428	  9.720	 -0.896	  0.114	 -0.002	  0.002	  0.000	 38.800	 99.671	 -0.937
27457	 -0.506	  0.007	 -0.426	  9.725	 -0.911	  0.091	 -0.002	  0.002	  0.001	 38.800	 99.660	  0.072
27507	 -0.504	  0.005	 -0.427	  9.711	 -0.907	  0.105	 -0.003	  0.002	  0.000	 38.800	 99.652	  0.807
27557	 -0.504	  0.002	 -0.425	  9.734	 -0.903	  0.117	 -0.002	  0.002	  0.001	 38.800	 99.664	 -0.294
27607	 -0.505	  0.011	 -0.428	  9.747	 -0.915	  0.121	 -0.002	  0.002	  0.001	 38.800	 99.660	  0.072
27657	 -0.504	  0.004	 -0.428	  9.744	 -0.898	  0.130	 -0.002	  0.001	 -0.000	 38.800	 99.671	 -0.937
27707	 -0.507	  0.014	 -0.427	  9.749	 -0.902	  0.133	 -0.004	  0.003	  0.000	 38.800	 99.660	  0.072
27757	 -0.505	  0.013	 -0.427	  9.725	 -0.885	  0.116	 -0.003	  0.002	  0.000	 38.800	 99.660	  0.072
27807	 -0.506	  0.005	 -0.429	  9.757	 -0.875	  0.122	 -0.003	  0.002	  0.001	 38.800	 99.660	  0.072
27857	 -0.504	  0.013	 -0.429	  9.715	 -0.899	  0.148	 -0.003	  0.002	  0.001	 38.800	 99.664	 -0.294
27907	 -0.506	  0.001	 -0.427	  9.757	 -0.914	  0.134	 -0.003	  0.002	  0.001	 38.800	 99.660	  0.072
27957	 -0.504	  0.007	 -0.429	  9.726	 -0.900	  0.108	 -0.003	  0.003	  0.001	 38.800	 99.664	 -0.294
28007	 -0.506	  0.006	 -0.428	  9.750	 -0.910	  0.123	 -0.003	  0.001	  0.001	 38.800	 99.648	  1.174
28057	 -0.504	  0.011	 -0.429	  9.729	 -0.885	  0.132	 -0.002	  0.003	  0.001	 38.800	 99.652	  0.807
28107	 -0.503	  0.003	 -0.430	  9.754	 -0.892	  0.124	 -0.003	  0.003	 -0.000	 38.800	 99.652	  0.807
28156	 -0.506	  0.004	 -0.429	  9.727	 -0.919	  0.107	 -0.002	  0.002	  0.001	 38.800	 99.660	  0.072
28206	 -0.504	  0.007	 -0.428	  9.737	 -0.916	  0.135	 -0.001	  0.000	  0.001	 38.800	 99.648	  1.174
28256	 -0.507	  0.004	 -0.427	  9.731	 -0.928	  0.094	 -0.003	  0.002	  0.000	 38.800	 99.648	  1.174
28306	 -0.503	  0.004	 -0.430	  9.727	 -0.913	  0.145	 -0.002	  0.002	  0.001	 38.800	 99.652	  0.807
28356	 -0.504	  0.005	 -0.436	  9.727	 -0.897	  0.135	 -0.003	  0.002	 -0.001	 38.800	 99.660	  0.072
28406	 -0.506	  0.003	 -0.429	  9.729	 -0.904	  0.118	 -0.004	  0.001	  0.001	 38.800	 99.664	 -0.294
28456	 -0.502	  0.005	 -0.428	  9.730	 -0.895	  0.138	 -0.002	  0.003	  0.001	 38.800	 99.660	  0.072
28506	 -0.504	  0.004	 -0.427	  9.734	 -0.922	  0.151	 -0.002	  0.004	  0.001	 38.800	 99.660	  0.072
28556	 -0.502	  0.003	 -0.432	  9.744	 -0.906	  0.096	 -0.002	  0.002	 -0.000	 38.800	 99.664	 -0.294
28606	 -0.504	  0.000	 -0.430	  9.739	 -0.902	  0.124	 -0.003	  0.002	  0.000	 38.800	 99.660	  0.072
28656	 -0.502	  0.003	 -0.434	  9.742	 -0.888	  0.105	 -0.003	  0.003	  0.001	 38.800	 99.664	 -0.294
28706	 -0.507	  0.003	 -0.429	  9.731	 -0.904	  0.141	 -0.003	  0.001	  0.000	 38.800	 99.664	 -0.294
28756	 -0.503	  0.005	 -0.428	  9.760	 -0.921	  0.135	 -0.002	  0.001	  0.001	 38.800	 99.660	  0.072
28806	 -0.503	  0.005	 -0.425	  9.722	 -0.877	  0.064	 -0.003	  0.003	  0.001	 38.800	 99.648	  1.174
28856	 -0.502	  0.007	 -0.429	  9.730	 -0.920	  0.141	 -0.003	  0.002	  0.000	 38.800	 99.660	  0.072
28906	 -0.502	  0.002	 -0.433	  9.709	 -0.881	  0.144	 -0.003	  0.002	  0.002	 38.800	 99.660	  0.072
28956	 -0.504	  0.003	 -0.432	  9.751	 -0.895	  0.076	 -0.003	  0.002	 -0.002	 38.800	 99.652	  0.807
29006	 -0.506	  0.003	 -0.424	  9.766	 -0.931	  0.107	 -0.003	  0.002	  0.001	 38.800	 99.664	 -0.294
29056	 -0.503	  0.001	 -0.429	  9.763	 -0.885	  0.085	 -0.003	  0.001	  0.000	 38.800	 99.675	 -1.304
29106	 -0.504	  0.007	 -0.435	  9.728	 -0.895	  0.131	 -0.002	  0.001	  0.000	 38.800	 99.664	 -0.294
29156	 -0.502	  0.003	 -0.427	  9.737	 -0.908	  0.122	 -0.002	  0.001	  0.000	 38.800	 99.652	  0.807
29206	 -0.506	  0.007	 -0.428	  9.727	 -0.912	  0.093	 -0.002	  0.002	 -0.000	 38.800	 99.652	  0.807
29256	 -0.504	  0.006	 -0.428	  9.734	 -0.903	  0.126	 -0.004	  0.001	 -0.000	 38.800	 99.660	  0.072
29306	 -0.504	  0.003	 -0.427	  9.728	 -0.928	  0.105	 -0.003	  0.001	  0.001	 38.800	 99.664	 -0.294
29355	 -0.503	  0.004	 -0.428	  9.743	 -0.881	  0.114	 -0.003	  0.002	  0.000	 38.800	 99.648	  1.174
29405	 -0.503	  0.013	 -0.426	  9.757	 -0.927	  0.086	 -0.003	  0.002	  0.001	 38.800	 99.664	 -0.294
29455	 -0.506	  0.005	 -0.428	  9.724	 -0.905	  0.140	 -0.003	  0.002	  0.000	 38.800	 99.652	  0.807
29505	 -0.504	  0.000	 -0.428	  9.775	 -0.925	  0.109	 -0.003	  0.001	  0.000	 38.800	 99.664	 -0.294
29555	 -0.507	  0.007	 -0.426	  9.756	 -0.874	  0.149	 -0.002	  0.002	 -0.000	 38.800	 99.664	 -0.294
29605	 -0.502	  0.009	 -0.426	  9.741	 -0.910	  0.122	 -0.003	  0.002	 -0.000	 38.800	 99.664	 -0.294
29655	 -0.503	  0.006	 -0.425	  9.734	 -0.881	  0.110	 -0.004	  0.002	  0.001	 38.800	 99.664	 -0.294
29705	 -0.503	  0.005	 -0.427	  9.771	 -0.929	  0.142	 -0.002	  0.001	 -0.001	 38.800	 99.664	 -0.294
29755	 -0.504	  0.007	 -0.426	  9.732	 -0.891	  0.181	 -0.002	  0.002	  0.003	 38.800	 99.668	 -0.662
29805	 -0.506	  0.010	 -0.428	  9.745	 -0.920	  0.077	 -0.001	  0.001	 -0.002	 38.800	 99.652	  0.807
29855	 -0.503	  0.006	 -0.427	  9.733	 -0.922	  0.138	 -0.004	  0.003	  0.001	 38.800	 99.664	 -0.294
29905	 -0.507	  0.003	 -0.426	  9.759	 -0.894	  0.121	 -0.003	  0.002	  0.000	 38.800	 99.664	 -0.294
29955	 -0.503	  0.015	 -0.425	  9.742	 -0.912	  0.127	 -0.003	  0.002	  0.001	 38.800	 99.664	 -0.294
30005	 -0.506	  0.009	 -0.429	  9.763	 -0.885	  0.127	 -0.002	  0.002	  0.000	 38.800	 99.664	 -0.294
30055	 -0.502	  0.004	 -0.432	  9.747	 -0.910	  0.139	 -0.003	  0.002	 -0.001	 38.800	 99.664	 -0.294
30105	 -0.506	  0.005	 -0.431	  9.761	 -0.904	  0.139	 -0.002	  0.003	  0.001	 38.800	 99.664	 -0.294
30155	 -0.505	  0.002	 -0.434	  9.750	 -0.919	  0.141	 -0.003	  0.001	  0.001	 38.800	 99.664	 -0.294
30205	 -0.504	  0.003	 -0.429	  9.726	 -0.914	  0.143	 -0.003	  0.002	  0.001	 38.800	 99.664	 -0.294
30255	 -0.504	  0.009	 -0.428	  9.759	 -0.903	  0.115	 -0.003	  0.002	  0.001	 38.800	 99.664	 -0.294
30305	 -0.505	  0.000	 -0.429	  9.746	 -0.917	  0.143	 -0.003	  0.002	  0.000	 38.800	 99.664	 -0.294
30355	 -0.503	  0.004	 -0.436	  9.744	 -0.898	  0.101	 -0.003	  0.003	  0.000	 38.800	 99.664	 -0.294
30405	 -0.502	  0.004	 -0.430	  9.758	 -0.884	  0.122	 -0.002	  0.002	  0.001	 38.800	 99.664	 -0.294
30455	 -0.505	  0.014	 -0.428	  9.743	 -0.907	  0.091	 -0.004	  0.000	  0.001	 38.800	 99.652	  0.807
30505	 -0.502	  0.004	 -0.432	  9.747	 -0.933	  0.106	 -0.002	  0.003	 -0.001	 38.800	 99.652	  0.807
30555	 -0.507	  0.003	 -0.431	  9.751	 -0.927	  0.104	 -0.003	  0.003	  0.001	 38.800	 99.652	  0.807
30605	 -0.505	  0.003	 -0.433	  9.746	 -0.913	  0.115	 -0.002	  0.002	 -0.000	 38.800	 99.641	  1.817
30655	 -0.506	  0.012	 -0.428	  9.755	 -0.909	  0.087	 -0.003	  0.003	 -0.001	 38.800	 99.656	  0.440
30705	 -0.505	  0.003	 -0.428	  9.735	 -0.906	  0.131	 -0.003	  0.002	 -0.000	 38.800	 99.664	 -0.294
30755	 -0.503	  0.005	 -0.429	  9.735	 -0.894	  0.093	 -0.003	  0.003	 -0.000	 38.800	 99.656	  0.440
30804	 -0.503	  0.003	 -0.436	  9.758	 -0.919	  0.104	 -0.002	  0.003	  0.000	 38.800	 99.652	  0.807
30854	 -0.505	  0.001	 -0.429	  9.750	 -0.884	  0.131	 -0.003	  0.001	  0.003	 38.800	 99.652	  0.807
30904	 -0.503	  0.007	 -0.433	  9.713	 -0.896	  0.102	 -0.004	 -0.000	  0.004	 38.800	 99.652	  0.807
30954	 -0.502	  0.010	 -0.429	  9.750	 -0.934	  0.102	 -0.002	  0.002	 -0.001	 38.800	 99.652	  0.807
31004	 -0.506	  0.006	 -0.427	  9.721	 -0.927	  0.124	 -0.001	  0.004	 -0.005	 38.800	 99.668	 -0.662
31054	 -0.503	  0.003	 -0.432	  9.726	 -0.864	  0.127	 -0.003	  0.001	  0.005	 38.800	 99.652	  0.807
31104	 -0.506	  0.006	 -0.434	  9.763	 -0.951	  0.106	 -0.003	  0.002	 -0.002	 38.800	 99.652	  0.807
31154	 -0.503	  0.000	 -0.432	  9.739	 -0.884	  0.151	 -0.004	  0.002	 -0.001	 38.800	 99.656	  0.440
31204	 -0.506	  0.003	 -0.429	  9.747	 -0.903	  0.098	 -0.003	  0.003	 -0.001	 38.800	 99.664	 -0.294
31254	 -0.502	  0.003	 -0.438	  9.716	 -0.918	  0.155	 -0.001	  0.002	  0.001	 38.800	 99.668	 -0.662
31304	 -0.507	  0.005	 -0.438	  9.749	 -0.867	  0.110	 -0.001	  0.002	 -0.001	 38.800	 99.652	  0.807
31354	 -0.507	  0.002	 -0.439	  9.751	 -0.917	  0.125	 -0.002	  0.002	 -0.001	 38.800	 99.656	  0.440
31404	 -0.508	  0.007	 -0.438	  9.720	 -0.878	  0.132	 -0.002	  0.001	  0.000	 38.800	 99.668	 -0.662
31454	 -0.502	  0.010	 -0.432	  9.733	 -0.943	  0.123	 -0.003	  0.004	  0.000	 38.800	 99.668	 -0.662
31504	 -0.502	  0.006	 -0.435	  9.731	 -0.881	  0.086	 -0.002	  0.002	 -0.001	 38.800	 99.656	  0.440
31555	 -0.503	  0.002	 -0.434	  9.730	 -0.910	  0.099	 -0.003	  0.002	  0.002	 38.800	 99.656	  0.440
31604	 -0.502	 -0.000	 -0.437	  9.768	 -0.896	  0.120	 -0.003	  0.001	  0.001	 38.800	 99.656	  0.440
31654	 -0.506	  0.002	 -0.434	  9.734	 -0.966	  0.141	 -0.004	  0.001	  0.003	 38.800	 99.664	 -0.294
31705	 -0.504	  0.000	 -0.443	  9.740	 -0.909	  0.126	 -0.003	  0.002	  0.001	 38.800	 99.668	 -0.662
31755	 -0.504	 -0.003	 -0.436	  9.748	 -0.932	  0.137	 -0.005	  0.001	  0.005	 38.800	 99.668	 -0.662
31805	 -0.503	  0.004	 -0.425	  9.762	 -0.875	  0.109	 -0.001	  0.003	 -0.001	 38.800	 99.656	  0.440
31855	 -0.503	  0.002	 -0.429	  9.728	 -0.908	  0.159	 -0.003	  0.002	  0.003	 38.800	 99.652	  0.807
31905	 -0.502	  0.012	 -0.428	  9.756	 -0.892	  0.060	 -0.002	  0.002	 -0.002	 38.800	 99.652	  0.807
31955	 -0.505	  0.003	 -0.428	  9.729	 -0.949	  0.144	 -0.002	  0.003	 -0.000	 38.800	 99.656	  0.440
32005	 -0.503	  0.004	 -0.427	  9.746	 -0.794	  0.156	 -0.001	  0.002	 -0.001	 38.800	 99.668	 -0.662
32055	 -0.504	  0.003	 -0.431	  9.759	 -0.967	  0.137	 -0.004	  0.001	 -0.001	 38.800	 99.668	 -0.662
32105	 -0.503	  0.002	 -0.432	  9.719	 -0.849	  0.088	 -0.002	  0.003	 -0.001	 38.800	 99.656	  0.440
32155	 -0.504	  0.001	 -0.426	  9.758	 -0.963	  0.119	 -0.002	  0.001	 -0.000	 38.800	 99.652	  0.807
32205	 -0.502	  0.009	 -0.425	  9.715	 -0.847	  0.156	 -0.003	  0.004	 -0.000	 38.800	 99.656	  0.440
32255	 -0.503	 -0.001	 -0.427	  9.729	 -0.957	  0.156	 -0.001	  0.001	 -0.001	 38.800	 99.656	  0.440
32305	 -0.505	  0.001	 -0.426	  9.750	 -0.868	  0.111	 -0.002	  0.002	  0.000	 38.800	 99.652	  0.807
32355	 -0.507	  0.001	 -0.427	  9.732	 -0.926	  0.150	 -0.002	  0.001	 -0.000	 38.800	 99.668	 -0.662
32404	 -0.502	  0.007	 -0.425	  9.740	 -0.948	  0.105	 -0.003	  0.003	 -0.001	 38.800	 99.652	  0.807
32454	 -0.505	  0.003	 -0.427	  9.727	 -0.844	  0.118	 -0.003	  0.001	  0.003	 38.800	 99.656	  0.440
32504	 -0.505	  0.001	 -0.434	  9.761	 -0.944	  0.112	 -0.003	  0.002	  0.006	 38.800	 99.656	  0.440
32554	 -0.504	  0.000	 -0.434	  9.731	 -0.874	  0.166	 -0.004	  0.001	  0.002	 38.800	 99.652	  0.807
32604	 -0.502	  0.002	 -0.423	  9.758	 -0.952	  0.078	 -0.002	  0.002	  0.000	 38.800	 99.656	  0.440
32654	 -0.501	  0.000	 -0.430	  9.712	 -0.863	  0.131	 -0.002	  0.001	  0.001	 38.800	 99.656	  0.440
32704	 -0.506	  0.007	 -0.436	  9.749	 -0.888	  0.123	 -0.005	  0.002	  0.003	 38.800	 99.656	  0.440
32754	 -0.505	  0.001	 -0.427	  9.734	 -0.930	  0.109	 -0.003	  0.002	  0.000	 38.800	 99.656	  0.440
32804	 -0.503	  0.002	 -0.427	  9.704	 -0.880	  0.101	 -0.004	  0.001	  0.004	 38.800	 99.656	  0.440
32854	 -0.507	  0.003	 -0.426	  9.755	 -0.925	  0.117	 -0.004	  0.002	  0.003	 38.800	 99.656	  0.440
32904	 -0.505	 -0.002	 -0.432	  9.743	 -0.890	  0.112	 -0.002	  0.003	 -0.001	 38.800	 99.656	  0.440
32954	 -0.504	  0.000	 -0.426	  9.855	 -0.928	  0.148	 -0.012	  0.003	  0.008	 38.800	 99.645	  1.450
33004	 -0.504	 -0.002	 -0.425	  9.749	 -0.973	  0.062	 -0.003	  0.002	 -0.002	 38.800	 99.656	  0.440
33054	 -0.506	  0.002	 -0.421	  9.728	 -0.902	  0.164	 -0.005	  0.002	  0.006	 38.800	 99.656	  0.440
33104	 -0.505	  0.002	 -0.424	  9.783	 -0.982	  0.061	 -0.003	  0.000	 -0.000	 38.800	 99.656	  0.440
33154	 -0.499	 -0.006	 -0.429	  9.693	 -0.828	  0.157	 -0.002	  0.003	  0.002	 38.800	 99.656	  0.440
33204	 -0.503	 -0.005	 -0.429	  9.764	 -0.957	  0.102	 -0.004	  0.001	  0.000	 38.800	 99.656	  0.440
33254	 -0.504	  0.000	 -0.428	  9.740	 -0.955	  0.168	 -0.002	  0.002	 -0.001	 38.800	 99.656	  0.440
33304	 -0.501	  0.001	 -0.428	  9.741	 -0.860	  0.078	 -0.003	  0.002	  0.001	 38.800	 99.656	  0.440
33354	 -0.503	  0.003	 -0.433	  9.761	 -1.060	  0.147	 -0.001	  0.002	 -0.010	 38.800	 99.656	  0.440
33404	 -0.503	  0.001	 -0.434	  9.696	 -0.749	  0.091	 -0.001	  0.006	 -0.009	 38.800	 99.645	  1.450
33454	 -0.504	  0.012	 -0.425	  9.714	 -0.984	  0.206	 -0.006	 -0.001	  0.005	 38.800	 99.656	  0.440
33504	 -0.503	  0.000	 -0.430	  9.762	 -0.866	  0.062	  0.000	  0.003	 -0.002	 38.800	 99.656	  0.440
33554	 -0.503	  0.012	 -0.425	  9.685	 -0.910	  0.190	 -0.004	  0.001	  0.002	 38.800	 99.668	 -0.662
33604	 -0.503	  0.011	 -0.426	  9.782	 -0.897	  0.062	 -0.002	  0.003	 -0.001	 38.800	 99.668	 -0.662
33654	 -0.505	  0.004	 -0.432	  9.697	 -0.925	  0.187	 -0.002	  0.002	  0.001	 38.800	 99.645	  1.450
33704	 -0.503	  0.001	 -0.423	  9.757	 -0.907	  0.058	 -0.002	  0.003	  0.001	 38.800	 99.656	  0.440
33754	 -0.506	  0.005	 -0.426	  9.716	 -0.923	  0.181	 -0.003	  0.001	 -0.001	 38.800	 99.656	  0.440
33804	 -0.503	  0.003	 -0.424	  9.756	 -0.909	  0.096	 -0.003	  0.001	  0.002	 38.800	 99.645	  1.450
33854	 -0.502	 -0.003	 -0.449	  9.619	 -0.902	  0.185	  0.000	  0.005	 -0.003	 38.800	 99.661	 -0.020
33904	 -0.503	  0.009	 -0.425	  9.758	 -0.972	  0.090	 -0.007	  0.001	  0.014	 38.800	 99.661	 -0.020
33954	 -0.506	  0.004	 -0.425	  9.738	 -0.942	  0.092	  0.002	  0.003	 -0.008	 38.800	 99.656	  0.440
34004	 -0.503	  0.009	 -0.428	  9.704	 -0.856	  0.154	 -0.005	  0.001	  0.007	 38.800	 99.656	  0.440
34054	 -0.503	  0.002	 -0.428	  9.787	 -0.892	  0.087	 -0.000	  0.002	 -0.007	 38.800	 99.656	  0.440
34104	 -0.503	  0.004	 -0.433	  9.706	 -0.941	  0.174	 -0.004	  0.002	  0.006	 38.800	 99.661	 -0.020
34154	 -0.505	  0.003	 -0.432	  9.779	 -0.884	  0.061	 -0.002	  0.002	 -0.002	 38.800	 99.656	  0.440
34204	 -0.503	  0.003	 -0.428	  9.712	 -0.949	  0.173	 -0.004	  0.002	  0.002	 38.800	 99.656	  0.440
34253	 -0.506	  0.003	 -0.428	  9.765	 -0.887	  0.073	 -0.003	  0.002	 -0.000	 38.800	 99.656	  0.440
34303	 -0.502	  0.010	 -0.429	  9.706	 -0.930	  0.160	 -0.002	  0.002	  0.002	 38.800	 99.672	 -1.028
34353	 -0.502	  0.005	 -0.430	  9.802	 -0.860	  0.049	 -0.000	  0.006	 -0.002	 38.800	 99.656	  0.440
34403	 -0.506	  0.006	 -0.431	  9.628	 -0.826	  0.172	 -0.004	  0.002	  0.003	 38.800	 99.656	  0.440
34453	 -0.507	  0.007	 -0.430	  9.753	 -0.843	  0.066	 -0.001	  0.003	  0.001	 38.800	 99.668	 -0.662
34503	 -0.508	  0.004	 -0.430	  9.717	 -0.941	  0.178	 -0.003	  0.001	  0.000	 38.800	 99.661	 -0.020
34553	 -0.504	  0.011	 -0.430	  9.792	 -0.915	  0.039	 -0.003	  0.002	 -0.001	 38.800	 99.661	 -0.020
34603	 -0.505	  0.003	 -0.426	  9.732	 -0.913	  0.143	 -0.001	  0.002	  0.002	 38.800	 99.661	 -0.020
34653	 -0.503	  0.002	 -0.430	  9.745	 -0.910	  0.083	 -0.002	  0.004	  0.000	 38.800	 99.656	  0.440
34703	 -0.504	  0.001	 -0.432	  9.708	 -0.907	  0.118	 -0.003	  0.000	  0.001	 38.800	 99.656	  0.440
34753	 -0.506	  0.009	 -0.432	  9.511	 -0.597	  0.012	 -0.007	 -0.004	  0.005	 38.800	 99.672	 -1.028
34803	 -0.504	  0.002	 -0.431	  9.740	 -1.335	  0.058	 -0.001	  0.001	 -0.009	 38.800	 99.661	 -0.020
34853	 -0.506	  0.006	 -0.445	  9.813	 -0.808	  0.160	 -0.004	  0.003	  0.005	 38.800	 99.649	  1.082
34903	 -0.500	 -0.000	 -0.436	  9.740	 -0.956	  0.161	  0.001	 -0.001	 -0.004	 38.800	 99.661	 -0.020
34953	 -0.507	 -0.001	 -0.419	  9.697	 -0.848	  0.122	 -0.005	  0.003	  0.004	 38.800	 99.656	  0.440
35003	 -0.505	  0.005	 -0.428	  9.767	 -0.948	  0.096	 -0.001	  0.002	 -0.005	 38.800	 99.661	 -0.020
35053	 -0.502	  0.003	 -0.430	  9.732	 -0.900	  0.185	 -0.003	  0.002	  0.007	 38.800	 99.661	 -0.020
35103	 -0.506	  0.002	 -0.434	  9.741	 -0.891	  0.098	 -0.002	  0.001	 -0.002	 38.800	 99.672	 -1.028
35153	 -0.504	  0.003	 -0.429	  9.735	 -0.911	  0.147	 -0.004	  0.002	  0.002	 38.800	 99.656	  0.440
35203	 -0.506	  0.007	 -0.427	  9.772	 -0.877	  0.096	 -0.002	  0.002	 -0.000	 38.800	 99.661	 -0.020
35253	 -0.505	  0.002	 -0.433	  9.723	 -0.915	  0.144	 -0.002	  0.003	  0.002	 38.800	 99.661	 -0.020
35303	 -0.504	  0.005	 -0.427	  9.741	 -0.875	  0.111	 -0.003	  0.002	 -0.000	 38.800	 99.649	  1.082
35353	 -0.506	  0.002	 -0.429	  9.725	 -0.933	  0.171	 -0.003	  0.001	  0.001	 38.800	 99.649	  1.082
35403	 -0.506	  0.002	 -0.433	  9.744	 -0.876	  0.106	 -0.002	  0.001	  0.001	 38.800	 99.661	 -0.020
35453	 -0.504	  0.003	 -0.427	  9.750	 -0.905	  0.127	 -0.003	  0.002	 -0.001	 38.800	 99.661	 -0.020
35503	 -0.501	  0.006	 -0.427	  9.728	 -0.898	  0.105	 -0.003	  0.002	 -0.000	 38.800	 99.661	 -0.020
35553	 -0.508	  0.004	 -0.426	  9.742	 -0.915	  0.131	 -0.002	  0.002	 -0.001	 38.800	 99.672	 -1.028
35603	 -0.502	  0.013	 -0.427	  9.746	 -0.892	  0.127	 -0.004	  0.003	  0.002	 38.800	 99.661	 -0.020
35653	 -0.504	 -0.001	 -0.428	 10.073	 -0.679	  0.108	 -0.002	  0.001	  0.009	 38.800	 99.672	 -1.028
35703	 -0.502	  0.010	 -0.428	  9.646	 -0.900	  0.093	 -0.001	  0.003	 -0.000	 38.800	 99.661	 -0.020
35752	 -0.504	  0.004	 -0.431	  9.724	 -0.990	  0.141	 -0.006	  0.000	 -0.001	 38.800	 99.661	 -0.020
35803	 -0.505	  0.003	 -0.427	  9.763	 -0.817	  0.110	 -0.002	  0.002	 -0.002	 38.800	 99.661	 -0.020
35852	 -0.502	 -0.001	 -0.428	  9.728	 -0.978	  0.120	 -0.002	  0.002	  0.004	 38.800	 99.661	 -0.020
35902	 -0.506	  0.000	 -0.426	  9.729	 -0.860	  0.058	 -0.002	  0.003	 -0.001	 38.800	 99.661	 -0.020
35952	 -0.505	  0.003	 -0.427	  9.759	 -0.940	  0.140	 -0.003	  0.002	 -0.001	 38.800	 99.661	 -0.020
36002	 -0.505	  0.003	 -0.428	  9.861	 -0.783	  0.059	 -0.006	  0.001	 -0.001	 38.800	 99.645	  1.450
36052	 -0.502	  0.009	 -0.432	  9.723	 -0.834	  0.119	 -0.001	  0.001	 -0.001	 38.800	 99.661	 -0.020
36102	 -0.504	  0.001	 -0.426	  9.749	 -0.922	  0.100	 -0.004	  0.002	  0.003	 38.800	 99.672	 -1.028
36152	 -0.505	  0.001	 -0.433	  9.773	 -0.907	  0.146	 -0.001	  0.003	 -0.003	 38.800	 99.661	 -0.020
36202	 -0.507	  0.003	 -0.427	  9.733	 -0.919	  0.130	 -0.003	 -0.000	  0.003	 38.800	 99.649	  1.082
36252	 -0.501	 -0.009	 -0.448	  9.639	 -1.065	  0.111	  0.001	  0.003	 -0.019	 38.800	 99.661	 -0.020
36302	 -0.503	  0.000	 -0.432	  9.783	 -0.907	  0.184	 -0.009	  0.002	  0.018	 38.800	 99.649	  1.082
36352	 -0.504	 -0.003	 -0.429	  9.774	 -0.872	  0.043	  0.006	  0.002	 -0.011	 38.800	 99.661	 -0.020
36402	 -0.503	  0.001	 -0.430	  9.672	 -0.879	  0.170	 -0.008	  0.002	  0.011	 38.800	 99.661	 -0.020
36452	 -0.502	  0.001	 -0.430	  9.804	 -0.895	  0.045	  0.001	  0.002	 -0.010	 38.800	 99.661	 -0.020
36502	 -0.506	  0.005	 -0.434	  9.694	 -0.939	  0.213	 -0.004	  0.002	  0.009	 38.800	 99.672	 -1.028
36552	 -0.503	  0.004	 -0.425	  9.770	 -0.860	  0.077	 -0.002	  0.001	 -0.006	 38.800	 99.661	 -0.020
36602	 -0.506	  0.003	 -0.425	  9.691	 -0.947	  0.200	 -0.004	  0.004	  0.002	 38.800	 99.653	  0.715
36652	 -0.502	  0.008	 -0.429	  9.794	 -0.831	  0.035	 -0.002	  0.002	 -0.001	 38.800	 99.661	 -0.020
36702	 -0.503	  0.000	 -0.424	  9.708	 -0.960	  0.155	 -0.002	  0.002	  0.003	 38.800	 99.649	  1.082
36752	 -0.503	 -0.002	 -0.430	  9.757	 -0.872	  0.050	 -0.003	  0.001	  0.001	 38.800	 99.661	 -0.020
36802	 -0.503	  0.005	 -0.427	  9.715	 -0.969	  0.150	 -0.002	  0.003	 -0.001	 38.800	 99.665	 -0.386
36852	 -0.504	  0.001	 -0.426	  9.741	 -0.858	  0.056	 -0.003	  0.001	  0.005	 38.800	 99.661	 -0.020
36902	 -0.505	  0.007	 -0.424	  9.739	 -0.980	  0.173	 -0.001	  0.002	 -0.005	 38.800	 99.665	 -0.386
36952	 -0.506	  0.003	 -0.424	  9.735	 -0.846	  0.089	 -0.005	  0.000	  0.005	 38.800	 99.661	 -0.020
37002	 -0.503	  0.003	 -0.431	  9.808	 -1.007	  0.148	 -0.000	  0.001	 -0.003	 38.800	 99.649	  1.082
37052	 -0.502	  0.009	 -0.426	  9.739	 -0.848	  0.133	 -0.004	  0.001	  0.003	 38.800	 99.665	 -0.386
37103	 -0.504	  0.000	 -0.422	  9.763	 -0.925	  0.119	 -0.002	  0.002	 -0.003	 38.800	 99.661	 -0.020
37152	 -0.503	  0.001	 -0.430	  9.740	 -1.074	  0.146	 -0.004	  0.003	  0.005	 38.800	 99.649	  1.082
37202	 -0.503	  0.002	 -0.424	  9.717	 -0.784	  0.050	 -0.002	  0.002	 -0.004	 38.800	 99.672	 -1.028
37252	 -0.504	  0.005	 -0.427	  9.726	 -1.020	  0.162	 -0.004	  0.002	  0.003	 38.800	 99.661	 -0.020
37302	 -0.503	  0.001	 -0.427	  9.820	 -0.853	  0.120	 -0.004	  0.004	 -0.002	 38.800	 99.665	 -0.386
37353	 -0.505	  0.000	 -0.427	  9.706	 -0.958	  0.133	 -0.004	  0.001	  0.003	 38.800	 99.661	 -0.020
37402	 -0.507	  0.005	 -0.430	  9.747	 -0.890	  0.064	 -0.003	  0.002	  0.000	 38.800	 99.661	 -0.020
37452	 -0.503	  0.004	 -0.426	  9.752	 -0.941	  0.149	 -0.003	  0.002	  0.000	 38.800	 99.649	  1.082
37502	 -0.505	  0.002	 -0.425	  9.739	 -0.933	  0.099	 -0.004	  0.001	  0.003	 38.800	 99.665	 -0.386
37552	 -0.504	  0.004	 -0.424	  9.708	 -0.869	  0.078	 -0.002	  0.002	  0.002	 38.800	 99.661	 -0.020
37603	 -0.504	  0.001	 -0.426	  9.729	 -0.963	  0.158	 -0.003	  0.002	 -0.002	 38.800	 99.661	 -0.020
37653	 -0.502	  0.001	 -0.428	  9.722	 -0.836	  0.131	 -0.003	  0.002	  0.001	 38.800	 99.653	  0.715
37703	 -0.502	  0.001	 -0.423	  9.779	 -0.989	  0.124	 -0.003	  0.001	  0.001	 38.800	 99.661	 -0.020
37753	 -0.505	 -0.001	 -0.429	  9.724	 -0.854	  0.120	 -0.004	  0.003	  0.003	 38.800	 99.672	 -1.028
37803	 -0.504	  0.012	 -0.425	  9.732	 -0.946	  0.096	 -0.002	  0.001	 -0.002	 38.800	 99.653	  0.715
37853	 -0.506	  0.006	 -0.424	  9.743	 -0.931	  0.167	 -0.004	  0.002	  0.003	 38.800	 99.665	 -0.386
37903	 -0.504	  0.004	 -0.428	  9.756	 -0.920	  0.114	 -0.001	  0.003	 -0.005	 38.800	 99.653	  0.715
37953	 -0.507	  0.004	 -0.425	  9.715	 -0.826	  0.125	 -0.002	  0.003	 -0.000	 38.800	 99.649	  1.082
38003	 -0.505	  0.005	 -0.426	  9.772	 -0.919	  0.083	 -0.003	  0.001	  0.000	 38.800	 99.665	 -0.386
38053	 -0.503	  0.000	 -0.426	  9.744	 -0.862	  0.121	 -0.001	  0.001	  0.000	 38.800	 99.653	  0.715
38103	 -0.507	  0.003	 -0.428	  9.736	 -0.931	  0.094	 -0.003	  0.001	  0.000	 38.800	 99.665	 -0.386
38153	 -0.503	  0.007	 -0.426	  9.772	 -0.887	  0.130	 -0.002	  0.003	 -0.001	 38.800	 99.665	 -0.386
38203	 -0.506	  0.003	 -0.425	  9.738	 -0.922	  0.135	 -0.005	  0.001	  0.001	 38.800	 99.665	 -0.386
38253	 -0.505	  0.001	 -0.432	  9.739	 -0.916	  0.106	 -0.001	  0.003	 -0.000	 38.800	 99.665	 -0.386
38302	 -0.505	  0.004	 -0.426	  9.736	 -0.895	  0.143	 -0.003	  0.002	  0.000	 38.800	 99.665	 -0.386
38352	 -0.504	  0.001	 -0.427	  9.741	 -0.922	  0.150	 -0.002	  0.002	  0.000	 38.800	 99.653	  0.715
38402	 -0.506	  0.013	 -0.430	  9.773	 -0.911	  0.077	 -0.002	  0.001	  0.001	 38.800	 99.665	 -0.386
38452	 -0.504	  0.006	 -0.427	  9.742	 -0.911	  0.096	 -0.002	  0.002	 -0.000	 38.800	 99.649	  1.082
38502	 -0.505	  0.000	 -0.427	  9.750	 -0.890	  0.135	 -0.002	  0.002	  0.000	 38.800	 99.665	 -0.386
38552	 -0.504	  0.007	 -0.426	  9.743	 -0.928	  0.130	 -0.002	  0.003	  0.000	 38.800	 99.653	  0.715
38602	 -0.505	  0.003	 -0.434	  9.735	 -0.880	  0.116	 -0.001	  0.001	  0.001	 38.800	 99.665	 -0.386
38652	 -0.503	  0.001	 -0.432	  9.734	 -0.902	  0.105	 -0.002	  0.002	  0.000	 38.800	 99.649	  1.082
38702	 -0.506	  0.006	 -0.430	  9.760	 -0.896	  0.161	 -0.003	  0.001	 -0.000	 38.800	 99.665	 -0.386
38752	 -0.498	  0.003	 -0.437	  9.726	 -0.952	  0.186	 -0.002	  0.002	  0.002	 38.800	 99.653	  0.715
38802	 -0.502	  0.003	 -0.434	  9.741	 -0.888	  0.110	 -0.004	  0.003	  0.000	 38.800	 99.653	  0.715
38852	 -0.500	 -0.002	 -0.424	  9.751	 -0.929	  0.132	 -0.003	  0.004	 -0.000	 38.800	 99.653	  0.715
38902	 -0.501	  0.002	 -0.438	  9.719	 -0.881	  0.091	 -0.003	  0.002	  0.002	 38.800	 99.653	  0.715
38952	 -0.500	  0.007	 -0.427	  9.734	 -0.906	  0.117	 -0.003	  0.002	 -0.001	 38.800	 99.665	 -0.386
39002	 -0.500	 -0.000	 -0.430	  9.761	 -0.941	  0.114	 -0.005	  0.002	 -0.000	 38.800	 99.665	 -0.386
39052	 -0.500	  0.005	 -0.433	  9.747	 -0.907	  0.129	 -0.001	  0.002	  0.000	 38.800	 99.653	  0.715
39102	 -0.503	  0.007	 -0.431	  9.755	 -0.914	  0.068	 -0.002	  0.003	  0.002	 38.800	 99.665	 -0.386
39152	 -0.501	 -0.002	 -0.429	  9.754	 -0.914	  0.118	 -0.002	  0.002	 -0.000	 38.900	 99.669	 -0.753
39202	 -0.501	  0.003	 -0.431	  9.735	 -0.891	  0.148	 -0.004	  0.002	  0.001	 38.900	 99.653	  0.715
39252	 -0.503	  0.001	 -0.422	  9.719	 -0.905	  0.123	 -0.002	  0.002	 -0.000	 38.800	 99.653	  0.715
39302	 -0.506	  0.002	 -0.421	  9.725	 -0.910	  0.098	 -0.003	  0.002	  0.000	 38.800	 99.665	 -0.386
39352	 -0.505	 -0.002	 -0.422	  9.742	 -0.922	  0.129	 -0.003	  0.003	  0.000	 38.800	 99.649	  1.082
39402	 -0.504	  0.001	 -0.419	  9.738	 -0.904	  0.109	 -0.003	  0.002	 -0.000	 38.800	 99.665	 -0.386
39452	 -0.507	  0.003	 -0.424	  9.751	 -0.908	  0.091	 -0.003	  0.000	 -0.000	 38.800	 99.665	 -0.386
39502	 -0.504	  0.007	 -0.418	  9.722	 -0.911	  0.106	 -0.003	  0.002	  0.000	 38.800	 99.665	 -0.386
39552	 -0.506	  0.001	 -0.424	  9.741	 -0.910	  0.126	 -0.002	  0.002	 -0.000	 38.800	 99.665	 -0.386
39602	 -0.504	  0.004	 -0.420	  9.744	 -0.918	  0.095	 -0.001	  0.002	 -0.000	 38.800	 99.653	  0.715
39652	 -0.507	  0.003	 -0.420	  9.759	 -0.912	  0.123	 -0.003	  0.002	  0.000	 38.800	 99.653	  0.715
39702	 -0.505	  0.001	 -0.421	  9.754	 -0.920	  0.114	 -0.003	  0.002	  0.000	 38.800	 99.665	 -0.386
39753	 -0.505	  0.002	 -0.426	  9.731	 -0.928	  0.121	 -0.003	  0.001	 -0.000	 38.800	 99.653	  0.715
39802	 -0.505	  0.002	 -0.420	  9.729	 -0.923	  0.101	 -0.003	  0.002	 -0.000	 38.800	 99.653	  0.715
39852	 -0.503	 -0.001	 -0.425	  9.738	 -0.909	  0.118	 -0.003	  0.001	  0.001	 38.800	 99.653	  0.715
39902	 -0.506	  0.001	 -0.421	  9.745	 -0.909	  0.122	 -0.003	  0.002	  0.001	 38.800	 99.665	 -0.386
39952	 -0.505	  0.000	 -0.427	  9.730	 -0.924	  0.114	 -0.002	  0.002	  0.000	 38.800	 99.665	 -0.386
40002	 -0.506	  0.003	 -0.425	  9.743	 -0.889	  0.096	 -0.002	  0.001	 -0.000	 38.800	 99.669	 -0.753
40052	 -0.506	  0.003	 -0.426	  9.759	 -0.911	  0.150	 -0.002	  0.002	  0.001	 38.800	 99.665	 -0.386
40102	 -0.508	 -0.001	 -0.421	  9.735	 -0.895	  0.123	 -0.003	  0.001	 -0.001	 38.800	 99.657	  0.348
40152	 -0.506	  0.000	 -0.421	  9.718	 -0.928	  0.125	 -0.003	  0.001	 -0.001	 38.800	 99.653	  0.715
40202	 -0.504	  0.000	 -0.424	  9.728	 -0.904	  0.127	 -0.003	  0.002	  0.000	 38.900	 99.665	 -0.386
40252	 -0.507	 -0.001	 -0.423	  9.750	 -0.935	  0.150	 -0.004	  0.002	 -0.000	 38.800	 99.665	 -0.386
40302	 -0.506	  0.010	 -0.421	  9.751	 -0.901	  0.118	 -0.002	  0.001	 -0.000	 38.900	 99.653	  0.715
40352	 -0.506	  0.004	 -0.420	  9.725	 -0.909	  0.155	 -0.003	  0.002	  0.000	 38.800	 99.653	  0.715
40402	 -0.506	  0.010	 -0.420	  9.743	 -0.899	  0.120	 -0.002	  0.002	  0.000	 38.800	 99.665	 -0.386
40452	 -0.505	  0.000	 -0.426	  9.755	 -0.897	  0.116	 -0.003	  0.002	 -0.000	 38.900	 99.657	  0.348
40502	 -0.504	  0.005	 -0.424	  9.770	 -0.915	  0.120	 -0.003	  0.003	  0.003	 38.900	 99.669	 -0.753
40552	 -0.508	  0.002	 -0.423	  9.754	 -0.901	  0.088	 -0.003	  0.000	  0.001	 38.800	 99.653	  0.715
40602	 -0.507	  0.014	 -0.421	  9.746	 -0.943	  0.139	 -0.003	  0.002	 -0.000	 38.800	 99.665	 -0.386
40652	 -0.505	  0.012	 -0.421	  9.723	 -0.863	  0.104	 -0.003	  0.002	  0.000	 38.800	 99.642	  1.725
40702	 -0.505	  0.007	 -0.423	  9.788	 -0.838	  0.097	 -0.003	  0.001	  0.001	 38.900	 99.657	  0.348
40752	 -0.503	 -0.001	 -0.424	  9.659	 -0.977	  0.139	 -0.001	  0.002	 -0.002	 38.900	 99.657	  0.348
40802	 -0.505	 -0.002	 -0.421	  9.716	 -0.909	  0.114	 -0.003	  0.002	 -0.002	 38.900	 99.665	 -0.386
40852	 -0.506	  0.001	 -0.427	  9.750	 -0.874	  0.122	 -0.002	  0.001	  0.001	 38.900	 99.657	  0.348
40902	 -0.506	  0.001	 -0.421	  9.731	 -0.942	  0.127	 -0.003	  0.002	  0.002	 38.800	 99.653	  0.715
40952	 -0.505	 -0.003	 -0.424	  9.757	 -0.892	  0.116	 -0.002	  0.002	  0.001	 38.900	 99.657	  0.348
41002	 -0.504	  0.001	 -0.421	  9.705	 -0.916	  0.128	 -0.003	  0.002	 -0.001	 38.800	 99.657	  0.348
41052	 -0.506	  0.003	 -0.424	  9.695	 -0.911	  0.082	 -0.002	  0.001	  0.001	 38.900	 99.669	 -0.753
41102	 -0.504	  0.002	 -0.422	  9.730	 -0.915	  0.131	 -0.003	  0.001	  0.000	 38.800	 99.657	  0.348
41152	 -0.506	  0.001	 -0.421	  9.738	 -0.903	  0.126	 -0.003	  0.003	  0.001	 38.900	 99.646	  1.357
41202	 -0.505	  0.001	 -0.420	  9.706	 -0.984	  0.095	 -0.002	  0.002	 -0.005	 38.900	 99.642	  1.725
41252	 -0.504	  0.004	 -0.421	  9.724	 -0.843	  0.058	 -0.004	  0.005	  0.006	 38.900	 99.657	  0.348
41302	 -0.507	  0.002	 -0.424	  9.790	 -0.960	  0.232	 -0.002	  0.002	 -0.003	 38.900	 99.657	  0.348
41352	 -0.506	  0.002	 -0.423	  9.765	 -0.875	  0.093	 -0.004	  0.001	  0.003	 38.800	 99.653	  0.715
41402	 -0.505	  0.000	 -0.422	  9.720	 -0.917	  0.096	 -0.001	  0.000	 -0.003	 38.800	 99.665	 -0.386
41452	 -0.507	  0.005	 -0.420	  9.729	 -0.774	  0.160	 -0.002	  0.006	  0.011	 38.800	 99.653	  0.715
41502	 -0.505	  0.002	 -0.426	  9.773	 -1.062	  0.301	 -0.004	 -0.001	 -0.006	 38.800	 99.665	 -0.386
41552	 -0.507	  0.004	 -0.425	  9.664	 -0.844	 -0.095	 -0.005	  0.000	  0.002	 38.900	 99.669	 -0.753
41602	 -0.505	  0.000	 -0.424	  9.699	 -0.973	  0.147	 -0.000	  0.005	 -0.001	 38.900	 99.657	  0.348
41652	 -0.506	  0.006	 -0.421	  9.809	 -0.842	  0.216	 -0.003	  0.001	  0.005	 38.900	 99.669	 -0.753
41702	 -0.506	  0.002	 -0.423	  9.705	 -0.950	  0.124	 -0.003	  0.000	 -0.006	 38.800	 99.642	  1.725
41752	 -0.505	 -0.001	 -0.419	  9.727	 -0.888	  0.028	 -0.004	  0.003	  0.004	 38.900	 99.669	 -0.753
41802	 -0.506	  0.003	 -0.420	  9.755	 -0.960	  0.171	 -0.001	  0.003	  0.001	 38.900	 99.657	  0.348
41852	 -0.506	  0.001	 -0.425	  9.778	 -0.829	  0.102	 -0.002	  0.002	  0.002	 38.900	 99.657	  0.348
41902	 -0.507	  0.000	 -0.421	  9.673	 -0.907	  0.119	 -0.003	 -0.001	  0.001	 38.900	 99.669	 -0.753
41952	 -0.505	  0.006	 -0.421	  9.785	 -0.955	  0.067	 -0.003	  0.004	  0.003	 38.900	 99.657	  0.348
42002	 -0.505	 -0.002	 -0.420	  9.725	 -0.924	  0.148	 -0.002	  0.002	 -0.001	 38.900	 99.669	 -0.753
42052	 -0.505	  0.007	 -0.421	  9.733	 -0.880	  0.113	 -0.004	  0.002	  0.001	 38.900	 99.657	  0.348
42102	 -0.504	  0.003	 -0.426	  9.696	 -0.861	  0.086	 -0.003	  0.001	  0.003	 38.900	 99.669	 -0.753
42152	 -0.504	  0.004	 -0.425	  9.760	 -0.924	  0.125	 -0.000	  0.003	 -0.006	 38.900	 99.657	  0.348
42202	 -0.507	  0.004	 -0.430	  9.738	 -0.918	  0.113	 -0.005	  0.002	  0.006	 38.900	 99.669	 -0.753
42252	 -0.506	 -0.001	 -0.425	  9.741	 -0.896	  0.078	 -0.000	  0.002	 -0.004	 38.900	 99.657	  0.348
42302	 -0.502	 -0.002	 -0.428	  9.838	 -0.874	  0.173	 -0.005	  0.004	  0.010	 38.900	 99.646	  1.357
42352	 -0.509	  0.003	 -0.426	  9.718	 -0.849	  0.048	 -0.001	  0.001	 -0.004	 38.900	 99.646	  1.357
42402	 -0.503	  0.011	 -0.418	  9.696	 -1.009	  0.208	 -0.004	  0.002	  0.001	 38.900	 99.657	  0.348
42452	 -0.505	  0.005	 -0.423	  9.760	 -0.820	  0.039	 -0.002	  0.002	 -0.003	 38.900	 99.646	  1.357
42502	 -0.506	  0.001	 -0.419	  9.732	 -1.005	  0.160	 -0.002	  0.002	  0.002	 38.900	 99.657	  0.348
42552	 -0.505	  0.004	 -0.423	  9.759	 -0.812	  0.078	 -0.003	  0.002	  0.001	 38.900	 99.669	 -0.753
42602	 -0.505	  0.000	 -0.425	  9.735	 -0.992	  0.161	 -0.002	  0.000	 -0.002	 38.900	 99.657	  0.348
42652	 -0.505	  0.000	 -0.423	  9.751	 -0.854	  0.086	 -0.003	  0.002	  0.003	 38.900	 99.657	  0.348
42702	 -0.505	  0.007	 -0.425	  9.734	 -0.949	  0.155	 -0.001	  0.004	 -0.001	 38.900	 99.657	  0.348
42752	 -0.507	  0.009	 -0.424	  9.768	 -0.855	  0.077	 -0.003	  0.002	  0.002	 38.900	 99.646	  1.357
42802	 -0.505	 -0.001	 -0.424	  9.716	 -1.132	  0.130	 -0.002	  0.001	 -0.002	 38.900	 99.657	  0.348
42852	 -0.503	  0.001	 -0.424	  9.760	 -0.840	  0.050	 -0.003	  0.003	  0.002	 38.900	 99.669	 -0.753
42902	 -0.506	 -0.003	 -0.426	  9.725	 -0.930	  0.178	 -0.001	  0.002	 -0.002	 38.900	 99.657	  0.348
42952	 -0.506	  0.000	 -0.425	  9.756	 -0.864	  0.100	 -0.003	  0.001	  0.002	 38.900	 99.657	  0.348
43002	 -0.504	  0.002	 -0.432	  9.665	 -1.231	  0.167	 -0.002	  0.000	 -0.004	 38.900	 99.669	 -0.753
43052	 -0.504	  0.013	 -0.427	  9.795	 -0.751	  0.064	 -0.002	  0.001	  0.004	 38.900	 99.657	  0.348
43102	 -0.498	  0.003	 -0.430	  9.703	 -0.993	  0.227	 -0.002	  0.002	 -0.003	 38.900	 99.669	 -0.753
43151	 -0.500	  0.003	 -0.429	  9.765	 -0.840	  0.055	 -0.006	  0.002	  0.003	 38.900	 99.669	 -0.753
43201	 -0.501	  0.010	 -0.439	  9.721	 -0.981	  0.146	 -0.001	  0.002	 -0.002	 38.900	 99.669	 -0.753
43251	 -0.502	  0.003	 -0.428	  9.750	 -0.838	  0.090	 -0.003	  0.003	  0.006	 38.900	 99.646	  1.357
43302	 -0.506	  0.002	 -0.425	  9.748	 -0.943	  0.161	 -0.001	  0.002	 -0.005	 38.900	 99.669	 -0.753
43351	 -0.504	  0.003	 -0.422	  9.731	 -0.902	  0.128	 -0.005	  0.002	  0.003	 38.900	 99.657	  0.348
43402	 -0.503	  0.001	 -0.422	  9.748	 -0.935	  0.117	 -0.000	  0.002	 -0.002	 38.900	 99.661	 -0.020
43451	 -0.506	  0.003	 -0.426	  9.741	 -0.922	  0.142	 -0.002	  0.003	  0.002	 38.900	 99.657	  0.348
43501	 -0.505	  0.001	 -0.420	  9.742	 -0.889	  0.103	 -0.003	  0.001	 -0.003	 38.900	 99.650	  0.990
43552	 -0.503	  0.003	 -0.420	  9.726	 -0.923	  0.118	 -0.003	  0.003	  0.002	 38.900	 99.657	  0.348
43602	 -0.508	  0.001	 -0.424	  9.756	 -0.885	  0.076	 -0.002	  0.002	  0.000	 38.900	 99.661	 -0.020
43652	 -0.505	 -0.003	 -0.421	  9.741	 -0.922	  0.106	 -0.002	  0.001	  0.001	 38.900	 99.657	  0.348
43702	 -0.505	 -0.001	 -0.427	  9.747	 -0.898	  0.079	 -0.002	  0.002	 -0.000	 38.900	 99.657	  0.348
43753	 -0.489	  0.007	 -0.462	  9.232	 -0.987	  0.113	  0.001	  0.003	  0.004	 38.900	 99.657	  0.348
43803	 -0.501	  0.008	 -0.432	  9.661	 -0.945	  0.115	 -0.004	  0.003	  0.002	 38.900	 99.661	 -0.020
43852	 -0.502	 -0.008	 -0.445	  9.804	 -0.903	  0.110	 -0.001	  0.003	 -0.001	 38.900	 99.657	  0.348
43902	 -0.499	  0.005	 -0.441	  9.718	 -0.877	  0.126	 -0.003	  0.001	 -0.000	 38.900	 99.657	  0.348
43952	 -0.492	 -0.004	 -0.444	  9.734	 -0.937	  0.126	 -0.002	  0.003	  0.000	 38.900	 99.650	  0.990
44002	 -0.502	 -0.000	 -0.437	  9.714	 -0.902	  0.162	 -0.002	  0.001	 -0.001	 38.900	 99.661	 -0.020
44052	 -0.501	 -0.005	 -0.430	  9.785	 -0.930	  0.101	 -0.004	  0.003	 -0.000	 38.900	 99.661	 -0.020
44102	 -0.498	 -0.002	 -0.434	  9.729	 -0.903	  0.156	 -0.003	  0.004	 -0.000	 38.900	 99.657	  0.348
44152	 -0.498	  0.006	 -0.436	  9.731	 -0.933	  0.040	 -0.003	  0.002	 -0.000	 38.900	 99.657	  0.348
44202	 -0.500	  0.002	 -0.431	  9.721	 -0.901	  0.103	 -0.002	  0.002	  0.001	 38.900	 99.657	  0.348
44252	 -0.501	  0.004	 -0.434	  9.760	 -0.912	  0.110	 -0.003	  0.002	  0.000	 38.900	 99.661	 -0.020
44302	 -0.504	 -0.007	 -0.435	  9.734	 -0.904	  0.143	 -0.002	  0.002	  0.001	 38.900	 99.661	 -0.020
44352	 -0.498	 -0.000	 -0.437	  9.769	 -0.922	  0.099	 -0.003	  0.003	  0.001	 38.900	 99.657	  0.348
44402	 -0.503	 -0.001	 -0.432	  9.748	 -0.889	  0.125	 -0.002	  0.002	 -0.000	 38.900	 99.657	  0.348
44452	 -0.502	  0.004	 -0.432	  9.766	 -0.914	  0.094	 -0.002	  0.001	  0.002	 38.900	 99.657	  0.348
44502	 -0.500	  0.001	 -0.437	  9.741	 -0.910	  0.121	 -0.003	  0.003	 -0.001	 38.900	 99.650	  0.990
44552	 -0.502	  0.013	 -0.429	  9.747	 -0.916	  0.097	 -0.003	  0.001	 -0.000	 38.900	 99.661	 -0.020
44602	 -0.500	  0.012	 -0.440	  9.743	 -0.899	  0.149	 -0.003	  0.002	  0.000	 38.900	 99.661	 -0.020
44652	 -0.500	  0.001	 -0.434	  9.745	 -0.919	  0.098	 -0.001	  0.002	 -0.001	 38.900	 99.661	 -0.020
44702	 -0.504	  0.003	 -0.428	  9.763	 -0.901	  0.104	 -0.002	  0.002	 -0.001	 38.900	 99.661	 -0.020
44752	 -0.503	  0.004	 -0.431	  9.759	 -0.888	  0.124	 -0.003	  0.003	  0.002	 38.900	 99.650	  0.990
44802	 -0.503	  0.001	 -0.436	  9.749	 -0.929	  0.102	 -0.003	  0.002	  0.001	 38.900	 99.661	 -0.020
44852	 -0.502	  0.003	 -0.432	  9.726	 -0.896	  0.103	 -0.002	  0.002	  0.001	 38.900	 99.661	 -0.020
44902	 -0.500	  0.001	 -0.436	  9.740	 -0.902	  0.114	 -0.003	  0.003	 -0.000	 38.900	 99.661	 -0.020
44952	 -0.504	  0.007	 -0.441	  9.753	 -0.898	  0.117	 -0.004	  0.002	 -0.001	 38.900	 99.650	  0.990
45002	 -0.504	  0.002	 -0.424	  9.730	 -0.879	  0.103	 -0.003	  0.000	 -0.001	 38.900	 99.650	  0.990
45052	 -0.502	 -0.001	 -0.425	  9.758	 -0.899	  0.078	 -0.003	  0.003	  0.001	 38.900	 99.661	 -0.020
45102	 -0.506	  0.003	 -0.426	  9.722	 -0.901	  0.108	 -0.002	  0.002	 -0.000	 38.900	 99.661	 -0.020
45152	 -0.504	  0.000	 -0.424	  9.704	 -0.903	  0.117	 -0.003	  0.001	  0.001	 38.900	 99.657	  0.348
45202	 -0.505	  0.003	 -0.425	  9.741	 -0.913	  0.127	 -0.002	  0.002	  0.000	 38.900	 99.661	 -0.020
45252	 -0.505	  0.011	 -0.419	  9.731	 -0.906	  0.123	 -0.003	  0.003	  0.000	 38.900	 99.657	  0.348
45302	 -0.503	  0.003	 -0.424	  9.753	 -0.910	  0.115	 -0.002	  0.004	 -0.000	 38.900	 99.650	  0.990
45352	 -0.506	  0.001	 -0.423	  9.733	 -0.896	  0.132	 -0.003	  0.002	  0.000	 38.900	 99.661	 -0.020
45402	 -0.506	  0.000	 -0.423	  9.733	 -0.922	  0.120	 -0.003	  0.003	  0.000	 38.900	 99.650	  0.990
45452	 -0.504	  0.003	 -0.433	  9.760	 -0.922	  0.149	 -0.003	  0.002	  0.001	 38.900	 99.661	 -0.020
45502	 -0.505	  0.001	 -0.420	  9.736	 -0.898	  0.160	 -0.003	  0.002	  0.000	 38.900	 99.661	 -0.020
45552	 -0.507	  0.001	 -0.424	  9.746	 -0.916	  0.115	 -0.002	  0.003	 -0.001	 38.900	 99.650	  0.990
45602	 -0.506	  0.002	 -0.423	  9.731	 -0.930	  0.101	 -0.003	  0.002	  0.001	 38.900	 99.661	 -0.020
45652	 -0.505	  0.007	 -0.425	  9.744	 -0.897	  0.118	 -0.003	  0.003	 -0.000	 38.900	 99.650	  0.990
45702	 -0.504	  0.005	 -0.426	  9.742	 -0.904	  0.106	 -0.002	  0.001	  0.001	 38.900	 99.650	  0.990
45752	 -0.507	  0.002	 -0.424	  9.749	 -0.911	  0.101	 -0.002	  0.002	  0.000	 38.900	 99.661	 -0.020
45802	 -0.503	  0.006	 -0.419	  9.751	 -0.920	  0.096	 -0.002	  0.003	 -0.001	 38.900	 99.661	 -0.020
45852	 -0.506	  0.003	 -0.421	  9.744	 -0.894	  0.080	 -0.003	  0.003	  0.001	 38.900	 99.661	 -0.020
45902	 -0.504	 -0.004	 -0.425	  9.737	 -0.904	  0.109	 -0.002	  0.003	  0.000	 38.900	 99.650	  0.990
45952	 -0.505	  0.002	 -0.424	  9.730	 -0.934	  0.127	 -0.003	  0.002	  0.000	 38.900	 99.661	 -0.020
46002	 -0.504	  0.009	 -0.421	  9.729	 -0.927	  0.078	 -0.002	  0.002	  0.001	 38.900	 99.661	 -0.020
46052	 -0.506	  0.004	 -0.425	  9.750	 -0.892	  0.097	 -0.004	  0.000	  0.000	 38.900	 99.650	  0.990
46102	 -0.505	 -0.001	 -0.428	  9.749	 -0.908	  0.116	 -0.003	  0.003	 -0.000	 38.900	 99.661	 -0.020
46152	 -0.505	  0.001	 -0.424	  9.756	 -0.910	  0.119	 -0.003	  0.002	  0.001	 38.900	 99.661	 -0.020
46202	 -0.508	 -0.003	 -0.427	  9.745	 -0.905	  0.130	 -0.003	  0.002	 -0.000	 38.900	 99.654	  0.623
46252	 -0.507	  0.012	 -0.424	  9.743	 -0.917	  0.125	 -0.003	  0.003	  0.000	 38.900	 99.661	 -0.020
46302	 -0.506	  0.003	 -0.423	  9.735	 -0.943	  0.107	 -0.003	  0.002	 -0.002	 38.900	 99.666	 -0.479
46352	 -0.509	  0.001	 -0.420	  9.720	 -0.880	  0.149	 -0.003	  0.001	  0.003	 38.900	 99.650	  0.990
46402	 -0.508	  0.002	 -0.424	  9.718	 -0.924	  0.108	 -0.000	  0.003	 -0.002	 38.900	 99.666	 -0.479
46452	 -0.505	  0.004	 -0.432	  9.744	 -0.926	  0.124	 -0.004	  0.001	  0.003	 38.900	 99.654	  0.623
46502	 -0.505	  0.001	 -0.427	  9.778	 -0.895	  0.144	 -0.001	  0.002	 -0.002	 38.900	 99.666	 -0.479
46552	 -0.505	 -0.002	 -0.420	  9.658	 -0.939	  0.055	 -0.004	  0.001	  0.002	 38.900	 99.654	  0.623
46602	 -0.507	  0.003	 -0.425	  9.718	 -0.898	  0.110	 -0.003	  0.003	 -0.001	 38.900	 99.650	  0.990
46652	 -0.505	  0.001	 -0.423	  9.736	 -0.934	  0.115	 -0.003	  0.001	  0.002	 38.900	 99.650	  0.990
46702	 -0.506	  0.006	 -0.420	  9.757	 -0.870	  0.123	 -0.002	  0.003	 -0.001	 38.900	 99.661	 -0.020
