Time	 MagX	 MagY	 MagZ	 AccelX	 AccelY	 AccelZ	 Yaw	 Pitch	 Roll	 Temperature	 Pressure	 Altitude
14301	 -0.219	  0.317	 -0.279	  3.696	 -9.040	 -0.332	 -0.003	  0.002	  0.008	 36.200	 99.342	 -99999.000
14351	 -0.220	  0.310	 -0.279	  3.660	 -9.060	 -0.297	 -0.003	  0.003	 -0.001	 36.200	 99.353	 -99999.000
14401	 -0.217	  0.307	 -0.276	  3.543	 -9.216	 -0.281	 -0.004	  0.004	 -0.009	 36.200	 99.342	 -99999.000
14451	 -0.217	  0.311	 -0.278	  3.566	 -9.131	 -0.342	 -0.004	  0.001	  0.006	 36.200	 99.353	 -99999.000
14501	 -0.223	  0.314	 -0.277	  3.691	 -9.085	 -0.353	 -0.003	  0.000	 -0.001	 36.200	 99.342	 -99999.000
14551	 -0.217	  0.309	 -0.279	  3.706	 -9.284	 -0.238	 -0.002	  0.002	 -0.015	 36.200	 99.342	 -99999.000
14601	 -0.220	  0.318	 -0.275	  3.534	 -9.155	 -0.213	 -0.003	  0.002	  0.008	 36.200	 99.342	 -99999.000
14651	 -0.219	  0.309	 -0.275	  3.639	 -9.072	 -0.318	 -0.005	  0.004	  0.004	 36.200	 99.342	 -99999.000
14701	 -0.219	  0.310	 -0.279	  3.736	 -9.030	 -0.346	  0.003	 -0.001	  0.006	 36.200	 99.342	 -99999.000
14751	 -0.215	  0.308	 -0.274	  3.697	 -9.138	 -0.337	 -0.003	  0.001	 -0.006	 36.200	 99.353	 -99999.000
14801	 -0.219	  0.312	 -0.278	  3.467	 -9.149	 -0.253	 -0.005	  0.005	 -0.006	 36.200	 99.331	 -99999.000
14851	 -0.222	  0.311	 -0.275	  3.594	 -9.112	 -0.289	 -0.003	  0.002	  0.015	 36.200	 99.342	 -99999.000
14901	 -0.221	  0.314	 -0.277	  3.650	 -9.069	 -0.408	 -0.000	  0.000	  0.001	 36.200	 99.338	 -99999.000
14951	 -0.221	  0.309	 -0.272	  3.648	 -9.087	 -0.299	 -0.003	 -0.000	 -0.016	 36.200	 99.342	 -99999.000
15001	 -0.221	  0.310	 -0.275	  3.593	 -9.150	 -0.252	 -0.004	  0.004	  0.005	 36.200	 99.342	 -99999.000
15051	 -0.219	  0.312	 -0.276	  3.662	 -9.072	 -0.343	 -0.001	  0.003	  0.001	 36.200	 99.353	 -99999.000
15101	 -0.221	  0.309	 -0.277	  3.656	 -9.074	 -0.296	 -0.004	  0.002	 -0.003	 36.200	 99.353	 -99999.000
15151	 -0.220	  0.311	 -0.279	  3.642	 -9.082	 -0.328	 -0.002	  0.002	  0.003	 36.200	 99.331	 -99999.000
15201	 -0.218	  0.306	 -0.278	  3.603	 -9.117	 -0.302	 -0.005	  0.003	 -0.004	 36.200	 99.342	 -99999.000
15251	 -0.219	  0.310	 -0.279	  3.659	 -9.061	 -0.304	 -0.001	  0.003	  0.013	 36.200	 99.342	 -99999.000
15301	 -0.221	  0.309	 -0.273	  3.667	 -9.078	 -0.394	 -0.002	  0.003	 -0.003	 36.200	 99.342	 -99999.000
15350	 -0.218	  0.309	 -0.281	  3.735	 -9.045	 -0.341	 -0.003	  0.002	 -0.006	 36.200	 99.338	 -99999.000
15401	 -0.220	  0.311	 -0.275	  3.599	 -9.114	 -0.348	 -0.001	  0.002	 -0.001	 36.200	 99.342	 -99999.000
15450	 -0.218	  0.318	 -0.278	  3.626	 -9.115	 -0.271	 -0.006	  0.002	  0.001	 36.200	 99.353	 -99999.000
15500	 -0.219	  0.310	 -0.274	  3.740	 -9.034	 -0.360	 -0.004	  0.002	 -0.001	 36.200	 99.342	 -99999.000
15550	 -0.224	  0.317	 -0.272	  3.653	 -9.142	 -0.310	 -0.006	  0.004	 -0.009	 36.200	 99.342	 -99999.000
15600	 -0.221	  0.311	 -0.277	  3.648	 -9.109	 -0.321	 -0.006	  0.001	  0.003	 36.200	 99.353	 -99999.000
15650	 -0.223	  0.308	 -0.277	  3.846	 -9.250	 -0.381	 -0.007	 -0.007	 -0.008	 36.200	 99.331	 -99999.000
15700	 -0.221	  0.311	 -0.281	  3.547	 -8.886	 -0.260	 -0.003	 -0.000	 -0.007	 36.200	 99.342	 -99999.000
15750	 -0.222	  0.313	 -0.274	  3.651	 -9.069	 -0.372	 -0.003	  0.002	 -0.005	 36.200	 99.331	 -99999.000
15800	 -0.220	  0.309	 -0.274	  3.608	 -9.112	 -0.336	 -0.000	  0.003	 -0.002	 36.200	 99.353	 -99999.000
15850	 -0.220	  0.306	 -0.275	  3.626	 -9.080	 -0.177	 -0.005	  0.002	 -0.002	 36.200	 99.365	 -99999.000
15900	 -0.221	  0.309	 -0.278	  3.630	 -9.150	 -0.340	 -0.004	  0.001	 -0.001	 36.200	 99.342	 -99999.000
15950	 -0.216	  0.313	 -0.283	  3.657	 -9.125	 -0.370	 -0.003	  0.000	  0.003	 36.200	 99.331	 -99999.000
16000	 -0.219	  0.309	 -0.274	  3.672	 -9.092	 -0.295	 -0.002	  0.003	  0.002	 36.200	 99.342	 -99999.000
16050	 -0.222	  0.310	 -0.277	  3.684	 -9.072	 -0.314	 -0.004	  0.001	  0.001	 36.200	 99.353	 -99999.000
16100	 -0.219	  0.312	 -0.273	  3.639	 -9.094	 -0.381	 -0.002	  0.002	  0.001	 36.200	 99.342	 -99999.000
16151	 -0.220	  0.317	 -0.279	  3.631	 -9.116	 -0.345	 -0.002	  0.001	 -0.000	 36.200	 99.342	 -99999.000
16200	 -0.220	  0.307	 -0.270	  3.650	 -9.057	 -0.288	 -0.003	  0.000	  0.001	 36.200	 99.342	 -99999.000
16250	 -0.222	  0.310	 -0.277	  3.661	 -9.071	 -0.327	 -0.004	  0.004	  0.000	 36.200	 99.342	 -99999.000
16300	 -0.222	  0.309	 -0.277	  3.639	 -9.085	 -0.382	 -0.002	  0.003	  0.002	 36.200	 99.342	 -99999.000
16350	 -0.220	  0.313	 -0.282	  3.647	 -9.098	 -0.268	 -0.003	  0.003	  0.002	 36.200	 99.342	 -99999.000
16400	 -0.222	  0.309	 -0.272	  3.654	 -9.114	 -0.316	 -0.003	  0.001	  0.002	 36.200	 99.342	 -99999.000
16450	 -0.221	  0.309	 -0.277	  3.627	 -9.117	 -0.364	 -0.004	  0.004	  0.002	 36.200	 99.342	 -99999.000
16501	 -0.223	  0.311	 -0.276	  3.677	 -9.105	 -0.329	 -0.003	  0.001	  0.004	 36.200	 99.342	 -99999.000
16550	 -0.222	  0.308	 -0.279	  3.676	 -9.060	 -0.329	 -0.004	  0.004	 -0.001	 36.200	 99.342	 -99999.000
16601	 -0.221	  0.310	 -0.279	  3.634	 -9.107	 -0.300	 -0.003	  0.005	  0.004	 36.200	 99.331	 -99999.000
16651	 -0.221	  0.308	 -0.274	  3.585	 -9.197	 -0.405	 -0.004	  0.003	  0.002	 36.200	 99.342	 -99999.000
16701	 -0.222	  0.312	 -0.278	  3.677	 -9.073	 -0.260	 -0.003	  0.002	  0.002	 36.200	 99.353	 -99999.000
16751	 -0.222	  0.308	 -0.275	  3.651	 -9.092	 -0.300	 -0.003	  0.002	  0.003	 36.200	 99.353	 -99999.000
16801	 -0.220	  0.309	 -0.274	  3.676	 -9.099	 -0.393	 -0.002	  0.001	  0.001	 36.200	 99.353	 -99999.000
16851	 -0.220	  0.311	 -0.280	  3.690	 -9.083	 -0.296	 -0.003	  0.001	  0.003	 36.200	 99.342	 -99999.000
16900	 -0.220	  0.310	 -0.276	  3.687	 -9.098	 -0.337	 -0.004	 -0.000	  0.006	 36.200	 99.342	 -99999.000
16950	 -0.221	  0.319	 -0.280	  3.662	 -9.101	 -0.309	 -0.006	  0.002	 -0.008	 36.200	 99.342	 -99999.000
17000	 -0.220	  0.304	 -0.279	  3.569	 -9.200	 -0.416	 -0.005	  0.002	 -0.001	 36.200	 99.331	 -99999.000
17049	 -0.220	  0.308	 -0.273	  3.692	 -9.019	 -0.203	 -0.003	  0.001	  0.005	 36.200	 99.342	 -99999.000
17100	 -0.222	  0.312	 -0.280	  3.706	 -9.081	 -0.369	 -0.003	  0.003	  0.004	 36.200	 99.342	 -99999.000
17150	 -0.223	  0.309	 -0.277	  3.681	 -9.092	 -0.391	 -0.002	  0.002	  0.002	 36.200	 99.331	 -99999.000
17200	 -0.219	  0.313	 -0.279	  3.632	 -9.088	 -0.239	 -0.002	  0.002	 -0.002	 36.200	 99.331	 -99999.000
17250	 -0.223	  0.312	 -0.279	  3.631	 -9.111	 -0.327	 -0.002	  0.002	 -0.004	 36.200	 99.342	 -99999.000
18300	 -0.218	  0.313	 -0.280	  3.653	 -9.078	 -0.348	 -0.003	  0.003	  0.001	 36.200	 99.342	 -99999.000
18350	 -0.220	  0.309	 -0.280	  3.670	 -9.093	 -0.288	 -0.003	  0.003	  0.002	 36.200	 99.331	 -99999.000
18400	 -0.219	  0.311	 -0.280	  3.672	 -9.108	 -0.306	 -0.004	  0.002	  0.001	 36.200	 99.342	 -99999.000
18450	 -0.219	  0.313	 -0.279	  3.623	 -9.094	 -0.344	 -0.003	  0.002	 -0.001	 36.200	 99.342	 -99999.000
18500	 -0.220	  0.316	 -0.279	  3.661	 -9.115	 -0.341	 -0.003	  0.001	  0.001	 36.200	 99.331	 -99999.000
18550	 -0.217	  0.319	 -0.276	  3.660	 -9.106	 -0.345	 -0.003	  0.003	  0.001	 36.200	 99.342	 -99999.000
18600	 -0.220	  0.311	 -0.278	  3.665	 -9.082	 -0.335	 -0.003	  0.001	  0.000	 36.200	 99.342	 -99999.000
18650	 -0.217	  0.320	 -0.279	  3.653	 -9.086	 -0.321	 -0.003	  0.002	  0.001	 36.200	 99.346	 -99999.000
18700	 -0.218	  0.314	 -0.280	  3.651	 -9.107	 -0.307	 -0.002	  0.003	  0.001	 36.200	 99.342	 -99999.000
18750	 -0.219	  0.313	 -0.279	  3.649	 -9.072	 -0.286	 -0.004	  0.002	  0.001	 36.200	 99.342	 -99999.000
18800	 -0.219	  0.317	 -0.281	  3.672	 -9.089	 -0.319	 -0.004	  0.004	  0.002	 36.200	 99.331	 -99999.000
18850	 -0.220	  0.319	 -0.278	  3.644	 -9.117	 -0.317	 -0.003	  0.002	  0.001	 36.200	 99.346	 -99999.000
18900	 -0.220	  0.310	 -0.283	  3.654	 -9.105	 -0.284	 -0.003	  0.002	  0.001	 36.200	 99.342	 -99999.000
18950	 -0.218	  0.314	 -0.285	  3.652	 -9.086	 -0.348	 -0.002	  0.002	  0.003	 36.200	 99.342	 -99999.000
19000	 -0.219	  0.318	 -0.279	  3.659	 -9.085	 -0.300	 -0.004	  0.003	  0.003	 36.200	 99.342	 -99999.000
19050	 -0.219	  0.315	 -0.280	  3.671	 -9.112	 -0.328	 -0.004	  0.003	  0.002	 36.200	 99.342	 -99999.000
19100	 -0.219	  0.314	 -0.281	  3.639	 -9.109	 -0.328	 -0.003	  0.002	  0.001	 36.200	 99.353	 -99999.000
