Time	 MagX	 MagY	 MagZ	 AccelX	 AccelY	 AccelZ	 Yaw	 Pitch	 Roll	 Temperature	 Pressure	 Altitude
16321	 -0.220	 -0.216	  0.543	  0.149	 -0.046	 -9.786	 -0.003	  0.001	 -0.000	 25.500	 99.949	 -99999.000
16371	 -0.220	 -0.220	  0.545	  0.174	 -0.060	 -9.802	 -0.003	  0.000	  0.000	 25.500	 99.949	 -99999.000
16421	 -0.221	 -0.218	  0.543	  0.145	 -0.042	 -9.794	 -0.005	  0.002	 -0.001	 25.500	 99.956	 -99999.000
16471	 -0.221	 -0.214	  0.541	  0.137	 -0.055	 -9.818	 -0.003	  0.000	  0.001	 25.500	 99.944	 -99999.000
16521	 -0.221	 -0.215	  0.548	  0.163	 -0.055	 -9.814	 -0.003	  0.002	 -0.001	 25.500	 99.960	 -99999.000
16571	 -0.221	 -0.217	  0.545	  0.140	 -0.035	 -9.810	 -0.005	  0.001	 -0.001	 25.500	 99.938	 -99999.000
16621	 -0.220	 -0.215	  0.539	  0.135	 -0.049	 -9.781	 -0.003	  0.001	 -0.000	 25.500	 99.949	 -99999.000
16671	 -0.222	 -0.201	  0.547	  0.184	 -0.028	 -9.820	 -0.003	  0.001	  0.000	 25.500	 99.944	 -99999.000
16721	 -0.223	 -0.208	  0.545	  0.197	 -0.057	 -9.810	 -0.002	  0.002	 -0.001	 25.500	 99.944	 -99999.000
16771	 -0.226	 -0.213	  0.548	  0.158	 -0.026	 -9.781	 -0.004	  0.001	  0.000	 25.500	 99.938	 -99999.000
16821	 -0.222	 -0.214	  0.549	  0.168	 -0.037	 -9.791	 -0.003	  0.001	 -0.001	 25.500	 99.949	 -99999.000
16871	 -0.221	 -0.213	  0.547	  0.153	 -0.044	 -9.766	 -0.002	  0.001	 -0.001	 25.500	 99.944	 -99999.000
16921	 -0.225	 -0.203	  0.546	  0.117	 -0.034	 -9.782	 -0.003	  0.000	 -0.001	 25.500	 99.960	 -99999.000
16971	 -0.223	 -0.216	  0.550	  0.173	 -0.055	 -9.812	 -0.002	  0.001	 -0.001	 25.500	 99.949	 -99999.000
17021	 -0.224	 -0.214	  0.547	  0.165	 -0.057	 -9.815	 -0.002	  0.002	 -0.000	 25.500	 99.944	 -99999.000
17071	 -0.226	 -0.208	  0.544	  0.161	 -0.067	 -9.782	 -0.003	  0.002	  0.000	 25.500	 99.933	 -99999.000
17121	 -0.222	 -0.209	  0.548	  0.167	 -0.051	 -9.789	 -0.003	  0.001	 -0.000	 25.500	 99.949	 -99999.000
17171	 -0.226	 -0.217	  0.544	  0.166	 -0.044	 -9.768	 -0.003	  0.001	 -0.000	 25.500	 99.944	 -99999.000
17221	 -0.225	 -0.215	  0.547	  0.161	 -0.053	 -9.757	 -0.004	  0.002	  0.000	 25.500	 99.949	 -99999.000
17271	 -0.228	 -0.212	  0.551	  0.139	 -0.048	 -9.790	 -0.003	  0.001	 -0.001	 25.500	 99.949	 -99999.000
17321	 -0.222	 -0.208	  0.548	  0.159	 -0.038	 -9.770	 -0.003	  0.002	 -0.001	 25.500	 99.960	 -99999.000
17371	 -0.226	 -0.215	  0.549	  0.171	 -0.040	 -9.771	 -0.004	  0.001	  0.001	 25.500	 99.949	 -99999.000
17421	 -0.224	 -0.215	  0.549	  0.147	 -0.084	 -9.774	 -0.003	  0.002	 -0.000	 25.500	 99.953	 -99999.000
17471	 -0.223	 -0.210	  0.550	  0.153	 -0.050	 -9.801	 -0.003	  0.002	  0.000	 25.500	 99.953	 -99999.000
17521	 -0.224	 -0.215	  0.549	  0.159	 -0.032	 -9.791	 -0.003	  0.002	 -0.001	 25.500	 99.942	 -99999.000
17571	 -0.225	 -0.213	  0.549	  0.171	 -0.065	 -9.783	 -0.003	  0.002	 -0.000	 25.500	 99.949	 -99999.000
17621	 -0.225	 -0.213	  0.549	  0.151	 -0.038	 -9.802	 -0.002	  0.000	 -0.001	 25.500	 99.949	 -99999.000
17671	 -0.224	 -0.218	  0.547	  0.155	 -0.041	 -9.784	 -0.003	  0.001	  0.001	 25.500	 99.953	 -99999.000
17722	 -0.224	 -0.205	  0.548	  0.156	 -0.048	 -9.775	 -0.004	  0.003	  0.001	 25.500	 99.953	 -99999.000
17772	 -0.226	 -0.208	  0.543	  0.194	 -0.045	 -9.788	 -0.004	  0.003	 -0.001	 25.500	 99.942	 -99999.000
17822	 -0.224	 -0.212	  0.552	  0.172	 -0.060	 -9.802	 -0.003	  0.003	 -0.001	 25.500	 99.949	 -99999.000
17872	 -0.224	 -0.215	  0.540	  0.138	 -0.041	 -9.778	 -0.003	  0.001	 -0.001	 25.500	 99.942	 -99999.000
17922	 -0.225	 -0.215	  0.549	  0.147	 -0.048	 -9.789	 -0.004	  0.002	 -0.001	 25.500	 99.938	 -99999.000
17972	 -0.223	 -0.208	  0.545	  0.159	 -0.070	 -9.763	 -0.003	  0.001	 -0.000	 25.500	 99.942	 -99999.000
18022	 -0.225	 -0.215	  0.552	  0.174	 -0.050	 -9.784	 -0.002	  0.002	 -0.001	 25.500	 99.942	 -99999.000
18072	 -0.223	 -0.216	  0.549	  0.168	 -0.046	 -9.747	 -0.004	  0.001	 -0.001	 25.500	 99.949	 -99999.000
18122	 -0.223	 -0.213	  0.550	  0.182	 -0.046	 -9.790	 -0.003	  0.002	 -0.002	 25.500	 99.938	 -99999.000
18172	 -0.223	 -0.215	  0.548	  0.163	 -0.053	 -9.805	 -0.003	  0.002	 -0.000	 25.500	 99.953	 -99999.000
18222	 -0.224	 -0.214	  0.547	  0.139	 -0.022	 -9.783	 -0.004	  0.001	 -0.001	 25.500	 99.953	 -99999.000
18272	 -0.221	 -0.219	  0.548	  0.164	 -0.040	 -9.795	 -0.003	  0.002	 -0.000	 25.500	 99.949	 -99999.000
18321	 -0.221	 -0.214	  0.548	  0.185	 -0.078	 -9.827	 -0.004	  0.001	 -0.000	 25.500	 99.942	 -99999.000
18372	 -0.224	 -0.216	  0.548	  0.217	 -0.062	 -9.822	 -0.004	  0.002	  0.000	 25.500	 99.942	 -99999.000
18422	 -0.221	 -0.200	  0.544	  0.170	 -0.024	 -9.760	 -0.003	  0.003	  0.000	 25.500	 99.949	 -99999.000
18472	 -0.222	 -0.203	  0.547	  0.155	 -0.027	 -9.772	 -0.003	  0.002	 -0.000	 25.500	 99.949	 -99999.000
18522	 -0.222	 -0.216	  0.545	  0.144	 -0.037	 -9.813	 -0.003	  0.001	 -0.001	 25.500	 99.942	 -99999.000
18572	 -0.222	 -0.215	  0.545	  0.173	 -0.032	 -9.804	 -0.003	  0.001	 -0.001	 25.500	 99.953	 -99999.000
18622	 -0.220	 -0.212	  0.546	  0.166	 -0.037	 -9.785	 -0.004	  0.001	  0.001	 25.500	 99.953	 -99999.000
18672	 -0.221	 -0.217	  0.550	  0.169	 -0.038	 -9.797	 -0.004	  0.002	 -0.001	 25.500	 99.931	 -99999.000
18722	 -0.220	 -0.215	  0.546	  0.145	 -0.054	 -9.763	 -0.003	  0.001	 -0.001	 25.500	 99.957	 -99999.000
18772	 -0.221	 -0.214	  0.547	  0.149	 -0.058	 -9.792	 -0.003	  0.002	  0.001	 25.600	 99.957	 -99999.000
18822	 -0.223	 -0.217	  0.549	  0.174	 -0.062	 -9.761	 -0.003	  0.001	  0.000	 25.500	 99.946	 -99999.000
18872	 -0.221	 -0.219	  0.546	  0.166	 -0.043	 -9.778	 -0.003	 -0.000	 -0.001	 25.500	 99.953	 -99999.000
18922	 -0.221	 -0.215	  0.548	  0.171	 -0.035	 -9.811	 -0.003	  0.002	 -0.001	 25.600	 99.942	 -99999.000
18972	 -0.224	 -0.218	  0.547	  0.145	 -0.039	 -9.771	 -0.003	  0.002	 -0.000	 25.600	 99.946	 -99999.000
19022	 -0.223	 -0.216	  0.548	  0.151	 -0.034	 -9.800	 -0.003	  0.002	 -0.000	 25.500	 99.957	 -99999.000
19072	 -0.222	 -0.213	  0.546	  0.170	 -0.064	 -9.750	 -0.003	  0.001	 -0.001	 25.500	 99.942	 -99999.000
19122	 -0.222	 -0.215	  0.548	  0.164	 -0.041	 -9.794	 -0.004	  0.002	 -0.001	 25.500	 99.957	 -99999.000
19172	 -0.218	 -0.215	  0.545	  0.173	 -0.036	 -9.797	 -0.003	  0.002	 -0.000	 25.600	 99.957	 -99999.000
19222	 -0.220	 -0.220	  0.544	  0.166	 -0.018	 -9.818	 -0.002	  0.002	 -0.001	 25.500	 99.957	 -99999.000
19272	 -0.223	 -0.211	  0.544	  0.172	 -0.036	 -9.782	 -0.002	  0.002	  0.000	 25.500	 99.942	 -99999.000
19322	 -0.219	 -0.205	  0.544	  0.169	 -0.055	 -9.837	 -0.003	  0.002	 -0.001	 25.600	 99.946	 -99999.000
19372	 -0.221	 -0.218	  0.544	  0.123	 -0.052	 -9.810	 -0.002	  0.001	 -0.001	 25.500	 99.942	 -99999.000
19422	 -0.222	 -0.214	  0.547	  0.108	 -0.059	 -9.821	 -0.004	  0.003	 -0.001	 25.500	 99.942	 -99999.000
19472	 -0.222	 -0.217	  0.544	  0.151	 -0.008	 -9.768	 -0.003	  0.002	 -0.001	 25.500	 99.942	 -99999.000
19522	 -0.222	 -0.219	  0.539	  0.185	 -0.034	 -9.824	 -0.003	  0.002	  0.001	 25.600	 99.946	 -99999.000
19572	 -0.220	 -0.219	  0.546	  0.109	 -0.047	 -9.831	 -0.004	  0.003	 -0.001	 25.500	 99.953	 -99999.000
19623	 -0.221	 -0.216	  0.537	  0.158	 -0.064	 -9.745	 -0.003	  0.001	 -0.000	 25.500	 99.935	 -99999.000
19672	 -0.222	 -0.221	  0.545	  0.205	 -0.022	 -9.778	 -0.003	  0.001	 -0.000	 25.600	 99.957	 -99999.000
19722	 -0.221	 -0.211	  0.543	  0.145	 -0.041	 -9.784	 -0.003	  0.003	  0.000	 25.600	 99.946	 -99999.000
19772	 -0.224	 -0.215	  0.546	  0.188	 -0.064	 -9.807	 -0.004	  0.002	  0.000	 25.600	 99.935	 -99999.000
19822	 -0.223	 -0.219	  0.541	  0.142	 -0.053	 -9.771	 -0.003	  0.001	 -0.001	 25.600	 99.946	 -99999.000
19872	 -0.223	 -0.220	  0.546	  0.163	 -0.032	 -9.730	 -0.002	  0.002	 -0.001	 25.600	 99.946	 -99999.000
19923	 -0.222	 -0.202	  0.543	  0.155	 -0.040	 -9.781	 -0.002	  0.002	 -0.001	 25.600	 99.946	 -99999.000
19973	 -0.223	 -0.217	  0.546	  0.182	 -0.044	 -9.781	 -0.004	  0.000	 -0.000	 25.600	 99.946	 -99999.000
20023	 -0.225	 -0.218	  0.545	  0.169	 -0.033	 -9.791	 -0.003	  0.002	 -0.001	 25.600	 99.946	 -99999.000
20073	 -0.222	 -0.210	  0.546	  0.135	 -0.042	 -9.783	 -0.003	  0.001	 -0.000	 25.600	 99.935	 -99999.000
20123	 -0.223	 -0.218	  0.545	  0.149	 -0.020	 -9.774	 -0.002	  0.002	  0.000	 25.600	 99.946	 -99999.000
20174	 -0.226	 -0.211	  0.545	  0.173	 -0.069	 -9.791	 -0.003	  0.002	 -0.000	 25.600	 99.946	 -99999.000
20224	 -0.225	 -0.218	  0.546	  0.177	 -0.040	 -9.766	 -0.002	  0.002	 -0.000	 25.600	 99.946	 -99999.000
20274	 -0.223	 -0.213	  0.544	  0.155	 -0.046	 -9.780	 -0.004	  0.002	 -0.000	 25.600	 99.939	 -99999.000
20324	 -0.224	 -0.213	  0.546	  0.165	 -0.050	 -9.778	 -0.003	  0.002	 -0.002	 25.600	 99.961	 -99999.000
20374	 -0.224	 -0.214	  0.541	  0.159	 -0.047	 -9.775	 -0.004	  0.002	 -0.001	 25.600	 99.950	 -99999.000
20424	 -0.226	 -0.211	  0.546	  0.156	 -0.038	 -9.811	 -0.003	  0.002	 -0.001	 25.600	 99.935	 -99999.000
20474	 -0.227	 -0.205	  0.540	  0.174	 -0.044	 -9.798	 -0.003	  0.000	 -0.000	 25.600	 99.950	 -99999.000
20524	 -0.226	 -0.213	  0.546	  0.146	 -0.043	 -9.811	 -0.003	  0.002	 -0.000	 25.600	 99.939	 -99999.000
20574	 -0.224	 -0.215	  0.545	  0.160	 -0.067	 -9.793	 -0.004	  0.002	  0.000	 25.600	 99.950	 -99999.000
20624	 -0.222	 -0.215	  0.544	  0.157	 -0.034	 -9.773	 -0.004	  0.001	 -0.001	 25.600	 99.950	 -99999.000
20674	 -0.223	 -0.220	  0.537	  0.166	 -0.032	 -9.791	 -0.004	  0.001	 -0.001	 25.600	 99.935	 -99999.000
20724	 -0.222	 -0.217	  0.548	  0.164	 -0.037	 -9.806	 -0.004	  0.002	 -0.001	 25.600	 99.939	 -99999.000
20774	 -0.225	 -0.215	  0.548	  0.147	 -0.031	 -9.746	 -0.003	  0.002	 -0.000	 25.600	 99.946	 -99999.000
20824	 -0.225	 -0.220	  0.543	  0.145	 -0.063	 -9.791	 -0.004	  0.001	 -0.001	 25.600	 99.939	 -99999.000
20874	 -0.226	 -0.215	  0.548	  0.165	 -0.053	 -9.789	 -0.003	  0.003	 -0.001	 25.600	 99.939	 -99999.000
20924	 -0.228	 -0.219	  0.537	  0.158	 -0.043	 -9.757	 -0.004	  0.001	 -0.000	 25.600	 99.950	 -99999.000
20974	 -0.224	 -0.214	  0.544	  0.185	 -0.039	 -9.775	 -0.003	  0.002	 -0.000	 25.600	 99.950	 -99999.000
21024	 -0.225	 -0.211	  0.545	  0.180	 -0.056	 -9.799	 -0.002	  0.002	 -0.000	 25.600	 99.950	 -99999.000
21074	 -0.224	 -0.219	  0.546	  0.191	 -0.068	 -9.779	 -0.003	  0.002	 -0.001	 25.600	 99.946	 -99999.000
21124	 -0.225	 -0.216	  0.541	  0.159	 -0.051	 -9.829	 -0.004	  0.003	 -0.001	 25.600	 99.939	 -99999.000
21174	 -0.226	 -0.217	  0.537	  0.175	 -0.045	 -9.747	 -0.004	  0.001	  0.000	 25.600	 99.950	 -99999.000
21224	 -0.228	 -0.211	  0.542	  0.178	 -0.060	 -9.777	 -0.004	  0.001	  0.001	 25.600	 99.939	 -99999.000
21274	 -0.227	 -0.215	  0.544	  0.162	 -0.049	 -9.794	 -0.003	  0.002	 -0.001	 25.600	 99.939	 -99999.000
21324	 -0.225	 -0.219	  0.544	  0.142	 -0.102	 -9.857	 -0.005	  0.003	 -0.001	 25.600	 99.939	 -99999.000
21374	 -0.226	 -0.215	  0.545	  0.190	 -0.044	 -9.793	 -0.003	  0.001	 -0.000	 25.600	 99.950	 -99999.000
21425	 -0.224	 -0.215	  0.537	  0.169	 -0.054	 -9.794	 -0.003	  0.001	 -0.001	 25.600	 99.939	 -99999.000
21475	 -0.226	 -0.216	  0.539	  0.159	 -0.045	 -9.780	 -0.003	  0.002	 -0.000	 25.600	 99.950	 -99999.000
21525	 -0.225	 -0.219	  0.545	  0.169	 -0.052	 -9.778	 -0.001	  0.002	  0.000	 25.600	 99.939	 -99999.000
21575	 -0.226	 -0.219	  0.541	  0.157	 -0.045	 -9.786	 -0.003	  0.001	 -0.000	 25.600	 99.950	 -99999.000
21625	 -0.225	 -0.218	  0.536	  0.150	 -0.038	 -9.760	 -0.004	  0.001	 -0.000	 25.600	 99.950	 -99999.000
21675	 -0.226	 -0.215	  0.539	  0.161	 -0.049	 -9.794	 -0.002	  0.001	 -0.001	 25.600	 99.943	 -99999.000
21725	 -0.226	 -0.216	  0.544	  0.159	 -0.060	 -9.767	 -0.005	  0.003	 -0.000	 25.600	 99.950	 -99999.000
21775	 -0.228	 -0.218	  0.539	  0.154	 -0.031	 -9.800	 -0.003	  0.000	 -0.001	 25.600	 99.943	 -99999.000
21825	 -0.225	 -0.211	  0.537	  0.181	 -0.050	 -9.798	 -0.002	  0.002	 -0.001	 25.600	 99.950	 -99999.000
21875	 -0.227	 -0.214	  0.540	  0.171	 -0.036	 -9.767	 -0.002	  0.002	 -0.001	 25.600	 99.950	 -99999.000
21925	 -0.225	 -0.218	  0.545	  0.168	 -0.065	 -9.810	 -0.004	  0.002	  0.000	 25.600	 99.943	 -99999.000
21975	 -0.226	 -0.215	  0.539	  0.159	 -0.028	 -9.753	 -0.003	  0.003	 -0.000	 25.600	 99.955	 -99999.000
22025	 -0.224	 -0.216	  0.544	  0.182	 -0.047	 -9.789	 -0.003	  0.001	 -0.000	 25.600	 99.943	 -99999.000
22075	 -0.223	 -0.217	  0.543	  0.158	 -0.061	 -9.787	 -0.003	  0.000	 -0.001	 25.600	 99.943	 -99999.000
22125	 -0.224	 -0.218	  0.540	  0.134	 -0.056	 -9.756	 -0.004	  0.003	 -0.000	 25.600	 99.955	 -99999.000
22175	 -0.222	 -0.212	  0.544	  0.153	 -0.045	 -9.785	 -0.004	  0.003	 -0.000	 25.600	 99.955	 -99999.000
22225	 -0.224	 -0.215	  0.533	  0.173	 -0.043	 -9.788	 -0.004	  0.001	  0.000	 25.600	 99.939	 -99999.000
22275	 -0.222	 -0.217	  0.540	  0.197	 -0.040	 -9.792	 -0.002	  0.002	 -0.002	 25.600	 99.955	 -99999.000
24552	 -0.226	 -0.219	  0.545	  0.208	  0.069	 -9.841	 -0.003	  0.003	  0.000	 25.600	 99.963	 -1.542
24603	 -0.227	 -0.202	  0.541	  0.135	  0.060	 -9.688	 -0.003	  0.003	 -0.001	 25.600	 99.948	 -0.228
24652	 -0.231	 -0.218	  0.542	  0.200	 -0.025	 -9.780	 -0.004	  0.002	 -0.001	 25.600	 99.937	  0.736
24703	 -0.227	 -0.214	  0.545	  0.189	 -0.098	 -9.782	 -0.004	  0.002	 -0.001	 25.600	 99.948	 -0.228
24752	 -0.226	 -0.217	  0.537	  0.180	 -0.074	 -9.778	 -0.004	  0.003	 -0.001	 25.600	 99.952	 -0.580
24803	 -0.229	 -0.215	  0.542	  0.170	 -0.058	 -9.751	 -0.003	  0.002	 -0.000	 25.600	 99.952	 -0.580
24853	 -0.231	 -0.217	  0.544	  0.169	 -0.038	 -9.806	 -0.004	  0.002	 -0.001	 25.600	 99.952	 -0.580
24903	 -0.227	 -0.212	  0.541	  0.151	 -0.050	 -9.805	 -0.003	  0.000	  0.000	 25.600	 99.937	  0.736
24953	 -0.227	 -0.216	  0.545	  0.181	 -0.028	 -9.775	 -0.003	  0.001	 -0.001	 25.600	 99.952	 -0.580
25003	 -0.227	 -0.209	  0.540	  0.154	 -0.041	 -9.789	 -0.002	  0.002	 -0.001	 25.600	 99.952	 -0.580
25053	 -0.227	 -0.214	  0.543	  0.175	 -0.068	 -9.788	 -0.004	  0.001	  0.000	 25.600	 99.963	 -1.542
25102	 -0.224	 -0.219	  0.548	  0.163	 -0.026	 -9.792	 -0.004	  0.003	 -0.001	 25.600	 99.952	 -0.580
25153	 -0.227	 -0.219	  0.544	  0.151	 -0.064	 -9.758	 -0.003	  0.002	 -0.002	 25.600	 99.941	  0.385
25203	 -0.227	 -0.219	  0.547	  0.140	 -0.058	 -9.797	 -0.003	  0.003	 -0.001	 25.600	 99.941	  0.385
25253	 -0.228	 -0.217	  0.537	  0.177	 -0.048	 -9.802	 -0.003	  0.002	  0.001	 25.600	 99.952	 -0.580
25303	 -0.226	 -0.217	  0.543	  0.166	 -0.037	 -9.780	 -0.003	  0.001	 -0.000	 25.600	 99.952	 -0.580
25353	 -0.229	 -0.218	  0.544	  0.164	 -0.063	 -9.763	 -0.003	  0.001	 -0.001	 25.600	 99.952	 -0.580
25403	 -0.228	 -0.216	  0.535	  0.126	 -0.045	 -9.779	 -0.003	  0.003	 -0.001	 25.600	 99.941	  0.385
25453	 -0.225	 -0.215	  0.543	  0.157	 -0.048	 -9.799	 -0.003	  0.001	  0.000	 25.600	 99.941	  0.385
25503	 -0.227	 -0.218	  0.545	  0.180	 -0.042	 -9.786	 -0.002	  0.002	 -0.001	 25.600	 99.941	  0.385
25553	 -0.227	 -0.216	  0.545	  0.141	 -0.079	 -9.795	 -0.003	  0.002	 -0.000	 25.600	 99.956	 -0.929
25603	 -0.227	 -0.217	  0.540	  0.196	 -0.022	 -9.788	 -0.003	  0.002	 -0.001	 25.600	 99.956	 -0.929
25653	 -0.227	 -0.210	  0.541	  0.156	 -0.057	 -9.809	 -0.004	  0.002	 -0.001	 25.600	 99.941	  0.385
25703	 -0.227	 -0.212	  0.541	  0.174	 -0.051	 -9.778	 -0.003	  0.001	 -0.001	 25.600	 99.941	  0.385
25753	 -0.225	 -0.215	  0.548	  0.206	 -0.013	 -9.771	 -0.004	  0.003	 -0.000	 25.600	 99.952	 -0.580
25803	 -0.226	 -0.215	  0.538	  0.148	 -0.032	 -9.773	 -0.003	  0.002	  0.000	 25.600	 99.956	 -0.929
25853	 -0.229	 -0.218	  0.548	  0.160	 -0.057	 -9.764	 -0.003	  0.002	 -0.001	 25.600	 99.941	  0.385
25903	 -0.227	 -0.214	  0.544	  0.153	 -0.045	 -9.805	 -0.004	  0.001	 -0.000	 25.600	 99.956	 -0.929
25953	 -0.230	 -0.216	  0.547	  0.169	 -0.044	 -9.808	 -0.003	  0.003	 -0.001	 25.600	 99.952	 -0.580
26003	 -0.226	 -0.214	  0.538	  0.178	 -0.043	 -9.778	 -0.003	  0.002	 -0.001	 25.600	 99.956	 -0.929
26053	 -0.228	 -0.214	  0.548	  0.189	 -0.013	 -9.776	 -0.003	  0.002	 -0.001	 25.600	 99.941	  0.385
26103	 -0.231	 -0.216	  0.548	  0.167	 -0.037	 -9.792	 -0.002	  0.003	 -0.000	 25.600	 99.956	 -0.929
26153	 -0.229	 -0.216	  0.546	  0.156	 -0.062	 -9.827	 -0.003	  0.001	 -0.001	 25.600	 99.941	  0.385
26203	 -0.229	 -0.213	  0.547	  0.155	 -0.045	 -9.793	 -0.002	  0.001	  0.001	 25.600	 99.945	  0.035
26253	 -0.231	 -0.215	  0.543	  0.174	 -0.034	 -9.772	 -0.003	  0.002	 -0.001	 25.600	 99.941	  0.385
26303	 -0.230	 -0.215	  0.546	  0.161	 -0.052	 -9.817	 -0.004	  0.003	  0.000	 25.600	 99.941	  0.385
26354	 -0.226	 -0.208	  0.547	  0.172	 -0.032	 -9.755	 -0.003	  0.001	 -0.001	 25.600	 99.956	 -0.929
26404	 -0.230	 -0.216	  0.551	  0.172	 -0.047	 -9.783	 -0.003	  0.002	 -0.000	 25.600	 99.930	  1.349
26454	 -0.230	 -0.212	  0.548	  0.133	 -0.046	 -9.777	 -0.004	  0.003	 -0.001	 25.600	 99.945	  0.035
26504	 -0.231	 -0.218	  0.551	  0.169	 -0.048	 -9.812	 -0.004	  0.001	 -0.001	 25.600	 99.945	  0.035
26554	 -0.229	 -0.207	  0.549	  0.140	 -0.034	 -9.786	 -0.003	  0.001	 -0.001	 25.600	 99.945	  0.035
26604	 -0.231	 -0.212	  0.548	  0.145	 -0.044	 -9.799	 -0.002	  0.002	 -0.001	 25.600	 99.934	  0.999
26654	 -0.227	 -0.213	  0.550	  0.170	 -0.047	 -9.786	 -0.003	  0.002	 -0.000	 25.600	 99.945	  0.035
26704	 -0.229	 -0.208	  0.546	  0.168	 -0.032	 -9.823	 -0.003	  0.002	 -0.000	 25.600	 99.952	 -0.580
26754	 -0.228	 -0.213	  0.550	  0.174	 -0.063	 -9.793	 -0.003	  0.001	 -0.001	 25.600	 99.945	  0.035
26804	 -0.228	 -0.202	  0.549	  0.167	 -0.057	 -9.821	 -0.002	  0.001	 -0.002	 25.600	 99.945	  0.035
26854	 -0.230	 -0.212	  0.549	  0.178	 -0.059	 -9.789	 -0.003	  0.002	  0.000	 25.600	 99.945	  0.035
26904	 -0.230	 -0.212	  0.549	  0.168	 -0.037	 -9.799	 -0.002	  0.001	 -0.001	 25.700	 99.945	  0.035
26954	 -0.228	 -0.211	  0.546	  0.157	 -0.071	 -9.786	 -0.003	  0.002	  0.000	 25.700	 99.949	 -0.315
27004	 -0.227	 -0.201	  0.547	  0.164	 -0.031	 -9.769	 -0.003	  0.002	 -0.000	 25.600	 99.945	  0.035
27054	 -0.229	 -0.215	  0.551	  0.139	 -0.037	 -9.798	 -0.004	  0.002	 -0.000	 25.600	 99.945	  0.035
27104	 -0.230	 -0.214	  0.548	  0.174	 -0.053	 -9.781	 -0.004	  0.001	 -0.000	 25.700	 99.945	  0.035
27154	 -0.231	 -0.215	  0.550	  0.159	 -0.054	 -9.802	 -0.003	  0.004	 -0.000	 25.600	 99.945	  0.035
27204	 -0.228	 -0.210	  0.548	  0.153	 -0.054	 -9.800	 -0.003	  0.003	  0.000	 25.600	 99.945	  0.035
27254	 -0.229	 -0.208	  0.550	  0.164	 -0.050	 -9.758	 -0.003	  0.001	 -0.001	 25.700	 99.938	  0.648
27304	 -0.229	 -0.214	  0.549	  0.151	 -0.043	 -9.788	 -0.003	  0.001	 -0.001	 25.600	 99.960	 -1.280
27354	 -0.227	 -0.210	  0.548	  0.153	 -0.046	 -9.804	 -0.003	  0.002	 -0.001	 25.600	 99.956	 -0.929
27404	 -0.226	 -0.214	  0.551	  0.137	 -0.032	 -9.797	 -0.003	  0.001	 -0.001	 25.600	 99.949	 -0.315
27454	 -0.230	 -0.216	  0.552	  0.159	 -0.054	 -9.782	 -0.003	  0.002	 -0.000	 25.700	 99.949	 -0.315
27504	 -0.228	 -0.210	  0.549	  0.163	 -0.058	 -9.785	 -0.003	  0.001	 -0.001	 25.600	 99.945	  0.035
27554	 -0.226	 -0.212	  0.550	  0.170	 -0.061	 -9.806	 -0.003	  0.001	  0.000	 25.600	 99.934	  0.999
27604	 -0.227	 -0.212	  0.544	  0.159	 -0.069	 -9.819	 -0.001	  0.001	 -0.001	 25.700	 99.949	 -0.315
27654	 -0.227	 -0.212	  0.547	  0.149	 -0.053	 -9.756	 -0.003	  0.001	 -0.001	 25.700	 99.938	  0.648
27704	 -0.227	 -0.200	  0.547	  0.135	 -0.059	 -9.841	 -0.003	  0.000	 -0.000	 25.700	 99.949	 -0.315
27754	 -0.225	 -0.212	  0.554	  0.148	 -0.042	 -9.784	 -0.003	  0.001	  0.000	 25.600	 99.945	  0.035
27804	 -0.227	 -0.214	  0.554	  0.167	 -0.074	 -9.797	 -0.003	  0.002	 -0.001	 25.700	 99.945	  0.035
27854	 -0.224	 -0.210	  0.548	  0.181	 -0.041	 -9.784	 -0.003	  0.003	 -0.001	 25.700	 99.949	 -0.315
27904	 -0.227	 -0.211	  0.550	  0.153	 -0.052	 -9.779	 -0.003	  0.001	 -0.001	 25.700	 99.949	 -0.315
27954	 -0.226	 -0.209	  0.550	  0.168	 -0.052	 -9.761	 -0.004	  0.002	 -0.000	 25.600	 99.934	  0.999
28004	 -0.225	 -0.213	  0.553	  0.167	 -0.033	 -9.805	 -0.003	  0.002	 -0.001	 25.600	 99.949	 -0.315
28054	 -0.227	 -0.208	  0.550	  0.176	 -0.047	 -9.771	 -0.005	  0.002	 -0.001	 25.700	 99.949	 -0.315
28104	 -0.226	 -0.209	  0.550	  0.149	 -0.069	 -9.820	 -0.003	  0.003	 -0.000	 25.700	 99.949	 -0.315
28154	 -0.225	 -0.200	  0.547	  0.149	 -0.025	 -9.769	 -0.003	  0.002	 -0.001	 25.700	 99.949	 -0.315
28204	 -0.226	 -0.212	  0.540	  0.168	 -0.059	 -9.800	 -0.004	  0.002	 -0.001	 25.700	 99.949	 -0.315
28254	 -0.224	 -0.212	  0.549	  0.165	 -0.048	 -9.749	 -0.003	  0.001	 -0.001	 25.700	 99.949	 -0.315
28304	 -0.224	 -0.208	  0.548	  0.161	 -0.029	 -9.791	 -0.003	  0.002	  0.000	 25.700	 99.949	 -0.315
28354	 -0.224	 -0.211	  0.550	  0.157	 -0.036	 -9.807	 -0.003	  0.002	  0.000	 25.700	 99.949	 -0.315
28404	 -0.226	 -0.210	  0.547	  0.150	 -0.042	 -9.822	 -0.003	  0.002	 -0.001	 25.700	 99.954	 -0.754
28454	 -0.226	 -0.214	  0.554	  0.183	 -0.041	 -9.749	 -0.003	  0.002	 -0.002	 25.700	 99.942	  0.298
28505	 -0.223	 -0.208	  0.550	  0.167	 -0.039	 -9.771	 -0.004	  0.001	 -0.001	 25.700	 99.954	 -0.754
28555	 -0.225	 -0.211	  0.550	  0.166	 -0.044	 -9.797	 -0.002	  0.002	 -0.001	 25.700	 99.938	  0.648
28605	 -0.224	 -0.198	  0.545	  0.151	 -0.045	 -9.773	 -0.004	  0.001	 -0.001	 25.700	 99.938	  0.648
28655	 -0.225	 -0.211	  0.543	  0.171	 -0.048	 -9.779	 -0.004	  0.001	 -0.001	 25.700	 99.949	 -0.315
28705	 -0.223	 -0.211	  0.544	  0.157	 -0.011	 -9.778	 -0.003	  0.003	 -0.000	 25.700	 99.938	  0.648
28755	 -0.226	 -0.216	  0.548	  0.181	 -0.031	 -9.772	 -0.003	  0.000	 -0.000	 25.700	 99.942	  0.298
28805	 -0.225	 -0.209	  0.549	  0.136	 -0.041	 -9.769	 -0.004	  0.002	  0.000	 25.700	 99.942	  0.298
28855	 -0.226	 -0.212	  0.553	  0.148	 -0.056	 -9.808	 -0.002	  0.001	 -0.000	 25.700	 99.954	 -0.754
28905	 -0.224	 -0.208	  0.549	  0.168	 -0.035	 -9.806	 -0.003	  0.002	 -0.001	 25.700	 99.942	  0.298
28955	 -0.225	 -0.208	  0.539	  0.181	 -0.037	 -9.772	 -0.003	  0.000	  0.001	 25.700	 99.954	 -0.754
29005	 -0.226	 -0.209	  0.550	  0.149	 -0.038	 -9.792	 -0.003	  0.001	 -0.000	 25.700	 99.954	 -0.754
29055	 -0.222	 -0.200	  0.548	  0.135	 -0.054	 -9.778	 -0.003	  0.002	 -0.000	 25.700	 99.942	  0.298
29105	 -0.226	 -0.213	  0.549	  0.165	 -0.044	 -9.770	 -0.003	  0.003	 -0.000	 25.700	 99.942	  0.298
29155	 -0.225	 -0.211	  0.549	  0.138	 -0.048	 -9.799	 -0.004	  0.002	 -0.000	 25.700	 99.954	 -0.754
29205	 -0.225	 -0.213	  0.550	  0.157	 -0.040	 -9.771	 -0.004	  0.002	 -0.000	 25.700	 99.942	  0.298
29255	 -0.224	 -0.210	  0.550	  0.158	 -0.054	 -9.796	 -0.003	  0.001	  0.001	 25.700	 99.942	  0.298
29305	 -0.227	 -0.215	  0.548	  0.142	 -0.041	 -9.804	 -0.004	  0.002	 -0.000	 25.700	 99.954	 -0.754
29355	 -0.226	 -0.210	  0.548	  0.164	 -0.050	 -9.744	 -0.003	  0.002	  0.001	 25.700	 99.954	 -0.754
29405	 -0.226	 -0.206	  0.548	  0.208	 -0.053	 -9.791	 -0.002	  0.002	 -0.000	 25.700	 99.942	  0.298
29455	 -0.227	 -0.213	  0.547	  0.164	 -0.033	 -9.736	 -0.004	  0.003	 -0.001	 25.700	 99.954	 -0.754
29505	 -0.228	 -0.215	  0.551	  0.171	 -0.052	 -9.763	 -0.003	  0.001	 -0.001	 25.700	 99.965	 -1.718
29555	 -0.226	 -0.213	  0.549	  0.165	 -0.047	 -9.808	 -0.003	  0.002	  0.000	 25.700	 99.954	 -0.754
29605	 -0.228	 -0.214	  0.547	  0.173	 -0.033	 -9.812	 -0.004	  0.002	  0.000	 25.700	 99.958	 -1.105
29655	 -0.226	 -0.204	  0.549	  0.238	 -0.002	 -9.733	 -0.002	 -0.001	 -0.000	 25.700	 99.942	  0.298
29705	 -0.228	 -0.202	  0.545	  0.161	 -0.025	 -9.779	 -0.004	  0.004	 -0.000	 25.700	 99.942	  0.298
29755	 -0.229	 -0.216	  0.550	  0.158	 -0.054	 -9.767	 -0.002	  0.002	 -0.000	 25.700	 99.942	  0.298
29805	 -0.229	 -0.209	  0.548	  0.144	 -0.068	 -9.790	 -0.004	  0.002	 -0.001	 25.700	 99.942	  0.298
29855	 -0.226	 -0.210	  0.541	  0.120	 -0.061	 -9.785	 -0.004	  0.002	 -0.001	 25.700	 99.947	 -0.140
29905	 -0.225	 -0.207	  0.549	  0.166	 -0.050	 -9.792	 -0.004	  0.002	 -0.001	 25.700	 99.942	  0.298
29955	 -0.230	 -0.217	  0.539	  0.198	 -0.060	 -9.803	 -0.002	  0.002	 -0.001	 25.700	 99.942	  0.298
30005	 -0.229	 -0.210	  0.550	  0.180	 -0.044	 -9.840	 -0.004	  0.002	 -0.001	 25.700	 99.942	  0.298
30055	 -0.226	 -0.202	  0.547	  0.140	 -0.032	 -9.808	 -0.003	  0.001	 -0.001	 25.700	 99.947	 -0.140
30105	 -0.230	 -0.212	  0.548	  0.132	 -0.065	 -9.785	 -0.003	  0.003	 -0.001	 25.700	 99.954	 -0.754
30155	 -0.228	 -0.204	  0.549	  0.166	 -0.042	 -9.785	 -0.003	  0.001	 -0.001	 25.700	 99.942	  0.298
30206	 -0.227	 -0.211	  0.544	  0.205	 -0.033	 -9.776	 -0.003	  0.002	  0.000	 25.700	 99.947	 -0.140
30256	 -0.230	 -0.208	  0.548	  0.174	 -0.067	 -9.788	 -0.003	  0.001	 -0.002	 25.700	 99.954	 -0.754
30305	 -0.228	 -0.206	  0.550	  0.151	 -0.037	 -9.799	 -0.004	  0.002	 -0.000	 25.700	 99.947	 -0.140
30356	 -0.231	 -0.205	  0.546	  0.190	 -0.026	 -9.802	 -0.003	  0.002	 -0.000	 25.700	 99.942	  0.298
30406	 -0.232	 -0.217	  0.551	  0.175	 -0.045	 -9.808	 -0.003	  0.002	  0.000	 25.700	 99.958	 -1.105
30456	 -0.229	 -0.200	  0.544	  0.161	 -0.048	 -9.788	 -0.003	  0.002	 -0.000	 25.700	 99.958	 -1.105
30505	 -0.230	 -0.213	  0.550	  0.152	 -0.053	 -9.780	 -0.003	  0.001	 -0.001	 25.700	 99.958	 -1.105
30556	 -0.231	 -0.216	  0.545	  0.170	 -0.028	 -9.780	 -0.003	  0.001	 -0.000	 25.700	 99.947	 -0.140
30605	 -0.234	 -0.218	  0.550	  0.141	 -0.042	 -9.769	 -0.004	  0.002	 -0.001	 25.700	 99.951	 -0.491
30656	 -0.231	 -0.213	  0.548	  0.156	 -0.050	 -9.814	 -0.003	  0.001	  0.000	 25.700	 99.947	 -0.140
30706	 -0.230	 -0.216	  0.541	  0.147	 -0.052	 -9.803	 -0.003	  0.002	 -0.001	 25.700	 99.942	  0.298
30756	 -0.228	 -0.215	  0.550	  0.149	 -0.057	 -9.769	 -0.003	  0.003	 -0.001	 25.700	 99.947	 -0.140
30806	 -0.232	 -0.210	  0.548	  0.161	 -0.047	 -9.775	 -0.003	  0.001	 -0.000	 25.700	 99.947	 -0.140
30856	 -0.229	 -0.212	  0.549	  0.152	 -0.046	 -9.789	 -0.003	  0.002	 -0.001	 25.700	 99.947	 -0.140
30906	 -0.230	 -0.209	  0.548	  0.134	 -0.053	 -9.772	 -0.004	  0.002	  0.000	 25.700	 99.947	 -0.140
30956	 -0.228	 -0.215	  0.545	  0.183	 -0.049	 -9.792	 -0.003	  0.000	 -0.000	 25.700	 99.947	 -0.140
31006	 -0.229	 -0.215	  0.549	  0.141	 -0.049	 -9.822	 -0.004	  0.001	 -0.001	 25.700	 99.947	 -0.140
31056	 -0.231	 -0.214	  0.552	  0.142	 -0.063	 -9.780	 -0.004	  0.002	 -0.000	 25.700	 99.947	 -0.140
31106	 -0.228	 -0.211	  0.546	  0.165	 -0.049	 -9.772	 -0.003	  0.002	 -0.001	 25.700	 99.962	 -1.454
31156	 -0.227	 -0.215	  0.543	  0.175	 -0.050	 -9.758	 -0.003	  0.001	 -0.001	 25.700	 99.947	 -0.140
31206	 -0.228	 -0.211	  0.544	  0.169	 -0.070	 -9.762	 -0.004	  0.003	 -0.000	 25.700	 99.947	 -0.140
31256	 -0.227	 -0.215	  0.552	  0.170	 -0.051	 -9.771	 -0.004	  0.001	 -0.001	 25.700	 99.951	 -0.491
31306	 -0.228	 -0.215	  0.550	  0.170	 -0.077	 -9.809	 -0.003	  0.002	 -0.000	 25.700	 99.940	  0.473
31357	 -0.230	 -0.208	  0.551	  0.179	 -0.049	 -9.818	 -0.003	  0.001	  0.000	 25.700	 99.962	 -1.454
31406	 -0.228	 -0.217	  0.548	  0.148	 -0.039	 -9.770	 -0.002	  0.002	 -0.002	 25.700	 99.947	 -0.140
31456	 -0.225	 -0.199	  0.550	  0.155	 -0.036	 -9.790	 -0.003	  0.003	 -0.000	 25.700	 99.940	  0.473
31507	 -0.226	 -0.216	  0.548	  0.186	 -0.053	 -9.795	 -0.003	  0.002	 -0.000	 25.700	 99.947	 -0.140
31557	 -0.227	 -0.214	  0.547	  0.157	 -0.039	 -9.806	 -0.003	  0.002	  0.001	 25.700	 99.951	 -0.491
31607	 -0.227	 -0.215	  0.552	  0.160	 -0.070	 -9.763	 -0.003	  0.002	 -0.001	 25.700	 99.962	 -1.454
31657	 -0.226	 -0.213	  0.549	  0.152	 -0.050	 -9.802	 -0.003	  0.001	 -0.001	 25.700	 99.951	 -0.491
31707	 -0.229	 -0.215	  0.550	  0.160	 -0.070	 -9.771	 -0.002	  0.002	 -0.001	 25.700	 99.962	 -1.454
31757	 -0.227	 -0.214	  0.548	  0.142	 -0.049	 -9.788	 -0.003	 -0.000	 -0.000	 25.700	 99.947	 -0.140
31807	 -0.229	 -0.216	  0.553	  0.182	 -0.026	 -9.802	 -0.003	  0.003	  0.000	 25.700	 99.951	 -0.491
31857	 -0.226	 -0.217	  0.548	  0.134	 -0.031	 -9.770	 -0.003	  0.002	 -0.000	 25.700	 99.940	  0.473
31907	 -0.227	 -0.217	  0.554	  0.136	 -0.067	 -9.771	 -0.003	  0.002	 -0.001	 25.700	 99.940	  0.473
31957	 -0.226	 -0.207	  0.547	  0.150	 -0.049	 -9.767	 -0.003	  0.002	 -0.001	 25.700	 99.951	 -0.491
32007	 -0.228	 -0.216	  0.552	  0.168	 -0.052	 -9.797	 -0.004	  0.002	 -0.000	 25.700	 99.951	 -0.491
32057	 -0.224	 -0.214	  0.549	  0.163	 -0.058	 -9.781	 -0.002	  0.001	 -0.000	 25.700	 99.947	 -0.140
32107	 -0.227	 -0.204	  0.548	  0.172	 -0.058	 -9.764	 -0.002	  0.002	 -0.000	 25.700	 99.951	 -0.491
32157	 -0.225	 -0.215	  0.550	  0.139	 -0.093	 -9.792	 -0.004	  0.001	  0.000	 25.700	 99.951	 -0.491
32207	 -0.225	 -0.209	  0.549	  0.177	 -0.040	 -9.766	 -0.003	  0.001	  0.000	 25.700	 99.951	 -0.491
32257	 -0.226	 -0.218	  0.554	  0.160	 -0.066	 -9.826	 -0.003	  0.000	 -0.000	 25.700	 99.940	  0.473
32307	 -0.224	 -0.211	  0.547	  0.158	 -0.047	 -9.808	 -0.003	  0.003	 -0.000	 25.700	 99.951	 -0.491
32357	 -0.226	 -0.218	  0.552	  0.170	 -0.032	 -9.787	 -0.004	  0.002	 -0.001	 25.700	 99.951	 -0.491
32407	 -0.226	 -0.206	  0.543	  0.157	 -0.048	 -9.784	 -0.003	  0.001	 -0.001	 25.700	 99.951	 -0.491
32457	 -0.224	 -0.212	  0.552	  0.144	 -0.067	 -9.775	 -0.002	  0.003	  0.001	 25.700	 99.940	  0.473
32507	 -0.222	 -0.214	  0.546	  0.180	 -0.027	 -9.795	 -0.002	  0.002	 -0.001	 25.700	 99.951	 -0.491
32557	 -0.226	 -0.217	  0.545	  0.163	 -0.039	 -9.790	 -0.003	  0.002	  0.001	 25.700	 99.951	 -0.491
32607	 -0.227	 -0.215	  0.546	  0.160	 -0.026	 -9.802	 -0.004	  0.002	 -0.001	 25.700	 99.951	 -0.491
32657	 -0.226	 -0.216	  0.553	  0.166	 -0.044	 -9.799	 -0.004	  0.001	 -0.000	 25.700	 99.940	  0.473
32707	 -0.225	 -0.212	  0.550	  0.157	 -0.042	 -9.774	 -0.003	  0.001	 -0.002	 25.700	 99.951	 -0.491
32757	 -0.227	 -0.215	  0.546	  0.177	 -0.033	 -9.798	 -0.003	  0.002	 -0.000	 25.700	 99.955	 -0.842
32807	 -0.225	 -0.218	  0.548	  0.179	 -0.018	 -9.750	 -0.003	  0.001	  0.000	 25.700	 99.940	  0.473
32857	 -0.226	 -0.214	  0.548	  0.131	 -0.049	 -9.836	 -0.004	  0.002	 -0.000	 25.700	 99.944	  0.122
32907	 -0.226	 -0.216	  0.553	  0.169	 -0.032	 -9.790	 -0.003	  0.001	  0.000	 25.700	 99.944	  0.122
32957	 -0.225	 -0.212	  0.549	  0.156	 -0.047	 -9.807	 -0.003	  0.001	  0.000	 25.700	 99.940	  0.473
33007	 -0.227	 -0.217	  0.553	  0.166	 -0.028	 -9.799	 -0.004	  0.002	 -0.001	 25.700	 99.944	  0.122
33057	 -0.227	 -0.215	  0.549	  0.160	 -0.049	 -9.764	 -0.003	  0.002	 -0.001	 25.700	 99.944	  0.122
33107	 -0.228	 -0.216	  0.550	  0.176	 -0.047	 -9.788	 -0.004	  0.000	  0.000	 25.700	 99.944	  0.122
33157	 -0.224	 -0.215	  0.552	  0.155	 -0.047	 -9.759	 -0.002	  0.002	  0.000	 25.700	 99.955	 -0.842
33207	 -0.228	 -0.218	  0.545	  0.160	 -0.061	 -9.758	 -0.003	  0.001	  0.001	 25.700	 99.940	  0.473
33257	 -0.226	 -0.213	  0.548	  0.150	 -0.045	 -9.776	 -0.002	  0.001	  0.000	 25.700	 99.955	 -0.842
33307	 -0.227	 -0.217	  0.553	  0.160	 -0.045	 -9.763	 -0.003	  0.001	 -0.001	 25.700	 99.944	  0.122
33357	 -0.225	 -0.213	  0.550	  0.174	 -0.048	 -9.781	 -0.004	  0.001	 -0.001	 25.700	 99.940	  0.473
33407	 -0.227	 -0.213	  0.552	  0.177	 -0.041	 -9.735	 -0.004	  0.001	 -0.001	 25.700	 99.944	  0.122
33457	 -0.224	 -0.216	  0.545	  0.137	 -0.063	 -9.800	 -0.002	  0.001	 -0.001	 25.700	 99.955	 -0.842
33507	 -0.224	 -0.211	  0.549	  0.164	 -0.057	 -9.728	 -0.004	  0.002	 -0.000	 25.700	 99.944	  0.122
33557	 -0.226	 -0.215	  0.553	  0.176	 -0.064	 -9.785	 -0.002	  0.001	 -0.001	 25.700	 99.940	  0.473
33607	 -0.225	 -0.218	  0.549	  0.171	 -0.036	 -9.776	 -0.003	  0.001	 -0.000	 25.700	 99.948	 -0.228
33657	 -0.228	 -0.217	  0.554	  0.177	 -0.056	 -9.791	 -0.003	  0.002	 -0.000	 25.700	 99.944	  0.122
33707	 -0.226	 -0.209	  0.547	  0.132	 -0.060	 -9.756	 -0.003	  0.002	  0.001	 25.700	 99.955	 -0.842
33757	 -0.227	 -0.217	  0.553	  0.144	 -0.059	 -9.783	 -0.003	  0.001	 -0.002	 25.700	 99.944	  0.122
33807	 -0.226	 -0.216	  0.548	  0.179	 -0.047	 -9.767	 -0.004	  0.002	 -0.000	 25.700	 99.944	  0.122
33857	 -0.226	 -0.216	  0.553	  0.161	 -0.032	 -9.774	 -0.003	  0.002	 -0.000	 25.700	 99.944	  0.122
33907	 -0.227	 -0.214	  0.549	  0.170	 -0.073	 -9.772	 -0.004	  0.002	 -0.000	 25.700	 99.944	  0.122
33957	 -0.229	 -0.214	  0.555	  0.138	 -0.045	 -9.769	 -0.003	  0.002	 -0.000	 25.700	 99.955	 -0.842
34008	 -0.225	 -0.214	  0.552	  0.141	 -0.043	 -9.802	 -0.003	  0.003	  0.000	 25.700	 99.959	 -1.192
34058	 -0.226	 -0.212	  0.549	  0.156	 -0.050	 -9.795	 -0.003	  0.002	 -0.001	 25.700	 99.944	  0.122
34108	 -0.227	 -0.213	  0.553	  0.159	 -0.036	 -9.764	 -0.004	  0.001	 -0.000	 25.700	 99.944	  0.122
34158	 -0.226	 -0.202	  0.549	  0.151	 -0.038	 -9.774	 -0.004	  0.003	 -0.000	 25.700	 99.944	  0.122
34208	 -0.227	 -0.204	  0.549	  0.187	 -0.038	 -9.798	 -0.003	  0.002	 -0.001	 25.700	 99.944	  0.122
34258	 -0.229	 -0.214	  0.549	  0.171	 -0.039	 -9.756	 -0.004	  0.001	 -0.001	 25.700	 99.955	 -0.842
34308	 -0.229	 -0.216	  0.545	  0.172	 -0.025	 -9.781	 -0.003	  0.001	  0.000	 25.800	 99.959	 -1.192
34358	 -0.227	 -0.211	  0.544	  0.149	 -0.027	 -9.775	 -0.004	  0.001	 -0.001	 25.800	 99.937	  0.736
34408	 -0.228	 -0.215	  0.546	  0.167	 -0.033	 -9.779	 -0.003	  0.002	 -0.002	 25.700	 99.948	 -0.228
34458	 -0.228	 -0.207	  0.548	  0.169	 -0.051	 -9.757	 -0.004	  0.001	 -0.001	 25.800	 99.948	 -0.228
34508	 -0.229	 -0.214	  0.549	  0.165	 -0.044	 -9.767	 -0.003	  0.002	 -0.001	 25.700	 99.955	 -0.842
34558	 -0.226	 -0.213	  0.547	  0.168	 -0.052	 -9.757	 -0.003	  0.001	 -0.000	 25.800	 99.948	 -0.228
34608	 -0.227	 -0.210	  0.552	  0.155	 -0.026	 -9.803	 -0.002	  0.002	 -0.001	 25.800	 99.948	 -0.228
34658	 -0.230	 -0.213	  0.546	  0.146	 -0.033	 -9.787	 -0.004	  0.001	 -0.000	 25.800	 99.959	 -1.192
34708	 -0.228	 -0.209	  0.550	  0.171	 -0.039	 -9.762	 -0.003	  0.001	  0.000	 25.800	 99.948	 -0.228
34758	 -0.229	 -0.211	  0.547	  0.153	 -0.027	 -9.760	 -0.004	  0.002	 -0.001	 25.700	 99.944	  0.122
34808	 -0.229	 -0.213	  0.547	  0.170	 -0.055	 -9.819	 -0.002	  0.002	 -0.001	 25.800	 99.948	 -0.228
34858	 -0.227	 -0.212	  0.550	  0.175	 -0.057	 -9.740	 -0.005	  0.002	 -0.000	 25.800	 99.948	 -0.228
34908	 -0.227	 -0.200	  0.551	  0.145	 -0.029	 -9.824	 -0.003	  0.002	 -0.002	 25.800	 99.948	 -0.228
34958	 -0.228	 -0.216	  0.552	  0.156	 -0.035	 -9.812	 -0.002	  0.002	 -0.000	 25.700	 99.948	 -0.228
35008	 -0.231	 -0.214	  0.550	  0.153	 -0.063	 -9.789	 -0.002	  0.002	 -0.001	 25.800	 99.948	 -0.228
35058	 -0.228	 -0.211	  0.549	  0.135	 -0.062	 -9.791	 -0.003	  0.002	 -0.000	 25.800	 99.948	 -0.228
35108	 -0.228	 -0.204	  0.547	  0.158	 -0.047	 -9.817	 -0.004	  0.002	 -0.002	 25.800	 99.948	 -0.228
35158	 -0.230	 -0.205	  0.548	  0.153	 -0.042	 -9.783	 -0.004	  0.002	 -0.000	 25.800	 99.948	 -0.228
35208	 -0.228	 -0.212	  0.541	  0.159	 -0.041	 -9.790	 -0.003	  0.002	 -0.000	 25.800	 99.948	 -0.228
35258	 -0.231	 -0.207	  0.548	  0.150	 -0.039	 -9.761	 -0.002	  0.001	 -0.000	 25.800	 99.948	 -0.228
35308	 -0.229	 -0.210	  0.549	  0.136	 -0.030	 -9.756	 -0.002	  0.002	 -0.001	 25.800	 99.948	 -0.228
35358	 -0.229	 -0.210	  0.550	  0.155	 -0.057	 -9.794	 -0.004	  0.002	  0.001	 25.800	 99.953	 -0.666
35408	 -0.228	 -0.210	  0.549	  0.172	 -0.042	 -9.765	 -0.003	  0.003	  0.001	 25.800	 99.948	 -0.228
35458	 -0.229	 -0.208	  0.547	  0.176	 -0.039	 -9.815	 -0.003	  0.002	 -0.001	 25.800	 99.948	 -0.228
35508	 -0.226	 -0.213	  0.554	  0.153	 -0.038	 -9.782	 -0.003	  0.003	 -0.000	 25.800	 99.948	 -0.228
35559	 -0.227	 -0.213	  0.548	  0.165	 -0.058	 -9.769	 -0.003	  0.001	 -0.001	 25.800	 99.953	 -0.666
35608	 -0.227	 -0.214	  0.554	  0.174	 -0.051	 -9.761	 -0.004	  0.001	  0.000	 25.800	 99.953	 -0.666
35659	 -0.225	 -0.212	  0.547	  0.156	 -0.053	 -9.794	 -0.004	  0.001	 -0.000	 25.800	 99.948	 -0.228
35708	 -0.229	 -0.209	  0.552	  0.158	 -0.035	 -9.815	 -0.004	  0.001	  0.000	 25.800	 99.937	  0.736
35758	 -0.226	 -0.212	  0.549	  0.181	 -0.064	 -9.775	 -0.002	  0.002	 -0.001	 25.800	 99.953	 -0.666
35809	 -0.226	 -0.214	  0.552	  0.153	 -0.075	 -9.787	 -0.004	  0.001	  0.001	 25.800	 99.941	  0.385
35859	 -0.229	 -0.213	  0.549	  0.181	 -0.037	 -9.778	 -0.003	  0.002	 -0.001	 25.800	 99.953	 -0.666
35909	 -0.226	 -0.211	  0.544	  0.148	 -0.042	 -9.776	 -0.004	  0.002	 -0.000	 25.800	 99.937	  0.736
35960	 -0.224	 -0.205	  0.551	  0.165	 -0.045	 -9.777	 -0.004	  0.001	 -0.001	 25.800	 99.941	  0.385
36009	 -0.227	 -0.211	  0.556	  0.134	 -0.048	 -9.771	 -0.003	  0.000	  0.000	 25.800	 99.953	 -0.666
36060	 -0.222	 -0.215	  0.551	  0.163	 -0.055	 -9.819	 -0.004	  0.001	 -0.001	 25.800	 99.946	 -0.053
36110	 -0.221	 -0.214	  0.550	  0.150	 -0.064	 -9.796	 -0.004	  0.000	  0.000	 25.800	 99.937	  0.736
36160	 -0.222	 -0.217	  0.547	  0.179	 -0.038	 -9.788	 -0.004	  0.002	 -0.000	 25.800	 99.948	 -0.228
36210	 -0.221	 -0.219	  0.546	  0.180	 -0.031	 -9.793	 -0.002	  0.002	 -0.001	 25.800	 99.953	 -0.666
36260	 -0.223	 -0.218	  0.549	  0.168	 -0.050	 -9.765	 -0.004	  0.002	 -0.000	 25.800	 99.941	  0.385
36310	 -0.220	 -0.203	  0.543	  0.145	 -0.046	 -9.776	 -0.002	  0.001	 -0.001	 25.800	 99.941	  0.385
36360	 -0.223	 -0.217	  0.545	  0.150	 -0.118	 -9.779	 -0.003	  0.002	 -0.001	 25.800	 99.953	 -0.666
36410	 -0.223	 -0.215	  0.546	  0.163	 -0.040	 -9.766	 -0.003	  0.001	  0.001	 25.800	 99.953	 -0.666
36460	 -0.222	 -0.219	  0.548	  0.170	 -0.009	 -9.740	 -0.003	  0.003	 -0.001	 25.800	 99.941	  0.385
36510	 -0.221	 -0.219	  0.540	  0.612	 -0.170	 -9.816	 -0.003	 -0.001	 -0.001	 25.800	 99.941	  0.385
36560	 -0.224	 -0.216	  0.541	  0.214	 -0.053	 -9.764	 -0.004	  0.000	 -0.001	 25.800	 99.941	  0.385
36610	 -0.222	 -0.216	  0.550	  0.190	  0.013	 -9.733	 -0.003	 -0.001	  0.000	 25.800	 99.941	  0.385
36660	 -0.224	 -0.216	  0.551	  0.202	 -0.056	 -9.758	 -0.003	  0.002	 -0.001	 25.800	 99.946	 -0.053
36710	 -0.221	 -0.211	  0.545	  0.150	 -0.036	 -9.772	 -0.003	  0.001	 -0.001	 25.800	 99.953	 -0.666
36760	 -0.224	 -0.217	  0.545	  0.186	 -0.025	 -9.772	 -0.003	  0.002	 -0.002	 25.800	 99.941	  0.385
36810	 -0.225	 -0.216	  0.547	  0.147	 -0.035	 -9.794	 -0.002	  0.002	  0.000	 25.800	 99.941	  0.385
36860	 -0.223	 -0.219	  0.536	  0.172	 -0.044	 -9.787	 -0.003	  0.001	 -0.001	 25.800	 99.957	 -1.017
36910	 -0.225	 -0.218	  0.549	  0.156	 -0.052	 -9.803	 -0.003	  0.002	 -0.001	 25.800	 99.941	  0.385
36960	 -0.223	 -0.212	  0.543	  0.164	 -0.066	 -9.740	 -0.003	  0.002	 -0.001	 25.800	 99.941	  0.385
37010	 -0.224	 -0.214	  0.548	  0.162	 -0.051	 -9.766	 -0.003	  0.002	 -0.001	 25.800	 99.946	 -0.053
37060	 -0.224	 -0.214	  0.547	  0.153	 -0.029	 -9.782	 -0.004	  0.002	 -0.001	 25.800	 99.946	 -0.053
37110	 -0.226	 -0.218	  0.549	  0.168	 -0.033	 -9.789	 -0.004	  0.001	 -0.001	 25.800	 99.941	  0.385
37160	 -0.222	 -0.215	  0.543	  0.157	 -0.037	 -9.802	 -0.004	  0.002	 -0.000	 25.800	 99.946	 -0.053
37210	 -0.222	 -0.217	  0.545	  0.160	 -0.065	 -9.782	 -0.003	  0.002	 -0.000	 25.800	 99.957	 -1.017
37260	 -0.222	 -0.211	  0.547	  0.150	 -0.039	 -9.790	 -0.004	  0.002	 -0.000	 25.800	 99.946	 -0.053
37310	 -0.223	 -0.214	  0.551	  0.233	 -0.018	 -9.730	 -0.003	  0.001	 -0.001	 25.800	 99.946	 -0.053
37360	 -0.223	 -0.213	  0.546	  0.156	 -0.083	 -9.766	 -0.004	  0.001	 -0.001	 25.800	 99.946	 -0.053
37410	 -0.224	 -0.212	  0.545	  0.150	 -0.050	 -9.793	 -0.004	  0.002	 -0.001	 25.800	 99.934	  0.999
37460	 -0.225	 -0.211	  0.548	  0.181	 -0.032	 -9.750	 -0.003	  0.001	 -0.001	 25.800	 99.953	 -0.666
37510	 -0.223	 -0.214	  0.547	  0.169	 -0.055	 -9.808	 -0.003	  0.001	  0.001	 25.800	 99.934	  0.999
37560	 -0.227	 -0.215	  0.546	  0.139	 -0.052	 -9.801	 -0.003	 -0.000	 -0.001	 25.800	 99.946	 -0.053
37610	 -0.223	 -0.201	  0.545	  0.179	 -0.062	 -9.776	 -0.002	  0.000	 -0.000	 25.800	 99.957	 -1.017
37660	 -0.224	 -0.213	  0.548	  0.146	 -0.033	 -9.743	 -0.003	  0.001	 -0.001	 25.800	 99.957	 -1.017
37710	 -0.223	 -0.215	  0.550	  0.138	 -0.053	 -9.802	 -0.004	  0.003	 -0.001	 25.800	 99.941	  0.385
37760	 -0.224	 -0.209	  0.551	  0.149	 -0.038	 -9.779	 -0.004	  0.001	 -0.002	 25.800	 99.946	 -0.053
37810	 -0.223	 -0.213	  0.547	  0.155	 -0.036	 -9.784	 -0.003	  0.001	 -0.000	 25.800	 99.946	 -0.053
37860	 -0.223	 -0.217	  0.550	  0.173	 -0.061	 -9.808	 -0.003	  0.001	 -0.002	 25.800	 99.946	 -0.053
37910	 -0.223	 -0.209	  0.547	  0.139	 -0.053	 -9.798	 -0.003	  0.002	 -0.000	 25.800	 99.946	 -0.053
37960	 -0.224	 -0.214	  0.552	  0.134	 -0.049	 -9.795	 -0.003	  0.000	 -0.000	 25.800	 99.946	 -0.053
38010	 -0.224	 -0.219	  0.547	  0.166	 -0.053	 -9.768	 -0.004	  0.001	 -0.000	 25.800	 99.946	 -0.053
38060	 -0.222	 -0.210	  0.549	  0.137	 -0.033	 -9.800	 -0.004	  0.000	 -0.000	 25.800	 99.950	 -0.403
38110	 -0.227	 -0.215	  0.549	  0.153	 -0.063	 -9.807	 -0.003	  0.002	 -0.000	 25.800	 99.957	 -1.017
38160	 -0.224	 -0.218	  0.549	  0.167	 -0.032	 -9.833	 -0.003	  0.001	 -0.001	 25.800	 99.946	 -0.053
38210	 -0.223	 -0.219	  0.544	  0.158	 -0.021	 -9.785	 -0.003	  0.002	 -0.001	 25.800	 99.950	 -0.403
38260	 -0.221	 -0.213	  0.545	  0.150	 -0.035	 -9.778	 -0.003	  0.001	 -0.001	 25.800	 99.934	  0.999
38310	 -0.222	 -0.214	  0.549	  0.171	 -0.043	 -9.793	 -0.004	  0.002	 -0.001	 25.800	 99.957	 -1.017
38361	 -0.221	 -0.213	  0.548	  0.175	 -0.045	 -9.792	 -0.004	  0.003	 -0.001	 25.800	 99.950	 -0.403
38410	 -0.221	 -0.212	  0.548	  0.194	 -0.049	 -9.807	 -0.004	  0.002	 -0.001	 25.800	 99.946	 -0.053
38460	 -0.221	 -0.217	  0.545	  0.158	 -0.051	 -9.775	 -0.003	  0.002	 -0.001	 25.800	 99.961	 -1.368
38510	 -0.221	 -0.216	  0.541	  0.159	 -0.056	 -9.798	 -0.003	  0.003	 -0.001	 25.800	 99.946	 -0.053
38560	 -0.221	 -0.200	  0.545	  0.142	 -0.046	 -9.803	 -0.003	  0.002	 -0.001	 25.800	 99.950	 -0.403
38610	 -0.221	 -0.215	  0.550	  0.160	 -0.048	 -9.798	 -0.004	  0.002	  0.000	 25.800	 99.939	  0.560
38660	 -0.219	 -0.210	  0.549	  0.183	 -0.048	 -9.778	 -0.003	  0.001	 -0.002	 25.800	 99.946	 -0.053
38710	 -0.222	 -0.215	  0.546	  0.154	 -0.037	 -9.782	 -0.002	  0.001	 -0.001	 25.800	 99.946	 -0.053
38760	 -0.221	 -0.216	  0.552	  0.160	 -0.049	 -9.769	 -0.002	  0.001	 -0.001	 25.800	 99.950	 -0.403
38810	 -0.220	 -0.200	  0.543	  0.163	 -0.024	 -9.777	 -0.004	  0.002	 -0.001	 25.800	 99.946	 -0.053
38861	 -0.221	 -0.218	  0.550	  0.139	 -0.069	 -9.794	 -0.002	  0.001	  0.000	 25.800	 99.950	 -0.403
38911	 -0.221	 -0.210	  0.545	  0.148	 -0.074	 -9.801	 -0.003	  0.002	 -0.001	 25.800	 99.939	  0.560
38961	 -0.221	 -0.217	  0.541	  0.176	 -0.060	 -9.790	 -0.003	  0.001	 -0.000	 25.800	 99.950	 -0.403
39011	 -0.221	 -0.215	  0.544	  0.164	 -0.034	 -9.766	 -0.004	  0.001	 -0.000	 25.800	 99.950	 -0.403
39061	 -0.221	 -0.216	  0.550	  0.137	 -0.060	 -9.793	 -0.003	  0.002	 -0.002	 25.800	 99.950	 -0.403
39111	 -0.223	 -0.213	  0.550	  0.169	 -0.042	 -9.786	 -0.002	  0.001	 -0.000	 25.800	 99.950	 -0.403
39161	 -0.221	 -0.214	  0.552	  0.158	 -0.033	 -9.777	 -0.002	  0.001	 -0.001	 25.800	 99.950	 -0.403
39211	 -0.221	 -0.214	  0.548	  0.156	 -0.049	 -9.790	 -0.002	  0.003	 -0.000	 25.800	 99.950	 -0.403
39261	 -0.221	 -0.213	  0.550	  0.178	 -0.049	 -9.812	 -0.003	  0.002	  0.000	 25.800	 99.950	 -0.403
39311	 -0.220	 -0.211	  0.548	  0.145	 -0.061	 -9.790	 -0.003	  0.001	  0.000	 25.800	 99.950	 -0.403
39361	 -0.221	 -0.214	  0.544	  0.135	 -0.032	 -9.789	 -0.004	  0.001	 -0.001	 25.800	 99.950	 -0.403
39411	 -0.221	 -0.215	  0.552	  0.161	 -0.045	 -9.769	 -0.003	  0.002	 -0.000	 25.800	 99.939	  0.560
39461	 -0.222	 -0.214	  0.548	  0.173	 -0.053	 -9.769	 -0.003	  0.002	 -0.001	 25.800	 99.961	 -1.368
39511	 -0.221	 -0.217	  0.551	  0.160	 -0.041	 -9.783	 -0.003	 -0.000	 -0.001	 25.800	 99.943	  0.210
39561	 -0.220	 -0.212	  0.547	  0.156	 -0.052	 -9.746	 -0.003	  0.002	 -0.001	 25.800	 99.950	 -0.403
39611	 -0.221	 -0.209	  0.550	  0.132	 -0.038	 -9.764	 -0.002	  0.002	 -0.000	 25.800	 99.939	  0.560
39661	 -0.220	 -0.213	  0.549	  0.152	 -0.048	 -9.781	 -0.002	  0.002	 -0.000	 25.800	 99.954	 -0.754
39711	 -0.222	 -0.211	  0.550	  0.167	 -0.028	 -9.774	 -0.003	  0.001	 -0.001	 25.800	 99.943	  0.210
39761	 -0.222	 -0.212	  0.551	  0.150	 -0.059	 -9.778	 -0.004	 -0.000	 -0.001	 25.800	 99.939	  0.560
39811	 -0.218	 -0.212	  0.551	  0.152	 -0.055	 -9.794	 -0.002	  0.001	  0.000	 25.800	 99.943	  0.210
39861	 -0.214	 -0.213	  0.547	  0.158	 -0.051	 -9.809	 -0.004	  0.002	 -0.001	 25.800	 99.961	 -1.368
39911	 -0.218	 -0.207	  0.549	  0.166	 -0.066	 -9.783	 -0.003	  0.001	  0.001	 25.800	 99.954	 -0.754
39961	 -0.218	 -0.211	  0.542	  0.164	 -0.028	 -9.825	 -0.003	  0.001	 -0.002	 25.800	 99.943	  0.210
40011	 -0.216	 -0.212	  0.542	  0.177	 -0.048	 -9.786	 -0.003	  0.003	 -0.000	 25.800	 99.954	 -0.754
40061	 -0.217	 -0.212	  0.551	  0.165	 -0.041	 -9.780	 -0.004	  0.002	 -0.001	 25.800	 99.954	 -0.754
40111	 -0.216	 -0.216	  0.544	  0.168	 -0.054	 -9.787	 -0.003	  0.002	  0.000	 25.800	 99.954	 -0.754
40161	 -0.220	 -0.213	  0.549	  0.147	 -0.037	 -9.812	 -0.003	  0.003	  0.000	 25.800	 99.943	  0.210
40211	 -0.218	 -0.213	  0.547	  0.150	 -0.060	 -9.775	 -0.003	  0.002	 -0.000	 25.800	 99.954	 -0.754
40261	 -0.220	 -0.210	  0.548	  0.162	 -0.038	 -9.753	 -0.003	  0.001	 -0.000	 25.800	 99.954	 -0.754
40311	 -0.219	 -0.209	  0.547	  0.162	 -0.061	 -9.806	 -0.003	  0.002	 -0.001	 25.800	 99.954	 -0.754
40361	 -0.219	 -0.218	  0.541	  0.154	 -0.028	 -9.781	 -0.003	  0.000	  0.000	 25.800	 99.950	 -0.403
40411	 -0.217	 -0.208	  0.550	  0.172	 -0.040	 -9.798	 -0.004	  0.002	 -0.001	 25.800	 99.954	 -0.754
40461	 -0.219	 -0.213	  0.543	  0.179	 -0.056	 -9.817	 -0.002	  0.003	 -0.001	 25.800	 99.954	 -0.754
40511	 -0.218	 -0.213	  0.549	  0.173	 -0.041	 -9.785	 -0.004	  0.002	 -0.001	 25.800	 99.943	  0.210
40561	 -0.219	 -0.213	  0.551	  0.155	 -0.047	 -9.784	 -0.003	  0.002	 -0.001	 25.800	 99.954	 -0.754
40611	 -0.219	 -0.212	  0.547	  0.170	 -0.042	 -9.788	 -0.004	  0.002	 -0.002	 25.800	 99.954	 -0.754
40661	 -0.217	 -0.212	  0.544	  0.151	 -0.039	 -9.790	 -0.003	  0.002	 -0.000	 25.800	 99.943	  0.210
40711	 -0.219	 -0.216	  0.544	  0.164	 -0.071	 -9.781	 -0.004	  0.000	 -0.000	 25.800	 99.954	 -0.754
40761	 -0.221	 -0.215	  0.549	  0.181	 -0.066	 -9.804	 -0.003	  0.002	 -0.001	 25.800	 99.943	  0.210
40811	 -0.220	 -0.211	  0.551	  0.175	 -0.027	 -9.789	 -0.003	  0.003	  0.000	 25.800	 99.954	 -0.754
40861	 -0.219	 -0.213	  0.544	  0.171	 -0.052	 -9.764	 -0.004	  0.000	 -0.001	 25.800	 99.958	 -1.105
40911	 -0.219	 -0.213	  0.549	  0.116	 -0.045	 -9.783	 -0.004	  0.003	 -0.001	 25.800	 99.954	 -0.754
40961	 -0.219	 -0.213	  0.547	  0.136	 -0.067	 -9.777	 -0.004	  0.003	 -0.000	 25.800	 99.947	 -0.140
41011	 -0.221	 -0.213	  0.538	  0.153	 -0.040	 -9.801	 -0.003	  0.001	 -0.000	 25.800	 99.954	 -0.754
41062	 -0.220	 -0.212	  0.548	  0.152	 -0.071	 -9.774	 -0.003	  0.003	  0.000	 25.800	 99.943	  0.210
41111	 -0.220	 -0.211	  0.551	  0.177	 -0.056	 -9.808	 -0.004	  0.000	 -0.000	 25.800	 99.947	 -0.140
41161	 -0.218	 -0.212	  0.548	  0.165	 -0.041	 -9.780	 -0.005	  0.001	 -0.001	 25.800	 99.954	 -0.754
41211	 -0.217	 -0.209	  0.545	  0.153	 -0.066	 -9.774	 -0.004	  0.002	 -0.000	 25.800	 99.954	 -0.754
41262	 -0.219	 -0.216	  0.547	  0.171	 -0.050	 -9.798	 -0.002	  0.001	  0.001	 25.800	 99.947	 -0.140
41312	 -0.221	 -0.209	  0.548	  0.174	 -0.040	 -9.754	 -0.003	  0.001	 -0.000	 25.800	 99.958	 -1.105
41362	 -0.221	 -0.215	  0.549	  0.166	 -0.055	 -9.772	 -0.004	  0.002	 -0.000	 25.800	 99.947	 -0.140
41413	 -0.220	 -0.212	  0.547	  0.165	 -0.051	 -9.781	 -0.004	  0.001	 -0.001	 25.800	 99.947	 -0.140
41461	 -0.218	 -0.216	  0.549	  0.163	 -0.046	 -9.790	 -0.004	  0.002	  0.001	 25.800	 99.943	  0.210
41512	 -0.221	 -0.212	  0.540	  0.143	 -0.051	 -9.768	 -0.004	  0.001	 -0.001	 25.800	 99.947	 -0.140
41562	 -0.218	 -0.211	  0.550	  0.190	 -0.046	 -9.754	 -0.002	  0.000	 -0.001	 25.800	 99.943	  0.210
41612	 -0.217	 -0.214	  0.547	  0.153	 -0.064	 -9.820	 -0.003	  0.001	 -0.001	 25.800	 99.958	 -1.105
41662	 -0.215	 -0.212	  0.550	  0.162	 -0.045	 -9.776	 -0.004	  0.001	  0.000	 25.800	 99.947	 -0.140
41713	 -0.215	 -0.207	  0.548	  0.153	 -0.046	 -9.774	 -0.004	  0.002	 -0.002	 25.800	 99.947	 -0.140
41762	 -0.213	 -0.211	  0.551	  0.164	 -0.029	 -9.779	 -0.004	  0.002	 -0.000	 25.800	 99.958	 -1.105
41812	 -0.215	 -0.206	  0.550	  0.151	 -0.035	 -9.815	 -0.003	  0.001	  0.000	 25.800	 99.947	 -0.140
41862	 -0.213	 -0.211	  0.553	  1.394	  0.130	 -9.732	  0.001	 -0.003	 -0.134	 25.800	 99.947	 -0.140
41912	 -0.213	 -0.211	  0.545	 -0.167	 -0.072	 -9.809	  0.000	  0.001	 -0.163	 25.800	 99.943	  0.210
41962	 -0.211	 -0.212	  0.546	  0.222	 -0.027	 -9.777	 -0.005	  0.004	 -0.001	 25.800	 99.943	  0.210
42012	 -0.211	 -0.214	  0.549	  0.146	 -0.036	 -9.801	 -0.004	  0.003	  0.000	 25.800	 99.958	 -1.105
42062	 -0.212	 -0.202	  0.544	  0.157	 -0.082	 -9.772	 -0.003	  0.001	 -0.000	 25.800	 99.947	 -0.140
42112	 -0.211	 -0.216	  0.546	  0.462	 -0.027	 -9.783	 -0.001	  0.001	 -0.136	 25.800	 99.936	  0.824
42162	 -0.209	 -0.208	  0.540	  0.361	  0.000	 -9.755	  0.004	 -0.000	 -0.265	 25.800	 99.947	 -0.140
42212	 -0.208	 -0.215	  0.542	  0.219	 -0.086	 -9.739	  0.005	  0.000	 -0.347	 25.800	 99.951	 -0.491
42262	 -0.207	 -0.206	  0.536	  0.017	 -0.146	 -9.800	  0.002	  0.002	 -0.311	 25.800	 99.947	 -0.140
42312	 -0.207	 -0.220	  0.537	  0.433	 -0.058	 -9.824	  0.003	 -0.001	 -0.284	 25.800	 99.951	 -0.491
42362	 -0.206	 -0.216	  0.534	  0.020	 -0.229	 -9.843	  0.000	  0.002	 -0.312	 25.800	 99.947	 -0.140
42412	 -0.204	 -0.215	  0.536	  0.685	 -0.046	 -9.765	  0.004	  0.001	 -0.376	 25.800	 99.954	 -0.754
42462	 -0.205	 -0.222	  0.531	  0.598	 -0.145	 -9.751	  0.008	 -0.002	 -0.470	 25.800	 99.951	 -0.491
42512	 -0.203	 -0.221	  0.524	  0.254	 -0.082	 -9.792	  0.006	 -0.002	 -0.490	 25.800	 99.947	 -0.140
42562	 -0.204	 -0.227	  0.519	  0.853	 -0.167	 -9.726	  0.012	 -0.002	 -0.654	 25.800	 99.951	 -0.491
42612	 -0.203	 -0.229	  0.513	  0.107	 -0.153	 -9.793	  0.012	 -0.003	 -0.679	 25.800	 99.947	 -0.140
42662	 -0.201	 -0.227	  0.514	  0.176	 -0.045	 -9.762	  0.008	  0.002	 -0.627	 25.800	 99.936	  0.824
42712	 -0.205	 -0.232	  0.496	  0.576	 -0.149	 -9.821	  0.006	 -0.002	 -0.498	 25.800	 99.951	 -0.491
42762	 -0.202	 -0.237	  0.504	 -0.003	 -0.111	 -9.834	  0.005	 -0.002	 -0.468	 25.800	 99.947	 -0.140
42812	 -0.204	 -0.236	  0.490	 -0.139	  0.010	 -9.865	  0.006	  0.001	 -0.517	 25.800	 99.951	 -0.491
42862	 -0.203	 -0.234	  0.492	  0.197	  0.197	 -9.742	  0.009	  0.004	 -0.481	 25.800	 99.951	 -0.491
42912	 -0.203	 -0.235	  0.489	 -0.080	 -0.075	 -9.963	  0.002	  0.001	 -0.378	 25.800	 99.936	  0.824
42962	 -0.201	 -0.234	  0.482	  0.076	  0.038	 -9.788	  0.002	 -0.001	 -0.251	 25.800	 99.947	 -0.140
43012	 -0.202	 -0.231	  0.475	 -0.266	 -0.282	 -9.749	  0.000	 -0.003	 -0.242	 25.800	 99.947	 -0.140
43062	 -0.201	 -0.227	  0.474	 -0.841	 -0.550	 -9.790	 -0.004	 -0.004	 -0.063	 25.800	 99.947	 -0.140
43112	 -0.203	 -0.229	  0.471	  0.164	  0.059	 -9.726	  0.002	  0.008	 -0.001	 25.800	 99.947	 -0.140
43163	 -0.204	 -0.225	  0.468	  0.478	 -0.380	 -9.782	  0.003	  0.009	 -0.001	 25.800	 99.940	  0.473
43213	 -0.203	 -0.231	  0.469	  0.098	 -0.036	 -9.812	 -0.002	  0.002	 -0.001	 25.800	 99.940	  0.473
43263	 -0.205	 -0.231	  0.472	  0.126	 -0.027	 -9.789	 -0.005	 -0.003	 -0.001	 25.800	 99.951	 -0.491
43313	 -0.204	 -0.233	  0.477	  0.187	 -0.111	 -9.757	 -0.004	  0.000	 -0.000	 25.800	 99.951	 -0.491
43363	 -0.203	 -0.233	  0.473	  0.812	  0.194	 -9.789	 -0.008	 -0.005	 -0.042	 25.800	 99.951	 -0.491
43413	 -0.202	 -0.232	  0.472	 -0.279	 -0.011	 -9.853	  0.055	  0.069	 -0.189	 25.800	 99.951	 -0.491
43463	 -0.202	 -0.235	  0.467	  0.245	 -0.097	 -9.858	 -0.001	  0.003	 -0.202	 25.800	 99.940	  0.473
43513	 -0.200	 -0.235	  0.467	  0.060	 -0.210	 -9.743	  0.025	  0.001	 -0.182	 25.800	 99.951	 -0.491
43563	 -0.194	 -0.236	  0.467	  0.537	  0.402	 -9.436	  0.011	 -0.003	 -0.447	 25.800	 99.940	  0.473
43613	 -0.193	 -0.233	  0.460	 -0.042	  0.397	 -9.741	  0.006	 -0.003	 -0.393	 25.800	 99.940	  0.473
43663	 -0.190	 -0.234	  0.458	  0.100	 -0.372	 -9.768	  0.001	 -0.000	 -0.189	 25.900	 99.951	 -0.491
43713	 -0.187	 -0.235	  0.463	 -0.017	 -0.468	 -9.797	 -0.003	  0.002	 -0.096	 25.900	 99.956	 -0.929
43763	 -0.186	 -0.235	  0.454	  0.171	 -0.097	 -9.780	 -0.004	  0.002	 -0.002	 25.900	 99.956	 -0.929
43813	 -0.188	 -0.235	  0.457	  0.178	 -0.106	 -9.778	 -0.003	  0.001	 -0.001	 25.800	 99.951	 -0.491
43863	 -0.186	 -0.224	  0.454	  0.174	 -0.068	 -9.777	 -0.004	  0.002	  0.000	 25.800	 99.947	 -0.140
43913	 -0.186	 -0.233	  0.453	  0.160	 -0.080	 -9.793	 -0.003	  0.002	 -0.001	 25.800	 99.951	 -0.491
43963	 -0.191	 -0.236	  0.455	  0.163	 -0.108	 -9.766	 -0.003	  0.002	 -0.000	 25.800	 99.940	  0.473
44013	 -0.189	 -0.236	  0.453	  0.160	 -0.071	 -9.768	 -0.004	  0.001	 -0.001	 25.800	 99.951	 -0.491
44063	 -0.191	 -0.237	  0.455	  0.135	 -0.057	 -9.780	 -0.005	 -0.000	  0.000	 25.800	 99.951	 -0.491
44113	 -0.187	 -0.231	  0.451	  0.152	 -0.041	 -9.772	 -0.004	 -0.000	  0.001	 25.800	 99.951	 -0.491
44163	 -0.186	 -0.232	  0.454	  0.211	 -0.095	 -9.809	 -0.005	 -0.001	 -0.001	 25.900	 99.945	  0.035
44213	 -0.190	 -0.238	  0.450	  0.116	 -0.034	 -9.781	 -0.006	 -0.001	 -0.001	 25.800	 99.940	  0.473
44263	 -0.189	 -0.238	  0.455	  0.176	 -0.095	 -9.792	 -0.004	  0.002	 -0.000	 25.800	 99.951	 -0.491
44313	 -0.190	 -0.238	  0.450	  0.169	 -0.092	 -9.770	 -0.004	  0.000	 -0.002	 25.900	 99.945	  0.035
44363	 -0.191	 -0.238	  0.451	  0.142	 -0.063	 -9.818	 -0.005	  0.001	  0.000	 25.900	 99.945	  0.035
44413	 -0.191	 -0.234	  0.453	  0.506	 -0.378	 -9.792	 -0.007	  0.000	  0.031	 25.900	 99.956	 -0.929
44463	 -0.191	 -0.234	  0.456	 -0.505	 -0.212	 -9.843	 -0.020	  0.003	  0.271	 25.900	 99.945	  0.035
44513	 -0.194	 -0.233	  0.453	 -0.406	 -0.275	 -9.752	 -0.038	  0.003	  0.612	 25.900	 99.951	 -0.491
44563	 -0.197	 -0.224	  0.452	  0.686	  2.619	 -8.853	  0.105	 -0.004	  0.921	 25.900	 99.956	 -0.929
44613	 -0.202	 -0.221	  0.458	  0.562	 -1.396	 -9.897	 -0.022	  0.011	  0.749	 25.900	 99.956	 -0.929
44663	 -0.206	 -0.220	  0.456	  0.102	  0.566	 -9.282	  0.020	 -0.005	  0.192	 25.900	 99.945	  0.035
44713	 -0.208	 -0.221	  0.463	 -0.062	 -0.485	 -10.181	 -0.070	  0.005	  0.356	 25.900	 99.945	  0.035
44763	 -0.208	 -0.205	  0.459	 -0.113	 -0.391	 -9.910	 -0.160	  0.004	  0.311	 25.900	 99.945	  0.035
44813	 -0.210	 -0.225	  0.468	 -1.540	 -0.629	 -9.919	 -0.328	 -0.057	  0.275	 25.900	 99.933	  1.087
44863	 -0.210	 -0.242	  0.466	 -0.820	 -0.312	 -10.136	 -0.465	  0.132	 -0.010	 25.900	 99.956	 -0.929
44913	 -0.214	 -0.253	  0.484	 -1.018	  0.790	 -10.571	 -0.258	  0.350	 -0.095	 25.900	 99.945	  0.035
44963	 -0.210	 -0.264	  0.492	  0.156	  0.529	 -10.530	 -0.074	  0.140	 -0.412	 25.900	 99.945	  0.035
45013	 -0.199	 -0.263	  0.505	  0.244	  0.715	 -11.120	  0.195	  0.225	 -0.419	 25.900	 99.945	  0.035
45063	 -0.190	 -0.252	  0.516	  0.364	  0.490	 -11.722	  0.142	  0.089	 -0.053	 25.900	 99.956	 -0.929
45113	 -0.183	 -0.230	  0.524	  1.007	  0.564	 -11.029	  0.318	  0.441	  0.053	 25.900	 99.956	 -0.929
45163	 -0.179	 -0.198	  0.521	  1.622	  1.146	 -10.789	  0.441	  0.004	  0.419	 25.900	 99.956	 -0.929
45213	 -0.181	 -0.156	  0.502	  2.178	 -1.042	 -10.604	  0.545	  0.392	  0.235	 25.900	 99.945	  0.035
45263	 -0.181	 -0.115	  0.493	  0.671	 -0.211	 -10.757	  0.703	  0.236	  0.276	 25.900	 99.945	  0.035
45313	 -0.181	 -0.081	  0.472	  0.971	 -2.392	 -11.186	  0.202	  0.385	  0.466	 25.900	 99.945	  0.035
45363	 -0.187	 -0.063	  0.463	  1.353	 -0.499	 -10.276	  0.056	  0.487	 -0.059	 25.900	 99.956	 -0.929
45413	 -0.194	 -0.039	  0.442	  2.137	 -0.772	 -9.733	 -0.066	  0.391	  0.300	 25.900	 99.945	  0.035
45463	 -0.194	 -0.032	  0.428	  2.043	  0.572	 -10.065	  0.258	  0.165	  0.627	 25.900	 99.956	 -0.929
45513	 -0.189	 -0.015	  0.414	  1.300	 -1.008	 -10.312	  0.161	  0.396	  1.088	 25.900	 99.945	  0.035
45563	 -0.182	 -0.010	  0.402	  2.666	 -0.796	 -9.840	 -0.170	  0.146	  1.350	 25.900	 99.945	  0.035
45613	 -0.173	 -0.005	  0.394	  3.619	 -1.067	 -9.546	 -0.133	  0.036	  0.636	 25.900	 99.949	 -0.315
45663	 -0.165	 -0.008	  0.387	  3.722	  0.100	 -8.990	 -0.199	  0.104	  0.398	 25.900	 99.949	 -0.315
45713	 -0.160	 -0.008	  0.381	  3.429	  0.055	 -8.631	 -0.009	 -0.131	  0.089	 25.900	 99.945	  0.035
45763	 -0.150	 -0.007	  0.380	  2.307	 -0.459	 -9.016	 -0.108	  0.073	  0.314	 25.900	 99.945	  0.035
45813	 -0.152	 -0.018	  0.376	  2.677	  0.128	 -9.584	 -0.094	  0.225	  0.470	 25.900	 99.945	  0.035
45863	 -0.148	 -0.018	  0.372	  2.320	 -0.165	 -9.525	 -0.181	  0.166	  0.746	 25.900	 99.933	  1.087
45913	 -0.145	 -0.026	  0.378	  2.259	 -0.002	 -9.457	 -0.234	  0.147	  0.980	 25.900	 99.945	  0.035
45963	 -0.139	 -0.033	  0.376	  2.191	 -1.756	 -9.732	 -0.754	  0.081	  1.010	 25.900	 99.949	 -0.315
46013	 -0.131	 -0.055	  0.387	  1.795	  0.892	 -8.292	 -0.986	 -0.030	  1.354	 25.900	 99.938	  0.648
46063	 -0.130	 -0.070	  0.392	  1.559	  0.672	 -7.922	 -0.818	  0.046	  1.552	 25.900	 99.922	  2.051
46113	 -0.127	 -0.089	  0.399	  1.257	  1.421	 -7.739	 -0.159	  0.116	  1.669	 25.900	 99.938	  0.648
46163	 -0.128	 -0.085	  0.400	  2.950	 -0.180	 -8.342	  0.259	  0.140	  1.557	 25.900	 99.949	 -0.315
46213	 -0.130	 -0.072	  0.411	  2.563	 -0.593	 -9.370	  0.279	  0.280	  1.085	 25.900	 99.949	 -0.315
46263	 -0.137	 -0.078	  0.414	  3.209	 -1.640	 -8.928	  0.208	 -0.024	  0.814	 25.900	 99.938	  0.648
46313	 -0.137	 -0.079	  0.420	  3.051	 -2.618	 -9.780	 -0.057	 -0.155	  0.302	 25.900	 99.949	 -0.315
46363	 -0.139	 -0.101	  0.426	  2.252	 -2.005	 -8.758	 -0.231	 -0.142	 -0.166	 25.900	 99.938	  0.648
46413	 -0.138	 -0.118	  0.431	  1.651	 -2.153	 -8.290	 -0.300	 -0.311	 -0.449	 25.900	 99.938	  0.648
46463	 -0.137	 -0.135	  0.432	  0.203	 -0.243	 -8.708	 -0.059	 -0.069	 -0.269	 25.900	 99.938	  0.648
46513	 -0.148	 -0.146	  0.431	  1.665	 -1.990	 -8.575	 -0.187	  0.049	  0.044	 25.900	 99.938	  0.648
46563	 -0.159	 -0.162	  0.431	  2.142	 -0.221	 -9.131	  0.031	 -0.115	 -0.591	 25.900	 99.938	  0.648
46613	 -0.166	 -0.177	  0.435	  1.035	 -1.334	 -8.909	 -0.133	 -0.285	 -0.387	 25.900	 99.938	  0.648
46663	 -0.183	 -0.188	  0.437	  0.178	 -0.579	 -9.116	 -0.187	 -0.318	 -0.422	 25.900	 99.938	  0.648
46713	 -0.201	 -0.199	  0.446	  0.087	 -0.830	 -9.533	  0.083	 -0.209	 -0.255	 25.900	 99.938	  0.648
46763	 -0.221	 -0.203	  0.470	  1.000	 -1.729	 -9.980	 -0.110	 -0.298	 -0.304	 25.900	 99.938	  0.648
46813	 -0.240	 -0.206	  0.503	 -0.368	 -0.712	 -9.342	 -0.316	 -0.455	 -0.531	 25.900	 99.938	  0.648
46864	 -0.245	 -0.217	  0.554	 -1.281	 -0.420	 -9.304	 -0.564	 -0.366	 -0.151	 25.900	 99.938	  0.648
46914	 -0.245	 -0.242	  0.594	 -2.192	  0.688	 -8.982	 -0.391	  0.380	 -0.241	 25.900	 99.949	 -0.315
46964	 -0.252	 -0.261	  0.603	 -0.168	  0.791	 -10.310	 -0.404	  0.588	 -0.207	 25.900	 99.938	  0.648
47014	 -0.267	 -0.285	  0.592	  1.670	  1.014	 -9.397	 -0.504	  0.538	 -0.117	 25.900	 99.938	  0.648
47065	 -0.270	 -0.299	  0.586	  1.363	  2.047	 -9.986	 -0.041	  0.271	  0.110	 25.900	 99.938	  0.648
47115	 -0.276	 -0.299	  0.589	  1.818	  1.365	 -8.885	 -0.014	  0.110	  0.132	 25.900	 99.942	  0.298
47165	 -0.275	 -0.294	  0.584	  1.159	  1.020	 -9.614	  0.209	 -0.078	  0.189	 25.900	 99.926	  1.700
47214	 -0.265	 -0.276	  0.582	  1.371	  0.719	 -9.419	  0.165	 -0.105	  0.048	 25.900	 99.938	  0.648
47265	 -0.258	 -0.272	  0.567	  1.268	  0.875	 -9.380	  0.276	 -0.137	  0.072	 25.900	 99.942	  0.298
47315	 -0.247	 -0.260	  0.569	  1.474	  0.444	 -9.187	  0.354	 -0.155	  0.002	 25.900	 99.942	  0.298
47365	 -0.230	 -0.239	  0.561	  2.462	  0.058	 -9.230	  0.423	 -0.328	  0.012	 25.900	 99.938	  0.648
47415	 -0.207	 -0.223	  0.560	  2.127	 -0.130	 -9.525	  0.408	 -0.424	  0.086	 25.900	 99.926	  1.700
47465	 -0.195	 -0.232	  0.570	  1.067	  1.511	 -7.526	 -0.175	  0.019	  0.096	 25.900	 99.953	 -0.666
47515	 -0.194	 -0.232	  0.574	  1.583	  0.011	 -9.237	 -0.007	 -0.094	  0.038	 25.900	 99.938	  0.648
47565	 -0.186	 -0.233	  0.579	  1.851	  0.078	 -8.854	  0.053	 -0.175	  0.089	 25.900	 99.926	  1.700
47615	 -0.174	 -0.229	  0.587	  0.465	 -0.201	 -9.722	 -0.125	 -0.238	  0.279	 25.900	 99.942	  0.298
