Time	 MagX	 MagY	 MagZ	 AccelX	 AccelY	 AccelZ	 Yaw	 Pitch	 Roll	 Temperature	 Pressure	 Altitude
16268	  0.091	 -0.286	  0.282	  0.121	 -0.071	 -9.851	 -0.003	  0.001	  0.001	 33.800	 98.983	 -99999.000
16318	  0.089	 -0.286	  0.280	  0.094	 -0.060	 -9.835	 -0.004	  0.002	  0.001	 33.700	 98.979	 -99999.000
16368	  0.093	 -0.289	  0.280	  0.109	 -0.044	 -9.848	 -0.003	  0.002	  0.001	 33.700	 98.972	 -99999.000
16418	  0.089	 -0.286	  0.277	  0.130	 -0.054	 -9.808	 -0.004	  0.003	  0.001	 33.800	 98.983	 -99999.000
16468	  0.092	 -0.287	  0.282	  0.108	 -0.052	 -9.830	 -0.004	  0.002	  0.002	 33.700	 98.967	 -99999.000
16518	  0.093	 -0.289	  0.276	  0.090	 -0.043	 -9.820	 -0.005	  0.001	  0.001	 33.800	 98.972	 -99999.000
16568	  0.089	 -0.283	  0.278	  0.122	 -0.072	 -9.826	 -0.003	  0.002	  0.002	 33.800	 98.983	 -99999.000
16618	  0.094	 -0.282	  0.278	  0.107	 -0.036	 -9.811	 -0.004	  0.002	  0.001	 33.800	 98.983	 -99999.000
16668	  0.092	 -0.282	  0.280	  0.113	 -0.053	 -9.820	 -0.003	  0.003	 -0.000	 33.700	 98.972	 -99999.000
16718	  0.091	 -0.285	  0.275	  0.106	 -0.074	 -9.826	 -0.003	  0.001	  0.001	 33.800	 98.972	 -99999.000
16768	  0.092	 -0.290	  0.284	  0.087	 -0.059	 -9.807	 -0.004	  0.003	  0.002	 33.700	 98.972	 -99999.000
16818	  0.092	 -0.287	  0.281	  0.097	 -0.045	 -9.791	 -0.003	  0.002	  0.001	 33.800	 98.972	 -99999.000
16868	  0.093	 -0.289	  0.276	  0.111	 -0.048	 -9.839	 -0.003	  0.001	  0.001	 33.700	 98.967	 -99999.000
16918	  0.092	 -0.283	  0.285	  0.103	 -0.069	 -9.854	 -0.003	  0.003	  0.002	 33.700	 98.979	 -99999.000
16968	  0.092	 -0.286	  0.282	  0.132	 -0.067	 -9.812	 -0.003	  0.002	  0.001	 33.800	 98.983	 -99999.000
17018	  0.090	 -0.287	  0.279	  0.118	 -0.057	 -9.775	 -0.003	  0.002	  0.001	 33.700	 98.983	 -99999.000
17068	  0.092	 -0.284	  0.285	  0.104	 -0.054	 -9.800	 -0.003	  0.002	  0.001	 33.700	 98.983	 -99999.000
17118	  0.092	 -0.285	  0.274	  0.119	 -0.041	 -9.834	 -0.004	  0.002	  0.000	 33.800	 98.972	 -99999.000
17168	  0.089	 -0.289	  0.279	  0.109	 -0.043	 -9.856	 -0.004	  0.002	  0.000	 33.700	 98.979	 -99999.000
17218	  0.092	 -0.285	  0.283	  0.096	 -0.046	 -9.805	 -0.004	  0.002	  0.001	 33.700	 98.967	 -99999.000
17268	  0.093	 -0.287	  0.282	  0.118	 -0.068	 -9.810	 -0.002	  0.001	  0.001	 33.700	 98.967	 -99999.000
17318	  0.091	 -0.276	  0.284	  0.120	 -0.028	 -9.839	 -0.004	  0.001	  0.001	 33.800	 98.972	 -99999.000
17368	  0.090	 -0.289	  0.275	  0.123	 -0.056	 -9.840	 -0.004	  0.004	  0.002	 33.700	 98.967	 -99999.000
17419	  0.092	 -0.282	  0.278	  0.118	 -0.049	 -9.804	 -0.005	  0.002	  0.001	 33.700	 98.979	 -99999.000
17468	  0.093	 -0.286	  0.281	  0.112	 -0.052	 -9.833	 -0.004	  0.002	 -0.000	 33.700	 98.972	 -99999.000
17518	  0.091	 -0.290	  0.282	  0.106	 -0.054	 -9.844	 -0.004	  0.001	  0.001	 33.700	 98.972	 -99999.000
17568	  0.091	 -0.285	  0.283	  0.108	 -0.051	 -9.814	 -0.004	  0.001	  0.001	 33.700	 98.967	 -99999.000
17618	  0.090	 -0.284	  0.280	  0.113	 -0.036	 -9.793	 -0.004	  0.002	  0.002	 33.700	 98.979	 -99999.000
17668	  0.091	 -0.287	  0.278	  0.125	 -0.064	 -9.858	 -0.003	  0.001	  0.001	 33.800	 98.983	 -99999.000
17718	  0.091	 -0.286	  0.280	  0.121	 -0.046	 -9.846	 -0.003	  0.001	  0.002	 33.800	 98.983	 -99999.000
17768	  0.090	 -0.282	  0.282	  0.101	 -0.057	 -9.805	 -0.004	  0.003	  0.002	 33.700	 98.972	 -99999.000
17818	  0.093	 -0.284	  0.281	  0.134	 -0.042	 -9.813	 -0.002	  0.002	  0.001	 33.700	 98.967	 -99999.000
17867	  0.092	 -0.286	  0.282	  0.083	 -0.048	 -9.812	 -0.004	  0.002	 -0.000	 33.700	 98.967	 -99999.000
17917	  0.091	 -0.285	  0.284	  0.125	 -0.046	 -9.839	 -0.003	  0.002	  0.002	 33.700	 98.983	 -99999.000
17967	  0.092	 -0.289	  0.281	  0.109	 -0.059	 -9.800	 -0.004	  0.001	  0.001	 33.800	 98.983	 -99999.000
18017	  0.090	 -0.289	  0.276	  0.140	 -0.035	 -9.851	 -0.004	  0.003	 -0.000	 33.700	 98.967	 -99999.000
18067	  0.091	 -0.283	  0.279	  0.127	 -0.059	 -9.812	 -0.003	  0.002	  0.000	 33.800	 98.983	 -99999.000
18118	  0.092	 -0.285	  0.279	  0.091	 -0.060	 -9.828	 -0.004	  0.002	  0.001	 33.800	 98.972	 -99999.000
18167	  0.092	 -0.283	  0.278	  0.090	 -0.041	 -9.807	 -0.004	  0.002	  0.002	 33.700	 98.967	 -99999.000
18218	  0.094	 -0.285	  0.282	  0.138	 -0.042	 -9.842	 -0.003	  0.001	  0.001	 33.700	 98.967	 -99999.000
18267	  0.092	 -0.276	  0.282	  0.085	 -0.050	 -9.820	 -0.004	  0.003	  0.002	 33.800	 98.983	 -99999.000
18317	  0.092	 -0.286	  0.279	  0.123	 -0.039	 -9.877	 -0.003	  0.002	  0.002	 33.700	 98.972	 -99999.000
18368	  0.091	 -0.287	  0.277	  0.124	 -0.048	 -9.800	 -0.004	  0.001	  0.000	 33.800	 98.983	 -99999.000
18418	  0.090	 -0.285	  0.283	  0.114	 -0.031	 -9.846	 -0.003	  0.002	  0.000	 33.800	 98.983	 -99999.000
18468	  0.092	 -0.285	  0.280	  0.118	 -0.055	 -9.825	 -0.004	  0.002	  0.000	 33.700	 98.983	 -99999.000
18518	  0.092	 -0.276	  0.282	  0.129	 -0.028	 -9.837	 -0.004	  0.002	  0.002	 33.700	 98.979	 -99999.000
18568	  0.092	 -0.284	  0.283	  0.129	 -0.037	 -9.790	 -0.003	  0.002	  0.001	 33.700	 98.983	 -99999.000
18618	  0.089	 -0.284	  0.280	  0.123	 -0.061	 -9.811	 -0.004	  0.001	  0.002	 33.800	 98.972	 -99999.000
18668	  0.091	 -0.287	  0.279	  0.129	 -0.045	 -9.819	 -0.004	  0.001	  0.001	 33.800	 98.983	 -99999.000
18718	  0.092	 -0.284	  0.279	  0.107	 -0.054	 -9.865	 -0.003	  0.003	  0.000	 33.700	 98.979	 -99999.000
18768	  0.094	 -0.287	  0.283	  0.114	 -0.071	 -9.793	 -0.004	  0.003	  0.001	 33.700	 98.983	 -99999.000
18818	  0.090	 -0.286	  0.279	  0.123	 -0.055	 -9.827	 -0.004	  0.004	 -0.000	 33.700	 98.990	 -99999.000
18868	  0.094	 -0.287	  0.283	  0.102	 -0.071	 -9.777	 -0.003	  0.002	  0.001	 33.700	 98.979	 -99999.000
18918	  0.093	 -0.286	  0.282	  0.133	 -0.054	 -9.811	 -0.004	  0.003	  0.001	 33.800	 98.972	 -99999.000
18968	  0.092	 -0.282	  0.279	  0.127	 -0.048	 -9.825	 -0.003	  0.002	 -0.001	 33.800	 98.972	 -99999.000
19018	  0.090	 -0.275	  0.282	  0.123	 -0.042	 -9.827	 -0.005	  0.002	  0.001	 33.800	 98.972	 -99999.000
19068	  0.092	 -0.287	  0.283	  0.115	 -0.045	 -9.863	 -0.004	  0.002	  0.001	 33.700	 98.979	 -99999.000
19118	  0.092	 -0.286	  0.279	  0.125	 -0.079	 -9.858	 -0.003	  0.003	  0.000	 33.700	 98.967	 -99999.000
19168	  0.091	 -0.273	  0.284	  0.113	 -0.033	 -9.835	 -0.003	  0.002	  0.000	 33.700	 98.967	 -99999.000
19218	  0.091	 -0.284	  0.280	  0.126	 -0.053	 -9.805	 -0.004	  0.001	  0.001	 33.700	 98.956	 -99999.000
19268	  0.093	 -0.283	  0.281	  0.129	 -0.069	 -9.863	 -0.005	  0.001	  0.000	 33.800	 98.972	 -99999.000
19318	  0.092	 -0.290	  0.283	  0.122	 -0.042	 -9.840	 -0.004	  0.002	  0.002	 33.800	 98.972	 -99999.000
19368	  0.092	 -0.279	  0.283	  0.107	 -0.055	 -9.821	 -0.004	  0.002	  0.001	 33.700	 98.956	 -99999.000
19418	  0.091	 -0.286	  0.278	  0.126	 -0.030	 -9.803	 -0.004	  0.002	  0.000	 33.700	 98.967	 -99999.000
19468	  0.091	 -0.286	  0.277	  0.100	 -0.044	 -9.825	 -0.003	  0.003	  0.001	 33.700	 98.979	 -99999.000
19518	  0.092	 -0.284	  0.280	  0.132	 -0.056	 -9.794	 -0.005	  0.002	  0.001	 33.800	 98.972	 -99999.000
19568	  0.092	 -0.285	  0.282	  0.122	 -0.037	 -9.848	 -0.003	  0.002	  0.002	 33.700	 98.979	 -99999.000
19618	  0.094	 -0.287	  0.281	  0.122	 -0.008	 -9.854	 -0.003	  0.002	  0.000	 33.800	 98.972	 -99999.000
19668	  0.095	 -0.289	  0.276	  0.098	 -0.048	 -9.840	 -0.003	  0.001	  0.002	 33.700	 98.967	 -99999.000
19718	  0.091	 -0.275	  0.280	  0.107	 -0.067	 -9.822	 -0.004	  0.002	  0.001	 33.700	 98.979	 -99999.000
19768	  0.091	 -0.285	  0.284	  0.110	 -0.066	 -9.819	 -0.005	  0.002	  0.000	 33.700	 98.979	 -99999.000
19818	  0.089	 -0.285	  0.278	  0.154	 -0.054	 -9.843	 -0.005	  0.003	  0.001	 33.700	 98.967	 -99999.000
19868	  0.091	 -0.285	  0.278	  0.110	 -0.052	 -9.853	 -0.003	  0.001	  0.001	 33.800	 98.983	 -99999.000
19918	  0.091	 -0.285	  0.278	  0.126	 -0.070	 -9.869	 -0.002	  0.002	  0.001	 33.700	 98.967	 -99999.000
19968	  0.094	 -0.289	  0.280	  0.122	 -0.064	 -9.818	 -0.004	  0.002	  0.000	 33.700	 98.979	 -99999.000
20018	  0.091	 -0.283	  0.285	  0.126	 -0.021	 -9.746	 -0.004	  0.002	  0.001	 33.700	 98.967	 -99999.000
20068	  0.090	 -0.282	  0.280	  0.132	 -0.077	 -9.790	 -0.003	 -0.000	  0.000	 33.700	 98.967	 -99999.000
