Time	 MagX	 MagY	 MagZ	 AccelX	 AccelY	 AccelZ	 Yaw	 Pitch	 Roll	 Temperature	 Pressure	 Altitude
16275	 -0.087	 -0.319	  0.238	  0.156	 -0.054	 -9.803	 -0.003	  0.002	  0.001	 34.300	 98.952	 -99999.000
16325	 -0.081	 -0.318	  0.240	  0.180	 -0.075	 -9.808	 -0.003	  0.002	  0.001	 34.300	 98.959	 -99999.000
16375	 -0.087	 -0.317	  0.244	  0.158	 -0.054	 -9.801	 -0.004	  0.002	  0.000	 34.300	 98.964	 -99999.000
16425	 -0.087	 -0.308	  0.244	  0.168	 -0.067	 -9.790	 -0.003	  0.001	  0.002	 34.300	 98.964	 -99999.000
16475	 -0.083	 -0.319	  0.245	  0.187	 -0.061	 -9.824	 -0.004	  0.002	  0.002	 34.300	 98.964	 -99999.000
16525	 -0.083	 -0.315	  0.244	  0.162	 -0.075	 -9.805	 -0.003	  0.002	  0.000	 34.300	 98.964	 -99999.000
16575	 -0.083	 -0.313	  0.242	  0.172	 -0.072	 -9.813	 -0.004	  0.003	  0.001	 34.300	 98.968	 -99999.000
16625	 -0.084	 -0.318	  0.245	  0.180	 -0.061	 -9.812	 -0.004	  0.001	  0.001	 34.300	 98.964	 -99999.000
16675	 -0.085	 -0.316	  0.235	  0.173	 -0.047	 -9.831	 -0.003	  0.003	  0.001	 34.300	 98.964	 -99999.000
16725	 -0.083	 -0.320	  0.238	  0.177	 -0.055	 -9.804	 -0.004	  0.003	  0.000	 34.300	 98.968	 -99999.000
16775	 -0.084	 -0.318	  0.244	  0.172	 -0.039	 -9.844	 -0.004	  0.001	  0.002	 34.300	 98.964	 -99999.000
16825	 -0.085	 -0.303	  0.243	  0.168	 -0.060	 -9.822	 -0.003	  0.002	  0.000	 34.300	 98.979	 -99999.000
16875	 -0.085	 -0.314	  0.239	  0.167	 -0.071	 -9.832	 -0.004	  0.003	  0.001	 34.300	 98.952	 -99999.000
16925	 -0.083	 -0.317	  0.238	  0.161	 -0.046	 -9.847	 -0.004	  0.003	  0.001	 34.300	 98.964	 -99999.000
16975	 -0.085	 -0.318	  0.246	  0.175	 -0.063	 -9.826	 -0.004	  0.002	  0.001	 34.300	 98.964	 -99999.000
17024	 -0.085	 -0.315	  0.243	  0.171	 -0.049	 -9.817	 -0.003	  0.003	  0.000	 34.300	 98.952	 -99999.000
17074	 -0.085	 -0.320	  0.244	  0.171	 -0.086	 -9.825	 -0.004	  0.002	  0.000	 34.300	 98.952	 -99999.000
17124	 -0.085	 -0.319	  0.243	  0.146	 -0.060	 -9.812	 -0.003	  0.002	  0.001	 34.300	 98.964	 -99999.000
17174	 -0.084	 -0.311	  0.242	  0.162	 -0.051	 -9.811	 -0.004	  0.003	  0.000	 34.300	 98.952	 -99999.000
17224	 -0.086	 -0.317	  0.239	  0.190	 -0.073	 -9.832	 -0.003	  0.001	  0.001	 34.300	 98.952	 -99999.000
17274	 -0.084	 -0.320	  0.244	  0.152	 -0.068	 -9.813	 -0.004	  0.003	  0.001	 34.300	 98.964	 -99999.000
17324	 -0.085	 -0.315	  0.239	  0.180	 -0.076	 -9.817	 -0.003	  0.001	  0.001	 34.300	 98.964	 -99999.000
17374	 -0.084	 -0.312	  0.245	  0.154	 -0.040	 -9.845	 -0.004	  0.002	  0.001	 34.300	 98.968	 -99999.000
17424	 -0.087	 -0.314	  0.240	  0.174	 -0.038	 -9.835	 -0.004	  0.002	 -0.000	 34.300	 98.964	 -99999.000
17474	 -0.086	 -0.317	  0.244	  0.175	 -0.062	 -9.824	 -0.003	  0.002	  0.002	 34.300	 98.952	 -99999.000
17524	 -0.082	 -0.310	  0.244	  0.167	 -0.046	 -9.809	 -0.004	  0.002	 -0.001	 34.300	 98.952	 -99999.000
17574	 -0.085	 -0.318	  0.241	  0.196	 -0.061	 -9.858	 -0.004	  0.003	  0.002	 34.300	 98.964	 -99999.000
17624	 -0.082	 -0.315	  0.244	  0.171	 -0.041	 -9.842	 -0.004	  0.002	  0.001	 34.300	 98.964	 -99999.000
17674	 -0.088	 -0.315	  0.244	  0.180	 -0.066	 -9.822	 -0.004	  0.003	 -0.000	 34.300	 98.948	 -99999.000
17724	 -0.085	 -0.320	  0.243	  0.163	 -0.056	 -9.812	 -0.003	  0.002	  0.002	 34.300	 98.952	 -99999.000
17774	 -0.086	 -0.322	  0.243	  0.187	 -0.061	 -9.809	 -0.002	  0.002	  0.001	 34.300	 98.975	 -99999.000
17824	 -0.086	 -0.316	  0.243	  0.167	 -0.060	 -9.818	 -0.004	  0.002	 -0.000	 34.300	 98.964	 -99999.000
17874	 -0.085	 -0.319	  0.245	  0.176	 -0.075	 -9.813	 -0.004	  0.003	  0.001	 34.300	 98.964	 -99999.000
17924	 -0.086	 -0.305	  0.246	  0.175	 -0.061	 -9.822	 -0.004	  0.002	  0.001	 34.300	 98.964	 -99999.000
17974	 -0.084	 -0.316	  0.243	  0.169	 -0.044	 -9.846	 -0.003	  0.003	  0.000	 34.300	 98.952	 -99999.000
18024	 -0.085	 -0.312	  0.245	  0.169	 -0.071	 -9.846	 -0.003	  0.003	  0.000	 34.300	 98.964	 -99999.000
18074	 -0.086	 -0.321	  0.243	  0.171	 -0.061	 -9.814	 -0.003	  0.003	 -0.000	 34.300	 98.968	 -99999.000
18124	 -0.087	 -0.320	  0.245	  0.144	 -0.071	 -9.815	 -0.003	  0.002	 -0.000	 34.300	 98.952	 -99999.000
18174	 -0.083	 -0.316	  0.237	  0.175	 -0.038	 -9.843	 -0.003	  0.002	  0.001	 34.300	 98.964	 -99999.000
18225	 -0.086	 -0.316	  0.243	  0.172	 -0.064	 -9.800	 -0.003	  0.001	  0.001	 34.300	 98.952	 -99999.000
18274	 -0.084	 -0.318	  0.237	  0.182	 -0.064	 -9.829	 -0.004	  0.002	  0.002	 34.300	 98.952	 -99999.000
18324	 -0.085	 -0.315	  0.243	  0.171	 -0.037	 -9.850	 -0.004	  0.002	  0.001	 34.300	 98.964	 -99999.000
18375	 -0.085	 -0.315	  0.242	  0.187	 -0.078	 -9.841	 -0.003	  0.001	  0.000	 34.300	 98.952	 -99999.000
18425	 -0.086	 -0.312	  0.242	  0.180	 -0.054	 -9.856	 -0.004	  0.002	  0.001	 34.300	 98.964	 -99999.000
18475	 -0.084	 -0.320	  0.245	  0.176	 -0.046	 -9.800	 -0.004	  0.001	  0.001	 34.300	 98.952	 -99999.000
18525	 -0.085	 -0.318	  0.241	  0.158	 -0.075	 -9.828	 -0.004	  0.003	  0.001	 34.300	 98.964	 -99999.000
18575	 -0.082	 -0.311	  0.242	  0.188	 -0.025	 -9.816	 -0.003	  0.002	  0.000	 34.300	 98.964	 -99999.000
18625	 -0.086	 -0.313	  0.243	  0.193	 -0.070	 -9.847	 -0.004	  0.001	  0.000	 34.300	 98.952	 -99999.000
18675	 -0.084	 -0.315	  0.243	  0.176	 -0.067	 -9.798	 -0.004	  0.003	  0.001	 34.300	 98.952	 -99999.000
18724	 -0.082	 -0.318	  0.238	  0.204	 -0.040	 -9.843	 -0.004	  0.002	  0.002	 34.300	 98.956	 -99999.000
18775	 -0.084	 -0.320	  0.243	  0.159	 -0.043	 -9.811	 -0.004	  0.002	  0.001	 34.300	 98.964	 -99999.000
18825	 -0.086	 -0.318	  0.244	  0.165	 -0.067	 -9.817	 -0.004	  0.003	  0.001	 34.300	 98.964	 -99999.000
18874	 -0.086	 -0.317	  0.240	  0.197	 -0.050	 -9.843	 -0.004	  0.002	 -0.000	 34.300	 98.964	 -99999.000
18924	 -0.085	 -0.316	  0.245	  0.166	 -0.062	 -9.846	 -0.005	  0.002	  0.002	 34.300	 98.964	 -99999.000
18974	 -0.086	 -0.318	  0.244	  0.186	 -0.061	 -9.819	 -0.003	  0.003	  0.001	 34.300	 98.964	 -99999.000
19024	 -0.088	 -0.315	  0.243	  0.179	 -0.054	 -9.809	 -0.004	  0.003	 -0.000	 34.300	 98.952	 -99999.000
19074	 -0.084	 -0.317	  0.243	  0.176	 -0.041	 -9.816	 -0.004	  0.002	  0.001	 34.300	 98.952	 -99999.000
19124	 -0.085	 -0.319	  0.243	  0.162	 -0.082	 -9.856	 -0.003	  0.003	  0.000	 34.300	 98.964	 -99999.000
19174	 -0.085	 -0.320	  0.237	  0.178	 -0.076	 -9.850	 -0.002	  0.002	  0.001	 34.300	 98.964	 -99999.000
19224	 -0.085	 -0.316	  0.242	  0.140	 -0.084	 -9.809	 -0.003	  0.001	  0.001	 34.300	 98.964	 -99999.000
19274	 -0.084	 -0.318	  0.244	  0.180	 -0.072	 -9.852	 -0.003	  0.001	  0.000	 34.300	 98.956	 -99999.000
19324	 -0.082	 -0.319	  0.242	  0.155	 -0.066	 -9.845	 -0.003	  0.002	  0.002	 34.300	 98.964	 -99999.000
19374	 -0.084	 -0.321	  0.243	  0.189	 -0.060	 -9.821	 -0.004	  0.001	  0.001	 34.300	 98.952	 -99999.000
19424	 -0.084	 -0.317	  0.246	  0.182	 -0.051	 -9.827	 -0.003	  0.002	 -0.000	 34.300	 98.952	 -99999.000
19474	 -0.086	 -0.317	  0.242	  0.192	 -0.062	 -9.806	 -0.003	  0.000	  0.001	 34.300	 98.964	 -99999.000
19524	 -0.088	 -0.314	  0.243	  0.176	 -0.063	 -9.810	 -0.004	  0.002	  0.001	 34.300	 98.964	 -99999.000
19574	 -0.085	 -0.314	  0.239	  0.173	 -0.038	 -9.849	 -0.003	  0.003	  0.002	 34.300	 98.964	 -99999.000
19624	 -0.084	 -0.318	  0.243	  0.170	 -0.043	 -9.822	 -0.005	  0.001	  0.002	 34.300	 98.956	 -99999.000
19674	 -0.085	 -0.318	  0.243	  0.171	 -0.047	 -9.823	 -0.003	  0.004	  0.001	 34.300	 98.952	 -99999.000
19724	 -0.085	 -0.316	  0.243	  0.161	 -0.026	 -9.858	 -0.003	  0.001	  0.001	 34.300	 98.952	 -99999.000
19774	 -0.085	 -0.318	  0.246	  0.157	 -0.048	 -9.803	 -0.004	  0.002	  0.001	 34.300	 98.968	 -99999.000
19824	 -0.085	 -0.318	  0.238	  0.181	 -0.058	 -9.817	 -0.003	  0.003	  0.000	 34.300	 98.968	 -99999.000
19874	 -0.085	 -0.318	  0.237	  0.173	 -0.076	 -9.811	 -0.004	  0.002	  0.002	 34.300	 98.964	 -99999.000
19924	 -0.086	 -0.316	  0.242	  0.194	 -0.049	 -9.831	 -0.003	  0.003	  0.001	 34.300	 98.952	 -99999.000
19974	 -0.085	 -0.317	  0.234	  0.188	 -0.053	 -9.849	 -0.003	  0.001	  0.002	 34.300	 98.952	 -99999.000
20024	 -0.085	 -0.317	  0.245	  0.178	 -0.052	 -9.830	 -0.004	  0.002	  0.001	 34.300	 98.956	 -99999.000
20074	 -0.085	 -0.317	  0.242	  0.155	 -0.081	 -9.804	 -0.004	  0.001	 -0.000	 34.300	 98.964	 -99999.000
20124	 -0.083	 -0.319	  0.243	  0.174	 -0.069	 -9.805	 -0.003	  0.002	  0.002	 34.300	 98.964	 -99999.000
20174	 -0.085	 -0.316	  0.243	  0.172	 -0.043	 -9.812	 -0.003	  0.000	  0.001	 34.300	 98.952	 -99999.000
20224	 -0.085	 -0.320	  0.238	  0.156	 -0.064	 -9.821	 -0.004	  0.002	  0.001	 34.300	 98.952	 -99999.000
20274	 -0.082	 -0.316	  0.243	  0.179	 -0.038	 -9.819	 -0.003	  0.002	  0.000	 34.300	 98.968	 -99999.000
20324	 -0.087	 -0.318	  0.242	  0.147	 -0.084	 -9.841	 -0.004	  0.002	 -0.000	 34.300	 98.952	 -99999.000
20374	 -0.083	 -0.319	  0.244	  0.157	 -0.057	 -9.845	 -0.004	  0.002	  0.001	 34.300	 98.968	 -99999.000
20424	 -0.087	 -0.316	  0.242	  0.173	 -0.070	 -9.828	 -0.003	  0.003	  0.000	 34.300	 98.952	 -99999.000
20474	 -0.082	 -0.319	  0.246	  0.188	 -0.039	 -9.843	 -0.004	  0.003	  0.001	 34.300	 98.952	 -99999.000
20524	 -0.088	 -0.314	  0.245	  0.184	 -0.054	 -9.803	 -0.005	  0.002	  0.001	 34.300	 98.964	 -99999.000
20574	 -0.084	 -0.317	  0.241	  0.166	 -0.063	 -9.803	 -0.003	  0.002	  0.001	 34.300	 98.956	 -99999.000
20624	 -0.084	 -0.321	  0.242	  0.168	 -0.048	 -9.818	 -0.003	  0.003	  0.001	 34.300	 98.975	 -99999.000
20674	 -0.087	 -0.320	  0.242	  0.171	 -0.058	 -9.840	 -0.004	  0.002	  0.001	 34.300	 98.952	 -99999.000
20724	 -0.083	 -0.308	  0.247	  0.155	 -0.071	 -9.830	 -0.003	  0.001	  0.002	 34.300	 98.952	 -99999.000
20774	 -0.085	 -0.319	  0.236	  0.168	 -0.045	 -9.848	 -0.004	  0.002	 -0.000	 34.300	 98.952	 -99999.000
20824	 -0.084	 -0.306	  0.243	  0.166	 -0.070	 -9.787	 -0.003	  0.000	  0.000	 34.300	 98.964	 -99999.000
20874	 -0.086	 -0.316	  0.240	  0.183	 -0.063	 -9.816	 -0.002	  0.003	  0.001	 34.300	 98.952	 -99999.000
20924	 -0.084	 -0.320	  0.243	  0.148	 -0.050	 -9.820	 -0.003	  0.002	  0.001	 34.300	 98.964	 -99999.000
20974	 -0.087	 -0.313	  0.243	  0.197	 -0.034	 -9.846	 -0.004	  0.001	  0.001	 34.300	 98.968	 -99999.000
21024	 -0.084	 -0.318	  0.245	  0.178	 -0.061	 -9.813	 -0.002	  0.001	  0.001	 34.300	 98.952	 -99999.000
21073	 -0.084	 -0.316	  0.244	  0.147	 -0.041	 -9.795	 -0.005	  0.002	  0.002	 34.300	 98.975	 -99999.000
21123	 -0.085	 -0.318	  0.239	  0.167	 -0.053	 -9.794	 -0.003	  0.002	 -0.000	 34.300	 98.952	 -99999.000
21173	 -0.082	 -0.317	  0.242	  0.153	 -0.072	 -9.866	 -0.004	  0.002	  0.001	 34.300	 98.964	 -99999.000
21223	 -0.085	 -0.321	  0.231	  0.190	 -0.063	 -9.789	 -0.003	  0.001	  0.001	 34.300	 98.964	 -99999.000
21273	 -0.086	 -0.317	  0.234	  0.167	 -0.058	 -9.780	 -0.005	  0.002	  0.000	 34.300	 98.952	 -99999.000
21324	 -0.085	 -0.319	  0.237	  0.193	 -0.072	 -9.833	 -0.003	  0.002	  0.001	 34.300	 98.964	 -99999.000
21373	 -0.084	 -0.315	  0.244	  0.167	 -0.055	 -9.825	 -0.004	  0.001	  0.001	 34.300	 98.964	 -99999.000
21423	 -0.082	 -0.314	  0.244	  0.200	 -0.049	 -9.811	 -0.003	  0.001	  0.000	 34.300	 98.968	 -99999.000
21473	 -0.087	 -0.319	  0.243	  0.185	 -0.060	 -9.834	 -0.004	  0.002	 -0.000	 34.300	 98.952	 -99999.000
21523	 -0.086	 -0.317	  0.242	  0.179	 -0.048	 -9.829	 -0.003	  0.002	  0.001	 34.300	 98.964	 -99999.000
21573	 -0.084	 -0.315	  0.245	  0.187	 -0.053	 -9.803	 -0.004	  0.002	  0.001	 34.300	 98.968	 -99999.000
21623	 -0.087	 -0.318	  0.242	  0.160	 -0.073	 -9.828	 -0.003	  0.002	  0.001	 34.300	 98.968	 -99999.000
21673	 -0.087	 -0.320	  0.243	  0.152	 -0.070	 -9.792	 -0.003	  0.000	  0.001	 34.300	 98.968	 -99999.000
21723	 -0.083	 -0.316	  0.246	  0.180	 -0.043	 -9.842	 -0.003	  0.002	  0.001	 34.300	 98.956	 -99999.000
21773	 -0.085	 -0.318	  0.244	  0.173	 -0.050	 -9.818	 -0.004	  0.003	  0.001	 34.300	 98.968	 -99999.000
21823	 -0.085	 -0.316	  0.241	  0.169	 -0.080	 -9.847	 -0.003	  0.003	 -0.000	 34.300	 98.952	 -99999.000
21873	 -0.083	 -0.318	  0.241	  0.157	 -0.067	 -9.806	 -0.004	  0.003	  0.000	 34.300	 98.968	 -99999.000
21923	 -0.085	 -0.316	  0.241	  0.173	 -0.055	 -9.826	 -0.004	  0.001	 -0.000	 34.300	 98.956	 -99999.000
21973	 -0.083	 -0.314	  0.241	  0.183	 -0.074	 -9.831	 -0.003	  0.002	  0.001	 34.300	 98.952	 -99999.000
22023	 -0.083	 -0.316	  0.243	  0.198	 -0.032	 -9.881	 -0.004	  0.003	  0.002	 34.300	 98.964	 -99999.000
22073	 -0.084	 -0.319	  0.233	  0.196	 -0.047	 -9.798	 -0.003	  0.002	  0.002	 34.300	 98.952	 -99999.000
22123	 -0.083	 -0.317	  0.243	  0.144	 -0.071	 -9.814	 -0.004	  0.002	  0.001	 34.300	 98.979	 -99999.000
22173	 -0.085	 -0.317	  0.241	  0.196	 -0.055	 -9.799	 -0.002	  0.002	  0.001	 34.300	 98.968	 -99999.000
22223	 -0.085	 -0.320	  0.244	  0.208	 -0.038	 -9.816	 -0.002	 -0.000	  0.001	 34.300	 98.956	 -99999.000
27499	 -0.087	 -0.318	  0.243	  0.072	  0.045	 -9.844	 -0.002	  0.003	  0.001	 34.300	 98.968	 -0.721
27547	 -0.084	 -0.317	  0.247	  0.209	 -0.030	 -9.836	 -0.001	  0.003	  0.001	 34.300	 98.952	  0.732
27597	 -0.085	 -0.315	  0.245	  0.183	 -0.079	 -9.809	 -0.004	  0.000	  0.000	 34.300	 98.956	  0.369
27647	 -0.086	 -0.318	  0.244	  0.161	 -0.028	 -9.774	 -0.003	  0.003	  0.001	 34.300	 98.964	 -0.357
27697	 -0.084	 -0.318	  0.247	  0.150	 -0.062	 -9.825	 -0.003	  0.004	  0.002	 34.300	 98.956	  0.369
27747	 -0.089	 -0.320	  0.246	  0.174	 -0.030	 -9.836	 -0.003	  0.002	  0.000	 34.300	 98.968	 -0.721
27797	 -0.085	 -0.319	  0.245	  0.182	 -0.035	 -9.855	 -0.004	  0.003	  0.001	 34.300	 98.968	 -0.721
27847	 -0.086	 -0.316	  0.244	  0.185	 -0.058	 -9.790	 -0.003	  0.002	  0.001	 34.300	 98.956	  0.369
27897	 -0.086	 -0.315	  0.245	  0.190	 -0.062	 -9.768	 -0.002	  0.001	  0.001	 34.300	 98.968	 -0.721
27947	 -0.088	 -0.320	  0.244	  0.194	 -0.066	 -9.785	 -0.002	  0.003	  0.001	 34.300	 98.956	  0.369
27997	 -0.086	 -0.315	  0.245	  0.168	 -0.064	 -9.856	 -0.002	  0.004	  0.001	 34.300	 98.968	 -0.721
28047	 -0.087	 -0.317	  0.244	  0.189	 -0.072	 -9.837	 -0.004	  0.003	  0.000	 34.300	 98.956	  0.369
28097	 -0.087	 -0.321	  0.238	  0.125	 -0.065	 -9.844	 -0.008	 -0.000	  0.002	 34.300	 98.941	  1.730
28147	 -0.086	 -0.308	  0.245	  0.164	 -0.025	 -9.792	 -0.002	  0.001	  0.001	 34.300	 98.956	  0.369
28197	 -0.088	 -0.322	  0.244	  0.199	 -0.074	 -9.799	 -0.004	  0.000	  0.001	 34.300	 98.956	  0.369
28247	 -0.086	 -0.315	  0.246	  0.156	 -0.091	 -9.902	 -0.002	  0.003	  0.002	 34.300	 98.968	 -0.721
28297	 -0.087	 -0.316	  0.244	  0.184	 -0.074	 -9.852	 -0.006	  0.004	  0.001	 34.300	 98.956	  0.369
28347	 -0.089	 -0.319	  0.244	  0.159	 -0.076	 -9.833	  0.000	 -0.001	  0.001	 34.300	 98.968	 -0.721
28397	 -0.084	 -0.318	  0.245	  0.175	 -0.099	 -9.798	 -0.003	  0.002	  0.001	 34.300	 98.956	  0.369
28447	 -0.086	 -0.319	  0.245	  0.196	 -0.060	 -9.803	 -0.003	  0.003	  0.001	 34.300	 98.964	 -0.357
28497	 -0.085	 -0.316	  0.242	  0.205	 -0.052	 -9.805	 -0.006	  0.002	  0.002	 34.300	 98.956	  0.369
28547	 -0.085	 -0.317	  0.244	  0.249	 -0.081	 -9.847	 -0.006	  0.001	  0.001	 34.300	 98.968	 -0.721
28597	 -0.086	 -0.318	  0.246	  0.132	 -0.080	 -9.840	 -0.001	  0.001	 -0.003	 34.300	 98.968	 -0.721
28647	 -0.085	 -0.314	  0.247	  0.190	 -0.065	 -9.806	 -0.003	  0.004	  0.001	 34.300	 98.964	 -0.357
28697	 -0.088	 -0.318	  0.243	  0.140	 -0.077	 -9.829	 -0.005	  0.003	  0.001	 34.300	 98.956	  0.369
28747	 -0.084	 -0.316	  0.242	  0.191	 -0.043	 -9.806	 -0.003	  0.000	  0.003	 34.300	 98.964	 -0.357
28797	 -0.086	 -0.320	  0.245	  0.163	 -0.058	 -9.860	 -0.003	  0.002	 -0.002	 34.300	 98.979	 -1.718
28847	 -0.085	 -0.315	  0.249	  0.170	 -0.040	 -9.811	 -0.003	 -0.000	  0.003	 34.300	 98.968	 -0.721
28897	 -0.086	 -0.317	  0.245	  0.174	 -0.051	 -9.829	 -0.007	  0.003	 -0.002	 34.300	 98.956	  0.369
28947	 -0.087	 -0.319	  0.245	  0.150	 -0.054	 -9.838	 -0.000	  0.003	 -0.001	 34.300	 98.968	 -0.721
28997	 -0.086	 -0.318	  0.243	  0.157	  0.155	 -9.793	  0.003	  0.002	  0.001	 34.300	 98.964	 -0.357
29047	 -0.086	 -0.311	  0.247	  0.231	 -0.103	 -9.828	 -0.020	  0.006	  0.003	 34.300	 98.956	  0.369
29096	 -0.083	 -0.317	  0.236	  0.155	  0.020	 -9.885	  0.011	  0.014	 -0.000	 34.300	 98.968	 -0.721
29146	 -0.086	 -0.314	  0.244	  0.168	 -0.090	 -9.847	 -0.007	  0.002	  0.006	 34.300	 98.956	  0.369
29197	 -0.085	 -0.314	  0.245	  0.142	 -0.049	 -9.824	  0.017	  0.012	  0.000	 34.300	 98.968	 -0.721
29247	 -0.085	 -0.316	  0.246	  0.121	 -0.302	 -7.986	 -0.082	 -0.056	  0.111	 34.300	 98.956	  0.369
29297	 -0.084	 -0.319	  0.246	  0.157	 -0.295	 -9.636	  0.015	  0.020	 -0.018	 34.300	 98.956	  0.369
29346	 -0.086	 -0.319	  0.245	  0.253	 -0.177	 -9.828	 -0.019	  0.001	  0.006	 34.300	 98.956	  0.369
29396	 -0.082	 -0.321	  0.248	  0.155	  0.117	 -10.178	 -0.016	 -0.004	 -0.005	 34.300	 98.964	 -0.357
29446	 -0.090	 -0.321	  0.240	  0.257	 -0.041	 -9.841	 -0.001	 -0.012	  0.000	 34.300	 98.968	 -0.721
29496	 -0.088	 -0.326	  0.242	  0.112	 -0.062	 -9.868	 -0.009	  0.000	  0.004	 34.300	 98.956	  0.369
29546	 -0.089	 -0.324	  0.242	  0.143	 -0.047	 -9.865	 -0.008	  0.007	  0.001	 34.300	 98.968	 -0.721
29596	 -0.088	 -0.325	  0.243	  0.187	 -0.125	 -9.905	 -0.005	  0.007	 -0.000	 34.300	 98.956	  0.369
29647	 -0.092	 -0.328	  0.237	  0.212	 -0.024	 -9.847	 -0.003	  0.002	  0.001	 34.300	 98.968	 -0.721
29696	 -0.092	 -0.323	  0.241	  0.144	 -0.062	 -9.859	 -0.003	  0.002	  0.003	 34.300	 98.956	  0.369
29746	 -0.088	 -0.327	  0.239	  0.175	 -0.070	 -9.815	 -0.004	  0.003	  0.001	 34.300	 98.968	 -0.721
29796	 -0.092	 -0.328	  0.238	  0.157	 -0.059	 -9.779	 -0.003	  0.002	  0.002	 34.300	 98.956	  0.369
29846	 -0.091	 -0.320	  0.240	  0.214	 -0.040	 -9.830	 -0.004	  0.003	  0.001	 34.300	 98.964	 -0.357
29896	 -0.091	 -0.324	  0.239	  0.166	 -0.066	 -9.837	 -0.003	  0.002	  0.001	 34.300	 98.956	  0.369
29946	 -0.089	 -0.327	  0.236	  0.179	 -0.030	 -9.829	 -0.003	  0.003	  0.002	 34.300	 98.956	  0.369
29996	 -0.088	 -0.326	  0.237	  0.163	 -0.050	 -9.765	 -0.003	  0.002	  0.001	 34.300	 98.956	  0.369
30046	 -0.091	 -0.327	  0.240	  0.151	 -0.060	 -9.827	 -0.003	  0.002	  0.000	 34.300	 98.964	 -0.357
30096	 -0.090	 -0.328	  0.242	  0.172	 -0.065	 -9.782	 -0.004	  0.001	 -0.000	 34.300	 98.968	 -0.721
30146	 -0.089	 -0.327	  0.238	  0.163	 -0.062	 -9.827	 -0.005	  0.001	  0.001	 34.300	 98.956	  0.369
30196	 -0.090	 -0.330	  0.240	  0.245	 -0.245	 -9.878	 -0.006	  0.002	 -0.001	 34.300	 98.968	 -0.721
30247	 -0.088	 -0.328	  0.239	  0.156	 -0.079	 -9.806	 -0.005	  0.004	 -0.001	 34.300	 98.968	 -0.721
30297	 -0.089	 -0.322	  0.231	  0.162	 -0.039	 -9.789	 -0.005	  0.003	 -0.001	 34.300	 98.968	 -0.721
30347	 -0.089	 -0.326	  0.239	  0.137	 -0.079	 -9.782	 -0.003	  0.001	  0.001	 34.300	 98.956	  0.369
30397	 -0.091	 -0.329	  0.238	  0.159	 -0.038	 -9.794	 -0.005	  0.000	  0.001	 34.300	 98.952	  0.732
30447	 -0.093	 -0.328	  0.237	  0.178	 -0.109	 -9.840	 -0.003	  0.001	  0.001	 34.300	 98.964	 -0.357
30497	 -0.091	 -0.329	  0.238	  0.185	 -0.072	 -9.856	 -0.002	  0.003	  0.001	 34.300	 98.956	  0.369
30547	 -0.091	 -0.330	  0.242	  0.155	 -0.064	 -9.790	 -0.004	  0.001	  0.001	 34.300	 98.945	  1.368
30597	 -0.091	 -0.330	  0.237	  0.137	 -0.078	 -9.783	 -0.003	  0.003	  0.001	 34.300	 98.956	  0.369
30647	 -0.085	 -0.328	  0.238	  0.156	 -0.066	 -9.786	 -0.004	  0.002	  0.001	 34.300	 98.945	  1.368
30697	 -0.090	 -0.329	  0.237	  0.188	 -0.045	 -9.859	 -0.003	  0.003	  0.000	 34.300	 98.968	 -0.721
30747	 -0.087	 -0.325	  0.241	  0.180	 -0.049	 -9.857	 -0.004	  0.002	  0.001	 34.300	 98.968	 -0.721
30796	 -0.089	 -0.325	  0.239	  0.165	 -0.055	 -9.836	 -0.005	  0.002	  0.001	 34.300	 98.968	 -0.721
30846	 -0.091	 -0.324	  0.241	  0.194	 -0.054	 -9.822	 -0.003	  0.002	  0.001	 34.300	 98.968	 -0.721
30896	 -0.090	 -0.325	  0.238	  0.161	 -0.067	 -9.825	 -0.003	  0.002	  0.001	 34.300	 98.956	  0.369
30946	 -0.089	 -0.330	  0.238	  0.169	 -0.057	 -9.824	 -0.003	  0.002	  0.001	 34.300	 98.964	 -0.357
30996	 -0.089	 -0.328	  0.239	  0.279	  0.069	 -9.708	 -0.009	 -0.003	 -0.015	 34.300	 98.956	  0.369
31046	 -0.087	 -0.331	  0.238	  0.126	  0.007	 -9.870	 -0.002	  0.003	  0.003	 34.300	 98.956	  0.369
31096	 -0.091	 -0.331	  0.242	  0.140	  0.017	 -9.870	 -0.008	  0.001	  0.044	 34.300	 98.956	  0.369
31146	 -0.090	 -0.328	  0.238	  0.207	 -0.005	 -9.820	 -0.004	  0.002	  0.006	 34.300	 98.956	  0.369
31196	 -0.091	 -0.327	  0.238	 -1.044	  1.287	 -9.761	 -0.006	  0.003	  0.337	 34.300	 98.956	  0.369
31246	 -0.101	 -0.320	  0.240	 -1.823	 -0.305	 -10.761	 -0.025	  0.299	  0.919	 34.300	 98.956	  0.369
31296	 -0.119	 -0.326	  0.239	 -1.152	 -0.348	 -10.658	 -0.050	  0.816	  0.837	 34.300	 98.968	 -0.721
31346	 -0.137	 -0.325	  0.239	  2.188	 -0.461	 -9.392	  0.094	  1.069	 -0.226	 34.300	 98.968	 -0.721
31396	 -0.148	 -0.325	  0.240	  1.779	  0.396	 -7.988	  0.155	  0.890	 -0.786	 34.300	 98.956	  0.369
31446	 -0.148	 -0.328	  0.236	  1.510	 -0.199	 -11.033	  0.351	  0.459	 -0.475	 34.300	 98.956	  0.369
31496	 -0.149	 -0.319	  0.243	  3.053	 -1.910	 -11.948	  0.146	  0.657	 -0.306	 34.300	 98.956	  0.369
31546	 -0.144	 -0.317	  0.242	  4.536	 -2.184	 -11.845	 -0.421	 -0.070	 -0.575	 34.300	 98.968	 -0.721
31596	 -0.130	 -0.319	  0.243	  3.026	 -1.666	 -10.907	 -0.826	 -0.634	 -1.159	 34.300	 98.956	  0.369
31646	 -0.105	 -0.331	  0.232	  1.023	  0.359	 -8.411	 -1.128	 -0.454	 -1.525	 34.300	 98.956	  0.369
31696	 -0.077	 -0.337	  0.232	 -0.421	  2.853	 -7.628	 -0.654	 -0.299	 -1.918	 34.300	 98.968	 -0.721
31746	 -0.056	 -0.336	  0.230	 -1.206	  2.785	 -7.409	 -0.407	 -0.488	 -1.223	 34.300	 98.956	  0.369
31796	 -0.037	 -0.334	  0.226	 -0.622	  4.338	 -5.846	  0.522	 -0.696	 -0.504	 34.300	 98.956	  0.369
31846	 -0.031	 -0.317	  0.234	  0.840	  2.327	 -6.482	  1.091	 -0.901	  0.146	 34.300	 98.956	  0.369
31896	 -0.018	 -0.313	  0.244	  0.498	  1.218	 -7.679	  1.090	 -1.309	  0.190	 34.300	 98.956	  0.369
31946	 -0.006	 -0.307	  0.242	  0.288	 -0.263	 -8.807	  0.944	 -1.625	  0.524	 34.300	 98.968	 -0.721
31996	  0.003	 -0.306	  0.235	 -0.901	 -0.688	 -10.904	  0.330	 -1.251	  0.869	 34.300	 98.968	 -0.721
32046	  0.003	 -0.310	  0.229	 -1.662	 -0.066	 -12.274	  0.014	 -0.715	  0.673	 34.300	 98.956	  0.369
32096	 -0.000	 -0.316	  0.222	 -1.910	  1.491	 -12.533	  0.050	 -0.324	  0.571	 34.300	 98.956	  0.369
32146	 -0.003	 -0.316	  0.218	 -3.160	  0.526	 -12.964	  0.368	  0.463	  0.657	 34.300	 98.968	 -0.721
32196	 -0.019	 -0.301	  0.222	 -2.500	 -0.807	 -12.699	  0.164	  1.020	  0.492	 34.300	 98.968	 -0.721
32246	 -0.035	 -0.305	  0.227	 -1.323	 -1.839	 -11.576	 -0.281	  1.446	  0.206	 34.300	 98.968	 -0.721
32296	 -0.039	 -0.298	  0.227	 -0.901	 -0.889	 -9.348	 -0.703	  1.760	 -0.271	 34.300	 98.945	  1.368
32346	 -0.052	 -0.308	  0.228	 -2.040	 -0.282	 -8.900	 -0.771	  2.040	 -0.785	 34.300	 98.968	 -0.721
32396	 -0.068	 -0.310	  0.226	 -1.053	  0.196	 -7.276	 -0.724	  2.185	 -0.887	 34.300	 98.956	  0.369
32446	 -0.079	 -0.318	  0.222	  0.223	 -0.541	 -7.612	 -0.990	  2.063	 -1.048	 34.300	 98.968	 -0.721
32496	 -0.086	 -0.317	  0.215	  1.068	  1.441	 -7.411	 -1.059	  1.603	 -1.289	 34.300	 98.952	  0.732
32546	 -0.090	 -0.341	  0.210	  2.257	  3.288	 -6.610	 -0.454	  1.023	 -1.139	 34.300	 98.956	  0.369
32596	 -0.089	 -0.344	  0.210	  3.558	  2.773	 -6.943	  0.289	  0.243	 -0.772	 34.300	 98.956	  0.369
32646	 -0.079	 -0.345	  0.217	  3.029	  2.654	 -8.026	  0.481	 -0.376	 -0.655	 34.300	 98.956	  0.369
32696	 -0.072	 -0.343	  0.206	  3.489	  2.801	 -9.076	  0.424	 -0.710	 -0.399	 34.300	 98.956	  0.369
32746	 -0.055	 -0.337	  0.222	  3.066	  4.159	 -9.875	  0.734	 -0.869	 -0.662	 34.300	 98.956	  0.369
32796	 -0.043	 -0.329	  0.230	  2.433	  4.828	 -10.490	  1.044	 -0.913	 -0.248	 34.300	 98.968	 -0.721
32846	 -0.031	 -0.321	  0.242	  3.043	  3.273	 -9.779	  1.328	 -1.053	  0.188	 34.300	 98.956	  0.369
32896	 -0.024	 -0.307	  0.246	  2.435	  2.130	 -8.798	  1.604	 -1.263	  0.500	 34.300	 98.956	  0.369
32946	 -0.009	 -0.291	  0.260	  1.620	  0.055	 -10.255	  1.369	 -1.547	  0.488	 34.300	 98.956	  0.369
32996	  0.003	 -0.278	  0.259	 -0.055	  0.913	 -9.232	  1.300	 -1.178	  0.496	 34.300	 98.956	  0.369
33046	  0.007	 -0.263	  0.266	 -0.387	 -0.717	 -9.731	  1.199	 -0.583	  0.555	 34.300	 98.956	  0.369
33096	  0.010	 -0.250	  0.265	 -0.942	 -1.155	 -9.777	  0.735	 -0.204	  0.526	 34.300	 98.945	  1.368
33146	  0.006	 -0.252	  0.267	 -0.843	 -0.528	 -9.429	  0.572	 -0.181	  1.214	 34.300	 98.956	  0.369
33196	 -0.002	 -0.252	  0.263	 -0.555	 -2.888	 -9.538	  0.225	 -0.375	  1.381	 34.300	 98.956	  0.369
33246	 -0.006	 -0.264	  0.257	  0.521	 -3.394	 -10.290	 -0.627	 -0.022	  0.625	 34.300	 98.945	  1.368
33300	 -0.014	 -0.271	  0.246	 -2.285	 -1.187	 -9.953	 -0.448	  0.393	  0.632	 34.300	 98.956	  0.369
33346	 -0.022	 -0.283	  0.232	 -1.586	 -1.181	 -11.228	 -0.243	  0.654	  0.449	 34.300	 98.945	  1.368
33395	 -0.027	 -0.281	  0.236	 -1.486	 -2.745	 -12.276	 -0.233	  0.661	 -0.008	 34.300	 98.941	  1.730
33445	 -0.029	 -0.281	  0.230	 -1.488	 -1.502	 -9.713	 -0.365	  0.912	 -0.668	 34.300	 98.934	  2.367
33495	 -0.028	 -0.271	  0.229	  0.860	 -2.503	 -7.736	 -0.790	  0.525	 -0.917	 34.300	 98.952	  0.732
33545	 -0.022	 -0.287	  0.219	  0.377	 -0.391	 -6.534	 -0.712	  0.036	 -1.038	 34.300	 98.956	  0.369
33595	 -0.013	 -0.280	  0.217	 -0.067	  0.993	 -11.953	 -0.325	 -0.455	 -0.247	 34.300	 98.956	  0.369
33645	 -0.009	 -0.294	  0.214	 -2.443	 -0.492	 -18.982	 -0.052	 -0.036	  0.145	 34.300	 98.956	  0.369
33695	 -0.008	 -0.288	  0.225	  0.734	  0.648	 -14.822	 -0.383	 -0.050	 -0.078	 34.300	 98.956	  0.369
33745	  0.003	 -0.286	  0.224	  0.657	  1.568	 -4.707	 -0.271	 -0.266	 -0.379	 34.300	 98.945	  1.368
33795	  0.004	 -0.277	  0.232	  0.133	  0.345	  0.818	  0.385	  0.286	 -0.098	 34.300	 98.956	  0.369
33845	 -0.003	 -0.274	  0.230	 -0.282	 -1.076	 -3.742	  0.467	  0.911	  0.418	 34.300	 98.956	  0.369
33895	 -0.016	 -0.271	  0.235	  2.907	 -1.106	 -15.855	  0.346	  0.493	 -0.252	 34.300	 98.956	  0.369
33945	 -0.009	 -0.273	  0.231	 -1.188	 -0.756	 -22.709	 -0.924	 -0.956	 -0.271	 34.300	 98.956	  0.369
33995	  0.004	 -0.279	  0.231	 -2.374	  2.911	 -8.854	 -0.626	 -0.387	 -0.197	 34.300	 98.945	  1.368
34045	  0.006	 -0.265	  0.232	 -0.380	 -0.054	 -1.893	  0.374	  0.667	 -0.130	 34.300	 98.945	  1.368
34095	 -0.006	 -0.263	  0.243	  2.122	 -2.073	 -2.334	  0.453	  0.939	 -0.020	 34.300	 98.945	  1.368
34145	 -0.013	 -0.271	  0.247	  2.244	 -1.467	 -11.722	 -0.184	 -0.124	  0.308	 34.300	 98.956	  0.369
34195	 -0.012	 -0.278	  0.232	 -0.579	  1.145	 -18.178	 -1.082	 -0.845	  0.179	 34.300	 98.968	 -0.721
34245	 -0.002	 -0.292	  0.228	 -2.274	  4.287	 -11.309	 -0.581	 -0.641	 -0.274	 34.300	 98.945	  1.368
34295	  0.005	 -0.281	  0.234	 -0.866	  1.551	 -3.516	  0.850	  0.556	 -0.325	 34.300	 98.956	  0.369
34345	 -0.005	 -0.259	  0.246	  1.807	 -2.428	 -2.232	  0.803	  1.022	 -0.015	 34.300	 98.956	  0.369
34395	 -0.018	 -0.268	  0.249	  4.299	 -2.100	 -8.083	 -0.077	  0.292	  0.365	 34.300	 98.945	  1.368
34445	 -0.010	 -0.278	  0.236	  1.216	  1.075	 -19.889	 -0.899	 -1.491	  0.065	 34.300	 98.945	  1.368
34495	  0.003	 -0.292	  0.225	 -3.567	  5.736	 -15.325	 -0.500	 -0.555	  0.164	 34.300	 98.945	  1.368
34545	  0.002	 -0.281	  0.238	 -1.072	  2.474	 -8.281	  1.148	  0.743	 -0.307	 34.300	 98.949	  1.005
34595	 -0.007	 -0.262	  0.254	  2.259	 -2.635	 -2.617	  1.284	  1.176	 -0.344	 34.300	 98.956	  0.369
34645	 -0.015	 -0.248	  0.256	  1.723	 -2.686	 -0.824	  0.276	  0.494	 -0.164	 34.300	 98.956	  0.369
34695	 -0.016	 -0.258	  0.257	  2.046	 -0.119	 -9.954	 -0.611	 -0.465	  0.151	 34.300	 98.945	  1.368
34745	 -0.004	 -0.271	  0.243	 -2.475	  1.298	 -18.785	 -1.024	 -1.408	  0.324	 34.300	 98.945	  1.368
34795	  0.006	 -0.284	  0.229	 -2.692	  4.198	 -15.857	 -0.325	 -0.272	 -0.042	 34.300	 98.945	  1.368
34845	  0.004	 -0.270	  0.240	 -0.230	  0.856	 -8.737	  1.429	  1.226	 -0.372	 34.300	 98.956	  0.369
34895	 -0.009	 -0.246	  0.257	  3.311	 -2.391	 -3.686	  1.624	  0.670	 -0.017	 34.300	 98.956	  0.369
34945	 -0.015	 -0.236	  0.266	  1.491	 -3.328	 -2.416	  0.009	 -0.100	  0.284	 34.300	 98.945	  1.368
34995	 -0.009	 -0.252	  0.255	  0.812	 -0.781	 -7.481	 -1.201	 -0.977	  0.505	 34.300	 98.956	  0.369
35045	  0.001	 -0.276	  0.231	 -1.528	  1.480	 -17.080	 -1.493	 -1.483	  0.367	 34.300	 98.945	  1.368
35095	  0.010	 -0.290	  0.215	 -3.862	  3.293	 -16.213	 -0.569	 -0.420	 -0.044	 34.300	 98.945	  1.368
35145	  0.009	 -0.283	  0.220	 -0.621	  1.154	 -9.014	  1.000	  1.021	 -0.359	 34.300	 98.956	  0.369
35195	  0.001	 -0.268	  0.236	  2.735	 -2.690	 -7.022	  0.997	  0.722	 -0.194	 34.300	 98.956	  0.369
35245	 -0.001	 -0.261	  0.242	  1.250	 -1.773	 -8.917	 -0.102	 -0.144	  0.107	 34.300	 98.956	  0.369
35295	  0.000	 -0.270	  0.236	 -0.318	  0.452	 -9.975	 -0.563	 -0.340	  0.010	 34.300	 98.956	  0.369
35345	  0.004	 -0.272	  0.232	 -1.029	  1.290	 -10.620	 -0.408	 -0.174	 -0.091	 34.300	 98.956	  0.369
35395	  0.006	 -0.273	  0.231	 -0.594	  0.716	 -8.682	 -0.031	  0.100	 -0.007	 34.300	 98.956	  0.369
35446	  0.005	 -0.276	  0.231	 -0.054	 -0.274	 -6.581	  0.141	  0.280	  0.036	 34.300	 98.945	  1.368
35495	 -0.002	 -0.279	  0.229	  0.032	 -0.369	 -6.932	  0.183	  0.237	  0.091	 34.300	 98.956	  0.369
35545	 -0.010	 -0.277	  0.218	 -0.687	  0.054	 -8.205	  0.055	  0.291	  0.072	 34.300	 98.956	  0.369
35595	 -0.016	 -0.280	  0.215	 -0.428	  0.283	 -11.027	  0.314	  0.611	 -0.024	 34.300	 98.956	  0.369
35645	 -0.026	 -0.288	  0.218	  3.077	  0.002	 -11.480	  0.344	  0.647	 -0.047	 34.300	 98.945	  1.368
35695	 -0.027	 -0.276	  0.215	  3.392	 -2.186	 -12.418	  0.208	  0.171	  0.018	 34.300	 98.945	  1.368
35745	 -0.029	 -0.288	  0.214	  1.707	 -0.937	 -12.367	  0.385	 -0.345	  0.021	 34.300	 98.956	  0.369
35796	 -0.024	 -0.291	  0.212	  1.322	 -2.292	 -11.267	 -0.006	 -0.354	  0.261	 34.300	 98.945	  1.368
35845	 -0.018	 -0.290	  0.215	  0.391	 -0.177	 -9.276	 -0.128	 -0.128	 -0.096	 34.300	 98.945	  1.368
35896	 -0.017	 -0.292	  0.223	  0.717	  0.092	 -7.839	  0.036	  0.309	  0.072	 34.300	 98.949	  1.005
35945	 -0.017	 -0.287	  0.220	  1.659	 -0.386	 -9.081	  0.346	  0.002	  0.044	 34.300	 98.945	  1.368
35995	 -0.009	 -0.287	  0.228	 -0.307	 -1.455	 -9.852	  0.267	 -0.512	 -0.243	 34.300	 98.968	 -0.721
36046	  0.004	 -0.283	  0.226	 -0.256	 -0.281	 -9.455	  0.084	 -0.952	 -0.748	 34.300	 98.945	  1.368
36096	  0.023	 -0.284	  0.219	 -4.459	 -1.296	 -8.032	 -0.882	 -0.465	 -0.729	 34.300	 98.956	  0.369
36146	  0.026	 -0.289	  0.215	 -2.102	 -1.011	 -14.895	 -0.016	  0.001	  0.454	 34.300	 98.956	  0.369
36196	  0.021	 -0.289	  0.212	  0.141	 -1.267	 -9.334	  0.127	  0.335	  0.333	 34.300	 98.949	  1.005
36246	  0.018	 -0.290	  0.216	  1.332	 -0.498	 -12.579	  0.207	 -0.134	 -0.153	 34.300	 98.961	 -0.085
36296	  0.020	 -0.284	  0.214	 -0.684	 -1.655	 -6.884	 -0.084	  0.138	  0.318	 34.300	 98.956	  0.369
36346	  0.014	 -0.285	  0.220	 -0.710	  0.204	 -4.348	 -0.092	  0.069	  0.582	 34.300	 98.945	  1.368
36396	  0.009	 -0.292	  0.221	 23.580	 37.363	 -13.760	  4.834	 -0.708	  2.245	 34.300	 98.968	 -0.721
36446	  0.012	 -0.290	  0.218	 -0.997	 -0.726	 -12.341	  0.442	  0.021	 -0.165	 34.300	 98.956	  0.369
36496	  0.019	 -0.285	  0.217	 -0.152	 -1.714	 -11.281	  0.129	 -0.134	 -0.374	 34.300	 98.956	  0.369
36546	  0.018	 -0.271	  0.222	 -1.228	 -1.451	 -6.607	 -0.214	  0.049	 -0.092	 34.300	 98.949	  1.005
36595	  0.021	 -0.280	  0.218	  0.870	 -1.225	 -6.687	 -0.252	 -0.044	  0.001	 34.300	 98.949	  1.005
36646	  0.019	 -0.289	  0.216	  0.061	 -1.097	 -12.070	 -0.363	 -0.158	 -0.233	 34.300	 98.945	  1.368
36695	  0.025	 -0.291	  0.213	 -2.123	  1.027	 -12.307	 -0.127	 -0.222	 -0.229	 34.300	 98.949	  1.005
36745	  0.025	 -0.286	  0.214	 -0.564	  0.061	 -8.048	  0.147	  0.059	  0.075	 34.300	 98.961	 -0.085
36795	  0.021	 -0.285	  0.217	  0.237	 -1.213	 -6.440	  0.192	  0.274	  0.043	 34.300	 98.956	  0.369
36845	  0.023	 -0.289	  0.216	  0.996	 -1.279	 -10.189	 -0.144	 -0.051	 -0.145	 34.300	 98.956	  0.369
36895	  0.022	 -0.276	  0.214	 -0.174	  0.068	 -11.743	  0.140	 -0.095	 -0.052	 34.300	 98.956	  0.369
36945	  0.026	 -0.286	  0.216	 -0.626	 -0.461	 -10.185	 -0.068	 -0.085	  0.148	 34.300	 98.945	  1.368
36995	  0.024	 -0.283	  0.214	 -0.125	 -0.715	 -6.580	 -0.005	  0.074	  0.124	 34.300	 98.956	  0.369
37045	  0.021	 -0.287	  0.216	 -0.023	 -1.415	 -7.086	 -0.051	  0.054	 -0.034	 34.300	 98.961	 -0.085
37095	  0.023	 -0.293	  0.210	  7.149	 -3.619	 -23.998	  1.665	  1.438	 -0.432	 34.300	 98.956	  0.369
37145	  0.023	 -0.278	  0.212	 -1.543	 -0.266	 -12.898	  0.126	 -0.223	 -0.134	 34.300	 98.956	  0.369
37195	  0.024	 -0.286	  0.218	 -0.592	 -0.242	 -9.055	  0.134	  0.028	 -0.012	 34.300	 98.945	  1.368
37245	  0.022	 -0.284	  0.217	 -0.277	 -0.947	 -6.569	  0.151	  0.213	  0.027	 34.300	 98.961	 -0.085
37295	  0.021	 -0.286	  0.218	  0.388	 -1.713	 -8.299	 -0.071	  0.075	 -0.032	 34.300	 98.972	 -1.082
37345	  0.024	 -0.283	  0.207	  0.065	 -0.388	 -11.631	  0.028	 -0.078	 -0.057	 34.300	 98.956	  0.369
37395	  0.023	 -0.288	  0.217	 -2.083	 -0.225	 -12.627	 -0.108	 -0.220	  0.066	 34.300	 98.968	 -0.721
37445	  0.021	 -0.286	  0.211	 -2.004	 -0.181	 -12.148	 -0.488	  0.050	  0.248	 34.300	 98.961	 -0.085
37495	  0.015	 -0.282	  0.211	 -1.132	 -0.700	 -8.754	 -0.462	  0.241	 -0.065	 34.300	 98.961	 -0.085
37545	  0.007	 -0.285	  0.212	 -0.092	 -0.703	 -7.597	 -0.538	  0.576	 -0.353	 34.300	 98.956	  0.369
37595	  0.006	 -0.279	  0.215	  2.344	  0.065	 -7.486	 -0.311	  0.014	 -0.473	 34.300	 98.956	  0.369
37645	  0.014	 -0.277	  0.216	  0.930	  1.179	 -9.298	 -0.114	 -0.462	 -0.696	 34.300	 98.956	  0.369
37695	  0.026	 -0.282	  0.214	  0.775	 -1.136	 -10.286	 -0.058	 -1.384	 -0.202	 34.300	 98.956	  0.369
37745	  0.039	 -0.284	  0.204	 -3.723	  0.059	 -10.321	 -0.582	 -0.233	 -0.240	 34.300	 98.972	 -1.082
37795	  0.035	 -0.284	  0.210	 -1.680	  1.772	 -8.232	  0.326	  0.769	  0.031	 34.300	 98.956	  0.369
37845	  0.025	 -0.276	  0.217	 -1.155	  0.484	 -9.115	  0.713	  0.758	  0.490	 34.300	 98.956	  0.369
37895	  0.009	 -0.276	  0.228	 -0.591	 -0.745	 -10.140	  0.603	  0.856	  0.454	 34.300	 98.956	  0.369
37945	 -0.004	 -0.274	  0.231	  2.776	 -0.418	 -9.360	 -0.092	  0.542	 -0.007	 34.300	 98.968	 -0.721
37995	 -0.006	 -0.274	  0.231	  0.336	  0.071	 -9.950	 -0.263	  0.174	 -0.308	 34.300	 98.945	  1.368
38045	 -0.008	 -0.276	  0.235	  0.140	  0.490	 -6.355	  0.079	  0.692	 -0.654	 34.300	 98.956	  0.369
38095	 -0.015	 -0.265	  0.238	  1.386	 -1.824	 -8.988	  1.042	  0.910	 -0.049	 34.300	 98.968	 -0.721
38145	 -0.026	 -0.262	  0.251	  4.177	 -6.807	 -18.786	  0.436	  0.733	 -0.049	 34.300	 98.968	 -0.721
38195	 -0.026	 -0.269	  0.254	  1.555	  4.025	 -22.714	 -1.490	 -0.486	 -0.049	 34.300	 98.956	  0.369
38245	 -0.025	 -0.256	  0.258	 -1.494	  8.080	 -0.657	  0.737	  0.747	 -0.247	 34.300	 98.961	 -0.085
38295	 -0.043	 -0.238	  0.269	 -0.320	 -9.200	 21.921	  1.041	  2.349	 -0.044	 34.300	 98.972	 -1.082
38345	 -0.051	 -0.256	  0.260	 17.045	 -4.436	 -38.923	 -1.647	 -2.418	  0.405	 34.300	 98.968	 -0.721
38395	 -0.026	 -0.259	  0.253	 -11.469	 24.452	  1.788	  1.571	 -0.525	  1.241	 34.300	 98.956	  0.369
38445	 -0.038	 -0.229	  0.268	 13.012	 -23.893	 -2.041	  1.647	  1.352	 -0.120	 34.300	 98.956	  0.369
38495	 -0.021	 -0.244	  0.252	 -12.017	 17.861	 -8.624	 -1.671	 -1.752	  0.834	 34.300	 98.949	  1.005
38545	 -0.018	 -0.257	  0.250	  2.985	 -12.068	 -13.760	 -0.085	  0.034	 -0.059	 34.300	 98.945	  1.368
38595	 -0.023	 -0.268	  0.247	 -1.161	  2.199	 -9.976	 -1.004	  0.591	 -0.435	 34.300	 98.972	 -1.082
38645	 -0.028	 -0.273	  0.246	  3.037	  3.402	 -6.929	 -0.082	  0.224	  0.006	 34.300	 98.968	 -0.721
38695	 -0.026	 -0.267	  0.248	  1.245	  0.577	 -8.673	  0.967	 -0.294	  0.438	 34.300	 98.956	  0.369
38745	 -0.028	 -0.261	  0.249	  1.428	 -2.508	 -10.069	  0.725	  0.066	  0.161	 34.300	 98.956	  0.369
38795	 -0.030	 -0.264	  0.251	  0.944	 -2.174	 -11.195	 -0.193	 -0.094	 -0.018	 34.300	 98.956	  0.369
38845	 -0.031	 -0.271	  0.250	  0.476	 -0.579	 -10.828	 -0.032	 -0.070	  0.306	 34.300	 98.956	  0.369
38895	 -0.032	 -0.270	  0.250	  1.632	 -2.477	 -10.800	 -0.251	 -0.130	  0.201	 34.300	 98.956	  0.369
38945	 -0.031	 -0.266	  0.245	 -0.017	 -0.308	 -9.817	 -0.409	 -0.074	  0.176	 34.300	 98.956	  0.369
38995	 -0.037	 -0.267	  0.248	  0.803	 -0.510	 -9.487	 -0.336	  0.214	  0.166	 34.300	 98.972	 -1.082
39045	 -0.040	 -0.284	  0.248	  1.632	  0.422	 -8.997	 -0.167	  0.134	  0.087	 34.300	 98.956	  0.369
39095	 -0.037	 -0.282	  0.244	  1.307	 -0.395	 -8.979	 -0.135	 -0.166	 -0.432	 34.300	 98.956	  0.369
39144	 -0.034	 -0.286	  0.248	  0.007	 -0.277	 -7.697	  0.005	  0.050	 -0.526	 34.300	 98.956	  0.369
39195	 -0.034	 -0.287	  0.247	  2.086	 -1.929	 -9.136	 -0.106	  0.150	 -0.209	 34.300	 98.968	 -0.721
39244	 -0.037	 -0.286	  0.244	  3.467	 -0.990	 -12.958	 -0.097	 -0.159	  0.077	 34.300	 98.968	 -0.721
39294	 -0.036	 -0.292	  0.247	  1.223	 -0.602	 -15.528	 -0.207	  0.251	  0.029	 34.300	 98.956	  0.369
39344	 -0.034	 -0.276	  0.250	  3.691	  1.035	 -18.536	  0.139	  0.003	 -0.725	 34.300	 98.956	  0.369
39394	 -0.025	 -0.272	  0.266	 -0.318	  0.243	 -13.091	 -0.044	  0.096	 -0.322	 34.300	 98.968	 -0.721
39444	 -0.020	 -0.258	  0.269	 -1.225	  2.513	 11.994	  0.822	 -0.191	  0.461	 34.300	 98.961	 -0.085
39494	 -0.038	 -0.236	  0.280	 -0.079	 -3.186	 16.541	  0.988	  1.873	 -0.663	 34.300	 98.945	  1.368
39544	 -0.037	 -0.264	  0.270	  9.146	 -9.899	 -54.482	 -2.523	 -2.134	  0.941	 34.300	 98.972	 -1.082
39594	 -0.020	 -0.282	  0.257	 -9.940	 13.675	 -7.991	  0.826	  0.398	  0.218	 34.300	 98.956	  0.369
39644	 -0.041	 -0.231	  0.281	  6.280	 -9.894	 26.759	  2.640	  1.857	 -0.084	 34.300	 98.945	  1.368
39694	 -0.035	 -0.253	  0.269	  5.575	 -15.291	 -54.948	 -3.126	 -2.437	 -0.145	 34.300	 98.968	 -0.721
39744	 -0.014	 -0.289	  0.244	 -6.990	 18.529	  0.348	 -0.438	 -0.043	  1.116	 34.300	 98.979	 -1.718
39794	 -0.033	 -0.240	  0.266	  5.172	 -10.920	 25.291	  3.949	  2.614	 -0.852	 34.300	 98.956	  0.369
39844	 -0.033	 -0.254	  0.269	  9.751	 -13.096	 -47.493	 -2.416	 -1.459	 -0.219	 34.300	 98.972	 -1.082
39894	 -0.014	 -0.273	  0.259	 -3.979	 17.817	 15.996	  0.827	 -1.091	  1.703	 34.300	 98.956	  0.369
39944	 -0.029	 -0.250	  0.267	  5.964	 -15.467	 -20.731	  1.988	  1.673	 -1.539	 34.300	 98.968	 -0.721
39994	 -0.024	 -0.265	  0.267	  2.197	 10.388	 -16.092	 -1.348	 -1.812	  0.930	 34.300	 98.968	 -0.721
40044	 -0.007	 -0.254	  0.256	 -5.799	 -6.431	 12.270	  0.259	  0.238	 -0.719	 34.300	 98.956	  0.369
40094	 -0.012	 -0.256	  0.257	  3.291	 -0.109	 -28.078	 -0.338	 -0.000	  0.335	 34.300	 98.956	  0.369
40144	 -0.015	 -0.260	  0.252	  1.369	  2.604	 15.637	 -0.828	 -0.537	 -0.027	 34.300	 98.945	  1.368
40194	 -0.011	 -0.271	  0.244	  0.540	 -3.642	 -18.878	 -0.315	  0.856	 -1.524	 34.300	 98.956	  0.369
40244	 -0.013	 -0.268	  0.252	  2.828	  1.194	 -9.355	 -0.024	  0.195	  0.853	 34.300	 98.956	  0.369
40294	 -0.016	 -0.270	  0.239	  4.707	 -1.055	 -12.739	  0.308	 -1.182	  1.313	 34.300	 98.956	  0.369
40344	 -0.012	 -0.273	  0.244	  0.133	 -1.473	 -10.954	  0.257	 -0.610	  0.176	 34.300	 98.949	  1.005
40394	 -0.003	 -0.270	  0.241	  0.999	 -1.802	 -9.590	 -0.343	  0.160	 -0.509	 34.300	 98.961	 -0.085
40444	  0.004	 -0.271	  0.236	  0.240	  0.486	 -8.923	 -0.530	 -0.105	 -0.239	 34.300	 98.968	 -0.721
40494	  0.008	 -0.274	  0.234	 -0.366	 -0.524	 -8.844	 -0.527	  0.047	 -0.012	 34.300	 98.956	  0.369
40544	  0.010	 -0.279	  0.230	 -0.998	 -0.028	 -9.743	 -0.251	  0.088	  0.239	 34.300	 98.961	 -0.085
40594	  0.006	 -0.280	  0.225	  0.288	 -1.215	 -10.368	 -0.247	  0.226	  0.195	 34.300	 98.968	 -0.721
40644	  0.010	 -0.280	  0.219	  1.665	  0.168	 -9.074	 -0.052	  0.072	 -0.067	 34.300	 98.968	 -0.721
40694	  0.013	 -0.278	  0.224	  0.027	  0.743	 -9.139	  0.289	 -0.157	 -0.193	 34.300	 98.956	  0.369
40744	  0.019	 -0.278	  0.222	  1.120	 -0.119	 -9.058	  0.548	 -0.347	 -0.026	 34.300	 98.956	  0.369
40794	  0.027	 -0.269	  0.226	 -1.169	 -0.588	 -11.114	  0.630	 -0.238	 -0.261	 34.300	 98.968	 -0.721
40844	  0.030	 -0.254	  0.235	 -0.659	 -1.906	 -10.534	  0.386	 -0.024	  0.162	 34.300	 98.968	 -0.721
40894	  0.032	 -0.255	  0.227	  0.725	 -2.405	 -9.800	 -0.128	 -0.096	 -0.014	 34.300	 98.945	  1.368
40944	  0.034	 -0.262	  0.233	  1.384	 -1.347	 -8.477	 -0.560	 -0.172	 -0.409	 34.300	 98.956	  0.369
40994	  0.043	 -0.261	  0.229	 -0.736	  0.328	 -9.360	 -0.339	 -0.167	 -0.779	 34.300	 98.956	  0.369
41045	  0.049	 -0.256	  0.228	 -0.976	 -0.049	 -10.680	  0.100	  0.428	 -0.694	 34.300	 98.956	  0.369
41094	  0.049	 -0.247	  0.234	  1.300	 -1.017	 -10.033	 -0.035	  0.168	 -0.705	 34.300	 98.968	 -0.721
41143	  0.052	 -0.245	  0.240	  0.280	 -1.528	 -10.171	 -0.286	 -0.137	 -0.483	 34.300	 98.956	  0.369
41193	  0.059	 -0.246	  0.233	 -1.021	 -0.046	 -9.327	 -0.387	 -0.450	 -0.450	 34.300	 98.972	 -1.082
41243	  0.070	 -0.242	  0.228	 -0.741	  0.058	 -9.413	  0.018	 -0.435	 -0.227	 34.300	 98.968	 -0.721
41294	  0.076	 -0.241	  0.221	 -1.054	 -0.661	 -9.754	  0.060	 -0.410	  0.074	 34.300	 98.956	  0.369
41344	  0.079	 -0.247	  0.221	 -0.609	 -0.777	 -10.246	 -0.041	 -0.290	  0.372	 34.300	 98.956	  0.369
41393	  0.080	 -0.255	  0.218	 -0.251	  0.483	 -9.911	 -0.185	 -0.062	  0.159	 34.300	 98.972	 -1.082
41443	  0.078	 -0.261	  0.218	  0.438	 -0.133	 -9.663	 -0.087	 -0.104	 -0.068	 34.300	 98.956	  0.369
41493	  0.078	 -0.257	  0.222	 -1.643	  0.214	 -9.393	 -0.264	 -0.029	 -0.110	 34.300	 98.961	 -0.085
41543	  0.078	 -0.259	  0.220	 -1.243	 -0.229	 -9.422	  0.030	  0.103	 -0.011	 34.300	 98.956	  0.369
41593	  0.074	 -0.256	  0.223	 -0.515	 -0.150	 -9.899	  0.016	  0.233	 -0.020	 34.300	 98.956	  0.369
41644	  0.069	 -0.263	  0.225	 -0.541	  0.309	 -9.863	  0.013	  0.293	  0.016	 34.300	 98.972	 -1.082
41693	  0.062	 -0.264	  0.230	 -0.229	 -0.518	 -10.269	  0.020	  0.300	 -0.046	 34.300	 98.956	  0.369
41743	  0.063	 -0.266	  0.226	  0.200	 -0.150	 -9.809	 -0.005	  0.145	 -0.297	 34.300	 98.956	  0.369
41793	  0.066	 -0.258	  0.230	 -0.373	 -0.390	 -9.892	 -0.013	  0.171	 -0.245	 34.300	 98.961	 -0.085
41844	  0.062	 -0.261	  0.232	  0.046	  0.092	 -9.764	 -0.006	  0.206	 -0.139	 34.300	 98.956	  0.369
41894	  0.058	 -0.263	  0.236	  0.664	 -0.446	 -9.937	  0.006	  0.276	 -0.173	 34.300	 98.956	  0.369
41944	  0.059	 -0.253	  0.239	  0.722	  0.511	 -9.762	 -0.010	  0.001	 -0.143	 34.300	 98.961	 -0.085
41994	  0.059	 -0.259	  0.236	  0.019	  0.173	 -9.924	 -0.005	  0.004	 -0.151	 34.300	 98.968	 -0.721
42044	  0.061	 -0.259	  0.231	  0.226	  0.268	 -9.896	 -0.005	  0.004	  0.013	 34.300	 98.956	  0.369
42094	  0.063	 -0.263	  0.237	  0.165	 -0.101	 -9.833	  0.000	  0.002	  0.002	 34.300	 98.956	  0.369
42144	  0.060	 -0.247	  0.237	  0.263	  0.012	 -9.766	 -0.001	  0.003	  0.000	 34.300	 98.956	  0.369
42194	  0.059	 -0.260	  0.237	  0.139	 -0.053	 -9.805	 -0.005	  0.002	  0.001	 34.300	 98.961	 -0.085
42244	  0.058	 -0.261	  0.238	  0.180	 -0.050	 -9.816	 -0.002	  0.001	  0.001	 34.300	 98.968	 -0.721
42294	  0.061	 -0.254	  0.238	  0.167	 -0.051	 -9.824	 -0.003	  0.002	  0.000	 34.300	 98.968	 -0.721
42344	  0.060	 -0.254	  0.238	  0.177	 -0.044	 -9.820	 -0.003	  0.002	  0.001	 34.300	 98.968	 -0.721
42394	  0.059	 -0.261	  0.237	  0.200	 -0.035	 -9.813	 -0.004	  0.002	  0.002	 34.300	 98.949	  1.005
42444	  0.061	 -0.257	  0.235	  0.182	  0.028	 -9.816	 -0.003	  0.002	  0.002	 34.300	 98.961	 -0.085
42494	  0.059	 -0.261	  0.237	  0.122	 -0.113	 -9.860	 -0.004	  0.004	  0.001	 34.300	 98.961	 -0.085
42544	  0.061	 -0.262	  0.236	  0.167	 -0.031	 -9.845	 -0.004	  0.004	  0.001	 34.300	 98.956	  0.369
42594	  0.059	 -0.261	  0.238	  0.210	 -0.028	 -9.809	 -0.003	  0.002	  0.002	 34.300	 98.972	 -1.082
42644	  0.059	 -0.258	  0.230	  0.186	 -0.019	 -9.877	 -0.003	  0.004	  0.000	 34.300	 98.956	  0.369
42694	  0.060	 -0.260	  0.240	  0.194	 -0.045	 -9.835	 -0.003	  0.001	  0.001	 34.300	 98.956	  0.369
42744	  0.060	 -0.262	  0.239	  0.210	 -0.035	 -9.853	 -0.004	  0.003	  0.001	 34.300	 98.961	 -0.085
42794	  0.059	 -0.262	  0.235	  0.193	 -0.045	 -9.826	 -0.003	  0.001	  0.001	 34.300	 98.956	  0.369
42844	  0.062	 -0.259	  0.238	  0.181	 -0.059	 -9.819	 -0.003	  0.002	  0.000	 34.300	 98.956	  0.369
42894	  0.060	 -0.259	  0.243	  0.186	 -0.059	 -9.856	 -0.004	  0.002	  0.001	 34.300	 98.949	  1.005
42944	  0.060	 -0.263	  0.239	  0.193	 -0.029	 -9.836	 -0.004	  0.001	  0.002	 34.300	 98.972	 -1.082
42994	  0.060	 -0.254	  0.236	  0.201	 -0.056	 -9.820	 -0.003	  0.001	  0.001	 34.300	 98.945	  1.368
43044	  0.056	 -0.262	  0.240	  0.203	 -0.045	 -9.831	 -0.003	  0.002	  0.001	 34.300	 98.961	 -0.085
43094	  0.062	 -0.258	  0.236	  0.209	 -0.052	 -9.773	 -0.003	  0.002	  0.002	 34.300	 98.961	 -0.085
43144	  0.060	 -0.264	  0.230	  0.200	 -0.027	 -9.801	 -0.004	  0.001	  0.001	 34.300	 98.972	 -1.082
43194	  0.060	 -0.260	  0.238	  0.199	 -0.035	 -9.820	 -0.005	  0.002	  0.001	 34.300	 98.956	  0.369
43244	  0.061	 -0.260	  0.237	  0.203	 -0.035	 -9.808	 -0.004	  0.002	  0.000	 34.300	 98.961	 -0.085
43294	  0.059	 -0.261	  0.231	  0.182	 -0.024	 -9.857	 -0.003	  0.002	  0.001	 34.300	 98.956	  0.369
43344	  0.055	 -0.248	  0.238	  0.196	 -0.030	 -9.841	 -0.004	  0.002	  0.001	 34.300	 98.972	 -1.082
43394	  0.059	 -0.262	  0.235	  0.187	 -0.036	 -9.826	 -0.004	  0.003	  0.002	 34.300	 98.956	  0.369
43444	  0.060	 -0.261	  0.237	  0.208	 -0.052	 -9.819	 -0.003	  0.003	  0.001	 34.300	 98.961	 -0.085
43494	  0.061	 -0.262	  0.231	  0.212	 -0.026	 -9.805	 -0.003	  0.003	  0.002	 34.300	 98.952	  0.732
43543	  0.061	 -0.255	  0.237	  0.227	 -0.048	 -9.796	 -0.003	  0.001	  0.001	 34.300	 98.945	  1.368
43593	  0.060	 -0.260	  0.229	  0.190	 -0.034	 -9.834	 -0.003	  0.002	  0.001	 34.300	 98.956	  0.369
43643	  0.057	 -0.259	  0.239	  0.200	 -0.055	 -9.855	 -0.002	  0.003	  0.002	 34.300	 98.949	  1.005
43693	  0.060	 -0.251	  0.237	  0.186	 -0.009	 -9.846	 -0.005	  0.001	  0.000	 34.300	 98.968	 -0.721
43743	  0.062	 -0.262	  0.239	  0.199	 -0.053	 -9.802	 -0.003	  0.002	  0.001	 34.300	 98.961	 -0.085
43793	  0.059	 -0.261	  0.230	  0.181	 -0.025	 -9.835	 -0.004	  0.002	  0.001	 34.300	 98.961	 -0.085
43843	  0.058	 -0.257	  0.232	  0.188	 -0.047	 -9.844	 -0.004	  0.003	 -0.000	 34.300	 98.961	 -0.085
43893	  0.061	 -0.264	  0.235	  0.218	 -0.026	 -9.844	 -0.004	  0.002	  0.002	 34.300	 98.956	  0.369
43943	  0.056	 -0.260	  0.238	  0.205	 -0.039	 -9.833	 -0.004	  0.003	  0.001	 34.300	 98.961	 -0.085
43993	  0.059	 -0.260	  0.236	  0.182	 -0.046	 -9.832	 -0.003	  0.003	  0.001	 34.300	 98.961	 -0.085
44043	  0.059	 -0.259	  0.236	  0.181	 -0.055	 -9.825	 -0.003	  0.003	  0.002	 34.300	 98.968	 -0.721
44093	  0.060	 -0.256	  0.236	  0.210	 -0.049	 -9.854	 -0.004	  0.003	  0.001	 34.300	 98.972	 -1.082
44143	  0.058	 -0.250	  0.239	  0.194	 -0.031	 -9.785	 -0.003	  0.003	  0.001	 34.300	 98.945	  1.368
44193	  0.060	 -0.258	  0.237	  0.189	 -0.045	 -9.803	 -0.004	  0.002	  0.001	 34.300	 98.972	 -1.082
44243	  0.058	 -0.247	  0.241	  0.207	 -0.043	 -9.833	 -0.004	  0.001	  0.001	 34.300	 98.956	  0.369
44293	  0.059	 -0.258	  0.238	  0.203	 -0.023	 -9.845	 -0.003	  0.002	  0.001	 34.300	 98.961	 -0.085
44343	  0.061	 -0.263	  0.236	  0.200	 -0.031	 -9.806	 -0.004	  0.003	 -0.000	 34.300	 98.956	  0.369
44393	  0.062	 -0.261	  0.238	  0.209	 -0.046	 -9.793	 -0.004	  0.002	  0.000	 34.300	 98.956	  0.369
44443	  0.061	 -0.261	  0.239	  0.200	 -0.010	 -9.859	 -0.003	  0.002	  0.000	 34.300	 98.956	  0.369
44493	  0.059	 -0.258	  0.239	  0.215	 -0.063	 -9.841	 -0.004	  0.002	  0.002	 34.300	 98.968	 -0.721
44543	  0.058	 -0.260	  0.237	  0.211	 -0.037	 -9.859	 -0.004	  0.003	  0.001	 34.300	 98.961	 -0.085
44593	  0.058	 -0.262	  0.240	  0.215	 -0.052	 -9.820	 -0.004	  0.003	  0.001	 34.300	 98.956	  0.369
44643	  0.059	 -0.261	  0.237	  0.187	 -0.060	 -9.828	 -0.004	  0.002	  0.001	 34.300	 98.956	  0.369
44693	  0.059	 -0.262	  0.233	  0.196	 -0.048	 -9.852	 -0.004	  0.002	  0.001	 34.300	 98.972	 -1.082
44743	  0.062	 -0.262	  0.239	  0.192	 -0.050	 -9.778	 -0.004	  0.002	  0.001	 34.300	 98.956	  0.369
44793	  0.062	 -0.261	  0.237	  0.209	 -0.039	 -9.793	 -0.004	  0.003	  0.000	 34.300	 98.961	 -0.085
44843	  0.059	 -0.258	  0.237	  0.179	 -0.067	 -9.818	 -0.003	  0.002	  0.002	 34.300	 98.961	 -0.085
44893	  0.061	 -0.260	  0.238	  0.227	 -0.005	 -9.835	 -0.003	  0.003	  0.001	 34.300	 98.972	 -1.082
44943	  0.017	 -0.274	  0.254	  0.313	 -0.074	 -9.792	 -0.002	  0.000	  0.000	 34.300	 98.956	  0.369
44993	  0.053	 -0.263	  0.238	  0.265	  0.012	 -9.749	 -0.002	  0.002	  0.002	 34.300	 98.945	  1.368
45043	  0.049	 -0.265	  0.245	  0.174	 -0.031	 -9.793	 -0.002	  0.001	  0.001	 34.300	 98.945	  1.368
45093	  0.052	 -0.262	  0.242	  0.194	 -0.039	 -9.823	 -0.004	  0.002	  0.002	 34.300	 98.956	  0.369
45143	  0.054	 -0.243	  0.240	  0.206	 -0.030	 -9.833	 -0.004	  0.002	  0.001	 34.300	 98.961	 -0.085
45193	  0.054	 -0.256	  0.235	  0.203	 -0.031	 -9.833	 -0.003	  0.003	  0.001	 34.300	 98.961	 -0.085
45243	  0.054	 -0.244	  0.241	  0.192	 -0.033	 -9.811	 -0.003	  0.001	  0.001	 34.300	 98.961	 -0.085
45293	  0.053	 -0.257	  0.240	  0.182	 -0.038	 -9.794	 -0.003	  0.003	  0.001	 34.300	 98.961	 -0.085
45343	  0.052	 -0.260	  0.239	  0.214	 -0.042	 -9.809	 -0.004	  0.002	  0.001	 34.300	 98.961	 -0.085
45393	  0.056	 -0.260	  0.239	  0.202	 -0.023	 -9.821	 -0.004	  0.003	  0.002	 34.300	 98.968	 -0.721
45443	  0.056	 -0.255	  0.239	  0.211	 -0.048	 -9.829	 -0.004	  0.003	  0.001	 34.300	 98.956	  0.369
45493	  0.053	 -0.257	  0.240	  0.212	 -0.040	 -9.808	 -0.004	  0.002	  0.001	 34.300	 98.961	 -0.085
45543	  0.056	 -0.257	  0.239	  0.216	 -0.012	 -9.840	 -0.002	  0.003	  0.002	 34.300	 98.956	  0.369
45593	  0.053	 -0.257	  0.238	  0.210	 -0.044	 -9.825	 -0.003	  0.002	  0.001	 34.300	 98.972	 -1.082
45643	  0.028	 -0.264	  0.242	  0.159	  0.122	 -9.806	 -0.002	  0.003	  0.001	 34.300	 98.968	 -0.721
45693	  0.056	 -0.254	  0.233	  0.244	 -0.156	 -9.830	 -0.006	  0.003	  0.000	 34.300	 98.972	 -1.082
45743	  0.054	 -0.263	  0.240	  0.099	 -0.254	 -9.842	 -0.002	  0.002	 -0.003	 34.300	 98.956	  0.369
45793	  0.053	 -0.257	  0.226	  0.056	 -0.076	 -9.872	 -0.005	  0.005	  0.002	 34.300	 98.956	  0.369
45843	  0.052	 -0.252	  0.231	  0.208	 -0.058	 -9.829	 -0.005	  0.004	  0.001	 34.300	 98.972	 -1.082
45892	  0.053	 -0.256	  0.232	  0.191	 -0.021	 -9.805	 -0.004	  0.002	  0.002	 34.300	 98.961	 -0.085
45942	  0.051	 -0.254	  0.227	  0.232	 -0.041	 -9.815	 -0.004	  0.002	  0.001	 34.300	 98.968	 -0.721
45992	  0.053	 -0.255	  0.227	  0.222	 -0.029	 -9.814	 -0.003	  0.002	  0.001	 34.300	 98.956	  0.369
46042	  0.052	 -0.252	  0.232	  0.190	 -0.055	 -9.837	 -0.003	  0.002	  0.001	 34.300	 98.949	  1.005
46092	  0.054	 -0.247	  0.231	  0.219	 -0.044	 -9.798	 -0.003	  0.002	  0.001	 34.300	 98.956	  0.369
46142	  0.054	 -0.257	  0.229	  0.197	 -0.039	 -9.802	 -0.004	  0.002	  0.002	 34.300	 98.956	  0.369
46193	  0.051	 -0.254	  0.232	  0.194	 -0.021	 -9.821	 -0.003	  0.002	  0.001	 34.300	 98.968	 -0.721
46243	  0.053	 -0.254	  0.231	  0.185	 -0.028	 -9.803	 -0.004	  0.002	  0.002	 34.300	 98.968	 -0.721
46293	  0.052	 -0.250	  0.229	  0.220	 -0.043	 -9.787	 -0.003	  0.001	  0.002	 34.300	 98.968	 -0.721
46343	  0.052	 -0.255	  0.232	  0.187	 -0.033	 -9.856	 -0.004	  0.002	  0.001	 34.300	 98.956	  0.369
46393	  0.051	 -0.258	  0.233	  0.184	 -0.040	 -9.814	 -0.003	  0.002	  0.000	 34.300	 98.956	  0.369
46443	  0.052	 -0.257	  0.233	  0.163	 -0.046	 -9.847	 -0.004	  0.002	  0.001	 34.300	 98.961	 -0.085
46493	  0.053	 -0.252	  0.230	  0.198	 -0.061	 -9.827	 -0.003	  0.001	  0.000	 34.300	 98.956	  0.369
46543	  0.055	 -0.253	  0.223	  0.219	 -0.045	 -9.811	 -0.003	  0.003	  0.001	 34.300	 98.952	  0.732
46593	  0.051	 -0.257	  0.234	  0.190	 -0.028	 -9.769	 -0.003	  0.002	  0.001	 34.300	 98.956	  0.369
46643	  0.050	 -0.255	  0.224	  0.188	 -0.056	 -9.801	 -0.003	  0.002	 -0.001	 34.300	 98.968	 -0.721
46693	  0.054	 -0.253	  0.234	  0.203	 -0.048	 -9.789	 -0.002	  0.002	  0.001	 34.300	 98.972	 -1.082
46743	  0.051	 -0.255	  0.233	  0.195	 -0.042	 -9.835	 -0.004	  0.003	  0.003	 34.300	 98.972	 -1.082
46793	  0.052	 -0.255	  0.230	  0.213	 -0.021	 -9.815	 -0.004	  0.001	  0.002	 34.300	 98.961	 -0.085
46843	  0.051	 -0.254	  0.232	  0.166	 -0.013	 -9.844	 -0.004	  0.002	  0.001	 34.300	 98.945	  1.368
46892	  0.053	 -0.255	  0.232	  0.193	 -0.036	 -9.816	 -0.004	  0.001	  0.001	 34.300	 98.961	 -0.085
46942	  0.054	 -0.254	  0.231	  0.198	 -0.049	 -9.849	 -0.004	  0.002	  0.002	 34.300	 98.961	 -0.085
46992	  0.053	 -0.251	  0.233	  0.206	 -0.033	 -9.796	 -0.003	  0.003	  0.000	 34.300	 98.956	  0.369
47042	  0.054	 -0.258	  0.233	  0.208	 -0.054	 -9.803	 -0.004	  0.003	 -0.000	 34.300	 98.972	 -1.082
47092	  0.051	 -0.257	  0.226	  0.190	 -0.043	 -9.829	 -0.004	  0.002	  0.001	 34.300	 98.961	 -0.085
47143	  0.054	 -0.244	  0.230	  0.216	 -0.033	 -9.846	 -0.003	  0.001	  0.001	 34.300	 98.972	 -1.082
47192	  0.053	 -0.253	  0.231	  0.183	 -0.037	 -9.823	 -0.002	  0.002	  0.001	 34.300	 98.961	 -0.085
47243	  0.054	 -0.260	  0.232	  0.192	 -0.029	 -9.805	 -0.003	  0.001	  0.001	 34.300	 98.956	  0.369
47292	  0.052	 -0.256	  0.232	  0.218	 -0.036	 -9.806	 -0.003	  0.002	  0.000	 34.300	 98.956	  0.369
47343	  0.055	 -0.257	  0.232	  0.221	 -0.044	 -9.834	 -0.004	  0.003	  0.001	 34.300	 98.945	  1.368
47392	  0.054	 -0.258	  0.229	  0.208	 -0.038	 -9.848	 -0.004	  0.002	  0.001	 34.300	 98.972	 -1.082
47442	  0.054	 -0.262	  0.232	  0.191	 -0.039	 -9.856	 -0.004	  0.002	  0.001	 34.300	 98.956	  0.369
47492	  0.053	 -0.257	  0.231	  0.196	 -0.037	 -9.792	 -0.003	  0.002	  0.001	 34.300	 98.961	 -0.085
47542	  0.052	 -0.257	  0.231	  0.181	 -0.042	 -9.825	 -0.004	  0.001	  0.002	 34.300	 98.968	 -0.721
47593	  0.054	 -0.243	  0.233	  0.198	 -0.031	 -9.811	 -0.003	  0.003	  0.002	 34.300	 98.961	 -0.085
47642	  0.053	 -0.259	  0.234	  0.222	 -0.035	 -9.820	 -0.004	  0.002	  0.002	 34.300	 98.961	 -0.085
47693	  0.053	 -0.255	  0.226	  0.208	 -0.043	 -9.846	 -0.004	  0.003	  0.001	 34.300	 98.972	 -1.082
47743	  0.053	 -0.256	  0.232	  0.184	 -0.068	 -9.834	 -0.003	  0.003	  0.000	 34.300	 98.956	  0.369
47793	  0.052	 -0.256	  0.228	  0.216	 -0.035	 -9.816	 -0.004	  0.003	  0.002	 34.300	 98.956	  0.369
47843	  0.052	 -0.252	  0.234	  0.216	 -0.042	 -9.834	 -0.004	  0.002	  0.000	 34.300	 98.961	 -0.085
47893	  0.053	 -0.256	  0.227	  0.194	 -0.054	 -9.846	 -0.003	  0.003	  0.001	 34.300	 98.972	 -1.082
47943	  0.049	 -0.254	  0.232	  0.217	 -0.025	 -9.810	 -0.003	  0.002	  0.001	 34.300	 98.945	  1.368
47993	  0.051	 -0.252	  0.232	  0.188	 -0.033	 -9.833	 -0.004	  0.003	  0.001	 34.300	 98.961	 -0.085
48043	  0.053	 -0.247	  0.224	  0.210	 -0.028	 -9.809	 -0.003	  0.002	  0.001	 34.300	 98.968	 -0.721
48093	  0.054	 -0.250	  0.223	  0.187	 -0.044	 -9.841	 -0.004	  0.001	  0.002	 34.300	 98.956	  0.369
48143	  0.054	 -0.243	  0.228	  0.216	 -0.059	 -9.806	 -0.004	  0.002	  0.002	 34.300	 98.968	 -0.721
48193	  0.054	 -0.259	  0.232	  0.194	 -0.036	 -9.854	 -0.003	  0.002	  0.000	 34.300	 98.968	 -0.721
48243	  0.055	 -0.255	  0.229	  0.203	 -0.028	 -9.797	 -0.003	  0.002	 -0.001	 34.300	 98.961	 -0.085
48293	  0.053	 -0.254	  0.228	  0.205	 -0.016	 -9.817	 -0.003	  0.002	  0.001	 34.300	 98.961	 -0.085
48343	  0.052	 -0.241	  0.229	  0.180	 -0.035	 -9.794	 -0.004	  0.004	  0.001	 34.300	 98.961	 -0.085
48393	  0.052	 -0.258	  0.234	  0.168	 -0.049	 -9.852	 -0.004	  0.002	  0.001	 34.300	 98.961	 -0.085
48443	  0.052	 -0.256	  0.230	  0.200	 -0.025	 -9.809	 -0.004	  0.002	  0.000	 34.300	 98.956	  0.369
48493	  0.054	 -0.256	  0.233	  0.194	 -0.041	 -9.863	 -0.003	  0.002	 -0.000	 34.300	 98.968	 -0.721
48543	  0.052	 -0.253	  0.230	  0.193	 -0.047	 -9.828	 -0.003	  0.001	  0.002	 34.300	 98.949	  1.005
48593	  0.053	 -0.256	  0.230	  0.205	 -0.046	 -9.818	 -0.003	  0.002	  0.001	 34.300	 98.945	  1.368
48643	  0.053	 -0.253	  0.228	  0.204	 -0.063	 -9.818	 -0.004	  0.003	  0.000	 34.300	 98.949	  1.005
48693	  0.053	 -0.257	  0.232	  0.233	 -0.049	 -9.818	 -0.004	  0.002	  0.002	 34.300	 98.956	  0.369
48743	  0.054	 -0.257	  0.232	  0.198	 -0.046	 -9.809	 -0.004	  0.002	  0.001	 34.300	 98.956	  0.369
48793	  0.052	 -0.250	  0.228	  0.193	 -0.048	 -9.870	 -0.004	  0.001	  0.001	 34.300	 98.956	  0.369
48843	  0.053	 -0.255	  0.233	  0.219	 -0.043	 -9.817	 -0.003	  0.003	 -0.001	 34.300	 98.956	  0.369
48893	  0.054	 -0.256	  0.234	  0.185	 -0.071	 -9.830	 -0.003	  0.003	  0.001	 34.300	 98.961	 -0.085
48943	  0.053	 -0.255	  0.233	  0.192	 -0.026	 -9.816	 -0.004	  0.003	  0.001	 34.300	 98.956	  0.369
48993	  0.053	 -0.254	  0.230	  0.193	 -0.042	 -9.816	 -0.004	  0.003	  0.000	 34.300	 98.956	  0.369
49043	  0.054	 -0.256	  0.228	  0.211	 -0.017	 -9.807	 -0.003	  0.001	 -0.000	 34.300	 98.972	 -1.082
49093	  0.053	 -0.257	  0.232	  0.196	 -0.052	 -9.816	 -0.004	  0.002	  0.003	 34.300	 98.972	 -1.082
49143	  0.055	 -0.251	  0.226	  0.201	 -0.040	 -9.830	 -0.003	  0.002	  0.001	 34.300	 98.961	 -0.085
49193	  0.054	 -0.257	  0.230	  0.202	 -0.036	 -9.767	 -0.003	  0.004	  0.001	 34.300	 98.956	  0.369
49243	  0.050	 -0.253	  0.226	  0.205	 -0.016	 -9.830	 -0.004	  0.002	  0.001	 34.300	 98.961	 -0.085
49293	  0.053	 -0.255	  0.232	  0.221	 -0.037	 -9.747	 -0.004	  0.003	  0.002	 34.300	 98.961	 -0.085
49343	  0.053	 -0.252	  0.224	  0.190	 -0.029	 -9.840	 -0.004	  0.003	  0.002	 34.300	 98.968	 -0.721
49393	  0.053	 -0.258	  0.227	  0.211	 -0.042	 -9.823	 -0.003	  0.002	 -0.001	 34.300	 98.961	 -0.085
49443	  0.052	 -0.256	  0.231	  0.193	 -0.038	 -9.809	 -0.005	  0.003	  0.001	 34.300	 98.961	 -0.085
49492	  0.053	 -0.253	  0.230	  0.192	 -0.042	 -9.795	 -0.003	  0.002	  0.000	 34.300	 98.968	 -0.721
49542	  0.054	 -0.255	  0.233	  0.203	 -0.051	 -9.836	 -0.004	  0.002	  0.001	 34.300	 98.956	  0.369
49592	  0.051	 -0.259	  0.234	  0.204	 -0.017	 -9.817	 -0.004	  0.002	  0.001	 34.300	 98.961	 -0.085
49643	  0.055	 -0.252	  0.231	  0.195	 -0.025	 -9.832	 -0.004	  0.002	  0.002	 34.300	 98.972	 -1.082
49692	  0.052	 -0.246	  0.232	  0.211	 -0.022	 -9.806	 -0.004	  0.002	  0.000	 34.300	 98.949	  1.005
49742	  0.054	 -0.255	  0.231	  0.224	 -0.062	 -9.779	 -0.003	  0.003	  0.002	 34.300	 98.961	 -0.085
49792	  0.053	 -0.255	  0.228	  0.197	 -0.052	 -9.836	 -0.003	  0.002	  0.000	 34.300	 98.956	  0.369
49842	  0.051	 -0.253	  0.231	  0.211	 -0.023	 -9.852	 -0.004	  0.002	  0.000	 34.300	 98.956	  0.369
49892	  0.049	 -0.245	  0.232	  0.184	 -0.027	 -9.861	 -0.003	  0.002	  0.001	 34.300	 98.968	 -0.721
49942	  0.053	 -0.257	  0.232	  0.239	 -0.032	 -9.802	 -0.003	  0.002	  0.001	 34.300	 98.949	  1.005
49992	  0.054	 -0.253	  0.226	  0.182	 -0.053	 -9.821	 -0.004	  0.001	  0.002	 34.300	 98.956	  0.369
50042	  0.054	 -0.254	  0.231	  0.226	 -0.032	 -9.827	 -0.004	  0.002	  0.002	 34.300	 98.956	  0.369
50092	  0.051	 -0.255	  0.229	  0.188	 -0.018	 -9.847	 -0.003	  0.002	  0.001	 34.300	 98.961	 -0.085
50142	  0.053	 -0.254	  0.234	  0.195	 -0.052	 -9.793	 -0.004	  0.002	  0.001	 34.300	 98.961	 -0.085
50192	  0.055	 -0.256	  0.231	  0.197	 -0.026	 -9.841	 -0.003	  0.002	  0.001	 34.300	 98.968	 -0.721
50242	  0.053	 -0.256	  0.231	  0.212	 -0.071	 -9.856	 -0.003	  0.003	  0.001	 34.300	 98.961	 -0.085
50292	  0.051	 -0.254	  0.232	  0.185	 -0.019	 -9.805	 -0.004	  0.002	  0.000	 34.300	 98.956	  0.369
50342	  0.054	 -0.255	  0.231	  0.197	 -0.056	 -9.805	 -0.002	  0.002	  0.001	 34.300	 98.961	 -0.085
50392	  0.053	 -0.257	  0.233	  0.185	 -0.046	 -9.788	 -0.004	  0.003	  0.000	 34.300	 98.961	 -0.085
50442	  0.054	 -0.256	  0.230	  0.210	 -0.013	 -9.819	 -0.003	  0.002	  0.001	 34.300	 98.956	  0.369
50492	  0.052	 -0.259	  0.232	  0.174	 -0.021	 -9.830	 -0.004	  0.002	  0.001	 34.300	 98.956	  0.369
